;pos_time;latitude;longitude;altitude;alt_time;pitch;roll;yaw
0;1673302060.2910063;47.1306425;7.24062;-0.023000001907348633;1673302060.2949114;0.027160873636603355;-0.14919927716255188;90.58057403564453
1;1673302060.4864485;47.1306425;7.2406198999999996;-0.024000000208616257;1673302060.4893546;-0.0967092365026474;0.027849586680531502;90.43891143798828
2;1673302060.685687;47.1306425;7.2406198999999996;-0.023000001907348633;1673302060.6905315;-0.15090151131153107;-0.27344128489494324;90.57989501953125
3;1673302060.8829267;47.1306425;7.2406198999999996;-0.023000001907348633;1673302060.8858445;-0.22429606318473816;0.0002417398354737088;90.591796875
4;1673302061.0802162;47.1306425;7.2406198999999996;-0.02500000037252903;1673302061.083143;-0.06637518852949142;-0.09591283649206161;90.5988540649414
5;1673302061.2784803;47.1306425;7.2406198999999996;-0.026000000536441803;1673302061.281409;0.195890873670578;0.06160624697804451;90.40182495117188
6;1673302061.4778655;47.1306425;7.2406198999999996;-0.02500000037252903;1673302061.4807925;0.07352305948734283;-0.2927870750427246;90.6781234741211
7;1673302061.6790366;47.1306425;7.2406198999999996;-0.027000000700354576;1673302061.6810071;0.007116883527487516;0.005051000975072384;90.45121765136719
8;1673302061.8764284;47.1306425;7.2406198999999996;-0.004000000189989805;1673302061.880338;0.059379808604717255;-1.1436262130737305;90.68128967285156
9;1673302062.0768292;47.1306425;7.2406198999999996;-0.007000000216066837;1673302062.0787446;-0.07687566429376602;-1.144768238067627;90.54918670654297
10;1673302062.2760215;47.1306425;7.24062;-0.01100000087171793;1673302062.2789505;0.09031722694635391;-1.0406612157821655;90.34153747558594
11;1673302062.4869704;47.1306425;7.24062;-0.012000000104308128;1673302062.4908864;0.14162880182266235;-0.9035795331001282;90.34368896484375
12;1673302062.692697;47.1306425;7.24062;-0.010000000707805157;1673302062.695602;-0.14096695184707642;-0.9453829526901245;90.53900909423828
13;1673302062.8914857;47.1306425;7.2406198999999996;-0.010000000707805157;1673302062.894403;0.1948198825120926;-1.422633171081543;90.12398529052734
14;1673302063.0895455;47.1306425;7.2406198999999996;-0.009000000543892384;1673302063.0929072;0.06946592032909393;-1.5094802379608154;90.27557373046875
15;1673302063.2918587;47.1306425;7.2406198999999996;0.0020000000949949026;1673302063.2967393;0.1834876388311386;-1.5668582916259766;90.05235290527344
16;1673302063.512523;47.1306425;7.2406198999999996;0.003000000026077032;1673302063.5154512;0.29794707894325256;-1.6361154317855835;90.15029907226562
17;1673302063.723865;47.1306425;7.2406198999999996;-0.0010000000474974513;1673302063.7277696;0.1252826750278473;-1.6058233976364136;89.89226531982422
18;1673302063.928436;47.1306425;7.240619799999999;-0.003000000026077032;1673302063.9337208;0.33398234844207764;-0.8223866820335388;89.2666015625
19;1673302064.132607;47.130642599999995;7.2406198999999996;-0.004000000189989805;1673302064.1355364;0.43550005555152893;-0.9836037755012512;89.53964233398438
20;1673302064.3176548;47.130642699999996;7.2406198999999996;0.0;1673302064.3225832;1.4772905111312866;-0.8748640418052673;88.36952209472656
21;1673302064.513653;47.1306428;7.2406198999999996;0.007000000216066837;1673302064.5175567;1.6549832820892334;-1.1332873106002808;87.40320587158203
22;1673302064.7143478;47.130643;7.2406198999999996;0.00800000037997961;1673302064.7172546;1.8977084159851074;-0.8187277317047119;85.86367797851562
23;1673302064.909436;47.1306434;7.240619499999999;0.0;1673302064.9124746;0.0880378857254982;-0.6593607664108276;74.73890686035156
24;1673302065.107581;47.1306441;7.2406187;0.004000000189989805;1673302065.110581;-0.29213225841522217;1.3386293649673462;67.71125793457031
25;1673302065.3036861;47.1306453;7.2406172;0.004000000189989805;1673302065.3075905;-0.4120880961418152;0.7872545719146729;69.09210968017578
26;1673302065.5005722;47.130646999999996;7.2406146;0.017000000923871994;1673302065.5047605;-1.9568852186203003;3.7356035709381104;76.65381622314453
27;1673302065.7129662;47.1306492;7.2406111;0.036000002175569534;1673302065.716854;-4.939764022827148;9.644314765930176;78.71561431884766
28;1673302065.9305768;47.130651799999995;7.240606799999999;0.06200000271201134;1673302065.9335206;-7.367559909820557;12.352239608764648;78.86994171142578
29;1673302066.127435;47.1306547;7.240602;0.09600000083446503;1673302066.1294339;-8.716501235961914;13.635562896728516;79.0257797241211
30;1673302066.315666;47.130657799999994;7.2405968;0.14800000190734863;1673302066.319668;-10.239858627319336;14.755509376525879;79.16276550292969
31;1673302066.516705;47.130660899999995;7.2405915;0.21000000834465027;1673302066.5206604;-11.659153938293457;16.307024002075195;79.20564270019531
32;1673302066.7101274;47.130663999999996;7.2405862;0.2880000174045563;1673302066.7130427;-13.04980182647705;18.031347274780273;79.16743469238281
33;1673302066.9042094;47.1306669;7.2405811;0.3830000162124634;1673302066.908114;-14.46533203125;19.43094825744629;79.16140747070312
34;1673302067.100757;47.1306696;7.2405763;0.49400001764297485;1673302067.1036685;-15.997014045715332;20.751283645629883;79.2730941772461
35;1673302067.2966504;47.130672;7.240571999999999;0.6220000386238098;1673302067.3005424;-17.49784278869629;22.266071319580078;79.4081802368164
36;1673302067.4932039;47.1306742;7.2405684;0.7630000114440918;1673302067.496188;-19.136165618896484;23.805675506591797;79.57951354980469
37;1673302067.6894019;47.130676;7.2405653999999995;0.9190000295639038;1673302067.6923263;-20.70181655883789;25.120882034301758;79.77953338623047
38;1673302067.8866692;47.130677299999995;7.2405631999999995;1.0950000286102295;1673302067.8905957;-22.4461727142334;26.68781089782715;80.01565551757812
39;1673302068.0815814;47.1306781;7.240561899999999;1.287000060081482;1673302068.0854745;-24.210973739624023;27.973886489868164;80.38347625732422
40;1673302068.2772784;47.1306784;7.2405615;1.4830000400543213;1673302068.2807643;-26.135055541992188;29.317283630371094;80.80899047851562
41;1673302068.4745824;47.1306782;7.240562;1.6820000410079956;1673302068.477512;-28.162521362304688;30.66326141357422;88.29388427734375
42;1673302068.6708963;47.1306772;7.2405637;1.8850001096725464;1673302068.6748185;-33.3921012878418;28.78531837463379;88.31342315673828
43;1673302068.8683069;47.1306757;7.2405668;2.0930001735687256;1673302068.871235;-34.47490692138672;30.83191680908203;88.96035766601562
44;1673302069.0735404;47.1306735;7.2405712;2.31000018119812;1673302069.0764713;-36.19977951049805;32.59148025512695;89.53331756591797
45;1673302069.2707798;47.130670699999996;7.240577;2.5300002098083496;1673302069.2746682;-35.37307357788086;32.586387634277344;90.59710693359375
46;1673302069.4696336;47.1306673;7.240583699999999;2.745000123977661;1673302069.474514;-30.321632385253906;29.97260284423828;92.16712188720703
47;1673302069.6703641;47.1306636;7.2405906;2.943000078201294;1673302069.6752367;-29.181011199951172;18.39690399169922;112.04681396484375
48;1673302069.8685377;47.1306596;7.2405971;3.139000177383423;1673302069.8714693;-31.837839126586914;7.273205757141113;135.32666015625
49;1673302070.0675588;47.1306556;7.240602699999999;3.326000213623047;1673302070.0704978;-25.0095272064209;3.5003323554992676;138.50709533691406
50;1673302070.2667034;47.130652;7.2406073;3.508000135421753;1673302070.2715893;-20.914152145385742;1.7111165523529053;136.97084045410156
51;1673302070.468735;47.130648799999996;7.2406109;3.693000078201294;1673302070.471664;-17.802236557006836;-0.17174316942691803;136.59913635253906
52;1673302070.666947;47.130646299999995;7.2406133;3.874000072479248;1673302070.6708639;-17.02565574645996;-1.823630690574646;136.54483032226562
53;1673302070.8752072;47.1306446;7.2406147999999995;4.056000232696533;1673302070.8791058;-17.889854431152344;-2.8746275901794434;136.40902709960938
54;1673302071.0903351;47.1306437;7.2406155;4.246000289916992;1673302071.0932648;-20.292131423950195;-3.3871207237243652;136.39859008789062
55;1673302071.2985115;47.1306434;7.2406158;4.434000015258789;1673302071.3014462;-22.94723129272461;-3.968010663986206;136.9893798828125
56;1673302071.4948344;47.1306435;7.240615699999999;4.629000186920166;1673302071.4977515;-25.52727699279785;-3.2111318111419678;136.93568420410156
57;1673302071.6970277;47.1306438;7.240615399999999;4.826000213623047;1673302071.7038589;-28.086708068847656;-1.4920415878295898;136.41282653808594
58;1673302071.926919;47.1306441;7.240615399999999;5.028000354766846;1673302071.9298222;-29.302005767822266;-1.9708311557769775;136.91500854492188
59;1673302072.1183994;47.130644499999995;7.2406155;5.234000205993652;1673302072.1213112;-29.83112907409668;-2.6982829570770264;137.55001831054688
60;1673302072.3107808;47.1306448;7.240615699999999;5.443000316619873;1673302072.314893;-30.26136589050293;-0.12259267270565033;136.84181213378906
61;1673302072.5053604;47.1306449;7.240615999999999;5.651000499725342;1673302072.5082858;-30.349178314208984;0.09166155755519867;136.81797790527344
62;1673302072.6996903;47.1306448;7.2406165;5.853000164031982;1673302072.7026176;-29.62669563293457;-1.5036412477493286;137.46231079101562
63;1673302072.8980453;47.1306446;7.240616999999999;6.054000377655029;1673302072.9009867;-28.840042114257812;-0.25862619280815125;136.9242401123047
64;1673302073.0963664;47.1306443;7.2406174;6.258000373840332;1673302073.0992932;-28.89558219909668;0.1713748425245285;136.55482482910156
65;1673302073.2936504;47.130644;7.240617899999999;6.464000225067139;1673302073.2975483;-27.803604125976562;-1.9501068592071533;137.3100128173828
66;1673302073.4958193;47.1306437;7.2406184;6.673000335693359;1673302073.4987462;-27.235252380371094;-0.8994473814964294;137.00900268554688
67;1673302073.6921196;47.1306434;7.2406187;6.879000186920166;1673302073.6960232;-26.958232879638672;0.01807284541428089;136.6136016845703
68;1673302073.8903959;47.130643199999994;7.240619;7.080000400543213;1673302073.8933039;-27.00857162475586;-2.269498348236084;137.2826385498047
69;1673302074.0888267;47.1306431;7.2406191;7.279000282287598;1673302074.0917556;-26.454147338867188;-2.102858543395996;137.35882568359375
70;1673302074.28707;47.130643;7.240619199999999;7.4720001220703125;1673302074.2909772;-27.180986404418945;0.22942499816417694;136.5498809814453
71;1673302074.484807;47.130643;7.240619199999999;7.668000221252441;1673302074.4882853;-26.932893753051758;-1.8333549499511719;137.119384765625
72;1673302074.6840372;47.130643;7.240619199999999;7.865000247955322;1673302074.6875005;-27.464834213256836;-2.798421859741211;137.39935302734375
73;1673302074.9004073;47.130643;7.240619199999999;8.0600004196167;1673302074.9033353;-27.594419479370117;-0.2466644048690796;136.652587890625
74;1673302075.11147;47.130643;7.2406193;8.25100040435791;1673302075.1144009;-27.918869018554688;-1.2158361673355103;136.9371337890625
75;1673302075.3258507;47.130643;7.2406193;8.443000793457031;1673302075.3287814;-27.553569793701172;-2.7148637771606445;137.42800903320312
76;1673302075.515901;47.130643;7.2406194;8.635000228881836;1673302075.5197928;-27.930343627929688;-0.7527024745941162;136.76815795898438
77;1673302075.7131946;47.1306429;7.240619499999999;8.831000328063965;1673302075.7161353;-27.844654083251953;-0.47864532470703125;136.5655517578125
78;1673302075.9068856;47.1306429;7.2406196;9.027000427246094;1673302075.9108126;-27.61490249633789;-2.651545524597168;137.3368377685547
79;1673302076.1045685;47.1306429;7.2406197;9.223999977111816;1673302076.1074972;-27.659900665283203;-1.0141867399215698;136.89846801757812
80;1673302076.2980607;47.1306429;7.240619799999999;9.420000076293945;1673302076.30099;-27.84745216369629;0.18795627355575562;136.5426483154297
81;1673302076.5159879;47.1306429;7.2406198999999996;9.613000869750977;1673302076.5179415;-27.835899353027344;-2.1386916637420654;137.14268493652344
82;1673302076.7309058;47.1306428;7.2406198999999996;9.802000045776367;1673302076.7348106;-27.418882369995117;-1.8302383422851562;137.06915283203125
83;1673302076.9381778;47.1306428;7.24062;9.996000289916992;1673302076.9420745;-27.8438663482666;-0.2845931351184845;136.51666259765625
84;1673302077.1267838;47.130642699999996;7.2406201;10.204000473022461;1673302077.1306865;-27.000165939331055;-1.7121433019638062;137.00430297851562
85;1673302077.3308868;47.130642599999995;7.2406204999999995;10.503000259399414;1673302077.3338175;-27.346797943115234;-1.507609486579895;137.06875610351562
86;1673302077.5243182;47.1306424;7.240621;10.878000259399414;1673302077.527246;-30.271617889404297;-0.3401816785335541;136.7106170654297
87;1673302077.71777;47.130641999999995;7.2406216;11.258000373840332;1673302077.7216814;-27.327848434448242;-1.0011752843856812;136.83145141601562
88;1673302077.9121308;47.1306416;7.2406220999999995;11.643000602722168;1673302077.9150589;-26.09193229675293;-1.4712685346603394;137.01910400390625
89;1673302078.1065118;47.1306413;7.2406225;12.035000801086426;1673302078.1094391;-25.101587295532227;-0.9114425778388977;136.79771423339844
90;1673302078.3008683;47.1306411;7.2406228;12.429000854492188;1673302078.3047853;-24.953378677368164;-0.8267531991004944;136.74951171875
91;1673302078.4953697;47.130641;7.2406229;12.819000244140625;1673302078.498309;-24.769933700561523;-1.44236421585083;137.0262451171875
92;1673302078.6911342;47.130641;7.2406229;13.202000617980957;1673302078.6946268;-25.091894149780273;-1.52967369556427;137.095703125
93;1673302078.8864627;47.1306411;7.2406228;13.578001022338867;1673302078.8903708;-25.726064682006836;-0.5644515752792358;136.78086853027344
94;1673302079.0858357;47.1306413;7.2406225;13.949000358581543;1673302079.0907161;-26.478282928466797;-0.669286847114563;136.84136962890625
95;1673302079.284293;47.130641399999995;7.2406222;14.316000938415527;1673302079.2891874;-26.467426300048828;-2.1094698905944824;137.30868530273438
96;1673302079.4830146;47.1306416;7.240622;14.683000564575195;1673302079.4859438;-26.6904354095459;-0.7382554411888123;136.9115447998047
97;1673302079.7235975;47.1306416;7.240621699999999;15.052000999450684;1673302079.7265294;-27.274879455566406;-0.5452239513397217;136.736328125
98;1673302079.9363503;47.1306417;7.2406215;15.427000999450684;1673302079.9392798;-26.770475387573242;-2.302558422088623;137.30564880371094
99;1673302080.132155;47.1306417;7.240621399999999;15.79800033569336;1673302080.135072;-26.827404022216797;-2.0169198513031006;137.27999877929688
100;1673302080.3237026;47.1306418;7.240621399999999;16.16699981689453;1673302080.3266306;-26.937646865844727;0.051535751670598984;136.5724639892578
101;1673302080.5168731;47.1306419;7.2406213;16.53499984741211;1673302080.5198033;-27.00205421447754;-1.4876621961593628;137.09915161132812
102;1673302080.7093744;47.1306419;7.2406213;16.9060001373291;1673302080.7123032;-26.63393783569336;-2.305372476577759;137.41482543945312
103;1673302080.909642;47.1306419;7.2406212;17.2810001373291;1673302080.9135468;-26.679479598999023;-0.3646036684513092;136.78863525390625
104;1673302081.1318855;47.1306418;7.2406213;17.657001495361328;1673302081.136766;-26.868032455444336;-0.8253364562988281;136.91348266601562
105;1673302081.3579617;47.1306418;7.2406213;18.032001495361328;1673302081.3599136;-26.338449478149414;-2.379255771636963;137.4657440185547
106;1673302081.5346096;47.1306419;7.2406213;18.4060001373291;1673302081.5375297;-26.717294692993164;-0.5667394995689392;136.7830352783203
107;1673302081.7534208;47.1306419;7.2406212;18.777000427246094;1673302081.7573247;-26.849037170410156;-0.33582639694213867;136.6001739501953
108;1673302081.9505546;47.130641999999995;7.2406212;19.150001525878906;1673302081.9554217;-26.867218017578125;-2.071202039718628;137.16758728027344
109;1673302082.1405916;47.130641999999995;7.2406212;19.527000427246094;1673302082.142546;-26.49709129333496;-1.517698884010315;137.2034454345703
110;1673302082.3311124;47.130641999999995;7.2406212;19.904001235961914;1673302082.3350177;-26.969940185546875;-0.0591634102165699;136.57705688476562
111;1673302082.5248442;47.130641999999995;7.2406212;20.285001754760742;1673302082.527754;-26.589046478271484;-1.631657361984253;137.14393615722656
112;1673302082.7203574;47.130641999999995;7.2406212;20.668001174926758;1673302082.7233038;-26.569849014282227;-1.8899770975112915;137.2230224609375
113;1673302082.9201167;47.130641999999995;7.2406212;21.051000595092773;1673302082.9240212;-26.707731246948242;-0.16463138163089752;136.6237335205078
114;1673302083.116195;47.130641999999995;7.2406212;21.428001403808594;1673302083.1200984;-26.916481018066406;-1.1256259679794312;136.88632202148438
115;1673302083.312783;47.130642099999996;7.240621099999999;21.803001403808594;1673302083.316687;-26.663711547851562;-2.1524622440338135;137.3318634033203
116;1673302083.511271;47.130642099999996;7.240621099999999;22.183000564575195;1673302083.5141678;-26.7197265625;-0.6567472815513611;136.9345703125
117;1673302083.708651;47.130642099999996;7.240621099999999;22.562000274658203;1673302083.7125542;-26.898168563842773;-0.35579362511634827;136.64279174804688
118;1673302083.9070024;47.130641999999995;7.240621;22.942001342773438;1673302083.9099286;-26.61203956604004;-2.2933826446533203;137.3022918701172
119;1673302084.1052608;47.130641999999995;7.240621;23.327001571655273;1673302084.108182;-26.571962356567383;-1.3145010471343994;137.06884765625
120;1673302084.303972;47.130642099999996;7.2406209;23.709001541137695;1673302084.3069005;-27.078739166259766;-0.04624702036380768;136.59951782226562
121;1673302084.5351882;47.130642099999996;7.2406209;24.088001251220703;1673302084.540067;-26.887441635131836;-1.768123984336853;137.18238830566406
122;1673302084.7475786;47.1306422;7.2406209;24.47100067138672;1673302084.7505078;-26.765363693237305;-2.0430305004119873;137.25167846679688
123;1673302084.960529;47.1306422;7.240620799999999;24.85700035095215;1673302084.9634583;-26.856319427490234;0.0023369763512164354;136.6737060546875
124;1673302085.1674736;47.1306422;7.240620799999999;25.24100112915039;1673302085.1694374;-26.997751235961914;-1.2023171186447144;136.9532012939453
125;1673302085.3626451;47.1306422;7.240620799999999;25.62700080871582;1673302085.365574;-26.533525466918945;-2.238778591156006;137.37083435058594
126;1673302085.567126;47.1306422;7.240620799999999;26.012001037597656;1673302085.5690782;-26.836572647094727;-0.21817786991596222;136.70242309570312
127;1673302085.7665694;47.1306422;7.240620799999999;26.393001556396484;1673302085.768522;-26.810108184814453;-0.5014545321464539;136.761962890625
128;1673302085.9521623;47.1306422;7.2406207;26.782001495361328;1673302085.9560668;-26.851551055908203;-2.203711748123169;137.3389892578125
129;1673302086.1401405;47.1306422;7.2406207;27.17500114440918;1673302086.142096;-26.55925178527832;-1.0933187007904053;137.0870819091797
130;1673302086.33154;47.1306422;7.2406206;27.565000534057617;1673302086.3344817;-27.1862850189209;-0.2898986339569092;136.60855102539062
131;1673302086.5288005;47.1306422;7.2406204999999995;27.9580020904541;1673302086.5317307;-26.65855598449707;-2.1064202785491943;137.18983459472656
132;1673302086.724437;47.1306422;7.2406204999999995;28.349000930786133;1673302086.7273664;-26.620107650756836;-1.6558098793029785;137.19192504882812
133;1673302086.9200227;47.1306422;7.2406204999999995;28.73400115966797;1673302086.9239125;-26.84263801574707;-0.047048695385456085;136.66964721679688
134;1673302087.1232746;47.1306422;7.2406204999999995;29.1200008392334;1673302087.127178;-27.115816116333008;-1.1618856191635132;136.97445678710938
135;1673302087.3420632;47.1306422;7.2406204999999995;29.50800132751465;1673302087.3449917;-26.699148178100586;-2.2297472953796387;137.33343505859375
136;1673302087.5503523;47.1306422;7.2406204;29.898000717163086;1673302087.5523043;-26.75790023803711;-0.3429670035839081;136.80128479003906
137;1673302087.7462008;47.1306422;7.2406203;30.288002014160156;1673302087.750104;-27.154321670532227;-0.67929607629776;136.77671813964844
138;1673302087.9388373;47.1306422;7.2406203;30.680002212524414;1673302087.941733;-26.71411895751953;-2.3784520626068115;137.2943878173828
139;1673302088.1283886;47.1306422;7.2406201999999995;31.072002410888672;1673302088.1313164;-26.939579010009766;-0.994555652141571;136.9264373779297
140;1673302088.3289306;47.1306422;7.2406201999999995;31.4580020904541;1673302088.332854;-27.08937644958496;-0.19984236359596252;136.6198272705078
141;1673302088.5426645;47.1306423;7.2406201999999995;31.849000930786133;1673302088.546578;-26.97734260559082;-2.1466643810272217;137.26722717285156
142;1673302088.7646294;47.1306423;7.2406201999999995;32.24300003051758;1673302088.7675588;-26.958904266357422;-1.5579688549041748;137.1884002685547
143;1673302088.9577346;47.1306423;7.2406201999999995;32.637001037597656;1673302088.961638;-27.13184356689453;0.05820987746119499;136.6212615966797
144;1673302089.1683674;47.1306423;7.2406201;33.03200149536133;1673302089.1712952;-27.11994743347168;-1.6155762672424316;137.0032196044922
145;1673302089.3577878;47.1306422;7.2406201;33.42500305175781;1673302089.3597243;-26.729812622070312;-2.0969643592834473;137.24774169921875
146;1673302089.5599432;47.1306423;7.2406201999999995;33.8129997253418;1673302089.5628667;-27.122783660888672;-0.1786734014749527;136.6441192626953
147;1673302089.755472;47.1306423;7.2406201999999995;34.204002380371094;1673302089.759382;-27.191265106201172;-0.9828765392303467;136.8568115234375
148;1673302089.9481072;47.1306423;7.2406201999999995;34.59600067138672;1673302089.952014;-26.98563575744629;-2.30104660987854;137.3352813720703
149;1673302090.1440737;47.1306423;7.2406203;34.9890022277832;1673302090.1470013;-26.852031707763672;-0.6924878358840942;136.85279846191406
150;1673302090.340322;47.1306423;7.2406203;35.38500213623047;1673302090.3432515;-27.145658493041992;-0.3996311128139496;136.7286376953125
151;1673302090.5474012;47.1306422;7.2406203;35.78200149536133;1673302090.5513124;-26.692611694335938;-2.44500470161438;137.34832763671875
152;1673302090.7496715;47.1306422;7.2406204;36.18000030517578;1673302090.7526007;-26.65700912475586;-1.1037522554397583;136.97402954101562
153;1673302090.9403598;47.1306423;7.2406204;36.569000244140625;1673302090.943308;-27.137041091918945;-0.07237694412469864;136.65443420410156
154;1673302091.1307347;47.1306423;7.2406204999999995;36.9630012512207;1673302091.1336634;-26.8461856842041;-2.042668581008911;137.35287475585938
155;1673302091.3272855;47.1306423;7.2406204999999995;37.36000061035156;1673302091.3311884;-26.652877807617188;-1.3718135356903076;137.16184997558594
156;1673302091.5219946;47.1306423;7.2406204999999995;37.75600051879883;1673302091.524933;-27.017745971679688;0.08995973318815231;136.5595703125
157;1673302091.71548;47.1306423;7.2406206;38.152000427246094;1673302091.7193756;-26.861141204833984;-1.687430739402771;137.09996032714844
158;1673302091.9121938;47.1306423;7.2406204999999995;38.54800033569336;1673302091.9156795;-26.60335350036621;-1.8690440654754639;137.28793334960938
159;1673302092.1106396;47.1306424;7.2406204999999995;38.93600082397461;1673302092.1135519;-27.111753463745117;0.007744319271296263;136.58477783203125
160;1673302092.3253016;47.1306424;7.2406204999999995;39.32400131225586;1673302092.3282304;-27.019123077392578;-0.9917861223220825;137.0295867919922
161;1673302092.535417;47.1306425;7.2406204999999995;39.7130012512207;1673302092.5383444;-26.98293685913086;-2.1239819526672363;137.41612243652344
162;1673302092.7337735;47.1306425;7.2406204999999995;40.104000091552734;1673302092.7376778;-27.007463455200195;-0.1676611751317978;136.73023986816406
163;1673302092.9427688;47.1306425;7.2406204999999995;40.496002197265625;1673302092.9456973;-27.384296417236328;-0.6131105422973633;136.7719268798828
164;1673302093.146037;47.1306425;7.2406204;40.8900032043457;1673302093.1489787;-26.75748062133789;-2.1722018718719482;137.30584716796875
165;1673302093.339446;47.1306425;7.2406204;41.284000396728516;1673302093.3423626;-27.084192276000977;-0.7073440551757812;136.8871307373047
166;1673302093.5329742;47.1306425;7.2406204;41.67100143432617;1673302093.5359035;-27.11355209350586;-0.27583521604537964;136.66297912597656
167;1673302093.727491;47.1306425;7.2406203;42.060001373291016;1673302093.7304187;-27.1265869140625;-1.982197642326355;137.2257080078125
168;1673302093.9238074;47.1306425;7.2406203;42.4530029296875;1673302093.9267347;-26.98958396911621;-1.5804474353790283;137.12142944335938
169;1673302094.1232069;47.1306425;7.2406201999999995;42.849002838134766;1673302094.1261342;-27.380943298339844;-0.07099074125289917;136.49847412109375
170;1673302094.3170252;47.1306425;7.2406201999999995;43.24800109863281;1673302094.3204875;-27.149702072143555;-1.5857897996902466;137.04168701171875
171;1673302094.5133212;47.1306425;7.2406201999999995;43.64900207519531;1673302094.516261;-27.032787322998047;-2.121849536895752;137.2822265625
172;1673302094.7094615;47.1306425;7.2406201999999995;44.04100036621094;1673302094.712385;-27.181964874267578;-0.3475426733493805;136.66766357421875
173;1673302094.9079723;47.1306425;7.2406201999999995;44.43400192260742;1673302094.9118764;-27.283390045166016;-0.6009387969970703;136.8166961669922
174;1673302095.1069922;47.130642599999995;7.2406203;44.83000183105469;1673302095.1099339;-26.974660873413086;-2.2219531536102295;137.39720153808594
175;1673302095.3067038;47.1306425;7.2406203;45.22700119018555;1673302095.3096325;-27.01058578491211;-0.630262553691864;136.95416259765625
176;1673302095.5146549;47.1306425;7.2406203;45.625003814697266;1673302095.5175831;-27.20347023010254;-0.18547046184539795;136.63345336914062
177;1673302095.7467675;47.1306425;7.2406203;46.02100372314453;1673302095.7496748;-26.983285903930664;-1.90061354637146;137.2416229248047
178;1673302095.9932752;47.1306425;7.2406203;46.4170036315918;1673302095.9962044;-26.90280532836914;-1.3283872604370117;137.0601348876953
179;1673302096.1826396;47.1306425;7.2406203;46.807003021240234;1673302096.1845846;-27.26664924621582;-0.009854735806584358;136.5713348388672
180;1673302096.3627615;47.130642599999995;7.2406203;47.20100402832031;1673302096.365705;-27.18524169921875;-1.193472981452942;137.0001678466797
181;1673302096.5413313;47.130642599999995;7.2406203;47.59800338745117;1673302096.5442593;-27.119571685791016;-1.8805102109909058;137.34396362304688
182;1673302096.7311015;47.130642599999995;7.2406201999999995;47.993003845214844;1673302096.7350104;-27.291473388671875;-0.07413552701473236;136.6651153564453
183;1673302096.9245868;47.130642599999995;7.2406201;48.35700225830078;1673302096.9275117;-27.950145721435547;-1.3889803886413574;136.88604736328125
184;1673302097.1262646;47.130642699999996;7.2406198999999996;48.6660041809082;1673302097.1291914;-27.640350341796875;-1.3081624507904053;136.99383544921875
185;1673302097.338317;47.1306429;7.2406197;48.9170036315918;1673302097.3441727;-28.265270233154297;-0.941950261592865;136.75946044921875
186;1673302097.5297682;47.130643;7.2406194;49.134002685546875;1673302097.532704;-28.833354949951172;-0.9209171533584595;136.7617950439453
187;1673302097.7282326;47.130643199999994;7.240619199999999;49.316001892089844;1673302097.7311604;-29.180246353149414;-0.7934843897819519;136.8159637451172
188;1673302097.9277503;47.130643299999996;7.2406187;49.46600341796875;1673302097.9316602;-22.969091415405273;6.598241806030273;140.23741149902344
189;1673302098.1474943;47.130643299999996;7.2406177;49.5410041809082;1673302098.1513672;-32.37992858886719;-8.538734436035156;149.6226043701172
190;1673302098.3565748;47.130643299999996;7.2406166;49.55900192260742;1673302098.3604646;-32.706424713134766;-4.291914939880371;158.59310913085938
191;1673302098.5621033;47.1306428;7.2406153;49.577003479003906;1673302098.5660083;-31.33563995361328;-2.7237441539764404;170.79116821289062
192;1673302098.7728198;47.1306417;7.240613199999999;49.624000549316406;1673302098.7760344;-22.320335388183594;-21.90671730041504;179.6042938232422
193;1673302098.9676576;47.1306406;7.2406112;49.67500305175781;1673302098.9696097;-21.66326141357422;-22.820096969604492;-172.26036071777344
194;1673302099.1469488;47.1306394;7.2406096;49.72500228881836;1673302099.150847;-15.492936134338379;-24.026830673217773;-162.60044860839844
195;1673302099.3480115;47.130638399999995;7.240608099999999;49.77100372314453;1673302099.3509471;-8.334797859191895;-25.92121124267578;-153.31289672851562
196;1673302099.5367084;47.1306375;7.2406068999999995;49.80900192260742;1673302099.5396388;-2.4463086128234863;-26.35650634765625;-143.70333862304688
197;1673302099.7317805;47.1306368;7.2406058;49.840003967285156;1673302099.73475;3.2446084022521973;-27.42140769958496;-133.82281494140625
198;1673302099.9324133;47.1306364;7.2406049999999995;49.85900115966797;1673302099.935917;7.765771865844727;-27.49410629272461;-124.22511291503906
199;1673302100.1318986;47.1306363;7.240604299999999;49.880001068115234;1673302100.134833;12.131349563598633;-26.979835510253906;-115.17669677734375
200;1673302100.3270135;47.1306363;7.2406038;49.9010009765625;1673302100.330916;16.366044998168945;-25.670429229736328;-106.5336685180664
201;1673302100.5427501;47.1306363;7.2406033;49.919002532958984;1673302100.5458727;19.905284881591797;-23.227020263671875;-97.83283233642578
202;1673302100.751815;47.1306364;7.240602999999999;49.93400192260742;1673302100.754819;23.18419075012207;-19.426830291748047;-88.90711212158203
203;1673302100.9421408;47.1306365;7.240602699999999;49.94900131225586;1673302100.9461694;25.61435317993164;-15.1885404586792;-79.70801544189453
204;1673302101.153464;47.1306365;7.2406025;49.96200180053711;1673302101.1574244;27.468538284301758;-11.220909118652344;-70.69902038574219
205;1673302101.373434;47.1306364;7.2406025;49.9630012512207;1673302101.3792877;28.445051193237305;-8.481144905090332;-62.43544387817383
206;1673302101.5863898;47.1306361;7.2406025;49.96600341796875;1673302101.588376;29.102832794189453;-6.247754096984863;-54.526912689208984
207;1673302101.7508106;47.1306358;7.240602399999999;49.97200393676758;1673302101.7537394;29.367504119873047;-2.8933284282684326;-46.04773712158203
208;1673302101.9434144;47.130635399999996;7.2406023;49.980003356933594;1673302101.9473221;28.70172691345215;2.3994956016540527;-39.02180862426758
209;1673302102.1358948;47.1306352;7.2406023;49.992000579833984;1673302102.1388142;27.86411476135254;4.356314659118652;-40.32302474975586
210;1673302102.3460042;47.1306351;7.2406023;50.00200271606445;1673302102.3508835;27.695589065551758;3.8586511611938477;-42.84219741821289
211;1673302102.5512114;47.1306351;7.2406026;50.00100326538086;1673302102.5560918;27.897462844848633;3.7196402549743652;-43.891597747802734
212;1673302102.7467513;47.1306351;7.2406029;49.999000549316406;1673302102.748704;28.18737030029297;2.4430339336395264;-44.388309478759766
213;1673302102.9579072;47.1306352;7.240602999999999;50.00100326538086;1673302102.9623532;26.12226676940918;0.6374084949493408;-45.24912643432617
214;1673302103.1610394;47.1306355;7.2406026;49.99800109863281;1673302103.163005;-3.316876173019409;-1.653702735900879;-47.50761413574219
215;1673302103.3612247;47.130637199999995;7.2406003;49.97500228881836;1673302103.3641562;-38.71784210205078;2.0583391189575195;-49.454044342041016
216;1673302103.5634415;47.1306411;7.2405946;49.91100311279297;1673302103.566365;-35.689186096191406;-1.287227749824524;-47.87664031982422
217;1673302103.764358;47.130647599999996;7.2405846;49.887001037597656;1673302103.7692316;-48.03551483154297;-3.0682082176208496;-46.60882568359375
218;1673302103.9621592;47.1306568;7.2405702;49.862003326416016;1673302103.9650898;-46.61477279663086;-0.7025554776191711;-47.05701446533203
219;1673302104.1575933;47.1306681;7.240552;49.84300231933594;1673302104.161151;-47.50564193725586;0.08488982915878296;-46.0516242980957
220;1673302104.3493214;47.1306813;7.2405304;49.84100341796875;1673302104.3523161;-49.65285110473633;2.195674180984497;-46.64630126953125
221;1673302104.562218;47.1306965;7.240505799999999;49.84700393676758;1673302104.5642326;-50.0772590637207;3.7419164180755615;-47.334510803222656
222;1673302104.7591686;47.1307136;7.2404787;49.85900115966797;1673302104.7622044;-50.29485321044922;3.6100659370422363;-47.605289459228516
223;1673302104.9533389;47.1307323;7.240449099999999;49.88200378417969;1673302104.956288;-52.0221061706543;1.351642370223999;-47.253421783447266
224;1673302105.15559;47.1307524;7.2404176;49.92100143432617;1673302105.1594827;-49.80504608154297;0.48970672488212585;-46.27119445800781
225;1673302105.3461494;47.1307737;7.2403844;49.9530029296875;1673302105.3491025;-44.247886657714844;0.22183723747730255;-46.133609771728516
226;1673302105.5492215;47.1307956;7.2403504;49.97600173950195;1673302105.552299;-38.95730972290039;0.6309468150138855;-46.541873931884766
227;1673302105.742333;47.130817799999996;7.2403162;49.9900016784668;1673302105.7453988;-34.12779235839844;0.7938831448554993;-46.75335693359375
228;1673302105.9373724;47.13084;7.240282;49.99500274658203;1673302105.9403193;-29.846132278442383;0.7953998446464539;-46.924407958984375
229;1673302106.133262;47.1308617;7.240248599999999;49.98800277709961;1673302106.1371636;-2.430156946182251;0.0183842983096838;-47.20286560058594
230;1673302106.3277473;47.1308819;7.240217299999999;49.961002349853516;1673302106.3306882;34.29096984863281;-3.019674062728882;-46.80437469482422
231;1673302106.5189764;47.130899799999995;7.2401896;49.836002349853516;1673302106.5228808;20.524906158447266;0.19682998955249786;-46.97934341430664
232;1673302106.7183394;47.130914999999995;7.2401659;49.827003479003906;1673302106.7226567;46.2197151184082;-0.7819653749465942;-47.62812805175781
233;1673302106.9174786;47.1309271;7.2401469999999994;49.86300277709961;1673302106.9241374;50.628868103027344;-0.5778005719184875;-47.33366394042969
234;1673302107.1451218;47.1309361;7.2401330999999995;49.935001373291016;1673302107.1490548;52.23484420776367;0.8241995573043823;-46.64105224609375
235;1673302107.3514087;47.130942399999995;7.2401235999999995;50.00300216674805;1673302107.3543367;51.571083068847656;0.4796763062477112;-46.44833755493164
236;1673302107.5380833;47.130946599999994;7.240117499999999;50.05800247192383;1673302107.5421133;49.045597076416016;0.5122514963150024;-46.66233444213867
237;1673302107.733304;47.130949;7.2401142;50.09300231933594;1673302107.7361999;45.718994140625;0.060228291898965836;-46.634159088134766
238;1673302107.9484193;47.1309501;7.2401127999999995;50.10700225830078;1673302107.9527342;40.26935958862305;0.057132408022880554;-46.679405212402344
239;1673302108.172179;47.130950399999996;7.2401127;50.12200164794922;1673302108.1751091;35.73453140258789;-0.6298146843910217;-46.89908218383789
240;1673302108.36623;47.130950399999996;7.2401132;50.11600112915039;1673302108.368176;27.873872756958008;-0.47219106554985046;-46.80897903442383
241;1673302108.5665708;47.1309502;7.240113699999999;50.10100173950195;1673302108.570104;23.922298431396484;-1.0389984846115112;-46.86576843261719
242;1673302108.7694294;47.1309502;7.2401138;50.08700180053711;1673302108.7728367;20.778966903686523;-0.41963133215904236;-46.82143783569336
243;1673302108.971397;47.1309505;7.2401136;50.07100296020508;1673302108.973366;19.733627319335938;0.13719293475151062;-46.60359573364258
244;1673302109.1639132;47.1309511;7.2401126;50.060001373291016;1673302109.166843;19.87169075012207;1.3245936632156372;-46.44015121459961
245;1673302109.3551702;47.1309519;7.240111199999999;50.057003021240234;1673302109.3580997;21.370807647705078;1.736181616783142;-46.35566711425781
246;1673302109.5448797;47.130952699999995;7.240109599999999;50.05900192260742;1673302109.5487866;23.289623260498047;0.9677146077156067;-46.45470428466797
247;1673302109.7561226;47.1309537;7.2401078;50.06300354003906;1673302109.7590606;25.698686599731445;-0.7528702020645142;-46.80842590332031
248;1673302109.9664865;47.1309547;7.240106;50.06800079345703;1673302109.969425;27.551054000854492;-1.5848426818847656;-46.903072357177734
249;1673302110.170733;47.1309556;7.2401044;50.073001861572266;1673302110.1746566;28.72391128540039;-1.4876224994659424;-46.814414978027344
250;1673302110.3718321;47.130956499999996;7.2401029999999995;50.0780029296875;1673302110.3747587;29.530086517333984;0.3253277838230133;-46.51250076293945
251;1673302110.5692825;47.1309572;7.2401019;50.08000183105469;1673302110.572211;29.86163330078125;1.9359309673309326;-46.30242156982422
252;1673302110.765936;47.1309578;7.2401010999999995;50.082000732421875;1673302110.7688315;30.130971908569336;1.810442328453064;-46.525238037109375
253;1673302110.9872665;47.130958199999995;7.2401006;50.066001892089844;1673302110.9901843;25.629924774169922;-5.396607875823975;-48.8022575378418
254;1673302111.1808453;47.1309587;7.2401;49.77800369262695;1673302111.1859035;5.952156066894531;-20.012910842895508;-50.00978469848633
255;1673302111.364954;47.130959399999995;7.240099099999999;49.12200164794922;1673302111.3678818;-23.9920711517334;-33.536842346191406;-40.95363998413086
256;1673302111.5616586;47.1309602;7.240098199999999;48.082000732421875;1673302111.5645874;-54.63471221923828;-59.36228942871094;-10.612982749938965
257;1673302111.7733788;47.1309611;7.2400974;46.64800262451172;1673302111.776279;-63.53375244140625;-112.17318725585938;54.16050338745117
258;1673302111.974445;47.1309621;7.240096599999999;44.858001708984375;1673302111.977385;-57.4144287109375;-130.71377563476562;90.59071350097656
259;1673302112.1756938;47.130963099999995;7.2400956;42.720001220703125;1673302112.1805747;-60.05652618408203;-107.5724105834961;88.7823486328125
260;1673302112.377863;47.1309642;7.2400945;40.23400115966797;1673302112.380791;-55.338623046875;-43.93687057495117;46.5576286315918
261;1673302112.580988;47.1309651;7.240093099999999;37.384002685546875;1673302112.583917;-18.63093376159668;0.26406729221343994;22.95079231262207
262;1673302112.7743618;47.1309659;7.240091499999999;34.13600158691406;1673302112.7763355;24.988985061645508;15.778627395629883;22.110074996948242
263;1673302112.9677513;47.1309671;7.2400895;30.4950008392334;1673302112.9706786;54.123931884765625;10.760342597961426;20.992849349975586
264;1673302113.1739876;47.1309687;7.240087399999999;26.51000213623047;1673302113.176915;51.825191497802734;-15.744288444519043;11.003552436828613
265;1673302113.3761902;47.1309706;7.2400853;22.178001403808594;1673302113.3801036;19.938026428222656;-33.775856018066406;21.45952606201172
266;1673302113.58234;47.1309727;7.2400835;17.470001220703125;1673302113.5862422;-20.99784278869629;-47.369537353515625;46.62572479248047
267;1673302113.7739964;47.1309745;7.2400819;12.4010009765625;1673302113.7779002;-47.19856643676758;-50.4033088684082;69.0347671508789
268;1673302113.9732444;47.130976;7.24008;7.006000518798828;1673302113.9761724;-45.84088134765625;-15.288786888122559;56.892852783203125
269;1673302114.186146;47.1309773;7.2400774;1.2610000371932983;1673302114.1890562;-6.705619812011719;12.482916831970215;48.58040237426758
270;1673302114.3685308;47.130976999999994;7.240077299999999;0.4220000207424164;1673302114.3734107;0.6086837649345398;-4.249551296234131;44.373199462890625
271;1673302114.581135;47.1309762;7.240078199999999;0.47300001978874207;1673302114.5840628;1.0020197629928589;-2.33324933052063;42.08369827270508
272;1673302114.774918;47.1309757;7.2400785;0.51500004529953;1673302114.776854;0.7644050121307373;-5.331962585449219;41.819252014160156
273;1673302114.9742851;47.130975799999995;7.2400782999999995;0.5390000343322754;1673302114.9772134;0.7979694604873657;-4.211302757263184;41.45507049560547
274;1673302115.1797678;47.1309761;7.240077899999999;0.550000011920929;1673302115.1836724;0.7553717494010925;-4.470338344573975;41.09897232055664
275;1673302115.3917108;47.130976499999996;7.240077299999999;0.550000011920929;1673302115.3949163;0.7802910804748535;-4.637417793273926;40.727176666259766
276;1673302115.6068554;47.1309768;7.2400766999999995;0.5560000538825989;1673302115.608809;0.834793210029602;-4.808323383331299;40.34575653076172
277;1673302115.7896023;47.130977099999996;7.2400762;0.5540000200271606;1673302115.7934995;0.7322553396224976;-5.316108703613281;40.08791732788086
278;1673302115.9858565;47.1309774;7.2400759;0.5460000038146973;1673302115.989754;0.716240406036377;-5.546158313751221;39.81438446044922
279;1673302116.1839402;47.130977699999995;7.2400756;0.5360000133514404;1673302116.1878388;0.7063813805580139;-6.050502777099609;39.55488586425781
280;1673302116.3797357;47.1309779;7.240075399999999;0.5220000147819519;1673302116.3836358;0.695780336856842;-6.398348331451416;39.287837982177734
281;1673302116.595229;47.1309781;7.2400752;0.5060000419616699;1673302116.5981581;0.711637556552887;-6.666046619415283;39.10140609741211
282;1673302116.7985635;47.1309782;7.240075099999999;0.48600003123283386;1673302116.8024664;0.6439213752746582;-6.756819248199463;38.844482421875
283;1673302117.0010087;47.1309785;7.2400744999999995;0.47200003266334534;1673302117.0039322;0.6684821248054504;-6.895050525665283;38.60197067260742
284;1673302117.2070656;47.1309786;7.240074099999999;0.4580000340938568;1673302117.2109568;0.6737765073776245;-7.046376705169678;38.40996170043945
285;1673302117.4105442;47.1309788;7.240074;0.44300001859664917;1673302117.4144511;0.6136698126792908;-7.016265392303467;38.257415771484375
286;1673302117.6338286;47.1309788;7.2400739;0.42600002884864807;1673302117.6367896;0.6210455894470215;-6.857725620269775;38.04640197753906
287;1673302117.8288782;47.130978899999995;7.2400739;0.40800002217292786;1673302117.833764;0.6322400569915771;-6.6849565505981445;37.88703918457031
288;1673302118.008152;47.130978899999995;7.2400739;0.3890000283718109;1673302118.0101085;0.5945350527763367;-6.522523403167725;37.74335479736328
289;1673302118.2137923;47.1309791;7.2400733;0.3760000169277191;1673302118.2167203;0.56874018907547;-6.338863372802734;37.60013961791992
290;1673302118.412547;47.1309792;7.2400731;0.36500000953674316;1673302118.4174273;0.5618678331375122;-6.060028553009033;37.48964309692383
291;1673302118.6126063;47.1309792;7.240073;0.3530000150203705;1673302118.617491;0.5146000981330872;-5.709718227386475;37.40357208251953
292;1673302118.8043454;47.1309792;7.2400731;0.33900001645088196;1673302118.806298;0.5169203877449036;-5.3947319984436035;37.31488037109375
293;1673302119.0036736;47.1309792;7.2400733;0.32600000500679016;1673302119.0085952;0.4655090570449829;-5.152655601501465;37.26691436767578
294;1673302119.191153;47.1309791;7.240073499999999;0.31300002336502075;1673302119.1931136;0.4520735442638397;-4.896876335144043;37.233524322509766
295;1673302119.3896134;47.1309791;7.2400737;0.30000001192092896;1673302119.393512;0.4438830316066742;-4.646648406982422;37.18638610839844
296;1673302119.6011763;47.1309792;7.2400733;0.289000004529953;1673302119.6040924;0.4854819178581238;-4.3751678466796875;37.121036529541016
297;1673302119.796121;47.1309793;7.2400731;0.2760000228881836;1673302119.7980754;0.4219435751438141;-4.095704555511475;37.086265563964844
298;1673302120.0110607;47.1309793;7.2400733;0.26500001549720764;1673302120.0159233;0.4175570011138916;-3.7940046787261963;37.03730773925781
299;1673302120.2199032;47.1309792;7.240073499999999;0.25200000405311584;1673302120.224784;0.411791056394577;-3.55879545211792;37.035823822021484
300;1673302120.4200685;47.1309792;7.2400737;0.2410000115633011;1673302120.422996;0.3637849688529968;-3.278263568878174;37.00518798828125
301;1673302120.61105;47.1309791;7.2400739;0.23100000619888306;1673302120.616033;0.28097161650657654;-2.999695062637329;36.97938919067383
302;1673302120.8093147;47.1309792;7.2400737;0.21800000965595245;1673302120.8132179;0.24782782793045044;-2.785571575164795;36.94560623168945
303;1673302121.0132508;47.1309792;7.2400736;0.21000000834465027;1673302121.0152032;0.27079087495803833;-1.7878223657608032;36.940425872802734
304;1673302121.1912801;47.1309792;7.2400737;0.0;1673302121.193231;0.2259838879108429;-1.5743989944458008;37.013427734375
305;1673302121.39086;47.1309791;7.2400739;-0.009000000543892384;1673302121.3947723;0.17680895328521729;-1.1713672876358032;37.02823257446289
306;1673302121.5923026;47.130978999999996;7.240074099999999;-0.01900000125169754;1673302121.5952322;0.18553033471107483;-0.7986533045768738;37.041770935058594
307;1673302121.8003721;47.130978999999996;7.2400743;-0.03200000151991844;1673302121.8033154;0.14399388432502747;-0.4561573565006256;37.061702728271484
