;pos_time;latitude;longitude;altitude;alt_time;pitch;roll;yaw
0;1673446097.928997;47.1306425;7.2406201;-0.027000000700354576;1673446097.9490528;-0.01177146378904581;0.1468743085861206;90.23517608642578
1;1673446098.1224468;47.1306425;7.2406201;-0.03100000135600567;1673446098.1449244;0.22863931953907013;0.05027167126536369;90.2970199584961
2;1673446098.3304613;47.1306425;7.2406201;-0.03400000184774399;1673446098.3515074;0.1862262785434723;-0.2858119308948517;90.28057098388672
3;1673446098.540845;47.1306424;7.2406201999999995;-0.03800000250339508;1673446098.5623612;0.17849375307559967;-0.18111513555049896;90.29788208007812
4;1673446098.7570584;47.1306424;7.2406201999999995;-0.04100000113248825;1673446098.7804835;0.030883345752954483;-0.20906782150268555;90.35489654541016
5;1673446098.9514985;47.1306424;7.2406201999999995;-0.03800000250339508;1673446098.9680905;-0.014603544026613235;-0.29990559816360474;90.46070098876953
6;1673446099.1220357;47.1306424;7.2406201999999995;-0.039000000804662704;1673446099.1444902;-0.1448039710521698;-0.18790708482265472;90.328125
7;1673446099.3402107;47.1306424;7.2406201;-0.03800000250339508;1673446099.363853;-0.008912201970815659;-0.18891175091266632;90.27800750732422
8;1673446099.5382998;47.1306424;7.2406201;-0.04000000283122063;1673446099.5642228;-0.021795999258756638;-0.17945951223373413;90.23619842529297
9;1673446099.737547;47.1306424;7.2406201;0.0;1673446099.7627058;0.039341945201158524;-1.3025071620941162;90.1783676147461
10;1673446099.9570103;47.1306424;7.24062;0.0;1673446099.978506;-0.14125847816467285;-1.1989967823028564;90.28561401367188
11;1673446100.1553168;47.1306424;7.24062;0.0010000000474974513;1673446100.1816688;-0.1809312105178833;-1.1027467250823975;90.24613189697266
12;1673446100.3584883;47.1306424;7.24062;0.003000000026077032;1673446100.379992;-0.23192989826202393;-1.0580332279205322;90.21502685546875
13;1673446100.6185403;47.1306424;7.2406198999999996;0.0;1673446100.6847699;-0.17577210068702698;-0.9079936742782593;90.15576171875
14;1673446100.828644;47.1306423;7.24062;-0.005000000353902578;1673446100.8467398;-0.31026142835617065;-1.1655055284500122;90.18619537353516
15;1673446100.9878352;47.1306423;7.24062;-0.009000000543892384;1673446101.0066612;-0.13171827793121338;-1.4354145526885986;90.19075775146484
16;1673446101.1649137;47.1306423;7.2406201;-0.009000000543892384;1673446101.1896842;-0.42790114879608154;-1.7572815418243408;90.28065490722656
17;1673446101.36779;47.1306423;7.2406201999999995;0.0010000000474974513;1673446101.3897476;-0.5122957825660706;0.080934077501297;90.45907592773438
18;1673446101.553718;47.1306423;7.2406201999999995;0.0020000000949949026;1673446101.5755467;-0.44190433621406555;-0.5977246165275574;90.72856903076172
19;1673446101.7346385;47.1306423;7.2406201999999995;0.006000000052154064;1673446101.7571003;-0.6062086224555969;-0.7948853373527527;90.75827026367188
20;1673446101.9228697;47.1306424;7.2406201999999995;0.0020000000949949026;1673446101.9467092;-0.4342609643936157;-0.6509021520614624;91.05347442626953
21;1673446102.156799;47.1306424;7.2406201999999995;0.0010000000474974513;1673446102.1777651;-0.7168665528297424;-1.032813549041748;91.08060455322266
22;1673446102.3618827;47.1306425;7.2406203;0.004000000189989805;1673446102.3857534;-0.662519633769989;-0.8770345449447632;90.89205169677734
23;1673446102.5487885;47.130642699999996;7.2406204;0.005000000353902578;1673446102.5714378;-0.8417153358459473;-0.8853039741516113;92.99430084228516
24;1673446102.7447634;47.130643;7.2406206;-0.004000000189989805;1673446102.7668426;0.5427860021591187;0.05746643245220184;96.71833038330078
25;1673446102.938886;47.1306437;7.2406213;-0.01600000075995922;1673446102.9667022;0.2569549083709717;-0.4544212520122528;97.68377685546875
26;1673446103.135955;47.1306447;7.2406226;-0.014000000432133675;1673446103.1575673;2.4569268226623535;1.073544979095459;92.37932586669922
27;1673446103.3330247;47.130646;7.2406245;-0.004000000189989805;1673446103.3547513;5.4736328125;3.7529590129852295;90.34745025634766
28;1673446103.5357583;47.130647599999996;7.240626799999999;0.014000000432133675;1673446103.5609257;8.875527381896973;7.347417831420898;89.89592742919922
29;1673446103.7398133;47.1306495;7.2406296;0.03100000135600567;1673446103.7628846;11.888257026672363;11.168370246887207;90.4807357788086
30;1673446103.9272444;47.1306517;7.2406329;0.04800000041723251;1673446103.9528868;13.79963493347168;14.301477432250977;91.433349609375
31;1673446104.1779308;47.130654;7.240636599999999;0.0650000050663948;1673446104.1983702;14.11349868774414;15.193349838256836;92.16639709472656
32;1673446104.3979437;47.1306563;7.240640399999999;0.0860000029206276;1673446104.4185164;14.999239921569824;15.956537246704102;92.70337677001953
33;1673446104.579722;47.1306586;7.240644199999999;0.11400000751018524;1673446104.5992494;16.10723114013672;17.16261863708496;93.1411361694336
34;1673446104.7848506;47.1306608;7.2406481;0.14900000393390656;1673446104.802414;17.41042709350586;18.182437896728516;93.4732894897461
35;1673446104.9723442;47.130662799999996;7.240651799999999;0.1860000044107437;1673446104.9918625;18.941038131713867;19.236127853393555;93.7173080444336
36;1673446105.159083;47.1306648;7.2406554;0.21800000965595245;1673446105.182611;20.507518768310547;20.440397262573242;93.8345947265625
37;1673446105.358401;47.1306665;7.240658499999999;0.24900001287460327;1673446105.3828473;22.1664981842041;21.730688095092773;93.89595794677734
38;1673446105.552818;47.1306678;7.2406611;0.27800002694129944;1673446105.5762432;23.991132736206055;22.884368896484375;93.88994598388672
39;1673446105.7540145;47.130668899999996;7.240663199999999;0.3060000240802765;1673446105.7735496;25.79077911376953;24.169870376586914;93.8351821899414
40;1673446105.9481714;47.130669499999996;7.2406646;0.33500000834465027;1673446105.9735482;27.67211151123047;25.06402015686035;93.63324737548828
41;1673446106.1554039;47.1306698;7.2406652;0.3580000102519989;1673446106.1788273;29.685977935791016;26.45884895324707;93.42224884033203
42;1673446106.3763363;47.130669499999996;7.240665;0.37700000405311584;1673446106.3968353;31.7113037109375;27.484859466552734;93.05408477783203
43;1673446106.5650845;47.1306687;7.2406638;0.39400002360343933;1673446106.5972931;33.93110656738281;28.54166603088379;92.55533599853516
44;1673446106.7858984;47.1306674;7.240661599999999;0.4130000174045563;1673446106.8063955;36.248172760009766;29.455944061279297;91.95198822021484
45;1673446106.9734733;47.1306653;7.2406583;0.4270000159740448;1673446106.995912;37.88951873779297;29.536745071411133;90.95703125
46;1673446107.1750143;47.130662699999995;7.2406539;0.43700000643730164;1673446107.1955097;34.94881057739258;26.42876625061035;89.31482696533203
47;1673446107.372274;47.1306596;7.2406489;0.44300001859664917;1673446107.393788;31.439523696899414;23.089570999145508;88.27682495117188
48;1673446107.597911;47.1306564;7.2406437;0.4750000238418579;1673446107.6184385;26.559579849243164;20.109155654907227;88.01268005371094
49;1673446107.767776;47.1306534;7.2406386;0.5210000276565552;1673446107.7912037;23.185138702392578;17.551816940307617;87.67936706542969
50;1673446107.9732866;47.1306507;7.240634;0.5610000491142273;1673446107.9976869;19.015972137451172;15.023662567138672;87.42671203613281
51;1673446108.1727803;47.1306483;7.2406299999999995;0.6050000190734863;1673446108.1952457;16.87323570251465;13.454756736755371;87.40972137451172
52;1673446108.3848197;47.1306465;7.2406269;0.6530000567436218;1673446108.406433;15.718405723571777;13.454852104187012;87.63215637207031
53;1673446108.5805578;47.1306453;7.2406247;0.7040000557899475;1673446108.603989;15.768773078918457;14.08487606048584;87.93978118896484
54;1673446108.7654045;47.130644499999995;7.240623299999999;0.7620000243186951;1673446108.7868176;16.707809448242188;13.99669361114502;87.84337615966797
55;1673446108.9470685;47.1306441;7.2406226;0.8350000381469727;1673446108.9714909;18.19760513305664;15.063576698303223;87.89392852783203
56;1673446109.1512117;47.130644;7.2406223999999995;0.9240000247955322;1673446109.1717336;19.86839485168457;18.091617584228516;88.28868103027344
57;1673446109.3416972;47.130644;7.2406225;1.0210000276565552;1673446109.3670728;21.306001663208008;16.485952377319336;87.72522735595703
58;1673446109.5399616;47.1306441;7.2406226;1.1320000886917114;1673446109.5624332;22.389184951782227;17.689952850341797;87.69036102294922
59;1673446109.7483165;47.1306441;7.2406226;1.2570000886917114;1673446109.7737033;22.885242462158203;20.01133918762207;88.1563720703125
60;1673446109.9519582;47.1306441;7.2406226;1.3950001001358032;1673446109.9743946;23.48834800720215;18.485267639160156;87.70469665527344
61;1673446110.156289;47.1306441;7.2406223999999995;1.5490000247955322;1673446110.1749628;23.391700744628906;18.394798278808594;87.51567840576172
62;1673446110.3560345;47.130643899999995;7.2406220999999995;1.7200000286102295;1673446110.3784974;23.292457580566406;19.439233779907227;86.67280578613281
63;1673446110.5358264;47.1306437;7.240621699999999;1.9010001420974731;1673446110.5563219;22.62277603149414;17.80047607421875;86.25878143310547
64;1673446110.7410576;47.1306435;7.2406213;2.0830001831054688;1673446110.7641444;22.306941986083984;17.217836380004883;86.17646789550781
65;1673446110.9551055;47.130643299999996;7.240621;2.2680001258850098;1673446110.9834652;21.905241012573242;18.830760955810547;86.52332305908203
66;1673446111.1712158;47.1306431;7.2406206;2.4560000896453857;1673446111.2065911;21.32615089416504;16.986806869506836;86.1009750366211
67;1673446111.4313838;47.1306429;7.2406203;2.642000198364258;1673446111.4514377;21.07784080505371;16.429861068725586;85.9478530883789
68;1673446111.6016157;47.1306428;7.2406201;2.830000162124634;1673446111.6221128;21.193096160888672;18.914424896240234;86.70555877685547
69;1673446111.792288;47.130642699999996;7.24062;3.0190000534057617;1673446111.8137615;21.3004150390625;16.87511444091797;86.37908172607422
70;1673446111.9808547;47.1306425;7.24062;3.2060000896453857;1673446112.0033026;21.467817306518555;16.4747257232666;86.26146697998047
71;1673446112.181938;47.1306424;7.24062;3.3960001468658447;1673446112.2073798;21.68256187438965;18.429759979248047;86.73773956298828
72;1673446112.379789;47.1306425;7.24062;3.5900001525878906;1673446112.3993464;21.57441520690918;17.519304275512695;86.45785522460938
73;1673446112.5499132;47.1306425;7.24062;3.7820000648498535;1673446112.5694954;21.64491844177246;16.4403133392334;86.03238677978516
74;1673446112.7320592;47.1306425;7.24062;3.9720001220703125;1673446112.7531037;21.72561264038086;19.05654525756836;86.71157836914062
75;1673446112.928572;47.1306425;7.24062;4.1620001792907715;1673446112.9507189;21.756973266601562;17.701642990112305;86.43795013427734
76;1673446113.1412427;47.1306425;7.2406201;4.357000350952148;1673446113.1630688;21.89322853088379;16.30398941040039;86.1951904296875
77;1673446113.340172;47.1306425;7.2406201;4.554000377655029;1673446113.3674982;21.89010238647461;18.622753143310547;86.60108947753906
78;1673446113.5599625;47.130642599999995;7.2406201999999995;4.75100040435791;1673446113.5853453;22.047513961791992;18.108196258544922;86.4435806274414
79;1673446113.747901;47.130642699999996;7.2406203;4.945000171661377;1673446113.769956;22.026931762695312;16.84146499633789;86.07501220703125
80;1673446113.946306;47.130642699999996;7.2406203;5.136000156402588;1673446113.97461;22.08434295654297;18.90615463256836;86.54462432861328
81;1673446114.173042;47.1306428;7.2406204;5.329000473022461;1673446114.1974547;22.11271858215332;18.327003479003906;86.46508026123047
82;1673446114.3596752;47.1306428;7.2406204;5.522000312805176;1673446114.3792567;21.97739028930664;16.831615447998047;86.1639404296875
83;1673446114.5503566;47.1306428;7.2406204;5.718000411987305;1673446114.575733;22.134695053100586;18.860929489135742;86.59876251220703
84;1673446114.7465045;47.1306428;7.2406204;5.9170002937316895;1673446114.771881;22.053442001342773;18.282459259033203;86.56535339355469
85;1673446114.9589005;47.1306428;7.2406204;6.11400032043457;1673446114.9803329;21.97915267944336;16.471168518066406;86.1214599609375
86;1673446115.1547613;47.1306428;7.2406204;6.308000087738037;1673446115.1772203;22.027074813842773;18.81709861755371;86.56932067871094
87;1673446115.348627;47.1306428;7.2406204999999995;6.505000114440918;1673446115.372054;22.19617462158203;17.89820671081543;86.43888092041016
88;1673446115.5432284;47.1306428;7.2406204999999995;6.701000213623047;1673446115.5647101;22.111961364746094;16.572141647338867;86.14977264404297
89;1673446115.754351;47.1306428;7.2406204999999995;6.895000457763672;1673446115.7738738;22.076705932617188;18.607200622558594;86.52925872802734
90;1673446115.9345345;47.1306429;7.2406204999999995;7.092000484466553;1673446115.957742;22.172344207763672;18.430402755737305;86.55728912353516
91;1673446116.134177;47.1306429;7.2406204999999995;7.2900004386901855;1673446116.1552224;22.137392044067383;16.668397903442383;86.15198516845703
92;1673446116.3421957;47.1306429;7.2406204999999995;7.487000465393066;1673446116.3661616;22.14131736755371;18.937124252319336;86.5905532836914
93;1673446116.554688;47.1306428;7.2406204999999995;7.687000274658203;1673446116.579085;22.093914031982422;18.366559982299805;86.5946044921875
94;1673446116.7597964;47.1306428;7.2406204999999995;7.886000156402588;1673446116.7861593;21.932008743286133;16.70355224609375;86.15585327148438
95;1673446116.9804363;47.1306428;7.2406204;8.082000732421875;1673446117.0009282;22.057031631469727;18.54871940612793;86.56546783447266
96;1673446117.1731539;47.1306428;7.2406204;8.278000831604004;1673446117.1985288;22.033836364746094;18.816917419433594;86.69413757324219
97;1673446117.362609;47.1306429;7.2406203;8.476000785827637;1673446117.382784;21.898359298706055;16.856138229370117;86.19283294677734
98;1673446117.5479114;47.1306428;7.2406203;8.67300033569336;1673446117.570361;21.855392456054688;18.58771324157715;86.51029205322266
99;1673446117.7462957;47.1306428;7.2406201999999995;8.874000549316406;1673446117.7667952;21.906980514526367;18.549808502197266;86.52912902832031
100;1673446117.9392066;47.130642699999996;7.2406201999999995;9.07800006866455;1673446117.9602513;21.98041534423828;16.585874557495117;86.11544036865234
101;1673446118.1506884;47.130642699999996;7.2406201999999995;9.278000831604004;1673446118.1771057;21.959196090698242;18.523942947387695;86.56101989746094
102;1673446118.3557658;47.130642699999996;7.2406201999999995;9.481000900268555;1673446118.3802538;21.934080123901367;18.726463317871094;86.57356262207031
103;1673446118.571639;47.1306428;7.2406201999999995;9.68600082397461;1673446118.595135;22.001779556274414;16.806432723999023;86.13582611083984
104;1673446118.776322;47.130642699999996;7.2406201999999995;9.892000198364258;1673446118.7987688;22.13319206237793;18.263757705688477;86.4301528930664
105;1673446118.9610457;47.130642699999996;7.2406201999999995;10.097000122070312;1673446118.9834971;22.05703353881836;18.684345245361328;86.5456771850586
106;1673446119.1961617;47.130642699999996;7.2406201;10.350000381469727;1673446119.2168245;20.533979415893555;15.505501747131348;86.01603698730469
107;1673446119.3994663;47.1306425;7.2406197;10.714000701904297;1673446119.4219007;22.305789947509766;19.302839279174805;86.7024154663086
108;1673446119.5825949;47.1306423;7.2406193;11.100000381469727;1673446119.6059902;21.602441787719727;19.24856185913086;86.370849609375
109;1673446119.793441;47.1306419;7.2406188;11.504000663757324;1673446119.8139446;20.52294921875;15.813096046447754;86.31037139892578
110;1673446119.9853652;47.1306416;7.2406185;11.915000915527344;1673446120.0068383;20.105960845947266;17.120389938354492;86.57759857177734
111;1673446120.2175071;47.130641399999995;7.2406182999999995;12.324000358581543;1673446120.2370186;20.004789352416992;16.942676544189453;86.62981414794922
112;1673446120.3806825;47.130641399999995;7.2406182;12.725000381469727;1673446120.4002025;19.907941818237305;15.150683403015137;86.25919342041016
113;1673446120.5937963;47.130641499999996;7.2406182999999995;13.123001098632812;1673446120.61628;20.144317626953125;16.879478454589844;86.52367401123047
114;1673446120.7902818;47.1306416;7.2406185;13.511000633239746;1673446120.8156588;20.4852294921875;17.43510627746582;86.7181625366211
115;1673446120.995554;47.1306417;7.2406185999999995;13.899001121520996;1673446121.0170212;20.768901824951172;16.073530197143555;86.30557250976562
116;1673446121.1960282;47.1306419;7.2406188;14.281001091003418;1673446121.2185106;21.29294776916504;17.431312561035156;86.45879364013672
117;1673446121.3876846;47.130641999999995;7.240619;14.66200065612793;1673446121.411272;21.348834991455078;18.49802017211914;86.68560028076172
118;1673446121.5786388;47.1306422;7.240619199999999;15.046000480651855;1673446121.6030405;21.57177734375;16.774213790893555;86.20316314697266
119;1673446121.7833283;47.1306424;7.2406193;15.434000968933105;1673446121.806765;21.617027282714844;17.923542022705078;86.26618194580078
120;1673446121.9699233;47.1306424;7.2406193;15.822000503540039;1673446121.9944856;21.617345809936523;18.983596801757812;86.58646392822266
121;1673446122.1718283;47.1306424;7.2406193;16.20400047302246;1673446122.2226481;21.469558715820312;16.86357307434082;86.25385284423828
122;1673446122.3839707;47.1306424;7.2406193;16.59200096130371;1673446122.4054513;21.218210220336914;17.244155883789062;86.41078186035156
123;1673446122.5746455;47.1306424;7.240619199999999;16.98200035095215;1673446122.600022;21.192684173583984;18.691280364990234;86.61189270019531
124;1673446122.765104;47.1306425;7.2406191;17.371000289916992;1673446122.7875538;20.90245819091797;16.81442642211914;86.19388580322266
125;1673446122.967507;47.1306425;7.2406191;17.76300048828125;1673446122.991907;20.880104064941406;17.29806137084961;86.23736572265625
126;1673446123.1496918;47.130642599999995;7.2406191;18.154001235961914;1673446123.1717086;20.98531150817871;18.78177833557129;86.64866638183594
127;1673446123.3544307;47.1306425;7.2406191;18.538000106811523;1673446123.377887;20.916488647460938;16.84064483642578;86.2606201171875
128;1673446123.5534742;47.1306424;7.2406191;18.924001693725586;1673446123.5764766;20.98672103881836;16.919780731201172;86.33550262451172
129;1673446123.7681243;47.1306425;7.2406191;19.315000534057617;1673446123.7915502;20.92249298095703;18.69086265563965;86.68216705322266
130;1673446123.9752724;47.1306425;7.2406191;19.70400047302246;1673446123.9957685;20.983875274658203;16.9917049407959;86.33096313476562
131;1673446124.1647353;47.130642599999995;7.240619199999999;20.09400177001953;1673446124.1901202;21.034870147705078;16.984039306640625;86.22879791259766
132;1673446124.3638837;47.130642699999996;7.2406193;20.483001708984375;1673446124.3863428;21.189666748046875;19.047338485717773;86.66035461425781
133;1673446124.5642197;47.130642699999996;7.2406193;20.871000289916992;1673446124.5866673;21.18818473815918;17.541118621826172;86.30770111083984
134;1673446124.7606494;47.130642699999996;7.2406194;21.25400161743164;1673446124.7860274;21.19992446899414;17.070819854736328;86.23961639404297
135;1673446124.968808;47.130642699999996;7.2406194;21.644001007080078;1673446124.9903178;21.17807388305664;18.88245964050293;86.61474609375
136;1673446125.171891;47.130642699999996;7.2406194;22.034000396728516;1673446125.1933742;21.04707908630371;17.36515998840332;86.36486053466797
137;1673446125.3582413;47.130642699999996;7.240619499999999;22.42500114440918;1673446125.378794;21.131511688232422;16.918813705444336;86.27201843261719
138;1673446125.5617342;47.130642599999995;7.2406196;22.812000274658203;1673446125.5803287;21.335346221923828;18.810869216918945;86.54357147216797
139;1673446125.763295;47.130642599999995;7.2406196;23.200000762939453;1673446125.7867267;21.00356674194336;17.490964889526367;86.35832214355469
140;1673446125.9613295;47.1306425;7.2406196;23.582000732421875;1673446125.9827874;21.182905197143555;16.660886764526367;86.29258728027344
141;1673446126.1562805;47.1306425;7.2406196;23.970001220703125;1673446126.1792593;21.005338668823242;18.60671043395996;86.65247344970703
142;1673446126.3584561;47.1306425;7.2406197;24.35900115966797;1673446126.3834062;21.243961334228516;17.540611267089844;86.37956237792969
143;1673446126.5731254;47.1306425;7.2406197;24.753000259399414;1673446126.5955744;21.03463363647461;16.634578704833984;86.21288299560547
144;1673446126.7647896;47.1306425;7.2406197;25.147001266479492;1673446126.785499;21.14328956604004;18.813983917236328;86.61199951171875
145;1673446126.9452128;47.1306425;7.240619799999999;25.543001174926758;1673446126.9672291;21.104257583618164;17.658191680908203;86.40826416015625
146;1673446127.1458898;47.1306425;7.240619799999999;25.939001083374023;1673446127.171818;21.220705032348633;16.705142974853516;86.14631652832031
147;1673446127.34337;47.1306425;7.240619799999999;26.328001022338867;1673446127.3683183;21.120895385742188;18.672779083251953;86.61097717285156
148;1673446127.5468764;47.1306425;7.240619799999999;26.72100067138672;1673446127.5700126;21.06645965576172;17.89702033996582;86.51026916503906
149;1673446127.7455373;47.1306425;7.240619799999999;27.119001388549805;1673446127.7704895;20.96746826171875;16.625202178955078;86.2763671875
150;1673446127.9567888;47.1306425;7.2406197;27.520000457763672;1673446127.9777896;20.9775333404541;18.586044311523438;86.62838745117188
151;1673446128.1543057;47.1306424;7.2406197;27.922000885009766;1673446128.179227;20.98740577697754;17.76323699951172;86.55622863769531
152;1673446128.3924172;47.1306425;7.240619799999999;28.32200050354004;1673446128.4130573;20.98149299621582;16.66029167175293;86.29029846191406
153;1673446128.631572;47.1306424;7.240619799999999;28.715002059936523;1673446128.6550958;21.06853485107422;18.43571662902832;86.60765075683594
154;1673446128.8060915;47.1306425;7.240619799999999;29.10900115966797;1673446128.8295994;21.0152645111084;17.680171966552734;86.39417266845703
155;1673446129.00027;47.1306425;7.240619799999999;29.507001876831055;1673446129.0217628;20.990726470947266;16.76769256591797;86.16958618164062
156;1673446129.1938164;47.130642599999995;7.240619799999999;29.905000686645508;1673446129.2133493;21.126779556274414;18.782562255859375;86.67254638671875
157;1673446129.389214;47.130642599999995;7.240619799999999;30.304000854492188;1673446129.4106882;20.98761558532715;18.21611785888672;86.5512466430664
158;1673446129.58469;47.130642699999996;7.240619799999999;30.702001571655273;1673446129.6032493;21.05442237854004;16.97085189819336;86.23566436767578
159;1673446129.7753346;47.130642699999996;7.2406198999999996;31.10300064086914;1673446129.798759;21.05458641052246;18.994834899902344;86.61476135253906
160;1673446129.9805188;47.130642599999995;7.2406198999999996;31.4950008392334;1673446130.0020597;21.030046463012695;17.883419036865234;86.42780303955078
161;1673446130.1849506;47.130642599999995;7.2406198999999996;31.887001037597656;1673446130.2054954;20.905025482177734;16.718793869018555;86.1761474609375
162;1673446130.3706443;47.1306425;7.2406198999999996;32.28300094604492;1673446130.3931134;21.06938934326172;18.58338737487793;86.5483169555664
163;1673446130.5699918;47.1306425;7.2406198999999996;32.680999755859375;1673446130.5916414;20.960033416748047;17.72661781311035;86.42069244384766
164;1673446130.7715626;47.130642599999995;7.2406198999999996;33.07699966430664;1673446130.7949874;21.063425064086914;16.66987419128418;86.26502990722656
165;1673446130.967427;47.130642599999995;7.24062;33.47300338745117;1673446130.9885898;21.093652725219727;18.706289291381836;86.63575744628906
166;1673446131.1633737;47.1306425;7.24062;33.86300277709961;1673446131.1897564;21.11277198791504;17.56936264038086;86.44851684570312
167;1673446131.3801332;47.1306425;7.2406198999999996;34.25699996948242;1673446131.403556;21.003931045532227;16.668781280517578;86.20520782470703
168;1673446131.595264;47.1306425;7.2406198999999996;34.656002044677734;1673446131.6157672;20.98895263671875;18.382644653320312;86.5545883178711
169;1673446131.7718182;47.1306425;7.2406198999999996;35.05800247192383;1673446131.7903738;20.849716186523438;18.108983993530273;86.52954864501953
170;1673446131.9730678;47.1306425;7.2406198999999996;35.461002349853516;1673446131.993597;21.023273468017578;16.681259155273438;86.17835235595703
171;1673446132.1650155;47.1306425;7.2406198999999996;35.8650016784668;1673446132.1930096;21.057247161865234;18.485965728759766;86.56666564941406
172;1673446132.3754067;47.1306425;7.24062;36.2650032043457;1673446132.4028125;21.155235290527344;18.093841552734375;86.59581756591797
173;1673446132.5749469;47.1306425;7.24062;36.656002044677734;1673446132.5964198;21.01580810546875;16.637048721313477;86.18878936767578
174;1673446132.7790804;47.1306425;7.24062;37.05000305175781;1673446132.8034825;21.191516876220703;17.83765411376953;86.47486114501953
175;1673446132.9871027;47.1306425;7.2406198999999996;37.448001861572266;1673446133.0105257;20.97146987915039;18.350603103637695;86.57856750488281
176;1673446133.1854591;47.1306425;7.2406198999999996;37.84400177001953;1673446133.206931;21.02655029296875;16.49934959411621;86.21136474609375
177;1673446133.3798838;47.1306425;7.240619799999999;38.24400329589844;1673446133.399391;20.877164840698242;18.16097068786621;86.43458557128906
178;1673446133.572336;47.1306425;7.240619799999999;38.64500045776367;1673446133.5948014;21.046810150146484;18.45581817626953;86.62012481689453
179;1673446133.7710414;47.1306425;7.240619799999999;39.035003662109375;1673446133.7920716;20.844636917114258;16.633581161499023;86.17237854003906
180;1673446133.9714081;47.1306425;7.240619799999999;39.42900085449219;1673446133.9943957;20.991491317749023;17.97139549255371;86.487060546875
181;1673446134.182017;47.1306425;7.240619799999999;39.8280029296875;1673446134.2084284;20.703142166137695;18.29047203063965;86.58920288085938
182;1673446134.4048855;47.1306425;7.2406197;40.230003356933594;1673446134.4253812;20.895580291748047;16.601726531982422;86.17227172851562
183;1673446134.6189096;47.1306425;7.2406197;40.63100051879883;1673446134.6403964;20.798580169677734;18.084550857543945;86.40028381347656
184;1673446134.8105907;47.130642599999995;7.2406197;41.02900314331055;1673446134.8310971;20.848222732543945;18.572269439697266;86.63214111328125
185;1673446134.9992628;47.130642599999995;7.2406197;41.42500305175781;1673446135.022688;20.712528228759766;16.795713424682617;86.23176574707031
186;1673446135.1924026;47.130642599999995;7.2406197;41.81300354003906;1673446135.2158282;20.849994659423828;17.896650314331055;86.3414077758789
187;1673446135.3890939;47.130642599999995;7.2406197;42.202003479003906;1673446135.4115882;20.78583526611328;18.669221878051758;86.57088470458984
188;1673446135.6013448;47.130642699999996;7.2406197;42.59400177001953;1673446135.622807;20.85541534423828;16.982322692871094;86.22018432617188
189;1673446135.794274;47.130642699999996;7.2406197;42.987003326416016;1673446135.8196504;21.013702392578125;18.19085121154785;86.4184341430664
190;1673446136.0044925;47.130642699999996;7.240619799999999;43.38200378417969;1673446136.0288937;21.004547119140625;18.64039421081543;86.5699462890625
191;1673446136.2067313;47.130642699999996;7.240619799999999;43.77800369262695;1673446136.2261984;20.92477035522461;16.91020393371582;86.24545288085938
192;1673446136.3890963;47.130642599999995;7.240619799999999;44.165000915527344;1673446136.4125316;21.05350112915039;17.7968807220459;86.51688385009766
193;1673446136.677145;47.130642699999996;7.2406198999999996;44.560001373291016;1673446136.6937423;21.01835060119629;18.809995651245117;86.66761016845703
194;1673446136.8528228;47.130642699999996;7.2406198999999996;44.958003997802734;1673446136.8714175;21.02060317993164;16.798017501831055;86.0928726196289
195;1673446137.0327644;47.130642599999995;7.240619799999999;45.35400390625;1673446137.0543237;20.962539672851562;17.887807846069336;86.40616607666016
196;1673446137.2172627;47.130642599999995;7.240619799999999;45.750003814697266;1673446137.238739;20.834575653076172;18.42057228088379;86.6551284790039
197;1673446137.4026012;47.130642599999995;7.240619799999999;46.147003173828125;1673446137.4260402;20.811309814453125;16.94775390625;86.30036926269531
198;1673446137.6107185;47.130642599999995;7.240619799999999;46.5420036315918;1673446137.628286;20.94707489013672;17.439897537231445;86.34647369384766
199;1673446137.7867196;47.130642599999995;7.240619799999999;46.93000411987305;1673446137.8072174;20.83807945251465;18.986665725708008;86.70147705078125
200;1673446137.9756856;47.130642599999995;7.240619799999999;47.323001861572266;1673446138.0006208;20.773427963256836;16.834070205688477;86.28145599365234
201;1673446138.2186253;47.130642599999995;7.240619799999999;47.717002868652344;1673446138.2391303;20.89537811279297;17.86608123779297;86.31912994384766
202;1673446138.4592333;47.130642599999995;7.240619799999999;48.10700225830078;1673446138.4900439;20.620304107666016;18.679889678955078;86.72279357910156
203;1673446138.6429534;47.130642699999996;7.2406198999999996;48.45500183105469;1673446138.6635542;21.081363677978516;17.6758975982666;86.47871398925781
204;1673446138.8229406;47.1306428;7.2406201;48.75200271606445;1673446138.8463664;21.222278594970703;18.15524673461914;86.35399627685547
205;1673446139.015072;47.130643;7.2406204;48.992000579833984;1673446139.0375223;21.530118942260742;19.23098373413086;86.64676666259766
206;1673446139.1948984;47.1306431;7.240620799999999;49.19600296020508;1673446139.2153935;21.846481323242188;17.628360748291016;86.23451232910156
207;1673446139.3931313;47.130643199999994;7.240621099999999;49.375003814697266;1673446139.4136379;26.34263801574707;20.23050308227539;86.5871810913086
208;1673446139.5875008;47.130643299999996;7.240621099999999;49.509002685546875;1673446139.6109009;31.894100189208984;23.460657119750977;82.66859436035156
209;1673446139.792111;47.130643199999994;7.240620799999999;49.57100296020508;1673446139.8152776;34.86109924316406;18.5625057220459;68.85263061523438
210;1673446140.004956;47.1306425;7.2406201999999995;49.62800216674805;1673446140.0242503;28.253021240234375;6.648602485656738;59.2048225402832
211;1673446140.1932561;47.1306416;7.240619499999999;49.682003021240234;1673446140.22112;34.30263900756836;4.036440849304199;50.307952880859375
212;1673446140.4079971;47.1306407;7.2406185999999995;49.7140007019043;1673446140.4319856;32.54022216796875;-2.5848326683044434;40.46925354003906
213;1673446140.6069252;47.130639599999995;7.2406175;49.750003814697266;1673446140.6311336;30.247812271118164;-6.816643714904785;32.07428741455078
214;1673446140.8068237;47.1306386;7.2406163999999995;49.77900314331055;1673446140.8302748;27.717439651489258;-11.241006851196289;22.93819236755371
215;1673446140.9870245;47.1306377;7.2406153;49.807003021240234;1673446141.0089924;24.77544593811035;-14.662093162536621;13.818235397338867
216;1673446141.207833;47.1306369;7.240614399999999;49.836002349853516;1673446141.2311332;20.826641082763672;-18.498371124267578;4.405869960784912
217;1673446141.3889663;47.1306363;7.240613499999999;49.86300277709961;1673446141.4090493;17.239646911621094;-21.519145965576172;-4.863352298736572
218;1673446141.580823;47.130635899999994;7.2406128;49.87900161743164;1673446141.604251;13.373355865478516;-23.692771911621094;-14.162643432617188
219;1673446141.7688076;47.1306357;7.2406124;49.897003173828125;1673446141.791255;9.498481750488281;-25.13460350036621;-23.10453987121582
220;1673446141.9782743;47.1306357;7.240612199999999;49.92100143432617;1673446142.002694;5.053798675537109;-26.267717361450195;-32.423126220703125
221;1673446142.1765203;47.1306357;7.240612199999999;49.94700241088867;1673446142.1980042;0.04438769444823265;-26.563701629638672;-41.84431457519531
222;1673446142.384629;47.130635899999994;7.240612199999999;49.97200393676758;1673446142.4109995;-4.3834428787231445;-26.635168075561523;-50.593929290771484
223;1673446142.5954452;47.130635999999996;7.240612199999999;49.992000579833984;1673446142.616683;-5.957977294921875;-27.046184539794922;-52.1092414855957
224;1673446142.798315;47.1306363;7.240612199999999;50.009002685546875;1673446142.8240519;-3.449932813644409;-29.92551612854004;-48.241302490234375
225;1673446143.009002;47.1306365;7.240612;50.01100158691406;1673446143.0295353;-1.378641963005066;-30.60691261291504;-46.117156982421875
226;1673446143.212683;47.1306368;7.2406118;50.02100372314453;1673446143.2327397;-0.5076680779457092;-30.030973434448242;-45.31776809692383
227;1673446143.5287714;47.1306371;7.240611599999999;50.03300094604492;1673446143.5414603;0.1431950479745865;-29.114259719848633;-45.14723205566406
228;1673446143.6934159;47.1306373;7.2406114;50.04300308227539;1673446143.710996;0.26876720786094666;-28.478036880493164;-45.125572204589844
229;1673446143.8626106;47.130637199999995;7.2406112;50.04900360107422;1673446143.8939533;0.665674090385437;-28.593854904174805;-45.05883026123047
230;1673446144.0564137;47.1306371;7.2406109999999995;50.05400085449219;1673446144.0769098;0.7546065449714661;-29.255582809448242;-44.98780059814453
231;1673446144.2553825;47.1306369;7.2406108;50.04300308227539;1673446144.2817645;0.7517752051353455;-30.489809036254883;-45.030189514160156
232;1673446144.468715;47.1306367;7.2406108;50.04500198364258;1673446144.4901884;0.25704219937324524;-30.283363342285156;-45.02580261230469
233;1673446144.6553;47.130636599999995;7.2406106999999995;50.05400085449219;1673446144.6733074;-19.559131622314453;-27.725704193115234;-45.54179000854492
234;1673446144.820057;47.130637199999995;7.2406096;50.06500244140625;1673446144.8411572;-39.62080383300781;-20.725173950195312;-47.18034744262695
235;1673446145.0042157;47.1306393;7.240606799999999;50.073001861572266;1673446145.028165;-51.70680236816406;-14.792969703674316;-48.39569091796875
236;1673446145.224305;47.1306436;7.2406011999999995;50.06700134277344;1673446145.246092;-56.52802276611328;-12.700752258300781;-48.41040802001953
237;1673446145.4669092;47.130650499999994;7.2405927;50.03900146484375;1673446145.4866629;-53.511470794677734;-12.94070816040039;-49.27937698364258
238;1673446145.6733232;47.130659699999995;7.2405816;50.00700378417969;1673446145.6943846;-53.828285217285156;-13.128525733947754;-51.701515197753906
239;1673446145.851456;47.130670699999996;7.240568499999999;49.98200225830078;1673446145.8732412;-52.250885009765625;-12.268181800842285;-52.077049255371094
240;1673446146.0553243;47.1306831;7.2405536999999995;49.954002380371094;1673446146.076199;-52.027835845947266;-15.382831573486328;-51.46699905395508
241;1673446146.2466607;47.1306966;7.2405371999999995;49.93800354003906;1673446146.2702067;-50.04836654663086;-16.51840591430664;-51.04800033569336
242;1673446146.4393978;47.1307109;7.240519399999999;49.91800308227539;1673446146.4592714;-48.83924865722656;-18.09416961669922;-50.301876068115234
243;1673446146.6252651;47.1307256;7.240500399999999;49.89400100708008;1673446146.6471848;-47.627044677734375;-18.892921447753906;-50.02460479736328
244;1673446146.8243968;47.1307404;7.2404807;49.86100387573242;1673446146.8479464;-44.26300048828125;-20.63878059387207;-50.19343948364258
245;1673446147.0315974;47.1307554;7.2404603;49.83500289916992;1673446147.052107;-43.72407150268555;-17.86858558654785;-50.71837615966797
246;1673446147.2307515;47.1307705;7.2404397;49.814002990722656;1673446147.2532003;-42.40126419067383;-18.768177032470703;-50.0255126953125
247;1673446147.479144;47.130785599999996;7.240418699999999;49.80900192260742;1673446147.4977288;-44.267539978027344;-19.352684020996094;-50.0965576171875
248;1673446147.6596117;47.130800699999995;7.240397499999999;49.814002990722656;1673446147.6833122;-44.712928771972656;-22.992778778076172;-52.415096282958984
249;1673446147.930489;47.1308155;7.240375599999999;49.816001892089844;1673446147.9792895;-44.14753723144531;-27.069902420043945;-53.07133102416992
250;1673446148.1052692;47.1308296;7.2403531999999995;49.81800079345703;1673446148.1231923;-40.67156219482422;-29.261924743652344;-53.652774810791016
251;1673446148.306414;47.130842699999995;7.2403306;49.80800247192383;1673446148.3223243;-28.07692527770996;-36.597232818603516;-54.7725944519043
252;1673446148.4791472;47.1308544;7.2403087;49.77900314331055;1673446148.5013154;7.765985488891602;-32.14558410644531;-62.75474166870117
253;1673446148.6534517;47.130864599999995;7.2402896;49.689002990722656;1673446148.6754878;14.435672760009766;-9.976243019104004;-57.600704193115234
254;1673446148.845266;47.130873699999995;7.240275;49.58700180053711;1673446148.8664234;13.118790626525879;-4.305522441864014;-47.893524169921875
255;1673446149.0194764;47.1308818;7.2402652;49.557003021240234;1673446149.0401118;25.41459846496582;-5.700413703918457;-46.18669509887695
256;1673446149.2093852;47.1308887;7.2402602;49.557003021240234;1673446149.2305617;32.88455581665039;-10.499513626098633;-45.946800231933594
257;1673446149.4085894;47.1308939;7.2402599;49.59100341796875;1673446149.4312427;41.68673324584961;-16.148902893066406;-46.305091857910156
258;1673446149.606648;47.1308971;7.2402637;49.64200210571289;1673446149.6315203;45.29707336425781;-21.12970733642578;-45.67825698852539
259;1673446149.812661;47.130897999999995;7.240271;49.70500183105469;1673446149.8341317;46.83241653442383;-28.560821533203125;-45.276756286621094
260;1673446150.0038493;47.1308961;7.240280599999999;49.77900314331055;1673446150.0262995;39.97526550292969;-34.08287048339844;-44.35938262939453
261;1673446150.2147486;47.1308922;7.240291099999999;49.8380012512207;1673446150.2401261;22.72999382019043;-41.5618896484375;-45.14311599731445
262;1673446150.4085636;47.130887099999995;7.240300599999999;49.880001068115234;1673446150.4319954;1.4746922254562378;-43.621177673339844;-46.565250396728516
263;1673446150.6068745;47.1308814;7.2403083;49.90300369262695;1673446150.6302977;-4.250062942504883;-34.962249755859375;-49.311676025390625
264;1673446150.8111248;47.130876099999995;7.240314199999999;49.919002532958984;1673446150.8394263;-14.788785934448242;-29.32543182373047;-49.96574783325195
265;1673446151.035917;47.1308714;7.2403186999999996;49.93100357055664;1673446151.0603166;-18.599702835083008;-24.534212112426758;-51.05712127685547
266;1673446151.228207;47.1308679;7.2403219;49.94200134277344;1673446151.252672;-19.683565139770508;-21.641286849975586;-50.95092010498047
267;1673446151.4242373;47.1308657;7.2403241;49.948001861572266;1673446151.445745;-18.88856315612793;-19.415973663330078;-50.90385818481445
268;1673446151.6295953;47.1308647;7.2403255;49.9530029296875;1673446151.651126;-15.412679672241211;-17.798952102661133;-50.6009407043457
269;1673446151.8289607;47.1308648;7.2403262999999995;49.957000732421875;1673446151.854341;-11.550007820129395;-16.959550857543945;-50.48708724975586
270;1673446152.027713;47.1308656;7.240327;49.96000289916992;1673446152.0462568;-5.732409477233887;-18.752262115478516;-50.37526321411133
271;1673446152.2123544;47.1308669;7.2403279;49.9640007019043;1673446152.233841;-0.6284428834915161;-21.100614547729492;-50.05928421020508
272;1673446152.401138;47.130868299999996;7.2403292;49.967002868652344;1673446152.423585;3.1016647815704346;-23.2236385345459;-49.996219635009766
273;1673446152.6063576;47.1308699;7.240330999999999;49.858001708984375;1673446152.6268537;-3.3360745906829834;10.913979530334473;-52.96246337890625
274;1673446152.818364;47.1308716;7.2403331;49.37700271606445;1673446152.8428068;-4.834140777587891;56.24213790893555;-58.214656829833984
275;1673446153.0609221;47.130873199999996;7.240335099999999;48.51400375366211;1673446153.0794673;-1.7997604608535767;100.95956420898438;-58.64694595336914
276;1673446153.2634501;47.1308748;7.2403372;47.285003662109375;1673446153.2810252;-0.19889208674430847;130.4823455810547;-53.92536544799805
277;1673446153.4473355;47.1308766;7.240339499999999;45.677001953125;1673446153.474709;-2.012293577194214;141.3843994140625;-47.11808395385742
278;1673446153.6447093;47.130878599999996;7.2403420999999994;43.707000732421875;1673446153.6681345;-8.051133155822754;130.47735595703125;-41.764774322509766
279;1673446153.845123;47.1308806;7.240345;41.38100051879883;1673446153.8695333;-12.513816833496094;94.35960388183594;-30.942790985107422
280;1673446154.0385349;47.1308827;7.2403479;38.71000289916992;1673446154.0638797;-8.133191108703613;36.52143478393555;-16.102880477905273
281;1673446154.2302346;47.1308848;7.2403505;35.647003173828125;1673446154.2517083;8.965313911437988;-26.866573333740234;-13.641057014465332
282;1673446154.4238083;47.130887;7.2403534;32.19000244140625;1673446154.4452653;15.954636573791504;-66.88286590576172;-19.516010284423828
283;1673446154.618192;47.130889499999995;7.2403566999999995;28.386001586914062;1673446154.6425917;16.91627311706543;-69.99639892578125;-15.50954532623291
284;1673446154.8217118;47.1308921;7.240360399999999;24.255001068115234;1673446154.8422098;6.516249179840088;-33.152862548828125;-0.24727436900138855
285;1673446155.0238614;47.1308949;7.2403645999999995;19.760000228881836;1673446155.0463085;-18.393970489501953;27.391136169433594;1.5760719776153564
286;1673446155.2347853;47.130897499999996;7.2403686;14.87700080871582;1673446155.258211;-31.727272033691406;79.53624725341797;-10.91875171661377
287;1673446155.428241;47.1309002;7.2403723;9.677000045776367;1673446155.4497216;-36.9193115234375;80.50840759277344;-5.966479778289795
288;1673446155.6226373;47.130902999999996;7.2403756999999995;4.175000190734863;1673446155.6450858;-24.0661563873291;26.956754684448242;21.12838363647461
289;1673446155.8169544;47.130907;7.240376899999999;0.13199999928474426;1673446155.8403807;-12.630470275878906;-7.42171573638916;25.85297203063965
290;1673446156.018393;47.1309154;7.2403727;0.21800000965595245;1673446156.0389419;-7.601970195770264;-4.912937641143799;41.09376907348633
291;1673446156.2093527;47.130923499999994;7.2403675;0.19200000166893005;1673446156.2308767;-6.8833746910095215;-7.701185703277588;40.64685821533203
292;1673446156.411782;47.130931499999996;7.2403625;0.17500001192092896;1673446156.4353569;-6.841090202331543;-6.271185398101807;40.35637283325195
293;1673446156.6125436;47.1309392;7.240357899999999;0.15200001001358032;1673446156.639878;-6.747771263122559;-6.815664291381836;40.091182708740234
294;1673446156.8486335;47.130946599999994;7.2403539;0.125;1673446156.8701053;-6.60667085647583;-6.809415817260742;39.82795715332031
295;1673446157.0633314;47.130953399999996;7.2403504;0.09700000286102295;1673446157.0867662;-6.409229755401611;-7.004632472991943;39.550601959228516
296;1673446157.2777207;47.1309611;7.240346499999999;0.06200000271201134;1673446157.294865;-6.287655830383301;-7.237310886383057;39.335018157958984
297;1673446157.4476662;47.1309705;7.2403419;0.03100000135600567;1673446157.4701297;-6.1998114585876465;-7.392936706542969;39.120357513427734
298;1673446157.6441813;47.130981;7.2403369;0.0010000000474974513;1673446157.6677644;-6.103859901428223;-7.481556415557861;38.948646545410156
299;1673446157.8291733;47.130992299999996;7.240331599999999;-0.027000000700354576;1673446157.8497517;-6.076323986053467;-7.533771514892578;38.75107955932617
300;1673446158.052185;47.1310047;7.240326;-0.05700000375509262;1673446158.0756109;-5.974351406097412;-7.519096851348877;38.561378479003906
301;1673446158.2441356;47.131016699999996;7.2403205999999996;-0.08400000631809235;1673446158.262679;-5.9090776443481445;-7.464370250701904;38.35989761352539
302;1673446158.4455678;47.1310297;7.2403148999999996;-0.11300000548362732;1673446158.4666054;-5.860624313354492;-7.381504535675049;38.22688293457031
303;1673446158.6517155;47.1310432;7.240309099999999;-0.15400001406669617;1673446158.672706;-5.817817687988281;-7.23574161529541;38.072059631347656
304;1673446158.8508694;47.1310572;7.2403033;-0.19300000369548798;1673446158.8708398;-5.762045860290527;-7.100539207458496;37.93963623046875
305;1673446159.051921;47.1310715;7.2402973;-0.22600001096725464;1673446159.1258411;-5.704510688781738;-6.972754955291748;37.83045196533203
306;1673446159.3068423;47.1310863;7.2402912;-0.2550000250339508;1673446159.3217494;-5.630352973937988;-6.826002597808838;37.737632751464844
307;1673446159.4827268;47.1311016;7.2402850999999995;-0.2840000092983246;1673446159.5063584;-5.563305854797363;-6.675754547119141;37.65897750854492
308;1673446159.6699083;47.1311172;7.2402788;-0.3110000193119049;1673446159.6875691;-5.548418045043945;-6.580284595489502;37.597206115722656
309;1673446159.8586726;47.131133399999996;7.240272399999999;-0.3540000021457672;1673446159.8776565;-5.501598834991455;-6.489647388458252;37.54676818847656
310;1673446160.046594;47.1311506;7.2402656;-0.3920000195503235;1673446160.0717146;-5.4514570236206055;-6.403562068939209;37.525978088378906
311;1673446160.2548337;47.131166799999995;7.2402593;-0.4190000295639038;1673446160.2757137;-5.385258197784424;-6.29476261138916;37.475948333740234
312;1673446160.4395683;47.1311841;7.2402527;-0.44300001859664917;1673446160.4590075;-5.328304767608643;-6.234167575836182;37.43779373168945
313;1673446160.6525154;47.1312017;7.2402459;-0.4660000205039978;1673446160.6747289;-5.2554168701171875;-6.178924083709717;37.395957946777344
314;1673446160.8465967;47.1312198;7.240239099999999;-0.48500001430511475;1673446160.8676643;-5.1632771492004395;-6.07844352722168;37.38595199584961
315;1673446161.0348365;47.1312382;7.2402321999999995;-0.5020000338554382;1673446161.0565164;-5.174996376037598;-6.014875888824463;37.3523063659668
316;1673446161.2408826;47.131257299999994;7.2402251;-0.534000039100647;1673446161.2626572;-5.130771636962891;-5.960156440734863;37.307430267333984
317;1673446161.4587176;47.1312767;7.240217899999999;-0.5600000023841858;1673446161.4805255;-5.069627285003662;-5.913971424102783;37.294921875
318;1673446161.6588635;47.1312964;7.240210599999999;-0.5760000348091125;1673446161.71178;-5.022895336151123;-5.839084625244141;37.274391174316406
319;1673446161.8766477;47.1313165;7.240203299999999;-0.5870000123977661;1673446161.8997557;-4.998727798461914;-5.791746616363525;37.258155822753906
320;1673446162.0796828;47.1313247;7.2402004;-0.593000054359436;1673446162.1026788;-4.968574523925781;-5.755533695220947;37.23689270019531
321;;;;;1673446162.2739246;-4.935592174530029;-5.69087028503418;37.22407150268555
322;;;;;1673446162.4578454;-4.87075662612915;-5.652403831481934;37.2274055480957
323;;;;;1673446162.6437755;-4.802445888519287;-5.7111005783081055;37.24346160888672
324;;;;;1673446162.842794;-4.732074737548828;-5.730773448944092;37.23697280883789
325;;;;;1673446163.0519748;-4.7089080810546875;-5.714110851287842;37.22951126098633
326;;;;;1673446163.2619867;-4.69511079788208;-5.717831611633301;37.21546936035156
327;;;;;1673446163.4667108;-4.7003703117370605;-5.7001495361328125;37.18492889404297
328;;;;;1673446163.6556933;-4.634472846984863;-5.686778545379639;37.160579681396484
