;pos_time;latitude;longitude;altitude;alt_time;pitch;roll;yaw
0;1673304148.3059382;47.1306425;7.2406196;-0.01900000125169754;1673304148.478823;0.0562678761780262;-0.7046034932136536;89.92108917236328
1;1673304148.5063078;47.1306425;7.2406197;-0.020000001415610313;1673304148.6906867;0.0724639743566513;0.5624783635139465;89.909423828125
2;1673304148.7219174;47.1306425;7.2406197;-0.020000001415610313;1673304148.8899732;0.12764565646648407;-0.012329228222370148;90.09396362304688
3;1673304148.9178214;47.1306424;7.2406197;-0.021000001579523087;1673304149.0941963;0.1456308364868164;0.1978129744529724;90.05082702636719
4;1673304149.1224968;47.1306424;7.2406196;-0.017000000923871994;1673304149.2944148;0.13248100876808167;0.19081935286521912;89.99620056152344
5;1673304149.3305268;47.1306424;7.2406196;-0.014000000432133675;1673304149.4940498;0.20951515436172485;0.2408352643251419;90.00520324707031
6;1673304149.5302417;47.1306424;7.2406196;-0.014000000432133675;1673304149.7026281;-0.06748341023921967;0.036532506346702576;90.20341491699219
7;1673304149.7309313;47.1306424;7.2406196;-0.014000000432133675;1673304149.8842452;0.08800067007541656;0.2402978539466858;90.02175903320312
8;1673304149.9115608;47.1306424;7.2406196;-0.017000000923871994;1673304150.0967166;0.373396098613739;0.08031021058559418;90.03900909423828
9;1673304150.124193;47.1306424;7.2406196;-0.018000001087784767;1673304150.3075879;-0.06402584910392761;0.07837393879890442;89.87516784667969
10;1673304150.3350642;47.1306424;7.240619799999999;0.0020000000949949026;1673304150.5010984;-0.11266414821147919;0.14959479868412018;89.74799346923828
11;1673304150.5304105;47.1306424;7.24062;0.0020000000949949026;1673304150.7208192;-0.3373209238052368;0.0061439815908670425;90.02570343017578
12;1673304150.7492647;47.1306424;7.2406201;0.0;1673304150.9780145;-0.12642516195774078;0.1119881346821785;89.96304321289062
13;1673304151.0004945;47.1306424;7.2406201;-0.0020000000949949026;1673304151.1368594;-0.2462296336889267;-0.03719046711921692;89.99979400634766
14;1673304151.1610696;47.1306424;7.24062;-0.006000000052154064;1673304151.324891;-0.23745916783809662;0.03564528748393059;90.11891174316406
15;1673304151.351978;47.1306423;7.2406201;-0.00800000037997961;1673304151.5190973;-0.70616614818573;0.08736713230609894;90.01752471923828
16;1673304151.5500908;47.1306424;7.2406201;-0.012000000104308128;1673304151.718956;-0.48312902450561523;0.01170781347900629;90.10403442382812
17;1673304151.7449667;47.1306424;7.2406201;-0.014000000432133675;1673304151.9121728;-0.5396007299423218;0.016249045729637146;90.24545288085938
18;1673304151.9421256;47.1306424;7.2406201;-0.0010000000474974513;1673304152.1070366;-0.7248619198799133;0.037897855043411255;90.15142822265625
19;1673304152.1369894;47.1306424;7.2406201;0.0;1673304152.3071299;-0.7440062165260315;0.7760597467422485;90.12788391113281
20;1673304152.3369405;47.1306424;7.2406201;0.003000000026077032;1673304152.5061278;-0.8452490568161011;-0.1487000584602356;89.95828247070312
21;1673304152.5327687;47.1306425;7.2406201;0.006000000052154064;1673304152.7081165;-0.8196980357170105;-0.18852615356445312;90.03289031982422
22;1673304152.734367;47.1306425;7.2406201;0.003000000026077032;1673304152.8990119;-1.1178419589996338;0.016785182058811188;90.07576751708984
23;1673304152.9281485;47.1306425;7.2406201999999995;0.003000000026077032;1673304153.0959468;-1.8977813720703125;-0.02132316492497921;90.13334655761719
24;1673304153.1242816;47.1306425;7.2406201999999995;0.003000000026077032;1673304153.2870088;-2.694775342941284;0.08368276804685593;91.50416564941406
25;1673304153.315107;47.1306425;7.2406204;0.0010000000474974513;1673304153.4814842;1.0744825601577759;0.22960391640663147;94.41667938232422
26;1673304153.5121405;47.130642599999995;7.2406216;-0.003000000026077032;1673304153.676016;4.412999153137207;0.029001371935009956;92.73851776123047
27;1673304153.7048311;47.130642599999995;7.2406236999999996;0.004000000189989805;1673304153.882258;11.259294509887695;0.13613636791706085;92.54932403564453
28;1673304153.9179637;47.130642699999996;7.2406267;0.01600000075995922;1673304154.093128;15.970842361450195;1.168144702911377;92.12294006347656
29;1673304154.1213098;47.130642699999996;7.240630599999999;0.02800000086426735;1673304154.2992175;15.55797004699707;1.6012357473373413;91.68653106689453
30;1673304154.3282983;47.1306428;7.2406352;0.05000000074505806;1673304154.508009;16.33591079711914;0.8799222111701965;91.26390838623047
31;1673304154.5411613;47.1306428;7.2406405;0.08400000631809235;1673304154.6912122;17.854787826538086;0.8784967064857483;91.0342788696289
32;1673304154.7190347;47.1306428;7.2406463;0.12800000607967377;1673304154.9050076;19.65462303161621;1.131704568862915;90.83686828613281
33;1673304154.933092;47.1306429;7.2406523;0.19300000369548798;1673304155.1060464;21.55692481994629;0.7692274451255798;90.57005310058594
34;1673304155.1477728;47.130643;7.2406583;0.27400001883506775;1673304155.326461;23.55986213684082;0.724932849407196;90.44189453125
35;1673304155.3548563;47.130643;7.2406643;0.3660000264644623;1673304155.5148013;25.632413864135742;0.6762170195579529;90.37533569335938
36;1673304155.5433033;47.1306431;7.24067;0.4520000219345093;1673304155.7089994;27.70166015625;0.7396332621574402;90.28129577636719
37;1673304155.735413;47.130643199999994;7.2406754;0.5270000100135803;1673304155.9203079;29.859798431396484;0.6849578022956848;90.26757049560547
38;1673304155.9486113;47.130643199999994;7.240680299999999;0.5850000381469727;1673304156.1216767;31.988601684570312;0.3780372440814972;90.11683654785156
39;1673304156.1499808;47.130643299999996;7.240684399999999;0.6340000033378601;1673304156.3072453;34.14396667480469;0.7528173327445984;90.16889190673828
40;1673304156.3306699;47.130643299999996;7.2406878;0.6720000505447388;1673304156.509583;36.324466705322266;0.7196818590164185;90.07077026367188
41;1673304156.5349593;47.130643299999996;7.2406901999999995;0.7090000510215759;1673304156.6932006;38.55010986328125;0.40043866634368896;89.90464782714844
42;1673304156.7206979;47.1306434;7.2406915;0.7450000643730164;1673304156.928704;40.70426940917969;0.7042878270149231;89.98946380615234
43;1673304156.9760418;47.1306434;7.2406916;0.7740000486373901;1673304157.125805;42.87423324584961;0.807059109210968;90.06031799316406
44;1673304157.1552389;47.1306434;7.2406903;0.800000011920929;1673304157.3055396;45.08012008666992;0.5049139857292175;89.9552230834961
45;1673304157.3329089;47.1306434;7.2406877;0.8230000138282776;1673304157.505681;47.34230041503906;0.691185712814331;89.94571685791016
46;1673304157.5410106;47.130643299999996;7.240683499999999;0.8450000286102295;1673304157.7219765;48.262760162353516;0.7314137816429138;90.07792663574219
47;1673304157.7444234;47.130643199999994;7.2406777;0.8630000352859497;1673304157.9096181;43.96177673339844;0.6098557114601135;90.12193298339844
48;1673304157.937925;47.1306431;7.240670499999999;0.8750000596046448;1673304158.098096;39.15266036987305;0.6116394400596619;90.01606750488281
49;1673304158.1451888;47.130643;7.2406627;0.8840000629425049;1673304158.2921736;33.023868560791016;0.37928706407546997;89.95103454589844
50;1673304158.3190498;47.1306429;7.240654699999999;0.8950000405311584;1673304158.5166523;30.41544532775879;0.44885942339897156;90.04795837402344
51;1673304158.549832;47.1306428;7.2406470999999994;0.9740000367164612;1673304158.70797;24.851543426513672;0.0584854930639267;89.9959945678711
52;1673304158.7362735;47.130642699999996;7.240640099999999;1.0740000009536743;1673304158.9131606;20.72428321838379;0.11881529539823532;89.94184875488281
53;1673304158.936585;47.130642599999995;7.2406342;1.1810001134872437;1673304159.095833;19.092288970947266;0.3425629734992981;90.02527618408203
54;1673304159.12316;47.130642599999995;7.2406296999999995;1.3010001182556152;1673304159.2922482;18.8212833404541;0.3417516052722931;89.96174621582031
55;1673304159.323525;47.1306425;7.2406266;1.4250000715255737;1673304159.4956093;20.143346786499023;-0.8423337340354919;89.5323257446289
56;1673304159.5248933;47.1306425;7.2406247;1.5550000667572021;1673304159.69914;22.133508682250977;1.8717777729034424;98.04591369628906
57;1673304159.7401524;47.1306424;7.2406239;1.6990001201629639;1673304159.9035947;24.216533660888672;1.5216996669769287;97.9045181274414
58;1673304159.9270177;47.1306424;7.2406236999999996;1.8500001430511475;1673304160.0944195;26.245075225830078;-1.289771318435669;96.97782897949219
59;1673304160.1219053;47.1306423;7.2406238;2.013000011444092;1673304160.2927806;27.8958683013916;1.1348075866699219;97.6180419921875
60;1673304160.3213005;47.1306422;7.2406241;2.186000108718872;1673304160.499136;28.89999008178711;1.7285531759262085;97.96443939208984
61;1673304160.5264645;47.1306422;7.2406242999999995;2.375;1673304160.6856759;29.480989456176758;-0.8402152061462402;96.95679473876953
62;1673304160.7139812;47.1306422;7.2406242999999995;2.568000078201294;1673304160.886077;29.568078994750977;0.5549512505531311;96.93612670898438
63;1673304160.9164073;47.1306422;7.2406242;2.757000207901001;1673304161.0897636;29.417722702026367;2.074939727783203;97.51504516601562
64;1673304161.1195805;47.1306422;7.2406238;2.949000120162964;1673304161.3007338;28.96433448791504;-0.9997308850288391;96.69271850585938
65;1673304161.3450036;47.130642099999996;7.2406234;3.1450002193450928;1673304161.5118709;28.584007263183594;-1.2704575061798096;96.6844711303711
66;1673304161.5401518;47.1306419;7.2406229;3.3400001525878906;1673304161.7052898;28.11378288269043;1.1571468114852905;97.4926528930664
67;1673304161.7306142;47.1306418;7.2406223999999995;3.5370001792907715;1673304161.8898563;27.57699203491211;-1.287952184677124;96.84489440917969
68;1673304161.9162087;47.1306417;7.2406219;3.7350001335144043;1673304162.0980687;27.344587326049805;-1.6046756505966187;96.59199523925781
69;1673304162.1263723;47.1306418;7.2406215;3.938000202178955;1673304162.297322;27.255056381225586;1.1099551916122437;97.35380554199219
70;1673304162.3307257;47.1306418;7.2406212;4.13700008392334;1673304162.516892;27.272546768188477;0.5398657917976379;97.1673812866211
71;1673304162.5452995;47.1306419;7.240621;4.332000255584717;1673304162.7113345;27.120704650878906;-1.6869884729385376;96.5042953491211
72;1673304162.7378552;47.1306419;7.240620799999999;4.527000427246094;1673304162.9257262;27.063596725463867;0.7832162976264954;97.11626434326172
73;1673304162.9619832;47.1306419;7.2406206;4.720000267028809;1673304163.126723;27.20372772216797;0.9717907309532166;97.29595184326172
74;1673304163.1511226;47.1306419;7.2406204999999995;4.9160003662109375;1673304163.3091774;27.298681259155273;-1.340958595275879;96.54008483886719
75;1673304163.3364463;47.130642099999996;7.2406204999999995;5.110000133514404;1673304163.49787;27.28014373779297;0.9351215958595276;97.0380859375
76;1673304163.5271626;47.130642099999996;7.2406204999999995;5.304000377655029;1673304163.6971228;27.637012481689453;1.788497805595398;97.48566436767578
77;1673304163.7246156;47.130642099999996;7.2406204999999995;5.499000072479248;1673304163.9061563;27.56864356994629;-0.6080673933029175;96.76516723632812
78;1673304163.9384065;47.1306422;7.2406206;5.697000503540039;1673304164.1095598;27.696182250976562;0.07195838540792465;96.94881439208984
79;1673304164.1389468;47.130642099999996;7.2406206;5.896000385284424;1673304164.3168874;27.82415008544922;2.1679136753082275;97.56298065185547
80;1673304164.350264;47.130642099999996;7.2406207;6.0970001220703125;1673304164.5259304;27.74540138244629;-0.6277875900268555;96.73524475097656
81;1673304164.5493484;47.130642099999996;7.2406207;6.295000076293945;1673304164.7360423;27.660608291625977;-0.3232751488685608;96.7544174194336
82;1673304164.7674122;47.1306422;7.2406206;6.494000434875488;1673304164.9821527;27.66063690185547;2.365454912185669;97.43641662597656
83;1673304165.0100288;47.1306422;7.2406206;6.691000461578369;1673304165.1772156;27.6300106048584;-0.28256163001060486;96.8802719116211
84;1673304165.2052548;47.1306422;7.2406206;6.886000156402588;1673304165.3583;27.57016372680664;-0.8553235530853271;96.72278594970703
85;1673304165.380778;47.130642099999996;7.2406204999999995;7.078000545501709;1673304165.520771;27.551069259643555;1.6599533557891846;97.40928649902344
86;1673304165.565875;47.130641999999995;7.2406206;7.276000499725342;1673304165.7401261;27.690216064453125;0.18731269240379333;97.05339050292969
87;1673304165.7696753;47.130642099999996;7.2406206;7.4760003089904785;1673304165.961389;27.643341064453125;-1.081512451171875;96.61009216308594
88;1673304166.0016694;47.130642099999996;7.2406207;7.676000595092773;1673304166.186915;27.781747817993164;1.9163082838058472;97.48900604248047
89;1673304166.2105684;47.130642099999996;7.2406207;7.87600040435791;1673304166.351211;27.79719352722168;0.8619627356529236;97.21818542480469
90;1673304166.3786068;47.130642099999996;7.2406207;8.074000358581543;1673304166.5537584;27.758338928222656;-1.283315896987915;96.54100036621094
91;1673304166.585974;47.130642099999996;7.2406207;8.273000717163086;1673304166.735696;27.720863342285156;1.27828049659729;97.35263061523438
92;1673304166.757169;47.130641999999995;7.2406207;8.476000785827637;1673304166.9214046;27.84035873413086;1.37723970413208;97.40885925292969
93;1673304166.9487395;47.130641999999995;7.2406207;8.678000450134277;1673304167.1226082;27.79807472229004;-1.2230128049850464;96.58282470703125
94;1673304167.1528645;47.130642099999996;7.240620799999999;8.879000663757324;1673304167.3312943;27.752098083496094;1.026811122894287;97.0586166381836
95;1673304167.3615506;47.130642099999996;7.240620799999999;9.079000473022461;1673304167.5258992;27.859128952026367;1.938568115234375;97.28120422363281
96;1673304167.5561645;47.130642099999996;7.2406207;9.27500057220459;1673304167.7312636;27.736629486083984;-1.0837713479995728;96.53462982177734
97;1673304167.7566972;47.130641999999995;7.2406207;9.473000526428223;1673304167.9337234;27.672000885009766;0.48703205585479736;97.0604248046875
98;1673304167.961052;47.1306419;7.2406206;9.672000885009766;1673304168.104671;27.70736312866211;1.9470505714416504;97.56143951416016
99;1673304168.1310227;47.1306419;7.2406206;9.874000549316406;1673304168.305142;27.65869903564453;-0.8938497304916382;96.72245025634766
100;1673304168.33247;47.1306419;7.2406206;10.079000473022461;1673304168.4936242;27.39403533935547;0.006241776514798403;96.94615173339844
101;1673304168.5229402;47.1306419;7.2406204999999995;10.32800006866455;1673304168.7153535;27.875282287597656;1.7960336208343506;97.46934509277344
102;1673304168.7465873;47.1306419;7.24062;10.688000679016113;1673304168.9352424;28.292781829833984;0.3265949487686157;97.26840209960938
103;1673304168.9645753;47.1306419;7.2406194;11.081000328063965;1673304169.1363509;26.43238067626953;-0.8512483835220337;96.69182586669922
104;1673304169.1617277;47.1306419;7.2406188;11.482000350952148;1673304169.323892;25.782609939575195;1.3738454580307007;97.4038314819336
105;1673304169.3522499;47.1306419;7.2406182999999995;11.88800048828125;1673304169.5234158;25.262067794799805;0.4582923948764801;97.10891723632812
106;1673304169.5517545;47.1306419;7.240617899999999;12.296000480651855;1673304169.7316573;25.01569366455078;-1.2233316898345947;96.53053283691406
107;1673304169.7590308;47.130641999999995;7.2406178;12.706000328063965;1673304169.9234056;25.36358070373535;1.0867784023284912;97.176025390625
108;1673304169.95274;47.130641999999995;7.2406178;13.11400032043457;1673304170.1424596;25.62417221069336;0.8396123051643372;97.1778335571289
109;1673304170.1709867;47.130641999999995;7.2406179999999996;13.518000602722168;1673304170.3515687;25.884965896606445;-1.2648652791976929;96.56275939941406
110;1673304170.3788824;47.130641999999995;7.2406182;13.927000999450684;1673304170.5519285;26.385848999023438;1.3223795890808105;97.23507690429688
111;1673304170.574428;47.130641999999995;7.2406184;14.337000846862793;1673304170.7354767;26.745241165161133;1.3686506748199463;97.3117446899414
112;1673304170.7628572;47.130642099999996;7.2406187;14.747000694274902;1673304170.924753;27.00382423400879;-0.8258163928985596;96.64214324951172
113;1673304170.9511704;47.1306423;7.240619;15.156001091003418;1673304171.134309;27.12811279296875;1.4864541292190552;97.19239044189453
114;1673304171.1657221;47.1306423;7.2406193;15.565000534057617;1673304171.3402977;27.204158782958984;1.7956935167312622;97.45660400390625
115;1673304171.3637235;47.1306423;7.2406194;15.977001190185547;1673304171.5268965;27.254283905029297;-0.7632349729537964;96.59774780273438
116;1673304171.555232;47.1306423;7.240619499999999;16.378000259399414;1673304171.7384782;27.049524307250977;0.8727560043334961;97.04279327392578
117;1673304171.7667794;47.1306423;7.240619499999999;16.784000396728516;1673304171.9317634;27.07868766784668;2.1969847679138184;97.41380310058594
118;1673304171.9699464;47.1306424;7.240619499999999;17.18600082397461;1673304172.132673;26.971385955810547;-0.4282773733139038;96.75959014892578
119;1673304172.1590297;47.1306425;7.240619499999999;17.591001510620117;1673304172.3320253;26.95130157470703;0.5642269253730774;96.95991516113281
120;1673304172.3574367;47.1306424;7.240619499999999;17.992000579833984;1673304172.5247269;26.818885803222656;2.1114916801452637;97.44385528564453
121;1673304172.5590396;47.1306424;7.240619499999999;18.394001007080078;1673304172.7235923;26.801057815551758;-0.9054450392723083;96.68212890625
122;1673304172.7551188;47.1306423;7.2406194;18.78900146484375;1673304172.9271255;26.63744354248047;-0.22670210897922516;96.87723541259766
123;1673304172.9575002;47.1306423;7.2406193;19.19300079345703;1673304173.1285646;26.714662551879883;2.046215772628784;97.53917694091797
124;1673304173.1539466;47.1306423;7.2406193;19.595001220703125;1673304173.3727565;26.620729446411133;-0.14471986889839172;96.95932006835938
125;1673304173.408042;47.1306424;7.2406193;20.003000259399414;1673304173.5706534;26.59945297241211;-0.31635552644729614;96.77239990234375
126;1673304173.593629;47.1306424;7.2406193;20.408000946044922;1673304173.7641094;26.72257423400879;2.218543767929077;97.44255828857422
127;1673304173.79047;47.1306424;7.2406193;20.814001083374023;1673304173.953763;26.80233383178711;0.3045637309551239;97.03031921386719
128;1673304173.9822254;47.1306424;7.2406193;21.21700096130371;1673304174.1500754;26.801563262939453;-0.6645337343215942;96.64225006103516
129;1673304174.18033;47.1306424;7.2406193;21.612001419067383;1673304174.3544393;26.688135147094727;2.158285140991211;97.42095947265625
130;1673304174.3857505;47.1306424;7.2406193;22.014001846313477;1673304174.5665362;26.801647186279297;0.7263230085372925;97.07685089111328
131;1673304174.5930583;47.1306425;7.2406193;22.421001434326172;1673304174.7447758;26.776487350463867;-0.5582666993141174;96.71821594238281
132;1673304174.772154;47.1306425;7.2406193;22.827001571655273;1673304174.957686;26.732614517211914;1.9614022970199585;97.3788833618164
133;1673304174.987047;47.1306425;7.2406193;23.231000900268555;1673304175.1415448;26.824525833129883;1.2425938844680786;97.1852798461914
134;1673304175.1708875;47.1306425;7.2406194;23.63800048828125;1673304175.3478816;26.846946716308594;-0.9076511859893799;96.54156494140625
135;1673304175.3732579;47.1306425;7.2406194;24.034000396728516;1673304175.5441916;26.878618240356445;1.6145519018173218;97.15745544433594
136;1673304175.573472;47.1306425;7.2406194;24.43000030517578;1673304175.7585394;26.72055435180664;1.6752054691314697;97.35472869873047
137;1673304175.7898142;47.1306425;7.2406194;24.83500099182129;1673304175.9444966;26.73653793334961;-0.7683292031288147;96.6142578125
138;1673304175.9669433;47.1306425;7.2406194;25.24100112915039;1673304176.124401;26.878480911254883;1.1560277938842773;97.11751556396484
139;1673304176.2051246;47.1306424;7.2406194;25.643001556396484;1673304176.3898947;26.794042587280273;1.703380823135376;97.37141418457031
140;1673304176.4310045;47.1306423;7.2406194;26.046001434326172;1673304176.5790896;26.867332458496094;-0.9607334136962891;96.59075927734375
141;1673304176.6036756;47.1306423;7.2406194;26.448001861572266;1673304176.767974;26.8212947845459;0.7373350262641907;96.99057006835938
142;1673304176.7953186;47.1306424;7.240619499999999;26.840002059936523;1673304176.9488337;26.915708541870117;2.3517539501190186;97.5836181640625
143;1673304176.9772303;47.1306424;7.240619499999999;27.237001419067383;1673304177.1346252;26.80910873413086;-0.1376836597919464;96.84069061279297
144;1673304177.1590383;47.1306424;7.240619499999999;27.639001846313477;1673304177.323173;26.76660919189453;0.1632000207901001;96.87395477294922
145;1673304177.3524535;47.1306424;7.240619499999999;28.043001174926758;1673304177.5146973;26.764636993408203;2.36630916595459;97.50476837158203
146;1673304177.5410373;47.1306424;7.240619499999999;28.44500160217285;1673304177.727491;26.79197883605957;-0.1975913792848587;96.9176254272461
147;1673304177.7557948;47.1306424;7.240619499999999;28.85000228881836;1673304177.925973;26.81449317932129;-0.12283450365066528;96.76427459716797
148;1673304177.9523182;47.1306424;7.240619499999999;29.244001388549805;1673304178.122282;26.787391662597656;2.303433895111084;97.43599700927734
149;1673304178.1497629;47.1306424;7.240619499999999;29.643001556396484;1673304178.322584;26.89002799987793;0.25615888833999634;96.86808013916016
150;1673304178.3510096;47.1306424;7.2406196;30.042001724243164;1673304178.516953;26.783424377441406;-0.48244354128837585;96.67778015136719
151;1673304178.5463824;47.1306424;7.2406196;30.44300079345703;1673304178.7096155;26.971248626708984;2.0496459007263184;97.46157836914062
152;1673304178.7379203;47.1306424;7.2406196;30.847002029418945;1673304178.9077291;26.88291358947754;0.7846493124961853;97.11109924316406
153;1673304178.9454195;47.1306424;7.2406196;31.25200080871582;1673304179.1212895;26.799179077148438;-0.7858111262321472;96.57640075683594
154;1673304179.1556108;47.1306424;7.2406196;31.65900230407715;1673304179.3345065;26.76569366455078;1.8777512311935425;97.29298400878906
155;1673304179.3628106;47.1306425;7.2406196;32.05500030517578;1673304179.528745;26.772056579589844;1.430099368095398;97.23646545410156
156;1673304179.5561454;47.1306425;7.2406197;32.45500183105469;1673304179.7391205;26.87652015686035;-0.5997199416160583;96.57792663574219
157;1673304179.7664979;47.1306425;7.2406197;32.86000061035156;1673304179.9257812;26.839628219604492;1.6327983140945435;97.25444030761719
158;1673304179.965262;47.1306425;7.2406197;33.2650032043457;1673304180.1260588;26.839458465576172;1.813973307609558;97.39020538330078
159;1673304180.152407;47.1306424;7.2406197;33.67000198364258;1673304180.3283305;26.860578536987305;-0.6600199341773987;96.64524841308594
160;1673304180.3586931;47.1306425;7.2406197;34.07400131225586;1673304180.5288458;26.723329544067383;1.0235580205917358;97.05650329589844
161;1673304180.5610678;47.1306425;7.2406197;34.46900177001953;1673304180.7410498;26.85830307006836;2.21024489402771;97.48368835449219
162;1673304180.7715044;47.1306425;7.2406197;34.86900329589844;1673304180.9334981;26.81284523010254;-0.32062235474586487;96.74380493164062
163;1673304180.961787;47.1306425;7.2406197;35.27000045776367;1673304181.134115;26.907886505126953;0.3509575426578522;96.80608367919922
164;1673304181.1693974;47.1306425;7.240619799999999;35.676002502441406;1673304181.3711944;26.9921817779541;2.311901330947876;97.41416931152344
165;1673304181.3994987;47.1306424;7.240619799999999;36.08100128173828;1673304181.548818;26.97098159790039;0.03077368251979351;96.84368896484375
166;1673304181.578068;47.1306424;7.240619799999999;36.487003326416016;1673304181.7672653;26.90666961669922;-0.1720733791589737;96.73661804199219
167;1673304181.7956247;47.1306424;7.240619799999999;36.89200210571289;1673304181.966382;26.902963638305664;2.317547559738159;97.494384765625
168;1673304181.991818;47.1306424;7.240619799999999;37.285003662109375;1673304182.1657996;26.957735061645508;0.41670507192611694;96.99620819091797
169;1673304182.1982398;47.1306424;7.240619799999999;37.68800354003906;1673304182.3424206;26.846763610839844;-0.3874833881855011;96.70843505859375
170;1673304182.3639958;47.1306424;7.240619799999999;38.092002868652344;1673304182.5327613;26.92776870727539;2.094641923904419;97.40287017822266
171;1673304182.5612185;47.1306424;7.240619799999999;38.49800109863281;1673304182.750581;26.93470573425293;1.0318115949630737;97.17472839355469
172;1673304182.7759852;47.1306424;7.2406197;38.90400314331055;1673304182.9348187;26.88166046142578;-0.6877785325050354;96.61494445800781
173;1673304182.9612772;47.1306424;7.2406197;39.310001373291016;1673304183.137056;26.728843688964844;1.9859726428985596;97.3260726928711
174;1673304183.1643846;47.1306425;7.2406196;39.7030029296875;1673304183.3333783;26.770715713500977;1.4377541542053223;97.26461029052734
175;1673304183.3569586;47.1306425;7.2406196;40.10300064086914;1673304183.527716;26.734760284423828;-0.47309285402297974;96.62303924560547
176;1673304183.5530946;47.1306425;7.2406196;40.505001068115234;1673304183.7214115;26.759660720825195;1.3161866664886475;97.18582916259766
177;1673304183.7487342;47.1306424;7.2406196;40.906002044677734;1673304183.9100795;26.736770629882812;1.714463710784912;97.42633819580078
178;1673304183.9374452;47.1306424;7.240619499999999;41.30800247192383;1673304184.1201653;26.78182601928711;-0.7977518439292908;96.65396881103516
179;1673304184.1485312;47.1306424;7.240619499999999;41.70800018310547;1673304184.3217022;26.677417755126953;0.9499358534812927;96.98481750488281
180;1673304184.354017;47.1306424;7.240619499999999;42.108001708984375;1673304184.5230048;26.944414138793945;2.131537675857544;97.34822845458984
181;1673304184.5526989;47.1306424;7.240619499999999;42.49800109863281;1673304184.763741;26.741403579711914;-0.5283214449882507;96.6451187133789
182;1673304184.7921524;47.1306424;7.240619499999999;42.89500045776367;1673304184.967938;26.78013801574707;0.5767536163330078;96.98627471923828
183;1673304185.0042799;47.1306424;7.240619499999999;43.29900360107422;1673304185.1660988;26.661357879638672;2.4347407817840576;97.52437591552734
184;1673304185.1916366;47.1306424;7.2406194;43.704002380371094;1673304185.3479683;26.656095504760742;-0.27997708320617676;96.77257537841797
185;1673304185.3733363;47.1306425;7.2406194;44.108001708984375;1673304185.5639246;26.569368362426758;0.3610002398490906;96.85393524169922
186;1673304185.610059;47.130642599999995;7.2406194;44.51000213623047;1673304185.7763963;26.682266235351562;2.4795196056365967;97.42938995361328
187;1673304185.7988534;47.130642599999995;7.2406194;44.902000427246094;1673304185.9602199;26.6195125579834;0.2678752839565277;96.86888885498047
188;1673304185.9875576;47.130642599999995;7.2406194;45.301002502441406;1673304186.1604376;26.75281524658203;-0.08786456286907196;96.77086639404297
189;1673304186.1828775;47.130642599999995;7.240619499999999;45.69900131225586;1673304186.3284256;26.771894454956055;2.422942638397217;97.51435852050781
190;1673304186.3547778;47.1306425;7.240619499999999;46.10200119018555;1673304186.5257404;26.86038589477539;0.49221372604370117;97.04976654052734
191;1673304186.5589242;47.1306425;7.2406196;46.509002685546875;1673304186.732835;26.74059295654297;-0.37619057297706604;96.68888854980469
192;1673304186.7611706;47.1306425;7.2406196;46.91800308227539;1673304186.943184;26.839374542236328;2.372251033782959;97.50284576416016
193;1673304186.9793997;47.1306425;7.2406196;47.323001861572266;1673304187.1651893;26.87824249267578;0.9354593753814697;97.08665466308594
194;1673304187.2153494;47.1306425;7.2406196;47.715003967285156;1673304187.3785238;26.789094924926758;-0.781658947467804;96.52813720703125
195;1673304187.4098809;47.1306424;7.2406196;48.108001708984375;1673304187.566581;26.886417388916016;2.0416829586029053;97.61349487304688
196;1673304187.5948865;47.1306424;7.2406197;48.461002349853516;1673304187.7553754;26.86623764038086;1.523164987564087;97.2744140625
197;1673304187.782711;47.1306425;7.2406198999999996;48.7650032043457;1673304187.9449081;27.067771911621094;-0.6850802302360535;96.62052917480469
198;1673304187.977219;47.1306425;7.2406203;49.027000427246094;1673304188.1510038;27.55236053466797;1.6641809940338135;97.13706970214844
199;1673304188.1773648;47.1306425;7.2406207;49.246002197265625;1673304188.3424764;30.623567581176758;5.658514022827148;97.64696502685547
200;1673304188.3698483;47.1306425;7.2406212;49.419002532958984;1673304188.5516186;36.00804901123047;7.665365695953369;93.91352844238281
201;1673304188.5819113;47.1306423;7.2406215;49.538002014160156;1673304188.766586;35.80518341064453;4.913778305053711;80.12489318847656
202;1673304188.7919674;47.1306417;7.2406213;49.58400344848633;1673304188.9611702;27.31017303466797;-12.426558494567871;70.36699676513672
203;1673304188.986562;47.1306405;7.240620799999999;49.64600372314453;1673304189.1477585;30.869277954101562;-13.000370025634766;61.43376922607422
204;1673304189.1745667;47.1306393;7.2406201;49.70000076293945;1673304189.330592;25.980897903442383;-18.48842430114746;51.75748062133789
205;1673304189.3574982;47.130638;7.2406193;49.743003845214844;1673304189.5526721;20.336753845214844;-24.22182273864746;42.502681732177734
206;1673304189.5787358;47.1306368;7.2406182999999995;49.781002044677734;1673304189.7567542;14.587966918945312;-28.000812530517578;33.068748474121094
207;1673304189.7847402;47.1306357;7.2406172;49.802001953125;1673304189.955464;7.992185115814209;-29.679044723510742;23.550535202026367
208;1673304189.9813616;47.130634799999996;7.2406160999999996;49.827003479003906;1673304190.1436725;2.017843246459961;-29.321908950805664;14.119474411010742
209;1673304190.174374;47.130634;7.240615099999999;49.85100173950195;1673304190.3479466;-3.4758012294769287;-28.54854965209961;4.7747087478637695
210;1673304190.3796618;47.130633499999995;7.240614099999999;49.87300109863281;1673304190.5505228;-8.255547523498535;-26.890804290771484;-4.515922546386719
211;1673304190.5744162;47.1306332;7.2406133;49.893001556396484;1673304190.760624;-12.33450698852539;-24.823415756225586;-13.502528190612793
212;1673304190.7943606;47.130632999999996;7.240612499999999;49.91400146484375;1673304190.9636989;-15.340486526489258;-22.61886215209961;-22.330978393554688
213;1673304190.9935904;47.1306331;7.240611899999999;49.92100143432617;1673304191.152411;-16.814777374267578;-21.729372024536133;-30.668254852294922
214;1673304191.1791606;47.1306333;7.2406115;49.93300247192383;1673304191.353821;-19.232154846191406;-20.49875831604004;-39.27775955200195
215;1673304191.3957965;47.1306334;7.2406112;49.95000076293945;1673304191.5717916;-21.557456970214844;-19.625268936157227;-47.51130676269531
216;1673304191.5968237;47.130633499999995;7.2406111;49.96600341796875;1673304191.7692406;-22.57310676574707;-16.97921371459961;-51.83281326293945
217;1673304191.798242;47.130633599999996;7.2406109999999995;49.98500061035156;1673304191.9463844;-22.888830184936523;-15.986284255981445;-48.338531494140625
218;1673304191.9707797;47.1306337;7.2406109999999995;50.00300216674805;1673304192.1380622;-22.292911529541016;-16.02243423461914;-45.6167106628418
219;1673304192.1773822;47.1306337;7.2406111;50.01700210571289;1673304192.3537862;-22.122150421142578;-16.420082092285156;-45.57257843017578
220;1673304192.3821328;47.1306338;7.2406111;50.01300048828125;1673304192.547447;-21.900726318359375;-18.1709041595459;-45.212303161621094
221;1673304192.5792167;47.1306337;7.2406111;50.01300048828125;1673304192.7429407;-21.745119094848633;-20.241567611694336;-44.58864212036133
222;1673304192.769306;47.130633599999996;7.2406111;50.018001556396484;1673304192.9541714;-21.85612678527832;-21.21148109436035;-44.42449951171875
223;1673304192.9807296;47.1306334;7.2406109999999995;50.02800369262695;1673304193.157501;-22.134233474731445;-20.323020935058594;-44.5228271484375
224;1673304193.185059;47.1306333;7.2406109;50.03300094604492;1673304193.354552;-22.561359405517578;-18.01450538635254;-44.699485778808594
225;1673304193.3873298;47.1306331;7.2406108;50.03600311279297;1673304193.5596626;-31.215557098388672;-15.111252784729004;-45.56340789794922
226;1673304193.590725;47.1306331;7.240610599999999;50.02800369262695;1673304193.7412834;-47.3441162109375;-10.948790550231934;-46.41326904296875
227;1673304193.7656925;47.1306334;7.2406095;50.03600311279297;1673304193.937645;-57.443267822265625;-8.57738208770752;-47.302650451660156
228;1673304193.968031;47.1306351;7.2406066;50.044002532958984;1673304194.1403959;-60.171695709228516;-5.455189228057861;-49.80848693847656
229;1673304194.173838;47.1306387;7.240601099999999;50.03900146484375;1673304194.336454;-54.515625;-4.454533576965332;-51.13100814819336
230;1673304194.3658798;47.130643899999995;7.2405933;50.0150032043457;1673304194.5269642;-51.317684173583984;-5.528285503387451;-50.54349899291992
231;1673304194.559079;47.1306502;7.2405838;49.99400329589844;1673304194.7339725;-53.400245666503906;-5.140811443328857;-49.8046989440918
232;1673304194.7627652;47.1306576;7.2405729999999995;49.95900344848633;1673304194.9289293;-51.35422134399414;-5.1757707595825195;-48.74767303466797
233;1673304194.955344;47.1306661;7.2405615999999995;49.9170036315918;1673304195.1269007;-49.66865921020508;-6.426389694213867;-48.7335090637207
234;1673304195.158998;47.1306753;7.240549199999999;49.87700271606445;1673304195.3348467;-48.73044967651367;-6.73534631729126;-48.75520324707031
235;1673304195.3650703;47.130685;7.2405361;49.84400177001953;1673304195.5288458;-47.79045104980469;-7.478605270385742;-48.49634552001953
236;1673304195.5668614;47.1306951;7.240522599999999;49.827003479003906;1673304195.7503312;-49.010902404785156;-8.408533096313477;-48.43722152709961
237;1673304195.7807932;47.1307056;7.2405088;49.81300354003906;1673304195.956007;-48.78654861450195;-9.066420555114746;-48.49729919433594
238;1673304195.9880285;47.1307164;7.240494699999999;49.80800247192383;1673304196.1589448;-48.440513610839844;-9.652201652526855;-48.627986907958984
239;1673304196.1859813;47.1307275;7.2404806;49.802001953125;1673304196.3577294;-48.3547248840332;-9.661121368408203;-48.7537727355957
240;1673304196.3868566;47.130738699999995;7.240466;49.803001403808594;1673304196.5650396;-47.4979133605957;-11.392897605895996;-49.51911926269531
241;1673304196.5938852;47.1307499;7.2404512;49.81800079345703;1673304196.7661722;-48.749237060546875;-10.746726989746094;-50.84354782104492
242;1673304196.7944767;47.130761;7.2404359;49.83100128173828;1673304196.9643662;-48.4261474609375;-12.268396377563477;-50.53409957885742
243;1673304196.9897456;47.130772099999994;7.240420299999999;49.84300231933594;1673304197.1592605;-46.802799224853516;-15.11205768585205;-50.2856330871582
244;1673304197.1859276;47.1307829;7.2404044;49.85600280761719;1673304197.3695593;-46.39591979980469;-16.999862670898438;-51.018131256103516
245;1673304197.4027834;47.1307933;7.2403881;49.86900329589844;1673304197.5770233;-47.246307373046875;-13.785676956176758;-52.33194351196289
246;1673304197.6047246;47.130803199999995;7.240371499999999;49.86900329589844;1673304197.7737827;-29.62330436706543;-13.939590454101562;-51.93199920654297
247;1673304197.8020337;47.1308127;7.2403549;49.8900032043457;1673304197.9780655;19.804250717163086;-17.47545623779297;-51.014530181884766
248;1673304198.0078564;47.130820899999996;7.240340499999999;49.91100311279297;1673304198.1959584;27.46314239501953;-4.085659980773926;-63.2542839050293
249;1673304198.2167847;47.1308278;7.2403296;49.76700210571289;1673304198.3798988;16.242002487182617;-6.567480564117432;-53.097957611083984
250;1673304198.406705;47.1308332;7.2403233;49.465003967285156;1673304198.6160061;13.037788391113281;-7.504542827606201;-46.90385437011719
251;1673304198.6407576;47.1308371;7.240321499999999;49.173004150390625;1673304198.7869854;11.017220497131348;-10.571441650390625;-46.14971160888672
252;1673304198.821739;47.1308393;7.240323699999999;48.98100280761719;1673304198.987337;7.548033237457275;-13.295797348022461;-46.496337890625
253;1673304199.0150814;47.1308406;7.2403287999999995;48.915000915527344;1673304199.1692357;12.390907287597656;-30.029447555541992;-45.56110382080078
254;1673304199.1978598;47.1308405;7.240336;48.98600387573242;1673304199.3607602;8.726240158081055;-44.45408630371094;-44.17548751831055
255;1673304199.3897884;47.130838499999996;7.2403433999999995;49.11000061035156;1673304199.5494044;-7.298205375671387;-43.7593879699707;-44.98365020751953
256;1673304199.5753303;47.1308345;7.240349999999999;49.25200271606445;1673304199.7278378;-15.196971893310547;-38.296566009521484;-47.987586975097656
257;1673304199.756113;47.1308291;7.2403552;49.37200164794922;1673304199.9426286;-14.471967697143555;-30.599149703979492;-49.45552444458008
258;1673304199.9714773;47.1308229;7.240359;49.46900177001953;1673304200.1431127;-7.743410587310791;-24.900516510009766;-49.3268928527832
259;1673304200.172031;47.130816599999996;7.2403621;49.54500198364258;1673304200.3444133;-6.705073833465576;-19.37101173400879;-48.72425842285156
260;1673304200.3723118;47.13081;7.240365499999999;49.599002838134766;1673304200.535855;-10.250234603881836;-12.91496467590332;-48.49094772338867
261;1673304200.5624175;47.1308035;7.2403692;49.64500045776367;1673304200.7342958;-12.821372032165527;-4.175278186798096;-48.51205062866211
262;1673304200.7646108;47.1307976;7.2403735;49.685001373291016;1673304200.93488;-23.68967628479004;4.631994247436523;-48.63752746582031
263;1673304200.960268;47.130792799999995;7.2403787;49.71900177001953;1673304201.1341202;-31.951560974121094;3.5615336894989014;-46.589412689208984
264;1673304201.1594794;47.130789799999995;7.2403843;49.74100112915039;1673304201.3355377;-32.89305114746094;-7.196030139923096;-47.027671813964844
265;1673304201.3648043;47.1307889;7.240389899999999;49.76100158691406;1673304201.535979;-27.459875106811523;-14.061570167541504;-50.71872329711914
266;1673304201.562377;47.1307885;7.2403952;49.60100173950195;1673304201.7345288;-14.394749641418457;-11.573248863220215;-56.626220703125
267;1673304201.7638028;47.1307883;7.2404006999999995;49.08400344848633;1673304201.9340746;7.615573406219482;-3.995330572128296;-62.20087814331055
268;1673304201.9614034;47.1307881;7.2404065;48.202003479003906;1673304202.134859;35.8427619934082;7.93820333480835;-64.31309509277344
269;1673304202.1612232;47.130787999999995;7.240412399999999;46.926002502441406;1673304202.3450732;61.790565490722656;27.80047607421875;-57.45914840698242
270;1673304202.3739257;47.130787999999995;7.2404183;45.259002685546875;1673304202.5466127;75.39987182617188;58.74308776855469;-37.251251220703125
271;1673304202.5809546;47.130787999999995;7.2404242;43.224002838134766;1673304202.7526865;76.75944519042969;48.9522819519043;-53.223236083984375
272;1673304202.7844748;47.1307881;7.2404299;40.81700134277344;1673304202.952273;58.51225280761719;11.223942756652832;-94.052978515625
273;1673304202.9769983;47.1307881;7.2404357;38.069000244140625;1673304203.1475935;22.081645965576172;1.8866117000579834;-102.10981750488281
274;1673304203.1754768;47.130787999999995;7.2404413;34.94900131225586;1673304203.3453457;-16.850967407226562;-7.024225234985352;-102.98464965820312
275;1673304203.373851;47.1307878;7.240446899999999;31.4320011138916;1673304203.53872;-37.36003494262695;-13.317323684692383;-102.8519287109375
276;1673304203.5662196;47.1307878;7.240453;27.538002014160156;1673304203.7352657;-29.647857666015625;-12.073437690734863;-108.86474609375
277;1673304203.761622;47.1307879;7.240459599999999;23.283000946044922;1673304203.9457073;3.3285861015319824;-7.534390449523926;-118.24497985839844
278;1673304203.972644;47.1307882;7.2404667;18.641000747680664;1673304204.1373835;40.37836837768555;-6.408536434173584;-126.95259857177734
279;1673304204.1656976;47.130788599999995;7.240473799999999;13.610000610351562;1673304204.3349044;54.07600402832031;-8.067154884338379;-134.5709686279297
280;1673304204.3651707;47.1307887;7.240480499999999;8.220000267028809;1673304204.5419512;33.57832717895508;-6.566359996795654;-135.7602081298828
281;1673304204.5693295;47.130788599999995;7.2404869;2.491000175476074;1673304204.727537;-1.48392915725708;0.7443581819534302;-129.3134002685547
282;1673304204.754873;47.1307902;7.240494699999999;0.3050000071525574;1673304204.9326646;7.417688369750977;-2.405376434326172;-119.61754608154297
283;1673304204.9699461;47.130793999999995;7.2405062;0.3190000057220459;1673304205.141511;7.045033931732178;-1.4609026908874512;-118.75056457519531
284;1673304205.1700077;47.1307979;7.2405187;0.328000009059906;1673304205.3449535;6.964300632476807;-0.8148865699768066;-118.4491195678711
285;1673304205.3734221;47.130801899999994;7.240531799999999;0.3490000069141388;1673304205.5417361;6.79642391204834;-0.3819122612476349;-118.22664642333984
286;1673304205.5700672;47.1308054;7.2405436;0.3630000054836273;1673304205.752355;6.666355609893799;-0.07660561800003052;-118.06150817871094
287;1673304205.7816818;47.1308085;7.2405539999999995;0.3750000298023224;1673304205.9559264;6.3778886795043945;0.2206229716539383;-117.90169525146484
288;1673304205.9878216;47.1308109;7.2405624;0.3840000033378601;1673304206.1727219;6.111339092254639;0.4434012472629547;-117.80130767822266
289;1673304206.197167;47.1308128;7.2405691;0.39400002360343933;1673304206.3771684;5.81439208984375;0.6860365867614746;-117.78622436523438
290;1673304206.4046836;47.130814099999995;7.240573899999999;0.41200003027915955;1673304206.6072166;5.784111499786377;0.7966815829277039;-117.61148071289062
291;1673304206.6286886;47.130816599999996;7.2405824999999995;0.42900002002716064;1673304206.7590473;5.826685428619385;0.8611275553703308;-117.45144653320312
292;1673304206.7812397;47.130819699999996;7.2405938;0.43300002813339233;1673304206.9605482;5.763298511505127;0.9094073176383972;-117.36672973632812
293;1673304206.9874613;47.1308234;7.2406067;0.4310000240802765;1673304207.1667218;5.748403072357178;0.8786731958389282;-117.26339721679688
294;1673304207.1932776;47.1308274;7.2406207;0.42500001192092896;1673304207.3598287;5.743100166320801;0.9010127782821655;-117.16130065917969
295;1673304207.3926451;47.1308315;7.2406355;0.41600000858306885;1673304207.5486405;5.729904651641846;0.8567395806312561;-117.07230377197266
296;1673304207.5750093;47.1308359;7.2406508999999994;0.406000018119812;1673304207.7385626;5.687737941741943;0.7339587807655334;-117.01731872558594
297;1673304207.7853074;47.1308404;7.2406669;0.3920000195503235;1673304207.9555886;5.679208755493164;0.9016264081001282;-116.99649047851562
298;1673304207.9825826;47.130845;7.2406833;0.3840000033378601;1673304208.1413057;5.693803310394287;0.961996853351593;-116.9866943359375
299;1673304208.1704092;47.1308497;7.2407002;0.37400001287460327;1673304208.3385339;5.642456531524658;1.000301480293274;-117.02142333984375
300;1673304208.369328;47.1308545;7.2407175;0.36400002241134644;1673304208.5454397;5.576488494873047;0.9319131970405579;-117.04581451416016
301;1673304208.576408;47.1308594;7.2407352;0.3540000021457672;1673304208.7485068;5.57726526260376;0.7976939678192139;-117.02643585205078
302;1673304208.7774787;47.1308644;7.2407534;0.33900001645088196;1673304208.951547;5.598725318908691;0.6582786440849304;-117.04158020019531
303;1673304208.9766994;47.1308696;7.240772;0.32600000500679016;1673304209.1553917;5.55966329574585;0.5152588486671448;-117.03218078613281
304;1673304209.1842947;47.1308748;7.240791;0.31300002336502075;1673304209.3645713;5.553234577178955;0.38623037934303284;-117.01783752441406
305;1673304209.401492;47.1308801;7.240810499999999;0.2970000207424164;1673304209.554917;5.571713447570801;0.2510141134262085;-117.01712799072266
306;1673304209.588377;47.1308855;7.2408303;0.28200000524520874;1673304209.7693133;5.557641983032227;0.14167900383472443;-117.01952362060547
307;1673304209.7965076;47.130891;7.2408506;0.26600000262260437;1673304209.9494705;5.483748912811279;0.024918943643569946;-117.00176239013672
308;1673304209.9825478;47.1308966;7.2408712;0.2510000169277191;1673304210.1515167;5.519579887390137;-0.10016302764415741;-116.99815368652344
309;1673304210.1786535;47.130902299999995;7.2408923;0.2370000183582306;1673304210.343348;5.48710823059082;-0.19298522174358368;-116.97476959228516
310;1673304210.372517;47.130908;7.2409137999999995;0.22100001573562622;1673304210.59282;5.4472832679748535;-0.29560020565986633;-116.94266510009766
311;1673304210.6345258;47.130913899999996;7.2409357;0.20200000703334808;1673304210.8045154;5.4344377517700195;-0.3739805519580841;-116.92244720458984
312;1673304210.8256605;47.1309198;7.240958;0.1850000023841858;1673304210.9732254;5.438520908355713;-0.44506412744522095;-116.9050064086914
313;1673304211.0033193;47.1309258;7.2409807;0.164000004529953;1673304211.1494155;5.385763645172119;-0.5308478474617004;-116.86492919921875
314;1673304211.1814303;47.130932;7.2410038;0.1469999998807907;1673304211.3415122;5.359230995178223;-0.5812239050865173;-116.8607177734375
315;1673304211.3695927;47.1309324;7.241005599999999;0.13700000941753387;1673304211.548427;5.2022905349731445;-0.319044291973114;-116.84854888916016
316;;;;;1673304211.7333665;5.240112781524658;-0.29288333654403687;-116.84510803222656
317;;;;;1673304211.950363;5.2019805908203125;-0.2919169068336487;-116.81661987304688
318;;;;;1673304212.1423686;5.223014831542969;-0.2896403670310974;-116.80072021484375
