;pos_time;latitude;longitude;altitude;alt_time;pitch;roll;yaw
0;1673300220.246005;47.1306424;7.2406198999999996;-0.03500000014901161;1673300220.345136;-0.28121018409729004;-0.36449605226516724;90.36031341552734
1;1673300220.4414709;47.1306424;7.2406198999999996;-0.03400000184774399;1673300220.5405986;-0.2804732024669647;0.06915159523487091;90.46527862548828
2;1673300220.6397843;47.1306424;7.2406198999999996;-0.03200000151991844;1673300220.737926;0.008736005052924156;-0.06386924535036087;90.47891235351562
3;1673300220.8302226;47.1306424;7.240619799999999;-0.032999999821186066;1673300220.9285138;-0.06324204802513123;0.028099477291107178;90.40800476074219
4;1673300221.0204766;47.1306424;7.240619799999999;-0.03400000184774399;1673300221.123261;-0.15504825115203857;-0.057385560125112534;90.4935531616211
5;1673300221.2161512;47.1306424;7.240619799999999;-0.030000001192092896;1673300221.3194344;-0.21363283693790436;0.04530704393982887;90.3899154663086
6;1673300221.416749;47.1306424;7.240619799999999;-0.030000001192092896;1673300221.518912;-0.19791670143604279;-0.0921354666352272;90.37100219726562
7;1673300221.6183956;47.1306423;7.2406197;-0.03400000184774399;1673300221.7271552;0.002145573031157255;-0.18532072007656097;90.58258819580078
8;1673300221.8254883;47.1306423;7.2406197;-0.039000000804662704;1673300221.9276397;-0.11486838012933731;0.0019148780265823007;90.4132080078125
9;1673300222.0296974;47.1306423;7.240619799999999;-0.0010000000474974513;1673300222.1388938;-0.09978393465280533;-1.1101826429367065;90.43156433105469
10;1673300222.2368524;47.1306423;7.240619799999999;0.0;1673300222.3390052;-0.07339365035295486;-0.5833476185798645;90.31256866455078
11;1673300222.4375408;47.1306423;7.240619799999999;0.0010000000474974513;1673300222.540093;-0.1707102507352829;-0.7020163536071777;90.45185089111328
12;1673300222.6354997;47.1306423;7.2406198999999996;0.0020000000949949026;1673300222.7405813;-0.30920687317848206;-0.5053547024726868;90.34225463867188
13;1673300222.8445842;47.1306422;7.2406198999999996;0.0020000000949949026;1673300222.9437253;-0.038604576140642166;-0.5400391221046448;90.16089630126953
14;1673300223.041704;47.1306423;7.2406198999999996;0.004000000189989805;1673300223.1352475;-0.2791019678115845;-1.2740230560302734;90.52245330810547
15;1673300223.239545;47.1306423;7.24062;0.009000000543892384;1673300223.3426466;-0.34780144691467285;-0.9555582404136658;90.53400421142578
16;1673300223.4367895;47.1306423;7.24062;0.015000000596046448;1673300223.542609;-0.23759666085243225;-1.127410888671875;90.43821716308594
17;1673300223.6568365;47.1306423;7.2406201;0.0;1673300223.7418067;-0.37221571803092957;-1.489559531211853;90.64939880371094
18;1673300223.8316398;47.1306424;7.2406201;0.0;1673300223.9315507;-0.4966081380844116;-0.9977900385856628;90.60880279541016
19;1673300224.030528;47.1306424;7.2406201999999995;-0.0010000000474974513;1673300224.1261578;-0.4915781319141388;-0.6859961748123169;90.64263916015625
20;1673300224.2174182;47.1306424;7.2406201999999995;-0.004000000189989805;1673300224.3204756;-0.44537752866744995;-0.5540762543678284;90.68333435058594
21;1673300224.412606;47.1306424;7.2406201999999995;-0.00800000037997961;1673300224.5128133;-0.4428001642227173;-0.644277811050415;90.47456359863281
22;1673300224.6138654;47.1306424;7.2406201999999995;-0.012000000104308128;1673300224.7187276;-0.39102649688720703;-0.6344524025917053;90.76248931884766
23;1673300224.823808;47.1306425;7.2406201999999995;-0.012000000104308128;1673300224.930644;-0.4924595355987549;-0.9331532120704651;90.69270324707031
24;1673300225.0269024;47.1306425;7.2406201999999995;-0.01100000087171793;1673300225.129643;-0.19832965731620789;-0.7617834210395813;92.3670654296875
25;1673300225.2276387;47.130642599999995;7.2406203;-0.010000000707805157;1673300225.3262196;0.7870397567749023;-0.41937756538391113;93.77161407470703
26;1673300225.4315062;47.1306429;7.2406207;-0.006000000052154064;1673300225.54051;2.9461796283721924;1.373010516166687;92.62637329101562
27;1673300225.6395638;47.130643299999996;7.2406212;0.004000000189989805;1673300225.7408102;5.857904434204102;5.091948986053467;91.07526397705078
28;1673300225.8375897;47.130643899999995;7.2406219;0.01900000125169754;1673300225.9426134;10.020014762878418;9.421991348266602;90.74790954589844
29;1673300226.0405998;47.1306446;7.2406229;0.03700000047683716;1673300226.129622;12.117888450622559;12.32913589477539;91.27333068847656
30;1673300226.2167232;47.1306453;7.2406239;0.0650000050663948;1673300226.320537;12.798070907592773;13.874987602233887;91.68824005126953
31;1673300226.424924;47.1306459;7.240625;0.10900000482797623;1673300226.5596013;13.66641902923584;14.584754943847656;92.00562286376953
32;1673300226.6496243;47.130646399999996;7.240626;0.17100000381469727;1673300226.7637851;15.23549747467041;14.544318199157715;92.10753631591797
33;1673300226.854829;47.1306467;7.2406269;0.25200000405311584;1673300226.981834;17.090770721435547;15.3719482421875;92.24323272705078
34;1673300227.0719557;47.1306468;7.2406274999999996;0.3530000150203705;1673300227.169251;18.05019187927246;17.950164794921875;92.41852569580078
35;1673300227.2601082;47.1306467;7.2406276;0.47200003266334534;1673300227.3524811;19.317508697509766;18.106578826904297;92.11658477783203
36;1673300227.4358673;47.130646399999996;7.2406272;0.6100000143051147;1673300227.5359867;19.539175033569336;14.575961112976074;91.33218383789062
37;1673300227.6371026;47.130645799999996;7.2406261999999995;0.7600000500679016;1673300227.7423048;18.1185245513916;15.88554573059082;90.89400482177734
38;1673300227.829442;47.130645;7.240625;0.921000063419342;1673300227.9336083;16.33364486694336;14.122004508972168;89.87867736816406
39;1673300228.0411272;47.1306441;7.240623599999999;1.0880000591278076;1673300228.1407652;14.800329208374023;9.028928756713867;88.25531005859375
40;1673300228.218668;47.130643299999996;7.2406223;1.2650001049041748;1673300228.3120017;13.423452377319336;10.826675415039062;87.37054443359375
41;1673300228.4025505;47.130642699999996;7.240621099999999;1.4530000686645508;1673300228.4997406;12.523826599121094;11.184687614440918;91.97905731201172
42;1673300228.596034;47.1306424;7.2406201999999995;1.6430001258850098;1673300228.707478;12.531319618225098;7.556094646453857;89.04491424560547
43;1673300228.8112917;47.1306422;7.2406197;1.8350000381469727;1673300228.914361;12.733154296875;9.872119903564453;88.23086547851562
44;1673300229.0140536;47.130642099999996;7.2406194;2.0280001163482666;1673300229.1214976;13.405513763427734;11.514541625976562;87.72830963134766
45;1673300229.224558;47.130641999999995;7.2406193;2.2190001010894775;1673300229.3246963;14.298126220703125;7.590512752532959;86.77249908447266
46;1673300229.4231873;47.130641999999995;7.240619499999999;2.4130001068115234;1673300229.521098;14.944975852966309;9.242681503295898;86.1141357421875
47;1673300229.6174548;47.130642099999996;7.2406196;2.615000009536743;1673300229.7178538;15.722898483276367;12.748262405395508;85.86892700195312
48;1673300229.8137765;47.1306424;7.2406198999999996;2.81600022315979;1673300229.9256878;16.44891357421875;9.420419692993164;85.51786041259766
49;1673300230.0170383;47.130642599999995;7.24062;3.0160000324249268;1673300230.1229947;16.327245712280273;10.417950630187988;85.69522094726562
50;1673300230.2233083;47.130642699999996;7.2406201;3.2130000591278076;1673300230.3302438;16.24388313293457;13.292585372924805;85.95633697509766
51;1673300230.425528;47.1306428;7.2406201999999995;3.4100000858306885;1673300230.5285835;16.82499122619629;10.416472434997559;85.61001586914062
52;1673300230.621024;47.130642599999995;7.2406203;3.6110000610351562;1673300230.725442;16.67561149597168;8.547107696533203;85.4080581665039
53;1673300230.8281133;47.1306425;7.2406204;3.81000018119812;1673300230.9361145;16.237985610961914;12.334586143493652;85.778076171875
54;1673300231.0324087;47.1306424;7.2406204;4.009000301361084;1673300231.136608;16.388347625732422;10.526196479797363;85.5987777709961
55;1673300231.2279997;47.1306424;7.2406203;4.205000400543213;1673300231.3242059;16.279359817504883;8.098193168640137;85.34272766113281
56;1673300231.4182215;47.1306424;7.2406203;4.40500020980835;1673300231.518146;16.161596298217773;11.560303688049316;85.81552124023438
57;1673300231.606216;47.1306424;7.2406203;4.603000164031982;1673300231.703563;16.234682083129883;11.36484432220459;85.88671875
58;1673300231.7979913;47.1306423;7.2406203;4.795000076293945;1673300231.904976;16.218692779541016;7.770066261291504;85.42517852783203
59;1673300232.0150433;47.1306422;7.2406204;4.988000392913818;1673300232.1255896;15.928092002868652;10.661638259887695;85.73236846923828
60;1673300232.22509;47.1306422;7.2406203;5.187000274658203;1673300232.3199663;16.136009216308594;11.925454139709473;85.89846801757812
61;1673300232.4083433;47.1306423;7.2406203;5.385000228881836;1673300232.5123963;16.255512237548828;8.947646141052246;85.64143371582031
62;1673300232.6245067;47.1306424;7.2406203;5.581000328063965;1673300232.7272108;16.040985107421875;10.496227264404297;85.7377700805664
63;1673300232.8331456;47.1306425;7.2406201999999995;5.777000427246094;1673300232.9430995;15.850146293640137;12.943981170654297;86.07755279541016
64;1673300233.0424483;47.1306424;7.2406201;5.975000381469727;1673300233.136701;16.09711456298828;9.168109893798828;85.80477142333984
65;1673300233.2270348;47.1306423;7.2406201;6.173000335693359;1673300233.3243241;15.90359115600586;9.195076942443848;85.65894317626953
66;1673300233.4158483;47.1306423;7.24062;6.374000072479248;1673300233.5130942;15.66543960571289;12.794918060302734;86.09335327148438
67;1673300233.6041005;47.1306423;7.2406198999999996;6.575000286102295;1673300233.7132835;15.87867259979248;10.13726806640625;85.9181137084961
68;1673300233.8221996;47.1306423;7.2406198999999996;6.773000240325928;1673300233.9504454;15.864802360534668;8.804766654968262;85.68672180175781
69;1673300234.0501468;47.1306424;7.2406198999999996;6.968000411987305;1673300234.1574857;15.634360313415527;12.427541732788086;85.93795776367188
70;1673300234.257386;47.1306424;7.2406198999999996;7.1610002517700195;1673300234.3746083;16.074756622314453;11.102736473083496;85.98969268798828
71;1673300234.4738884;47.1306423;7.24062;7.3550004959106445;1673300234.5644162;16.064298629760742;8.258057594299316;85.58831787109375
72;1673300234.6432676;47.1306423;7.24062;7.552000522613525;1673300234.7444413;15.884915351867676;11.72517204284668;85.79634094238281
73;1673300234.8358376;47.1306424;7.24062;7.752000331878662;1673300234.9331343;16.015451431274414;11.652901649475098;85.9186019897461
74;1673300235.031956;47.1306424;7.24062;7.950000286102295;1673300235.1296065;15.975153923034668;8.477806091308594;85.60900115966797
75;1673300235.2265952;47.1306425;7.24062;8.146000862121582;1673300235.3255162;15.824203491210938;11.10307788848877;85.82842254638672
76;1673300235.4100003;47.130642599999995;7.24062;8.342000007629395;1673300235.5064247;15.93791389465332;12.739592552185059;86.06710815429688
77;1673300235.5976274;47.130642599999995;7.2406201;8.539000511169434;1673300235.695028;16.013656616210938;8.724173545837402;85.75761413574219
78;1673300235.793193;47.1306425;7.2406201;8.737000465393066;1673300235.8923428;15.93950366973877;10.11319351196289;85.80596160888672
79;1673300235.9943984;47.1306425;7.2406201999999995;8.93600082397461;1673300236.1025925;15.780409812927246;12.828461647033691;86.01293182373047
80;1673300236.2302344;47.130642599999995;7.2406201999999995;9.136000633239746;1673300236.346855;16.039304733276367;9.278416633605957;85.73042297363281
81;1673300236.449597;47.130642599999995;7.2406201;9.336000442504883;1673300236.5536351;15.8851318359375;9.954076766967773;85.8365707397461
82;1673300236.6557393;47.130642599999995;7.2406201;9.534000396728516;1673300236.7599459;15.75755786895752;12.991113662719727;86.18689727783203
83;1673300236.8422203;47.130642599999995;7.2406201;9.730000495910645;1673300236.9406474;15.976024627685547;9.51240348815918;85.85417938232422
84;1673300237.0380583;47.1306425;7.2406201;9.928000450134277;1673300237.1398616;15.70173168182373;8.795886039733887;85.54700469970703
85;1673300237.2273207;47.1306425;7.2406201999999995;10.128000259399414;1673300237.3323026;15.430967330932617;12.30214786529541;86.19805145263672
86;1673300237.4314978;47.130642599999995;7.2406201;10.385000228881836;1673300237.533874;16.39524269104004;13.168071746826172;86.16983795166016
87;1673300237.6338825;47.1306424;7.2406198999999996;10.75200080871582;1673300237.758224;17.01144790649414;10.928141593933105;86.22871398925781
88;1673300237.837886;47.130642099999996;7.240619499999999;11.142000198364258;1673300237.933551;15.385993957519531;11.626890182495117;86.34258270263672
89;1673300238.023579;47.1306417;7.2406193;11.53600025177002;1673300238.1333697;14.953588485717773;11.420652389526367;86.50431060791016
90;1673300238.2238276;47.1306413;7.240619199999999;11.928000450134277;1673300238.320052;14.883341789245605;7.349769115447998;86.10774993896484
91;1673300238.4074986;47.130641;7.240619199999999;12.322000503540039;1673300238.5205772;14.581987380981445;7.699399471282959;85.8207778930664
92;1673300238.6298554;47.130640899999996;7.2406191;12.722001075744629;1673300238.740568;14.750043869018555;10.492101669311523;86.14964294433594
93;1673300238.8406801;47.130640899999996;7.240619199999999;13.125000953674316;1673300238.948579;15.071313858032227;7.656817436218262;85.73026275634766
94;1673300239.0402124;47.1306411;7.240619199999999;13.52500057220459;1673300239.1450133;14.878732681274414;8.291187286376953;85.82926940917969
95;1673300239.247062;47.1306413;7.240619199999999;13.919000625610352;1673300239.3423967;14.99488353729248;11.802751541137695;86.27943420410156
96;1673300239.4366932;47.130641499999996;7.240619199999999;14.314001083374023;1673300239.5388606;15.380656242370605;9.922624588012695;86.04747009277344
97;1673300239.628474;47.1306417;7.2406193;14.712000846862793;1673300239.7325923;15.41948413848877;9.116780281066895;85.83987426757812
98;1673300239.8326876;47.1306419;7.2406194;15.113000869750977;1673300239.9395046;15.152572631835938;12.701767921447754;86.2322006225586
99;1673300240.0364997;47.130642099999996;7.2406194;15.518000602722168;1673300240.1348045;15.618435859680176;11.912535667419434;86.20030212402344
100;1673300240.2280219;47.1306422;7.2406194;15.918001174926758;1673300240.327247;15.692068099975586;9.393854141235352;86.01290893554688
101;1673300240.4200115;47.1306423;7.2406194;16.32000160217285;1673300240.516883;15.412020683288574;12.10379409790039;86.26286315917969
102;1673300240.625743;47.1306422;7.2406194;16.722000122070312;1673300240.7267554;15.606223106384277;12.036722183227539;86.2495346069336
103;1673300240.8168025;47.130642099999996;7.240619499999999;17.123001098632812;1673300240.9221668;15.75259780883789;8.553452491760254;85.82730865478516
104;1673300241.0355601;47.130641999999995;7.240619499999999;17.520999908447266;1673300241.1308587;15.579119682312012;10.134385108947754;85.97175598144531
105;1673300241.224314;47.1306419;7.240619499999999;17.921001434326172;1673300241.3330634;15.214271545410156;11.67588996887207;86.17205047607422
106;1673300241.4354095;47.1306419;7.2406194;18.321001052856445;1673300241.5352926;15.447820663452148;8.300617218017578;85.73970031738281
107;1673300241.6445284;47.1306419;7.2406193;18.71700096130371;1673300241.7666695;15.145135879516602;9.557766914367676;85.83733367919922
108;1673300241.8557491;47.1306419;7.2406193;19.115001678466797;1673300241.951019;15.189813613891602;11.934999465942383;86.1772689819336
109;1673300242.0837438;47.1306419;7.2406193;19.517000198364258;1673300242.1769507;15.309670448303223;8.750077247619629;85.96587371826172
110;1673300242.254143;47.1306419;7.2406193;19.920000076293945;1673300242.3465714;15.259532928466797;8.94740104675293;85.78408813476562
111;1673300242.44863;47.1306419;7.2406193;20.330001831054688;1673300242.5568657;15.252406120300293;12.407699584960938;86.15460968017578
112;1673300242.6568582;47.130641999999995;7.2406193;20.744001388549805;1673300242.7625415;15.527789115905762;9.833719253540039;85.83203125
113;1673300242.8460398;47.130642099999996;7.2406193;21.14900016784668;1673300242.937508;15.352758407592773;9.093138694763184;85.8462142944336
114;1673300243.0268917;47.1306422;7.2406193;21.55000114440918;1673300243.128996;15.177228927612305;12.443151473999023;86.07038879394531
115;1673300243.2273881;47.1306422;7.2406193;21.95400047302246;1673300243.334548;15.52169132232666;10.669793128967285;86.12672424316406
116;1673300243.4286058;47.1306422;7.2406194;22.360000610351562;1673300243.5299206;15.539793014526367;8.689224243164062;85.66651916503906
117;1673300243.6339474;47.1306423;7.2406194;22.764001846313477;1673300243.7438538;15.28504753112793;11.931323051452637;86.20507049560547
118;1673300243.8380992;47.1306423;7.2406193;23.168001174926758;1673300243.9353182;15.498917579650879;11.651542663574219;86.22647857666016
119;1673300244.0170028;47.1306423;7.2406193;23.57000160217285;1673300244.1181977;15.38558578491211;8.689600944519043;85.88892364501953
120;1673300244.2124562;47.1306423;7.2406193;23.965002059936523;1673300244.3194466;15.390358924865723;10.341204643249512;85.88750457763672
121;1673300244.4225595;47.1306422;7.2406193;24.36100196838379;1673300244.52883;15.321342468261719;11.509474754333496;86.05377197265625
122;1673300244.6269777;47.130642099999996;7.240619199999999;24.764001846313477;1673300244.7389898;15.442264556884766;8.333834648132324;85.7190170288086
123;1673300244.840436;47.130642099999996;7.240619199999999;25.168001174926758;1673300244.9452178;15.260509490966797;10.031197547912598;85.91508483886719
124;1673300245.0356317;47.1306422;7.240619199999999;25.575000762939453;1673300245.145613;15.052918434143066;12.472614288330078;86.31417846679688
125;1673300245.2451077;47.1306423;7.2406191;25.98200035095215;1673300245.3444717;15.242995262145996;9.576200485229492;85.97142028808594
126;1673300245.4334219;47.1306424;7.2406191;26.381000518798828;1673300245.5327003;15.316594123840332;9.293341636657715;85.98455047607422
127;1673300245.6359515;47.1306424;7.2406191;26.780000686645508;1673300245.737118;15.290132522583008;12.495545387268066;86.30735778808594
128;1673300245.8315887;47.1306424;7.2406191;27.180002212524414;1673300245.931898;15.369359016418457;10.268760681152344;86.09483337402344
129;1673300246.0292625;47.1306423;7.2406191;27.5830020904541;1673300246.1342835;15.409512519836426;8.5977783203125;85.70875549316406
130;1673300246.225705;47.1306424;7.2406191;27.990001678466797;1673300246.3277867;15.142247200012207;12.240490913391113;86.18589782714844
131;1673300246.4170928;47.1306424;7.2406191;28.395000457763672;1673300246.5269535;15.226517677307129;11.702906608581543;86.02848815917969
132;1673300246.6378675;47.1306425;7.2406191;28.793001174926758;1673300246.7408884;15.649660110473633;8.720070838928223;85.82257843017578
133;1673300246.832315;47.1306425;7.240619199999999;29.187002182006836;1673300246.9305987;15.309435844421387;11.551709175109863;86.10420227050781
134;1673300247.0151105;47.1306424;7.240619199999999;29.582000732421875;1673300247.114516;15.27334213256836;11.750502586364746;86.23136138916016
135;1673300247.2114203;47.1306424;7.2406193;29.988000869750977;1673300247.3155982;15.473920822143555;8.52287483215332;85.71025848388672
136;1673300247.4090796;47.1306424;7.2406193;30.398000717163086;1673300247.5147233;15.327571868896484;10.374770164489746;85.8343505859375
137;1673300247.6159067;47.1306425;7.2406194;30.808000564575195;1673300247.7244556;15.569332122802734;12.434103012084961;86.16651916503906
138;1673300247.823442;47.130642599999995;7.2406194;31.214000701904297;1673300247.9266415;15.44797420501709;9.611945152282715;85.93341827392578
139;1673300248.02296;47.130642599999995;7.240619499999999;31.610000610351562;1673300248.1334035;15.463165283203125;9.601116180419922;85.96375274658203
140;1673300248.256238;47.130642599999995;7.240619499999999;32.00800323486328;1673300248.3594627;15.417261123657227;12.65176010131836;86.20893096923828
141;1673300248.4568737;47.1306425;7.240619499999999;32.40700149536133;1673300248.5597894;15.658050537109375;10.35869026184082;85.9495849609375
142;1673300248.655336;47.1306425;7.240619499999999;32.80800247192383;1673300248.7594917;15.653851509094238;8.703795433044434;85.63914489746094
143;1673300248.8519003;47.1306424;7.240619499999999;33.21200180053711;1673300248.9506636;15.138616561889648;12.105452537536621;86.13691711425781
144;1673300249.0342484;47.1306425;7.240619499999999;33.617000579833984;1673300249.1314676;15.360398292541504;11.222963333129883;85.96759033203125
145;1673300249.2263846;47.1306425;7.240619499999999;34.020999908447266;1673300249.3353598;15.451241493225098;8.615317344665527;85.75572967529297
146;1673300249.4345512;47.1306425;7.2406196;34.41600036621094;1673300249.5356956;15.401918411254883;11.278315544128418;85.96996307373047
147;1673300249.6261883;47.1306424;7.2406196;34.81300354003906;1673300249.730303;15.429137229919434;11.94497013092041;86.16114807128906
148;1673300249.8216312;47.1306424;7.2406196;35.2140007019043;1673300249.9276328;15.645797729492188;8.457589149475098;85.89611053466797
149;1673300250.0235658;47.1306424;7.2406196;35.617000579833984;1673300250.127687;15.376005172729492;10.59186840057373;85.96068572998047
150;1673300250.2260067;47.1306424;7.2406196;36.01900100708008;1673300250.327116;15.478652000427246;12.206032752990723;86.02568054199219
151;1673300250.4305925;47.1306425;7.2406196;36.42400360107422;1673300250.537932;15.597506523132324;8.845589637756348;85.70512390136719
152;1673300250.6379185;47.1306425;7.2406196;36.823001861572266;1673300250.7462947;15.383513450622559;9.981571197509766;85.87227630615234
153;1673300250.842878;47.1306425;7.2406196;37.22300338745117;1673300250.9455132;15.275237083435059;12.497797012329102;86.29378509521484
154;1673300251.0430238;47.1306425;7.2406196;37.625;1673300251.1429548;15.391369819641113;9.545093536376953;85.97588348388672
155;1673300251.2309523;47.1306425;7.2406196;38.03200149536133;1673300251.3389666;15.312113761901855;9.436022758483887;85.7919921875
156;1673300251.4402122;47.130642599999995;7.2406196;38.439002990722656;1673300251.540235;15.204024314880371;12.457444190979004;86.12227630615234
157;1673300251.6247756;47.130642699999996;7.2406196;38.84600067138672;1673300251.724423;15.429595947265625;10.756488800048828;85.86221313476562
158;1673300251.8221712;47.130642699999996;7.2406196;39.246002197265625;1673300251.928325;15.63791561126709;9.147026062011719;85.87100219726562
159;1673300252.021661;47.130642699999996;7.2406197;39.63800048828125;1673300252.1339025;15.284477233886719;12.128891944885254;86.13653564453125
160;1673300252.2625906;47.130642599999995;7.2406197;40.034000396728516;1673300252.3652103;15.557221412658691;11.260669708251953;86.19970703125
161;1673300252.4594467;47.130642599999995;7.2406197;40.439002990722656;1673300252.560632;15.550263404846191;8.613052368164062;85.7559814453125
162;1673300252.6509128;47.130642599999995;7.2406197;40.84700012207031;1673300252.7462971;15.318723678588867;11.60382080078125;86.01744079589844
163;1673300252.8394618;47.130642699999996;7.2406197;41.255001068115234;1673300252.936657;15.511301040649414;12.019692420959473;86.14110565185547
164;1673300253.0367715;47.130642699999996;7.2406197;41.660003662109375;1673300253.130088;15.569585800170898;8.965740203857422;85.93111419677734
165;1673300253.2312016;47.130642699999996;7.2406197;42.05500030517578;1673300253.3293378;15.498251914978027;10.44060230255127;85.91937255859375
166;1673300253.4267225;47.130642699999996;7.2406197;42.45000076293945;1673300253.5248394;15.427610397338867;12.20770263671875;86.20664978027344
167;1673300253.6220493;47.130642599999995;7.2406197;42.849002838134766;1673300253.7331414;15.60210132598877;8.937496185302734;85.84627532958984
168;1673300253.8342385;47.130642599999995;7.2406196;43.25300216674805;1673300253.9325888;15.238730430603027;10.223730087280273;85.90349578857422
169;1673300254.0329494;47.130642599999995;7.2406196;43.65700149536133;1673300254.128288;15.351981163024902;12.66314697265625;86.24524688720703
170;1673300254.2216501;47.130642699999996;7.2406196;44.06300354003906;1673300254.3318093;15.57800579071045;9.5231351852417;85.95036315917969
171;1673300254.4475205;47.130642699999996;7.2406196;44.467002868652344;1673300254.5419164;15.462114334106445;9.8837251663208;85.88499450683594
172;1673300254.638354;47.130642699999996;7.2406196;44.86300277709961;1673300254.7427819;15.320734977722168;12.5015287399292;86.217041015625
173;1673300254.8497636;47.130642599999995;7.2406197;45.26000213623047;1673300254.94812;15.560694694519043;9.883322715759277;86.04122924804688
174;1673300255.046453;47.130642599999995;7.2406197;45.66100311279297;1673300255.1533844;15.545499801635742;9.051403999328613;85.74956512451172
175;1673300255.2449164;47.130642599999995;7.2406196;46.06700134277344;1673300255.3481972;15.271462440490723;12.5382080078125;86.17097473144531
176;1673300255.4391773;47.130642699999996;7.2406196;46.474002838134766;1673300255.5501156;15.575804710388184;11.041291236877441;85.99429321289062
177;1673300255.6472883;47.130642699999996;7.240619499999999;46.87800216674805;1673300255.7475955;15.571252822875977;9.096320152282715;85.98726654052734
178;1673300255.8408873;47.130642699999996;7.240619499999999;47.27400207519531;1673300255.9401703;15.235838890075684;11.692646980285645;86.13249969482422
179;1673300256.0423152;47.130642599999995;7.240619499999999;47.66800308227539;1673300256.1377287;15.35512638092041;11.627718925476074;86.18795013427734
180;1673300256.2320611;47.130642599999995;7.240619499999999;48.064002990722656;1673300256.336799;15.440136909484863;8.79356861114502;85.72376251220703
181;1673300256.438378;47.130642599999995;7.2406196;48.42400360107422;1673300256.5335898;15.358963966369629;11.921164512634277;86.12074279785156
182;1673300256.6180754;47.1306428;7.2406197;48.73500061035156;1673300256.7133267;15.523101806640625;12.705986022949219;86.27269744873047
183;1673300256.8050742;47.130643;7.240619799999999;48.99800109863281;1673300256.9126062;15.642742156982422;9.075454711914062;85.62742614746094
184;1673300257.0176325;47.1306431;7.24062;49.21600341796875;1673300257.1297636;17.339126586914062;10.962423324584961;85.45195007324219
185;1673300257.2201426;47.130643199999994;7.2406201999999995;49.39400100708008;1673300257.3221784;24.890222549438477;10.633220672607422;82.4489974975586
186;1673300257.4261875;47.130643299999996;7.2406201999999995;49.49100112915039;1673300257.533202;13.805201530456543;13.22297477722168;71.23795318603516
187;1673300257.6196284;47.130643299999996;7.2406203;49.50200271606445;1673300257.7179441;29.878511428833008;9.780920028686523;59.982200622558594
188;1673300257.823224;47.130643;7.2406203;49.53400421142578;1673300257.9659648;32.12444305419922;1.5644569396972656;49.591529846191406
189;1673300258.0781424;47.130642099999996;7.2406196;49.5890007019043;1673300258.2159557;21.0166015625;-2.021942615509033;41.22370529174805
190;1673300258.3061597;47.130640899999996;7.2406185999999995;49.64900207519531;1673300258.381117;24.371803283691406;-8.592206001281738;32.8591194152832
191;1673300258.4691613;47.130639699999996;7.2406175;49.70000076293945;1673300258.5692184;19.477922439575195;-10.52486515045166;24.648408889770508
192;1673300258.6650653;47.130638499999996;7.2406163;49.74100112915039;1673300258.7571106;15.788594245910645;-11.755407333374023;15.764366149902344
193;1673300258.8459327;47.1306374;7.240615399999999;49.781002044677734;1673300258.9421737;12.49864673614502;-12.412702560424805;6.445428848266602
194;1673300259.034998;47.1306365;7.2406146;49.81700134277344;1673300259.134793;8.253666877746582;-12.942158699035645;-3.182267904281616
195;1673300259.231365;47.1306358;7.240614;49.84700393676758;1673300259.3401425;4.018881320953369;-14.044461250305176;-13.215791702270508
196;1673300259.444995;47.1306355;7.2406137;49.875003814697266;1673300259.5494058;1.4743797779083252;-16.300371170043945;-23.26869773864746
197;1673300259.649276;47.1306355;7.2406134;49.89900207519531;1673300259.7601144;0.36214497685432434;-19.232593536376953;-32.661563873291016
198;1673300259.854976;47.1306358;7.2406131;49.91200256347656;1673300259.9569898;-0.717168927192688;-21.87311363220215;-41.580535888671875
199;1673300260.067143;47.1306361;7.2406127;49.923004150390625;1673300260.1670613;-3.214277505874634;-22.623353958129883;-50.13774490356445
200;1673300260.2570076;47.1306363;7.240612199999999;49.93800354003906;1673300260.3541667;-5.8404388427734375;-19.21544647216797;-52.32234573364258
201;1673300260.45231;47.1306365;7.2406117;49.95500183105469;1673300260.5555968;-3.49074125289917;-17.887914657592773;-48.766727447509766
202;1673300260.6592906;47.1306368;7.2406112;49.974002838134766;1673300260.7682586;-1.2831224203109741;-19.075599670410156;-46.36516571044922
203;1673300260.8566427;47.130637;7.2406108;49.9890022277832;1673300260.9580147;0.21245478093624115;-20.25975799560547;-45.84696960449219
204;1673300261.058663;47.1306371;7.2406104;49.992000579833984;1673300261.1558352;1.4881435632705688;-21.86349105834961;-45.43797302246094
205;1673300261.249115;47.130637;7.2406101;49.99100112915039;1673300261.358978;1.2056540250778198;-23.224660873413086;-45.158416748046875
206;1673300261.4551716;47.1306367;7.240609999999999;49.99500274658203;1673300261.5591862;-0.010143684223294258;-21.899898529052734;-45.143104553222656
207;1673300261.6613042;47.1306363;7.2406099;50.00200271606445;1673300261.7722664;-1.389011025428772;-18.927003860473633;-45.047794342041016
208;1673300261.8709898;47.130635999999996;7.2406099;50.01400375366211;1673300261.9784055;-2.4558727741241455;-17.49244499206543;-45.026607513427734
209;1673300262.0746653;47.1306357;7.2406099;50.025001525878906;1673300262.1591399;-2.7561445236206055;-17.78428077697754;-45.074520111083984
210;1673300262.2495465;47.1306355;7.240609999999999;50.03400421142578;1673300262.355652;-8.879810333251953;-18.983491897583008;-45.21550750732422
211;1673300262.4488046;47.1306355;7.2406098;50.03400421142578;1673300262.541124;-31.79826545715332;-16.85920524597168;-46.22947311401367
212;1673300262.6382916;47.1306362;7.2406085;50.038002014160156;1673300262.7424893;-48.56736755371094;-12.790650367736816;-47.42439651489258
213;1673300262.836757;47.130638499999996;7.2406049999999995;50.0420036315918;1673300262.9345734;-57.60814666748047;-9.747178077697754;-48.45654296875
214;1673300263.021767;47.130643199999994;7.240598299999999;50.02900314331055;1673300263.1267385;-53.79410934448242;-9.22305679321289;-50.04188919067383
215;1673300263.2235718;47.1306501;7.2405883;50.01700210571289;1673300263.3295493;-54.998252868652344;-6.7813591957092285;-51.63556671142578
216;1673300263.426556;47.130659;7.2405754;50.01100158691406;1673300263.5316641;-55.12751770019531;-5.015477657318115;-51.1931266784668
217;1673300263.6317227;47.1306698;7.240559999999999;49.99700164794922;1673300263.7275977;-54.74123001098633;-6.632546901702881;-50.44843673706055
218;1673300263.824535;47.1306821;7.2405424;49.98200225830078;1673300263.9277139;-53.658111572265625;-7.392391204833984;-50.35595703125
219;1673300264.0326238;47.130695599999996;7.240522899999999;49.97300338745117;1673300264.1427772;-50.38569641113281;-9.24035930633545;-49.628238677978516
220;1673300264.238726;47.13071;7.2405019;49.9630012512207;1673300264.347743;-50.80359649658203;-10.581899642944336;-49.328346252441406
221;1673300264.4436562;47.130725;7.2404798999999995;49.95600128173828;1673300264.542758;-50.121036529541016;-12.6421480178833;-49.51649856567383
222;1673300264.6405494;47.130740499999995;7.2404569;49.945003509521484;1673300264.7437062;-50.361419677734375;-11.3806791305542;-49.417572021484375
223;1673300264.8356345;47.130756299999994;7.2404331;49.935001373291016;1673300264.9434874;-47.28899002075195;-10.704757690429688;-49.38429260253906
224;1673300265.0379727;47.1307724;7.2404088;49.91400146484375;1673300265.143766;-46.4587287902832;-10.871511459350586;-49.390743255615234
225;1673300265.2464774;47.1307887;7.2403844;49.900001525878906;1673300265.3696105;-46.03254699707031;-13.361879348754883;-49.3695182800293
226;1673300265.4632652;47.130805099999996;7.2403597;49.90400314331055;1673300265.558604;-46.31124496459961;-14.923433303833008;-51.84874725341797
227;1673300265.658747;47.1308213;7.2403344999999995;49.9170036315918;1673300265.7598267;-43.26384353637695;-21.82273292541504;-52.19986343383789
228;1673300265.8486927;47.130837;7.240308799999999;49.948001861572266;1673300265.937828;-16.37942123413086;-17.626203536987305;-55.07261657714844
229;1673300266.0380664;47.1308516;7.2402839;49.98500061035156;1673300266.1539202;30.969892501831055;-13.696612358093262;-53.33356475830078
230;1673300266.2527428;47.1308645;7.2402628;49.92100143432617;1673300266.353829;22.339679718017578;-4.2235026359558105;-56.75685119628906
231;1673300266.4558742;47.130876;7.240245799999999;49.67900085449219;1673300266.5598288;15.804922103881836;-4.83304500579834;-48.66545867919922
232;1673300266.647975;47.1308862;7.2402332;49.419002532958984;1673300266.737953;14.329113006591797;-4.345423698425293;-47.111080169677734
233;1673300266.844592;47.130894999999995;7.240224899999999;49.25600051879883;1673300266.9535923;15.230239868164062;-5.025398254394531;-47.31151580810547
234;1673300267.0519178;47.130902299999995;7.2402206;49.272003173828125;1673300267.1555195;37.86640167236328;-12.89692497253418;-47.2774772644043
235;1673300267.254912;47.130907699999995;7.240219799999999;49.35700225830078;1673300267.3666701;39.78419494628906;-13.70241641998291;-44.685794830322266
236;1673300267.4667244;47.130910799999995;7.2402223999999995;49.4530029296875;1673300267.56923;45.21293258666992;-19.967178344726562;-45.37788009643555
237;1673300267.661266;47.1309111;7.2402277999999995;49.55600357055664;1673300267.7693043;46.89616775512695;-26.394376754760742;-44.730682373046875
238;1673300267.8597999;47.130908299999994;7.2402353999999995;49.650001525878906;1673300267.9558847;38.68069076538086;-34.609954833984375;-43.752132415771484
239;1673300268.046595;47.130902999999996;7.240243899999999;49.7400016784668;1673300268.1548278;26.239126205444336;-37.19002914428711;-44.744659423828125
240;1673300268.2512562;47.1308959;7.240252;49.80500411987305;1673300268.3569014;8.720128059387207;-33.74410629272461;-45.960758209228516
241;1673300268.4570649;47.1308881;7.240259099999999;49.842002868652344;1673300268.5619495;-8.587069511413574;-28.357038497924805;-48.795860290527344
242;1673300268.65267;47.130880399999995;7.240264799999999;49.86600112915039;1673300268.7562137;-18.969219207763672;-18.35723304748535;-50.147865295410156
243;1673300268.8495152;47.130874;7.240268599999999;49.8900032043457;1673300268.948698;-24.756704330444336;-9.75985336303711;-50.620948791503906
244;1673300269.0498805;47.1308693;7.2402709;49.90900421142578;1673300269.16091;-26.59759521484375;-6.974210262298584;-50.993080139160156
245;1673300269.259747;47.1308662;7.240272;49.923004150390625;1673300269.3618898;-23.791725158691406;-9.091191291809082;-50.54634475708008
246;1673300269.4688203;47.1308648;7.240272099999999;49.93600082397461;1673300269.563611;-17.389860153198242;-12.730734825134277;-50.062156677246094
247;1673300269.6642666;47.1308645;7.2402714999999995;49.95500183105469;1673300269.7692974;-9.498339653015137;-15.131298065185547;-50.32323455810547
248;1673300269.8587077;47.130865;7.240270499999999;49.97900390625;1673300269.962839;-2.9040687084198;-15.351289749145508;-50.561065673828125
249;1673300270.0580719;47.130865899999996;7.2402695999999995;50.005001068115234;1673300270.1662045;0.8396105170249939;-16.03498649597168;-50.51027297973633
250;1673300270.2595034;47.1308669;7.2402687;50.02100372314453;1673300270.3675146;-13.62703800201416;-8.7622709274292;-49.77649688720703
251;1673300270.466755;47.130868199999995;7.2402681;49.78600311279297;1673300270.5753133;-28.468976974487305;16.446592330932617;-54.89860916137695
252;1673300270.6742632;47.130869499999996;7.2402678;49.177001953125;1673300270.7775366;-35.088680267333984;50.40989303588867;-64.02721405029297
253;1673300270.8684208;47.1308709;7.2402676999999995;48.18700408935547;1673300270.9697914;-33.69330596923828;79.8468246459961;-65.7569808959961
254;1673300271.0573897;47.1308722;7.2402676999999995;46.82100296020508;1673300271.1643264;-31.781158447265625;94.53008270263672;-54.84861755371094
255;1673300271.273728;47.1308735;7.2402679;45.09300231933594;1673300271.3655412;-31.616273880004883;88.8580322265625;-32.306488037109375
256;1673300271.4627185;47.1308748;7.2402679;42.99400329589844;1673300271.5667684;-25.31743621826172;63.19157409667969;-1.09380042552948
257;1673300271.6959267;47.130876099999995;7.2402679;40.540000915527344;1673300271.7911642;-2.1889688968658447;30.39075469970703;23.857444763183594
258;1673300271.8787098;47.1308775;7.240267599999999;37.71500015258789;1673300271.9733407;24.25362205505371;-4.310506343841553;29.361188888549805
259;1673300272.0667741;47.1308791;7.2402674;34.50100326538086;1673300272.1707733;33.23865509033203;-35.108524322509766;27.876285552978516
260;1673300272.2693315;47.1308809;7.2402676999999995;30.91900062561035;1673300272.3714073;23.184812545776367;-41.079803466796875;38.84457015991211
261;1673300272.478191;47.130882799999995;7.2402685;26.98600196838379;1673300272.5703626;-3.834195613861084;-25.868907928466797;57.778629302978516
262;1673300272.6607106;47.1308845;7.2402698;22.685001373291016;1673300272.7478464;-37.42884826660156;-0.517004668712616;68.68728637695312
263;1673300272.8412006;47.1308861;7.240271;17.987001419067383;1673300272.9588609;-53.02508544921875;26.306489944458008;69.15805053710938
264;1673300273.0562787;47.130887699999995;7.2402717;12.9350004196167;1673300273.1577435;-40.43110656738281;24.56429100036621;83.279541015625
265;1673300273.2534263;47.130889599999996;7.2402719;7.551000595092773;1673300273.3477888;-3.566802501678467;5.19780969619751;98.63663482666016
266;1673300273.449121;47.1308917;7.2402719;1.7920000553131104;1673300273.5471537;-2.8079135417938232;4.329491138458252;100.62049102783203
267;1673300273.6414115;47.1308915;7.2402674;0.22800001502037048;1673300273.7510972;-16.571918487548828;3.0973408222198486;92.76371002197266
268;1673300273.8436098;47.1308918;7.2402557;0.46700000762939453;1673300273.9512975;-17.70777130126953;4.4155473709106445;92.63294982910156
269;1673300274.0544126;47.1308924;7.2402415;0.6460000276565552;1673300274.1587725;4.99945068359375;3.0746545791625977;94.24632263183594
270;1673300274.25472;47.1308928;7.2402285;0.7680000066757202;1673300274.3632011;-0.463871568441391;3.2516396045684814;93.93001556396484
271;1673300274.4781997;47.1308929;7.2402177;0.8500000238418579;1673300274.5819914;-0.18655318021774292;2.4560022354125977;93.94599914550781
272;1673300274.6979427;47.130892599999996;7.240208999999999;0.9050000309944153;1673300274.7870557;-0.3536156415939331;2.4798474311828613;93.86610412597656
273;1673300274.8711011;47.130891999999996;7.2402023;0.940000057220459;1673300274.968395;-0.4651820659637451;2.3571741580963135;93.85973358154297
274;1673300275.065575;47.130891299999995;7.2401976999999995;0.9610000252723694;1673300275.1637247;-0.6696556806564331;2.204045534133911;93.90350341796875
275;1673300275.250363;47.1308905;7.2401952;0.9770000576972961;1673300275.357425;-0.8417335748672485;2.094273328781128;93.95698547363281
276;1673300275.4479368;47.130889499999995;7.2401919999999995;1.0150001049041748;1673300275.5539572;-0.8261500597000122;2.0458791255950928;93.92304992675781
277;1673300275.6540456;47.130888;7.240185599999999;1.0470000505447388;1673300275.753414;-0.767606258392334;2.0866599082946777;93.86436462402344
278;1673300275.8494632;47.1308862;7.2401776;1.065000057220459;1673300275.949088;-0.6834473609924316;2.1358044147491455;93.8048324584961
279;1673300276.051774;47.130883999999995;7.2401687;1.0730000734329224;1673300276.1603405;-0.6570086479187012;2.2561864852905273;93.79364013671875
280;1673300276.2832263;47.1308815;7.2401592;1.0730000734329224;1673300276.383264;-0.5848989486694336;2.350503921508789;93.7458267211914
281;1673300276.4941273;47.1308787;7.240149499999999;1.068000078201294;1673300276.599022;-0.5482339262962341;2.4939913749694824;93.72152709960938
282;1673300276.6806152;47.1308757;7.2401398;1.0780000686645508;1673300276.7772462;-0.5168306231498718;2.629343271255493;93.70026397705078
283;1673300276.8636892;47.1308724;7.24013;1.0850000381469727;1673300276.9609787;-0.4959278404712677;2.7702713012695312;93.67543029785156
284;1673300277.057358;47.130868799999995;7.2401202;1.0800000429153442;1673300277.1611469;-0.45966753363609314;2.891542911529541;93.68082427978516
285;1673300277.2534845;47.1308649;7.2401102999999996;1.065000057220459;1673300277.3576329;-0.47860756516456604;3.0163803100585938;93.65628814697266
286;1673300277.4553936;47.1308607;7.2401005;1.0460000038146973;1673300277.5585644;-0.41057971119880676;3.1330747604370117;93.62447357177734
287;1673300277.6773968;47.1308562;7.2400907;1.0250000953674316;1673300277.7751617;-0.4355039596557617;3.2473957538604736;93.60521697998047
288;1673300277.869327;47.1308515;7.240081;1.002000093460083;1673300277.9763906;-0.391073077917099;3.3529021739959717;93.59174346923828
289;1673300278.0773735;47.1308465;7.240071299999999;0.9880000352859497;1673300278.1661203;-0.3462284207344055;3.4763717651367188;93.57554626464844
290;1673300278.2473052;47.1308413;7.2400617;0.9730000495910645;1673300278.3425333;-0.3503262996673584;3.586257219314575;93.55057525634766
291;1673300278.449333;47.1308357;7.2400521;0.9480000734329224;1673300278.5565686;-0.35030198097229004;3.6698434352874756;93.53462219238281
292;1673300278.658315;47.130829899999995;7.2400424999999995;0.9170000553131104;1673300278.7765028;-0.38954681158065796;3.7664449214935303;93.50936889648438
293;1673300278.8763342;47.130823799999995;7.2400329;0.8850000500679016;1673300278.987354;-0.3417779505252838;3.8728272914886475;93.50367736816406
294;1673300279.078649;47.1308174;7.2400234;0.8520000576972961;1673300279.171667;-0.3823343813419342;3.930790662765503;93.4829330444336
295;1673300279.2685823;47.1308108;7.2400139;0.8230000138282776;1673300279.3751593;-0.3648775517940521;3.995699405670166;93.48269653320312
296;1673300279.497309;47.1308039;7.2400044999999995;0.7920000553131104;1673300279.5924318;-0.3729027807712555;4.05215311050415;93.45650482177734
297;1673300279.7044854;47.1307968;7.2399949999999995;0.7550000548362732;1673300279.7993677;-0.3552805185317993;4.104699611663818;93.4664077758789
298;1673300279.886386;47.130789299999996;7.2399856;0.7150000333786011;1673300279.9824488;-0.39000892639160156;4.169029235839844;93.4490966796875
299;1673300280.092425;47.1307816;7.2399762999999995;0.6760000586509705;1673300280.189411;-0.500399649143219;4.221315860748291;93.4614028930664
300;1673300280.279349;47.1307772;7.2399711;0.6440000534057617;1673300280.3703833;-0.3792552053928375;4.901866912841797;93.43171691894531
301;;;;;1673300280.5835898;-0.3860374987125397;5.119534492492676;93.39137268066406
302;;;;;1673300280.7792923;-0.3937634825706482;5.302635192871094;93.37019348144531
