;pos_time;latitude;longitude;altitude;alt_time;pitch;roll;yaw
0;1673303408.5878842;47.1306423;7.240619499999999;-0.02200000174343586;1673303408.7034264;-0.03515409305691719;-0.44212472438812256;90.25631713867188
1;1673303408.7826562;47.1306423;7.240619499999999;-0.02200000174343586;1673303408.905841;0.1542748659849167;0.07857465744018555;90.17827606201172
2;1673303408.9802592;47.1306423;7.2406196;-0.021000001579523087;1673303409.120992;0.2859620153903961;-0.13639701902866364;90.19232177734375
3;1673303409.1941981;47.1306423;7.2406196;-0.024000000208616257;1673303409.327258;-0.057223688811063766;0.12787091732025146;90.20061492919922
4;1673303409.39937;47.1306423;7.2406196;-0.02500000037252903;1673303409.5137575;0.01790471002459526;-0.09956319630146027;90.10472106933594
5;1673303409.5928788;47.1306423;7.2406197;-0.02500000037252903;1673303409.7190697;-0.08366990089416504;-0.11501520127058029;90.3918228149414
6;1673303409.7987678;47.1306423;7.2406197;-0.026000000536441803;1673303409.914621;0.0662819966673851;-0.048826269805431366;90.23958587646484
7;1673303409.9985898;47.1306423;7.240619799999999;-0.026000000536441803;1673303410.115644;0.10525146871805191;-0.1038290411233902;90.10785675048828
8;1673303410.195834;47.1306423;7.2406197;-0.02800000086426735;1673303410.3167014;-0.12101545929908752;-0.13983775675296783;90.2843017578125
9;1673303410.3909132;47.1306424;7.240619799999999;0.0;1673303410.5101378;-0.14181441068649292;-0.1670321673154831;90.38034057617188
10;1673303410.594605;47.1306424;7.240619799999999;-0.0020000000949949026;1673303410.7486722;0.06795672327280045;-0.24588997662067413;90.28136444091797
11;1673303410.8510704;47.1306424;7.240619799999999;-0.004000000189989805;1673303410.970376;0.008846054784953594;-0.18539859354496002;90.35340881347656
12;1673303411.039802;47.1306424;7.2406197;-0.006000000052154064;1673303411.1577926;-0.19780020415782928;-0.03340839594602585;90.21162414550781
13;1673303411.2309246;47.1306424;7.2406197;-0.012000000104308128;1673303411.3717334;-0.010465079918503761;-0.09462971240282059;90.08320617675781
14;1673303411.4560435;47.1306423;7.240619799999999;-0.015000000596046448;1673303411.560839;0.010013123042881489;-0.2649538218975067;90.0994873046875
15;1673303411.6320393;47.1306423;7.240619799999999;-0.017000000923871994;1673303411.7510545;-0.22964775562286377;-0.178689107298851;90.16436767578125
16;1673303411.8269398;47.1306423;7.240619799999999;0.0;1673303411.9859653;0.055490892380476;0.5542652010917664;90.16693115234375
17;1673303412.0440037;47.1306423;7.240619799999999;-0.0010000000474974513;1673303412.1528192;-0.2545359432697296;-0.4697510302066803;90.23023986816406
18;1673303412.2228603;47.1306424;7.240619799999999;-0.0010000000474974513;1673303412.3399317;-0.14259026944637299;-0.3299814760684967;90.07682037353516
19;1673303412.4141898;47.1306424;7.240619799999999;0.0020000000949949026;1673303412.5307803;0.0010187186999246478;0.17264874279499054;90.15467071533203
20;1673303412.6008482;47.1306424;7.2406198999999996;0.0020000000949949026;1673303412.7203743;-0.13164523243904114;-0.01621643826365471;90.22156524658203
21;1673303412.7971413;47.1306424;7.2406198999999996;0.0020000000949949026;1673303412.923085;-0.2528057098388672;-0.20904575288295746;90.1182861328125
22;1673303412.995223;47.1306424;7.2406198999999996;0.0020000000949949026;1673303413.1160886;-0.2105475217103958;-0.12081635743379593;89.96294403076172
23;1673303413.1871064;47.1306424;7.2406198999999996;0.0010000000474974513;1673303413.30603;-0.007825521752238274;-0.16119205951690674;90.01465606689453
24;1673303413.3889787;47.1306424;7.2406198999999996;0.0;1673303413.5095325;-0.23889799416065216;-0.19001640379428864;89.88298034667969
25;1673303413.5841444;47.1306424;7.2406198999999996;0.0;1673303413.699839;-0.3469626307487488;-0.1577494889497757;89.97158813476562
26;1673303413.7740283;47.1306424;7.24062;0.0;1673303413.8940685;0.5765955448150635;-0.2852369248867035;90.34600067138672
27;1673303413.980863;47.1306424;7.2406201;0.0;1673303414.1061492;4.239715099334717;1.0244529247283936;90.56976318359375
28;1673303414.1919994;47.1306424;7.2406204999999995;0.017000000923871994;1673303414.3201385;10.895661354064941;-0.33016133308410645;91.41673278808594
29;1673303414.3981035;47.1306424;7.2406209;0.04500000178813934;1673303414.5239701;11.958318710327148;-1.763007402420044;91.11919403076172
30;1673303414.6262486;47.1306424;7.240621099999999;0.08400000631809235;1673303414.7409673;11.505661010742188;1.987675666809082;90.94453430175781
31;1673303414.822094;47.1306423;7.2406212;0.1380000114440918;1673303414.9408598;10.685248374938965;0.9270932078361511;90.78685760498047
32;1673303415.0084643;47.1306424;7.240621099999999;0.20800000429153442;1673303415.1280065;10.274674415588379;-2.4094831943511963;91.0178451538086
33;1673303415.2103357;47.1306425;7.240621;0.29200002551078796;1673303415.3321438;10.762117385864258;1.4948755502700806;91.44438934326172
34;1673303415.4073036;47.1306424;7.2406206;0.3850000202655792;1673303415.5147884;10.725848197937012;2.689566135406494;91.51007080078125
35;1673303415.5852633;47.1306424;7.2406203;0.49400001764297485;1673303415.7019901;10.394847869873047;-1.691144585609436;90.9924545288086
36;1673303415.777166;47.1306423;7.2406198999999996;0.6140000224113464;1673303415.895387;9.843591690063477;-1.3598891496658325;90.4876937866211
37;1673303415.973708;47.1306422;7.2406196;0.7430000305175781;1673303416.09761;9.49329948425293;1.7549227476119995;90.0933609008789
38;1673303416.1737545;47.1306422;7.2406194;0.8890000581741333;1673303416.2965043;8.320680618286133;-1.3614580631256104;90.13861846923828
39;1673303416.3780518;47.1306423;7.240619199999999;1.0500000715255737;1673303416.5084045;8.54684829711914;-2.118260383605957;90.44591522216797
40;1673303416.5943837;47.1306424;7.2406191;1.227000117301941;1673303416.7201161;9.487388610839844;2.864917278289795;90.89533996582031
41;1673303416.7954454;47.1306424;7.240619;1.4140000343322754;1673303416.9182577;9.761712074279785;0.676593005657196;90.70194244384766
42;1673303416.9965265;47.1306424;7.240618899999999;1.602000117301941;1673303417.1256523;9.761795997619629;-2.565091371536255;89.99531555175781
43;1673303417.2086217;47.1306424;7.240618899999999;1.7880001068115234;1673303417.320781;9.22552490234375;1.487882375717163;89.94583892822266
44;1673303417.3922062;47.1306424;7.240619;1.9720001220703125;1673303417.510477;9.168912887573242;1.3065831661224365;89.68135833740234
45;1673303417.5896559;47.1306425;7.2406191;2.1590001583099365;1673303417.715154;9.050276756286621;-2.192889451980591;89.6235122680664
46;1673303417.801095;47.130642599999995;7.2406191;2.3500001430511475;1673303417.9309454;9.507071495056152;0.4317428171634674;89.93122100830078
47;1673303418.0097892;47.130642599999995;7.240619199999999;2.5460000038146973;1673303418.127787;10.219308853149414;2.8512823581695557;90.19391632080078
48;1673303418.1971502;47.1306425;7.2406193;2.7400002479553223;1673303418.3282244;10.616454124450684;-2.1355435848236084;89.81439971923828
49;1673303418.4121566;47.1306424;7.2406193;2.930000066757202;1673303418.5304418;10.1506986618042;-0.8813543915748596;90.0185775756836
50;1673303418.6210597;47.1306423;7.2406194;3.121000051498413;1673303418.740679;9.553401947021484;1.8973417282104492;89.80449676513672
51;1673303418.8183918;47.1306423;7.2406194;3.317000150680542;1673303418.952652;9.396686553955078;-1.4087427854537964;89.87898254394531
52;1673303419.0293348;47.1306424;7.2406194;3.515000104904175;1673303419.1481173;9.413527488708496;-0.9380921721458435;90.1930923461914
53;1673303419.2196422;47.1306425;7.2406194;3.7100002765655518;1673303419.3503418;9.55283260345459;2.6709365844726562;90.27386474609375
54;1673303419.424972;47.1306424;7.2406194;3.9060001373291016;1673303419.5458782;9.772913932800293;0.38582396507263184;90.24079895019531
55;1673303419.6576;47.1306424;7.240619499999999;4.104000091552734;1673303419.7714953;9.977995872497559;-2.5155410766601562;89.71194458007812
56;1673303419.8431096;47.1306424;7.240619499999999;4.298000335693359;1673303419.9493494;10.087202072143555;1.6500136852264404;89.97029876708984
57;1673303420.0305483;47.1306424;7.2406196;4.494000434875488;1673303420.1377122;9.997880935668945;1.6790491342544556;89.93283081054688
58;1673303420.2070758;47.1306424;7.2406197;4.688000202178955;1673303420.3273025;9.65087890625;-2.1069297790527344;89.90690612792969
59;1673303420.407402;47.1306424;7.240619799999999;4.883000373840332;1673303420.5412586;9.37984848022461;0.6725215911865234;90.07682800292969
60;1673303420.6146412;47.1306423;7.240619799999999;5.083000183105469;1673303420.7392983;9.321961402893066;2.438584327697754;89.92728424072266
61;1673303420.8230948;47.1306422;7.240619799999999;5.283000469207764;1673303420.9440315;9.92060375213623;-2.628394603729248;89.63849639892578
62;1673303421.015459;47.130641999999995;7.240619799999999;5.479000091552734;1673303421.1411712;10.43569564819336;-1.7027008533477783;89.83081817626953
63;1673303421.225664;47.1306419;7.2406198999999996;5.676000118255615;1673303421.377611;10.494338989257812;1.7833750247955322;90.24600982666016
64;1673303421.4513688;47.1306419;7.24062;5.873000144958496;1673303421.6244252;10.19999885559082;-1.590484857559204;90.15190124511719
65;1673303421.689853;47.130641999999995;7.24062;6.072000503540039;1673303421.7929335;9.896535873413086;-1.4145294427871704;90.1253433227539
66;1673303421.8726277;47.130642099999996;7.2406198999999996;6.275000095367432;1673303421.9689574;9.376133918762207;2.642059803009033;90.15462493896484
67;1673303422.0331147;47.1306422;7.240619799999999;6.479000091552734;1673303422.140107;9.486480712890625;0.12288400530815125;89.84224700927734
68;1673303422.2070777;47.1306422;7.240619799999999;6.680000305175781;1673303422.3194573;9.973827362060547;-2.501154661178589;89.79066467285156
69;1673303422.390305;47.1306422;7.2406197;6.878000259399414;1673303422.5062242;9.907090187072754;1.7980420589447021;90.0326919555664
70;1673303422.5780675;47.1306422;7.2406197;7.070000171661377;1673303422.704834;10.416330337524414;1.6218125820159912;90.1354751586914
71;1673303422.7928889;47.1306423;7.2406197;7.265000343322754;1673303422.9150932;10.208497047424316;-2.1227474212646484;89.91207885742188
72;1673303423.0048165;47.1306424;7.2406197;7.463000297546387;1673303423.1504023;9.691360473632812;0.9861828684806824;89.9632797241211
73;1673303423.2332685;47.1306424;7.2406197;7.6620001792907715;1673303423.3453083;9.33028507232666;2.705305337905884;90.12486267089844
74;1673303423.428896;47.1306423;7.240619799999999;7.8610005378723145;1673303423.5530365;9.385891914367676;-2.070878267288208;89.88088989257812
75;1673303423.620527;47.1306422;7.240619799999999;8.059000015258789;1673303423.735179;9.840438842773438;-1.3265769481658936;89.9500503540039
76;1673303423.8274434;47.130642099999996;7.240619799999999;8.255000114440918;1673303423.9462452;10.432883262634277;2.3481059074401855;90.67582702636719
77;1673303424.0249274;47.130641999999995;7.240619799999999;8.452000617980957;1673303424.1593766;10.468092918395996;-0.6934757232666016;90.22079467773438
78;1673303424.2283533;47.130642099999996;7.2406198999999996;8.657000541687012;1673303424.3452675;10.102375984191895;-2.356614828109741;89.89148712158203
79;1673303424.417836;47.130642099999996;7.2406198999999996;8.861000061035156;1673303424.5346422;9.70822525024414;2.2336366176605225;89.96088409423828
80;1673303424.6077113;47.130642099999996;7.24062;9.064000129699707;1673303424.7359295;9.708358764648438;0.21756328642368317;89.83991241455078
81;1673303424.807309;47.130642099999996;7.24062;9.270000457763672;1673303424.9362712;9.942874908447266;-2.640407085418701;89.90313720703125
82;1673303425.0104454;47.130642099999996;7.2406198999999996;9.473999977111816;1673303425.1394296;10.030771255493164;1.1545921564102173;89.85032653808594
83;1673303425.2211561;47.130642099999996;7.2406198999999996;9.67300033569336;1673303425.3493621;10.426513671875;1.6417121887207031;90.19509887695312
84;1673303425.4470458;47.1306422;7.2406198999999996;9.873000144958496;1673303425.5708206;10.403754234313965;-2.4717330932617188;89.81637573242188
85;1673303425.6433678;47.1306423;7.2406198999999996;10.074000358581543;1673303425.8516111;10.22675895690918;0.23615044355392456;90.0670166015625
86;1673303425.9351037;47.1306423;7.2406198999999996;10.302000045776367;1673303426.040381;10.739263534545898;2.3668909072875977;90.1830062866211
87;1673303426.0911684;47.1306423;7.2406197;10.623000144958496;1673303426.2049973;10.780261039733887;-1.1992281675338745;90.115234375
88;1673303426.2650878;47.1306423;7.2406194;10.992000579833984;1673303426.4293036;9.64491081237793;-1.4814937114715576;90.03350067138672
89;1673303426.4898155;47.1306422;7.240619;11.374000549316406;1673303426.6066487;9.043145179748535;2.264042854309082;90.17833709716797
90;1673303426.6764894;47.1306422;7.2406185999999995;11.76400089263916;1673303426.7839155;8.916763305664062;0.6141803860664368;89.9588623046875
91;1673303426.8488083;47.1306423;7.2406184;12.16200065612793;1673303426.965699;8.594326972961426;-1.9193272590637207;89.6053237915039
92;1673303427.0346012;47.1306423;7.2406182999999995;12.56100082397461;1673303427.1560674;8.974030494689941;1.3760312795639038;89.92666625976562
93;1673303427.2175937;47.1306423;7.2406184;12.962000846862793;1673303427.3378294;8.738969802856445;1.1963584423065186;90.10227966308594
94;1673303427.4151416;47.1306422;7.2406185;13.366000175476074;1673303427.5425334;8.870379447937012;-2.424114227294922;90.1117935180664
95;1673303427.6241708;47.1306422;7.2406187;13.769001007080078;1673303427.7518134;9.118617057800293;0.4474736750125885;90.05171203613281
96;1673303427.8302789;47.1306422;7.240618899999999;14.170001029968262;1673303427.9382179;9.416452407836914;1.6468335390090942;90.18055725097656
97;1673303428.002864;47.1306422;7.240619;14.574000358581543;1673303428.1204193;9.820013046264648;-1.9578170776367188;89.91725158691406
98;1673303428.1992204;47.1306423;7.240619199999999;14.97900104522705;1673303428.3231685;9.943184852600098;-0.594825029373169;89.90419006347656
99;1673303428.4038692;47.1306423;7.2406193;15.383000373840332;1673303428.5268118;10.484591484069824;2.7156500816345215;90.14212036132812
100;1673303428.6017206;47.1306423;7.2406194;15.789000511169434;1673303428.7177134;10.375423431396484;-0.6182645559310913;90.10498809814453
101;1673303428.806223;47.1306422;7.2406194;16.19099998474121;1673303428.9254386;9.985644340515137;-1.7295188903808594;90.02806091308594
102;1673303429.0012245;47.1306422;7.2406194;16.591001510620117;1673303429.1179254;9.410492897033691;1.7942677736282349;90.02593994140625
103;1673303429.196649;47.1306422;7.2406194;16.992000579833984;1673303429.32441;9.37683391571045;-0.26872074604034424;89.92452239990234
104;1673303429.4022295;47.1306423;7.2406194;17.392000198364258;1673303429.5304384;9.370354652404785;-1.8902989625930786;89.82398986816406
105;1673303429.608917;47.1306424;7.2406194;17.793001174926758;1673303429.7298315;9.36594295501709;2.2073633670806885;90.0432357788086
106;1673303429.8059986;47.1306425;7.2406194;18.19500160217285;1673303429.9276567;9.770769119262695;1.4248429536819458;90.1340560913086
107;1673303430.005496;47.1306425;7.2406194;18.595001220703125;1673303430.1392791;9.747078895568848;-2.3428947925567627;89.93335723876953
108;1673303430.2136059;47.1306424;7.2406194;18.990001678466797;1673303430.333534;9.832781791687012;0.04851070046424866;89.96598052978516
109;1673303430.4068294;47.1306424;7.2406194;19.389001846313477;1673303430.5344856;9.364051818847656;1.9496095180511475;90.06169128417969
110;1673303430.619211;47.1306425;7.2406194;19.791000366210938;1673303430.7415617;9.241711616516113;-1.3315342664718628;89.90924835205078
111;1673303430.8206403;47.130642599999995;7.240619499999999;20.19500160217285;1673303430.9497535;9.247812271118164;-0.21809977293014526;90.08464050292969
112;1673303431.032044;47.130642599999995;7.240619499999999;20.59800148010254;1673303431.1506696;9.53410816192627;2.9614505767822266;90.1722183227539
113;1673303431.2230947;47.130642599999995;7.2406196;21.00200080871582;1673303431.3550458;9.719599723815918;-0.8495778441429138;89.94374084472656
114;1673303431.4377756;47.1306425;7.2406196;21.398000717163086;1673303431.5616457;9.985953330993652;-1.9448838233947754;89.91769409179688
115;1673303431.638092;47.1306424;7.2406197;21.791000366210938;1673303431.777025;10.080850601196289;1.706665277481079;89.96187591552734
116;1673303431.846852;47.1306424;7.2406197;22.185001373291016;1673303431.978194;9.941428184509277;0.3256767988204956;90.10928344726562
117;1673303432.0412228;47.1306425;7.2406197;22.582000732421875;1673303432.1511064;9.765193939208984;-1.9909554719924927;89.92132568359375
118;1673303432.2301614;47.130642599999995;7.2406197;22.98000144958496;1673303432.3563018;9.7506103515625;1.861908197402954;90.05713653564453
119;1673303432.4336069;47.130642599999995;7.2406197;23.381000518798828;1673303432.5471272;9.434101104736328;1.6050398349761963;90.05104064941406
120;1673303432.6331854;47.130642599999995;7.2406196;23.782001495361328;1673303432.7832375;9.728124618530273;-2.2289533615112305;89.86995697021484
121;1673303432.8645296;47.130642599999995;7.2406196;24.17500114440918;1673303432.9693246;9.753429412841797;0.8384654521942139;90.06834411621094
122;1673303433.0308309;47.130642599999995;7.240619499999999;24.56800079345703;1673303433.1483388;9.755012512207031;2.0344204902648926;90.08650970458984
123;1673303433.2277992;47.130642599999995;7.2406194;24.963001251220703;1673303433.343455;9.647671699523926;-1.846766471862793;89.9561538696289
124;1673303433.4352472;47.130642699999996;7.2406194;25.358001708984375;1673303433.5672274;9.551000595092773;-0.08827052265405655;89.96407318115234
125;1673303433.639218;47.130642699999996;7.2406194;25.755001068115234;1673303433.7783341;9.288494110107422;3.007906675338745;90.15790557861328
126;1673303433.8528543;47.130642699999996;7.2406194;26.155000686645508;1673303434.0097888;9.454244613647461;-0.9661495089530945;90.07125854492188
127;1673303434.0793536;47.130642599999995;7.2406194;26.547000885009766;1673303434.221198;9.585064888000488;-1.881459355354309;89.99691772460938
128;1673303434.2883828;47.1306425;7.240619499999999;26.93600082397461;1673303434.398908;10.000938415527344;2.366786241531372;90.22978210449219
129;1673303434.4697647;47.1306425;7.240619499999999;27.33100128173828;1673303434.5879145;10.157504081726074;-0.13574063777923584;89.97744750976562
130;1673303434.6592073;47.1306424;7.240619499999999;27.72300148010254;1673303434.7747166;10.144617080688477;-2.2942938804626465;89.86569213867188
131;1673303434.8392847;47.1306424;7.240619499999999;28.119001388549805;1673303434.9536622;9.64691162109375;1.8784160614013672;89.93798828125
132;1673303435.0278454;47.1306425;7.2406194;28.51700210571289;1673303435.1396828;9.414053916931152;1.002266526222229;89.94036865234375
133;1673303435.2290518;47.1306425;7.2406194;28.918001174926758;1673303435.3541641;9.149622917175293;-2.2904889583587646;89.90111541748047
134;1673303435.431443;47.1306425;7.2406194;29.314001083374023;1673303435.5629082;9.398256301879883;1.1062278747558594;90.15442657470703
135;1673303435.6363068;47.130642599999995;7.2406193;29.71200180053711;1673303435.783203;9.66751766204834;2.648611307144165;90.17974090576172
136;1673303435.861699;47.130642699999996;7.2406193;30.112001419067383;1673303435.9701312;9.71866226196289;-1.6527377367019653;89.77611541748047
137;1673303436.035638;47.1306428;7.240619199999999;30.509000778198242;1673303436.142658;10.123579978942871;-0.33046963810920715;89.77400970458984
138;1673303436.2134697;47.1306428;7.2406193;30.902002334594727;1673303436.329173;9.581171989440918;2.9381649494171143;90.07896423339844
139;1673303436.4068224;47.1306428;7.2406193;31.292001724243164;1673303436.5507905;9.189144134521484;-0.8407415747642517;90.00000762939453
140;1673303436.6348994;47.1306428;7.2406193;31.678001403808594;1673303436.7622044;9.228805541992188;-0.9577121138572693;90.04278564453125
141;1673303436.8344712;47.130642699999996;7.2406194;32.060001373291016;1673303436.9669058;9.46403980255127;2.9379239082336426;90.19105529785156
142;1673303437.0422604;47.130642699999996;7.2406194;32.44700241088867;1673303437.1657565;9.903261184692383;0.45760291814804077;89.88211822509766
143;1673303437.2331808;47.1306428;7.2406194;32.836002349853516;1673303437.3541315;9.933859825134277;-1.6963675022125244;89.58810424804688
144;1673303437.4260266;47.1306428;7.2406194;33.22600173950195;1673303437.5423808;10.173150062561035;2.0547611713409424;89.92804718017578
145;1673303437.6089857;47.130642699999996;7.2406194;33.62200164794922;1673303437.7409062;9.725911140441895;1.8184539079666138;90.17012786865234
146;1673303437.8246021;47.130642599999995;7.240619499999999;34.01700210571289;1673303437.9575157;9.64349365234375;-2.3850231170654297;90.03241729736328
147;1673303438.0287645;47.1306425;7.240619499999999;34.40400314331055;1673303438.1397026;9.262839317321777;0.3661156892776489;90.02584838867188
148;1673303438.206613;47.1306424;7.240619499999999;34.79500198364258;1673303438.3428397;9.32478141784668;2.0663723945617676;90.10040283203125
149;1673303438.4263737;47.1306424;7.240619499999999;35.189002990722656;1673303438.5477142;9.645018577575684;-1.9240987300872803;89.97797393798828
150;1673303438.619066;47.1306424;7.240619499999999;35.586002349853516;1673303438.7348602;10.124311447143555;-0.9822827577590942;89.82981872558594
151;1673303438.8066998;47.1306424;7.240619499999999;35.98500061035156;1673303438.9263182;9.999410629272461;2.4742257595062256;90.28795623779297
152;1673303439.002026;47.1306424;7.240619499999999;36.38300323486328;1673303439.129681;9.790312767028809;-0.7090591788291931;90.32784271240234
153;1673303439.2104306;47.1306424;7.2406196;36.77799987792969;1673303439.3280869;9.510927200317383;-1.4481157064437866;89.97360229492188
154;1673303439.409654;47.1306424;7.2406196;37.1670036315918;1673303439.5324206;9.013835906982422;2.4185433387756348;90.02085876464844
155;1673303439.6092768;47.1306425;7.2406196;37.55900192260742;1673303439.7271242;9.46718978881836;0.753469705581665;89.84178161621094
156;1673303439.8030064;47.130642599999995;7.2406196;37.954002380371094;1673303439.928537;9.733266830444336;-1.758362889289856;89.93993377685547
157;1673303440.0053194;47.130642699999996;7.2406196;38.35100173950195;1673303440.1272442;9.976319313049316;1.3279765844345093;89.85359954833984
158;1673303440.2088382;47.130642699999996;7.2406196;38.749000549316406;1673303440.3304095;9.817977905273438;1.889195203781128;90.40982818603516
159;1673303440.4041522;47.130642699999996;7.2406196;39.14800262451172;1673303440.5646625;9.884382247924805;-1.6047931909561157;90.13072204589844
160;1673303440.63327;47.130642699999996;7.2406196;39.540000915527344;1673303440.7507014;9.347538948059082;0.3648216426372528;89.96550750732422
161;1673303440.8183358;47.130642599999995;7.2406197;39.93000030517578;1673303440.9473047;9.16958999633789;2.2893664836883545;89.98851776123047
162;1673303441.0312343;47.130642599999995;7.2406197;40.32200241088867;1673303441.157651;9.455718040466309;-1.4325096607208252;89.98770904541016
163;1673303441.2348711;47.130642599999995;7.240619799999999;40.7140007019043;1673303441.349661;9.75258731842041;-0.7189536094665527;90.06316375732422
164;1673303441.4255075;47.130642699999996;7.240619799999999;41.10700225830078;1673303441.5379958;10.162542343139648;3.197690010070801;90.21589660644531
165;1673303441.611809;47.130642599999995;7.2406198999999996;41.499000549316406;1673303441.7339506;10.351423263549805;-0.06316398829221725;90.2865219116211
166;1673303441.8124104;47.130642599999995;7.2406198999999996;41.89400100708008;1673303441.9284532;10.024815559387207;-1.5804779529571533;89.8190689086914
167;1673303442.008194;47.130642599999995;7.2406198999999996;42.285003662109375;1673303442.1336164;9.400568962097168;2.0354106426239014;89.64777374267578
168;1673303442.215822;47.130642599999995;7.2406198999999996;42.677001953125;1673303442.3464918;9.264777183532715;1.188015341758728;89.76118469238281
169;1673303442.428552;47.130642599999995;7.240619799999999;43.07100296020508;1673303442.582071;9.159754753112793;-1.8309277296066284;89.88209533691406
170;1673303442.654611;47.130642699999996;7.2406197;43.46900177001953;1673303442.770499;9.462014198303223;0.7409389019012451;90.15943908691406
171;1673303442.8398366;47.130642699999996;7.2406196;43.868003845214844;1673303442.9659305;9.872509002685547;2.4369843006134033;90.20866394042969
172;1673303443.0391717;47.130642599999995;7.2406196;44.2650032043457;1673303443.168941;9.958039283752441;-2.078789710998535;90.03276062011719
173;1673303443.248154;47.1306425;7.2406196;44.656002044677734;1673303443.364428;9.444387435913086;-0.6667859554290771;89.8638916015625
174;1673303443.4434907;47.1306424;7.2406196;45.04800033569336;1673303443.5586557;9.40056324005127;1.8833974599838257;89.8416976928711
175;1673303443.6369374;47.1306424;7.2406197;45.441001892089844;1673303443.7575896;9.200881004333496;-1.5276455879211426;90.00939178466797
176;1673303443.825974;47.1306425;7.2406197;45.833003997802734;1673303443.9400227;9.23175048828125;-0.9303601980209351;90.04525756835938
177;1673303444.0168414;47.130642599999995;7.2406197;46.22700119018555;1673303444.1363108;9.650279998779297;3.045703887939453;90.21186065673828
178;1673303444.21506;47.130642599999995;7.2406197;46.62300109863281;1673303444.3429112;9.923054695129395;0.41244783997535706;90.04138946533203
179;1673303444.4259005;47.130642599999995;7.2406197;47.01900100708008;1673303444.563562;10.091273307800293;-1.8105195760726929;89.90497589111328
180;1673303444.6378472;47.130642599999995;7.2406197;47.409000396728516;1673303444.7610574;9.753433227539062;2.2467880249023438;90.0422592163086
181;1673303444.8402495;47.130642599999995;7.2406197;47.802001953125;1673303444.965433;9.172774314880371;1.6424692869186401;90.07354736328125
182;1673303445.0338967;47.130642599999995;7.240619799999999;48.189002990722656;1673303445.1388886;9.178508758544922;-1.626816987991333;89.55338287353516
183;1673303445.2137768;47.130642699999996;7.240619799999999;48.531002044677734;1673303445.3354082;9.441189765930176;1.630112648010254;90.27350616455078
184;1673303445.4140294;47.130642599999995;7.2406198999999996;48.81900405883789;1673303445.5475585;9.852509498596191;1.5884569883346558;90.20951843261719
185;1673303445.62791;47.130642599999995;7.24062;49.057003021240234;1673303445.753564;9.927948951721191;-2.4479572772979736;89.69619750976562
186;1673303445.8341413;47.1306425;7.2406201999999995;49.24800109863281;1673303445.9568617;11.256965637207031;1.341191053390503;89.99848175048828
187;1673303446.031575;47.1306424;7.2406204;49.40500259399414;1673303446.1522322;20.135801315307617;10.312020301818848;87.85569763183594
188;1673303446.2254372;47.1306423;7.2406201999999995;49.50700378417969;1673303446.3386211;21.336740493774414;8.970900535583496;75.7856674194336
189;1673303446.4103894;47.1306416;7.240619499999999;49.548004150390625;1673303446.533771;9.508665084838867;-5.682380199432373;63.844417572021484
190;1673303446.616381;47.1306406;7.2406184;49.59800338745117;1673303446.7393916;15.8643159866333;-4.435770511627197;54.89353561401367
191;1673303446.8214328;47.130639699999996;7.2406172;49.64200210571289;1673303446.9525282;11.419697761535645;-6.737557411193848;46.718868255615234
192;1673303447.0264351;47.1306386;7.2406159;49.68400192260742;1673303447.1445668;7.693336009979248;-9.164287567138672;37.85211944580078
193;1673303447.222293;47.1306376;7.2406147;49.71900177001953;1673303447.3394926;3.837890863418579;-8.088033676147461;28.88327980041504
194;1673303447.4133322;47.1306365;7.240613799999999;49.75200271606445;1673303447.5295305;0.41771480441093445;-6.741152286529541;19.122169494628906
195;1673303447.6074119;47.130635399999996;7.240613;49.78000259399414;1673303447.7324212;-1.5903006792068481;-5.654762268066406;9.452032089233398
196;1673303447.8235273;47.1306345;7.240612499999999;49.80500411987305;1673303447.9498024;-2.5676610469818115;-6.711862087249756;0.06745943427085876
197;1673303448.0276227;47.1306339;7.240612199999999;49.8280029296875;1673303448.1593654;-3.339755058288574;-9.137476921081543;-8.857597351074219
198;1673303448.2287412;47.1306337;7.2406121;49.84600067138672;1673303448.3635397;-4.687636375427246;-11.379892349243164;-16.991830825805664
199;1673303448.4493225;47.1306338;7.240612;49.858001708984375;1673303448.5704184;-5.77101993560791;-11.38523006439209;-25.267608642578125
200;1673303448.6420276;47.1306338;7.2406121;49.87300109863281;1673303448.7578547;-7.706099033355713;-9.704283714294434;-33.71839141845703
201;1673303448.83223;47.1306339;7.240612199999999;49.88800048828125;1673303448.9493423;-8.58199405670166;-7.583556175231934;-42.81797790527344
202;1673303449.035417;47.1306339;7.240612199999999;49.900001525878906;1673303449.1560917;-9.0480318069458;-4.687982559204102;-51.26898956298828
203;1673303449.2290688;47.1306338;7.2406121;49.910003662109375;1673303449.3696406;-7.865032196044922;-4.9824724197387695;-53.215087890625
204;1673303449.4648495;47.1306338;7.240611899999999;49.91800308227539;1673303449.5830708;-6.523047924041748;-6.195327281951904;-51.11060333251953
205;1673303449.658476;47.1306337;7.2406117;49.92400360107422;1673303449.7818723;-6.119503974914551;-8.119490623474121;-48.73871612548828
206;1673303449.8644662;47.1306337;7.2406114;49.923004150390625;1673303449.9716482;-6.926550388336182;-9.815327644348145;-47.206703186035156
207;1673303450.085174;47.1306339;7.2406112;49.92500305175781;1673303450.191245;-7.8908820152282715;-9.407577514648438;-46.59404373168945
208;1673303450.259135;47.130634099999995;7.2406111;49.93000411987305;1673303450.368075;-8.576492309570312;-8.659014701843262;-46.58393096923828
209;1673303450.444886;47.130634199999996;7.2406111;49.93300247192383;1673303450.5638094;-8.408805847167969;-6.7746405601501465;-46.96673583984375
210;1673303450.6364608;47.1306343;7.2406109999999995;49.93400192260742;1673303450.7559242;-7.521827220916748;-6.361623287200928;-47.26005172729492
211;1673303450.826209;47.130634199999996;7.2406109;49.93700408935547;1673303450.950375;-6.047976970672607;-5.939536094665527;-47.34796905517578
212;1673303451.0387864;47.130634199999996;7.2406106999999995;49.932003021240234;1673303451.162399;-11.514156341552734;-7.57120943069458;-46.94663619995117
213;1673303451.2301924;47.130634199999996;7.240610299999999;49.93300247192383;1673303451.3533173;-32.73888397216797;-6.136717796325684;-47.591278076171875
214;1673303451.4282718;47.1306349;7.240609;49.945003509521484;1673303451.548719;-49.43351745605469;-3.934389352798462;-48.763397216796875
215;1673303451.6355178;47.130637;7.2406057;49.95100402832031;1673303451.7544222;-57.013057708740234;-3.6090986728668213;-48.86418151855469
216;1673303451.841022;47.1306412;7.2405995999999995;49.93600082397461;1673303451.961076;-53.56670379638672;-3.963428020477295;-49.104393005371094
217;1673303452.0444458;47.1306473;7.240590399999999;49.919002532958984;1673303452.1643014;-54.925193786621094;-2.098574638366699;-49.9448356628418
218;1673303452.235189;47.1306551;7.2405785;49.92400360107422;1673303452.362011;-58.51683807373047;-0.14861047267913818;-50.12527084350586
219;1673303452.4354088;47.1306648;7.2405639;49.92900085449219;1673303452.5620086;-57.612518310546875;-1.2930854558944702;-49.388187408447266
220;1673303452.6372182;47.130676099999995;7.2405468;49.92400360107422;1673303452.7602336;-53.9634895324707;-3.0168566703796387;-48.294960021972656
221;1673303452.8353364;47.1306886;7.2405279;49.922000885009766;1673303452.9580796;-53.89543533325195;-4.228867053985596;-47.796607971191406
222;1673303453.0463006;47.130702;7.240507699999999;49.91800308227539;1673303453.1531963;-55.177276611328125;-5.062938213348389;-47.46847152709961
223;1673303453.2321484;47.1307161;7.2404861;49.9010009765625;1673303453.3423154;-52.21559524536133;-5.603713512420654;-47.4869270324707
224;1673303453.4172127;47.130730799999995;7.2404635;49.87300109863281;1673303453.5413544;-48.520137786865234;-3.775461196899414;-48.0919189453125
225;1673303453.6511893;47.1307457;7.2404404;49.8390007019043;1673303453.7850182;-48.198726654052734;-3.8369085788726807;-48.045494079589844
226;1673303453.8558931;47.1307609;7.2404169;49.81800079345703;1673303453.964922;-48.52983474731445;-4.198503494262695;-47.958736419677734
227;1673303454.0347579;47.1307762;7.2403930999999995;49.80800247192383;1673303454.1496425;-48.45929718017578;-5.378761291503906;-48.065673828125
228;1673303454.2191527;47.130791699999996;7.2403691;49.802001953125;1673303454.3404932;-48.69120788574219;-6.131216049194336;-48.78278732299805
229;1673303454.425108;47.1308072;7.2403447;49.798004150390625;1673303454.5562427;-46.944217681884766;-9.38683795928955;-48.42789077758789
230;1673303454.64516;47.1308225;7.240319899999999;49.810001373291016;1673303454.7584617;-21.45718765258789;-6.180796146392822;-51.74040603637695
231;1673303454.8194413;47.130837199999995;7.2402957;49.832000732421875;1673303454.9459636;25.422433853149414;-3.7383155822753906;-48.2474365234375
232;1673303455.0201151;47.130850099999996;7.240275;49.80500411987305;1673303455.138309;28.141828536987305;-1.9336161613464355;-51.343719482421875
233;1673303455.213504;47.1308612;7.2402577;49.56100082397461;1673303455.3441684;17.458526611328125;-1.6648757457733154;-48.31998825073242
234;1673303455.4364357;47.130870099999996;7.2402448999999995;49.25600051879883;1673303455.5584579;16.22524070739746;-1.1926411390304565;-47.79644012451172
235;1673303455.641042;47.130876799999996;7.2402362;49.03200149536133;1673303455.768214;14.414478302001953;-2.178452253341675;-48.022552490234375
236;1673303455.8451328;47.130881599999995;7.240231199999999;48.98400115966797;1673303455.9690886;44.29421615600586;-7.45596981048584;-48.70304870605469
237;1673303456.0572407;47.130883999999995;7.2402301;49.10100173950195;1673303456.2075212;47.149539947509766;-7.739391803741455;-45.30129623413086
238;1673303456.289404;47.130883;7.2402334999999995;49.22900390625;1673303456.3952608;40.85426330566406;-7.986496925354004;-44.3478889465332
239;1673303456.474094;47.1308796;7.2402397999999994;49.34600067138672;1673303456.5904448;28.873605728149414;-9.744397163391113;-43.97637176513672
240;1673303456.6607842;47.130874399999996;7.2402478;49.44300079345703;1673303456.7765074;9.170276641845703;-11.195195198059082;-43.6388053894043
241;1673303456.8505101;47.130868299999996;7.2402564;49.52000045776367;1673303456.9710956;-9.403129577636719;-10.891390800476074;-45.20867919921875
242;1673303457.0469422;47.130862199999996;7.2402646;49.58000183105469;1673303457.170857;-21.951078414916992;-9.65634822845459;-47.34993362426758
243;1673303457.247088;47.130857;7.2402714999999995;49.62300109863281;1673303457.3727937;-30.494218826293945;-0.7281286120414734;-48.59225845336914
244;1673303457.452132;47.1308532;7.2402766;49.6410026550293;1673303457.5896003;-39.837894439697266;-4.735328197479248;-49.33164978027344
245;1673303457.663335;47.130851199999995;7.2402793999999995;49.624000549316406;1673303457.7685122;-35.68204116821289;-6.349713325500488;-48.462032318115234
246;1673303457.8393364;47.1308505;7.2402796;49.57500076293945;1673303457.9580238;-28.260406494140625;-8.677159309387207;-47.341087341308594
247;1673303458.0406077;47.1308508;7.240278099999999;49.53300094604492;1673303458.1671696;-19.012792587280273;-13.129637718200684;-47.71589279174805
248;1673303458.241928;47.1308515;7.240275199999999;49.540000915527344;1673303458.3471875;-5.401309967041016;-11.050314903259277;-47.5828742980957
249;1673303458.4171972;47.1308523;7.2402717999999995;49.59300231933594;1673303458.5333488;4.557135105133057;-8.047019958496094;-46.174190521240234
250;1673303458.609954;47.1308528;7.240269199999999;49.65500259399414;1673303458.7276502;11.49774169921875;-2.7624623775482178;-46.06267166137695
251;1673303458.8161564;47.130852999999995;7.2402678;49.707000732421875;1673303458.950613;12.405872344970703;1.1213834285736084;-46.791595458984375
252;1673303459.0292072;47.1308528;7.2402678;49.75400161743164;1673303459.1499405;20.934734344482422;6.985898971557617;-46.86595916748047
253;1673303459.2365515;47.130852499999996;7.2402687;49.62300109863281;1673303459.355227;42.66049575805664;23.327375411987305;-40.8599739074707
254;1673303459.4340425;47.1308522;7.2402698;49.1140022277832;1673303459.5529313;59.125064849853516;49.236244201660156;-24.470888137817383
255;1673303459.6311314;47.130852;7.240271;48.23100280761719;1673303459.7421372;65.74935913085938;79.96691131591797;-2.511768102645874
256;1673303459.8101122;47.1308517;7.2402722;46.97900390625;1673303459.9251692;66.6538314819336;88.62738037109375;0.7385240197181702
257;1673303460.0069249;47.1308514;7.2402735;45.362003326416016;1673303460.1337936;65.86079406738281;59.508934020996094;-30.779483795166016
258;1673303460.2141473;47.1308511;7.2402747;43.37300109863281;1673303460.339487;46.1380729675293;24.196685791015625;-67.02381896972656
259;1673303460.4220603;47.1308508;7.2402757;41.02000045776367;1673303460.5477283;7.440579891204834;7.571189880371094;-77.45592498779297
260;1673303460.6224625;47.1308505;7.240276499999999;38.284000396728516;1673303460.7528787;-30.519155502319336;-8.525253295898438;-78.59428405761719
261;1673303460.8492322;47.130850099999996;7.2402774999999995;35.156002044677734;1673303460.968647;-51.25643539428711;-21.563255310058594;-75.01091003417969
262;1673303461.0628054;47.1308498;7.240278999999999;31.661001205444336;1673303461.181923;-46.51408004760742;-18.407773971557617;-81.85223388671875
263;1673303461.2587755;47.1308495;7.2402808;27.82000160217285;1673303461.3647652;-15.670451164245605;-6.257668495178223;-93.0399398803711
264;1673303461.4268577;47.1308493;7.2402831;23.60500144958496;1673303461.536711;26.73259162902832;3.855475902557373;-97.22779083251953
265;1673303461.6144712;47.1308492;7.2402855;18.998001098632812;1673303461.7622948;53.231990814208984;10.933608055114746;-97.62045288085938
266;1673303461.8383594;47.1308489;7.2402875;14.032000541687012;1673303461.962597;46.74195098876953;6.22837495803833;-104.54764556884766
267;1673303462.0384138;47.1308485;7.2402888999999995;8.730000495910645;1673303462.1573868;9.848746299743652;-0.6808064579963684;-110.67682647705078
268;1673303462.234114;47.1308479;7.2402899;3.05400013923645;1673303462.3568602;-8.3470458984375;-5.351971626281738;-116.29302215576172
269;1673303462.4335203;47.1308429;7.2402837;-0.007000000216066837;1673303462.556594;-1.6298224925994873;-2.4521219730377197;-133.4441375732422
270;1673303462.6366656;47.130832399999996;7.2402657999999995;-0.21700000762939453;1673303462.7601798;-14.131664276123047;-0.8036898970603943;-137.49591064453125
271;1673303462.8426952;47.130821;7.2402447;-0.5090000033378601;1673303462.9623184;-14.585439682006836;-1.2137999534606934;-137.48394775390625
272;1673303463.0341003;47.1308106;7.240225;-0.6950000524520874;1673303463.1624753;-14.170353889465332;0.057530999183654785;-137.39166259765625
273;1673303463.2401187;47.1308011;7.2402071999999995;-0.8180000185966492;1673303463.360842;-13.80213737487793;0.20699138939380646;-137.25314331054688
274;1673303463.441515;47.1307909;7.2401884;-0.9050000309944153;1673303463.5651333;-13.647290229797363;0.27113091945648193;-137.20721435546875
275;1673303463.6369221;47.1307796;7.240167899999999;-0.9780000448226929;1673303463.7883685;-13.493897438049316;0.2712468206882477;-137.15476989746094
276;1673303463.8714166;47.1307676;7.240146299999999;-1.0440000295639038;1673303464.0102563;-13.375909805297852;0.14275380969047546;-137.0902557373047
277;1673303464.0932727;47.1307547;7.240123499999999;-1.165000081062317;1673303464.1911354;-13.268610954284668;0.05060029774904251;-137.08291625976562
278;1673303464.2572377;47.1307414;7.240100099999999;-1.2630000114440918;1673303464.368466;-13.124947547912598;-0.032335277646780014;-137.02114868164062
279;1673303464.4540133;47.1307277;7.2400761;-1.3370000123977661;1673303464.588157;-12.948975563049316;-0.1185053363442421;-136.95602416992188
280;1673303464.6592786;47.1307137;7.2400516999999995;-1.3900001049041748;1673303464.776533;-12.769176483154297;-0.20953983068466187;-136.9441375732422
281;1673303464.8750045;47.1306994;7.2400267;-1.436000108718872;1673303464.9811661;-12.657517433166504;-0.2526627779006958;-136.88482666015625
282;1673303465.0450985;47.1306848;7.240001299999999;-1.4730000495910645;1673303465.152929;-12.455522537231445;-0.27592357993125916;-136.84832763671875
283;1673303465.2313094;47.130669999999995;7.2399754;-1.50600004196167;1673303465.369231;-12.35897159576416;-0.2924319803714752;-136.8533935546875
284;1673303465.449984;47.130654299999996;7.239948399999999;-1.5860000848770142;1673303465.5744395;-12.274821281433105;-0.30652502179145813;-136.85885620117188
285;1673303465.6729462;47.130638399999995;7.2399211;-1.6560001373291016;1673303465.7900298;-12.100913047790527;-0.3215368390083313;-136.83456420898438
286;1673303465.8792427;47.1306224;7.239893599999999;-1.6970000267028809;1673303465.9910648;-11.950194358825684;-0.33225107192993164;-136.78823852539062
287;1673303466.0652404;47.1306063;7.2398658;-1.7230000495910645;1673303466.1820548;-11.843515396118164;-0.34810197353363037;-136.77520751953125
288;1673303466.2530506;47.1305899;7.239837499999999;-1.7410000562667847;1673303466.4016352;-11.667119979858398;-0.3453778028488159;-136.74525451660156
289;1673303466.491482;47.130573299999995;7.2398089;-1.7530001401901245;1673303466.6063483;-11.54835033416748;-0.33570951223373413;-136.7594451904297
290;1673303466.6801083;47.130555699999995;7.2397789999999995;-1.8100000619888306;1673303466.7930782;-11.503169059753418;-0.336850106716156;-136.73764038085938
291;1673303466.9042728;47.130538099999995;7.2397488;-1.849000096321106;1673303467.0102737;-11.34603214263916;-0.32898077368736267;-136.7135467529297
292;1673303467.0810642;47.130520399999995;7.2397184999999995;-1.8660000562667847;1673303467.198698;-11.2606201171875;-0.30748167634010315;-136.71240234375
293;1673303467.2683067;47.1305025;7.2396879;-1.8630000352859497;1673303467.399116;-11.127826690673828;-0.275400310754776;-136.6948699951172
294;1673303467.4832144;47.1304844;7.239656999999999;-1.8540000915527344;1673303467.5982862;-11.020742416381836;-0.2527426481246948;-136.68128967285156
295;1673303467.6711483;47.1304659;7.2396255;-1.8410000801086426;1673303467.7873135;-10.941436767578125;-0.2606334984302521;-136.64547729492188
296;1673303467.8670285;47.1304472;7.2395936;-1.8240001201629639;1673303467.982145;-10.877023696899414;-0.24304533004760742;-136.64588928222656
297;1673303468.0771723;47.130427499999996;7.2395603;-1.840000033378601;1673303468.1999586;-10.85091781616211;-0.17759451270103455;-136.61891174316406
298;1673303468.2762985;47.130421;7.2395494;-1.842000126838684;1673303468.3962963;-10.713905334472656;-0.24219027161598206;-136.59458923339844
299;1673303470.151333;47.1308382;7.2402771999999995;-1.4620000123977661;1673303468.5940733;-10.60141372680664;-0.2628800570964813;-136.552734375
300;;;;;1673303468.7971811;-10.516465187072754;-0.2522754371166229;-136.5192108154297
301;;;;;1673303469.0260875;-10.447576522827148;-0.21010223031044006;-136.4732666015625
302;;;;;1673303469.2141256;-10.415505409240723;0.011272634379565716;-136.45111083984375
303;;;;;1673303469.3960903;-10.379971504211426;0.06195610389113426;-136.44017028808594
304;;;;;1673303469.571012;-10.339306831359863;0.12783479690551758;-136.4615478515625
305;;;;;1673303469.7770948;-10.2394437789917;0.20667478442192078;-136.4692840576172
306;;;;;1673303469.9912;-10.222925186157227;0.28455132246017456;-136.4828338623047
307;;;;;1673303470.1769981;-10.13295841217041;0.35855045914649963;-136.5017852783203
