;pos_time;latitude;longitude;altitude;alt_time;pitch;roll;yaw
0;1673302981.1537757;47.1306424;7.24062;-0.027000000700354576;1673302981.2599244;-0.13534441590309143;-0.05099744722247124;90.15446472167969
1;1673302981.3656228;47.1306425;7.2406201;-0.02500000037252903;1673302981.4634686;-0.06935220211744308;-0.018385006114840508;90.26045227050781
2;1673302981.5548277;47.1306425;7.2406201;-0.024000000208616257;1673302981.6619256;0.18256567418575287;0.07797399908304214;90.31122589111328
3;1673302981.76904;47.1306425;7.2406201;-0.02500000037252903;1673302981.8683987;-0.08735907077789307;-0.05061798915266991;90.059814453125
4;1673302981.9602466;47.1306424;7.2406201;-0.023000001907348633;1673302982.057009;-0.13869118690490723;-0.06963783502578735;90.25529479980469
5;1673302982.1571295;47.1306424;7.2406201;-0.01900000125169754;1673302982.2613163;0.10379689186811447;0.01751704141497612;90.26616668701172
6;1673302982.3596065;47.1306424;7.2406201;-0.01900000125169754;1673302982.4659357;0.23451967537403107;0.009662370197474957;90.37076568603516
7;1673302982.5653365;47.1306424;7.2406201;-0.01900000125169754;1673302982.6625092;0.0960707738995552;-0.07054931670427322;90.32622528076172
8;1673302982.7656806;47.1306424;7.24062;-0.018000001087784767;1673302982.869509;-0.13748684525489807;0.03382554277777672;90.20207977294922
9;1673302982.9525821;47.1306424;7.2406198999999996;-0.018000001087784767;1673302983.0683968;-0.177164226770401;-0.03748612850904465;90.12094116210938
10;1673302983.182625;47.1306424;7.24062;-0.013000000268220901;1673302983.2833624;0.08057954907417297;-0.11232271790504456;90.21492004394531
11;1673302983.374149;47.1306424;7.24062;-0.010000000707805157;1673302983.4665692;-0.14550161361694336;0.03130294010043144;90.12205505371094
12;1673302983.577388;47.1306424;7.24062;-0.009000000543892384;1673302983.6725345;-0.20496608316898346;-0.13335315883159637;90.18038177490234
13;1673302983.7736406;47.1306424;7.24062;-0.00800000037997961;1673302983.873733;-0.022452954202890396;0.10144069045782089;90.23828887939453
14;1673302983.9721239;47.1306424;7.24062;0.003000000026077032;1673302984.0683124;0.08396883308887482;0.009249593131244183;90.15266418457031
15;1673302984.170359;47.1306424;7.24062;0.0020000000949949026;1673302984.2765684;0.07340975105762482;-0.06137296184897423;90.27308654785156
16;1673302984.3690612;47.1306425;7.24062;0.0010000000474974513;1673302984.4768436;0.20985382795333862;-0.054531458765268326;90.25020599365234
17;1673302984.568158;47.1306425;7.2406201;0.0020000000949949026;1673302984.6644073;0.022282149642705917;-0.059666723012924194;90.25381469726562
18;1673302984.7636738;47.1306425;7.2406201999999995;0.005000000353902578;1673302984.8674347;0.22186987102031708;-0.014519736170768738;90.25548553466797
19;1673302984.962399;47.1306425;7.2406203;0.006000000052154064;1673302985.0605721;0.48116636276245117;-0.11261603236198425;90.5146713256836
20;1673302985.166922;47.1306425;7.2406201999999995;0.004000000189989805;1673302985.2746205;0.36983177065849304;0.43555009365081787;90.31739807128906
21;1673302985.386514;47.1306425;7.2406201999999995;0.003000000026077032;1673302985.479274;0.3694990873336792;-0.0026563317514955997;90.46692657470703
22;1673302985.5815036;47.1306425;7.2406201999999995;-0.0010000000474974513;1673302985.6768425;0.2732609510421753;0.025109220296144485;90.34442138671875
23;1673302985.7736447;47.130642599999995;7.2406201;-0.0020000000949949026;1673302985.8724844;0.6721287965774536;0.19541901350021362;90.16399383544922
24;1673302985.9834595;47.130642599999995;7.2406201;-0.007000000216066837;1673302986.1216085;0.3694692850112915;-0.3888126611709595;90.22298431396484
25;1673302986.2202969;47.130642599999995;7.2406201;-0.012000000104308128;1673302986.3276274;0.9964048266410828;-0.13348178565502167;90.19236755371094
26;1673302986.4245052;47.130642599999995;7.2406201;-0.021000001579523087;1673302986.5187607;2.253979444503784;0.22055524587631226;90.05902099609375
27;1673302986.6284583;47.130642599999995;7.24062;-0.029000001028180122;1673302986.7135873;4.14874792098999;-0.04177362099289894;90.02837371826172
28;1673302986.811423;47.130642599999995;7.2406198999999996;-0.03200000151991844;1673302986.9113746;6.360060691833496;0.09216480702161789;88.55662536621094
29;1673302987.0103848;47.130642599999995;7.2406196;-0.03400000184774399;1673302987.1355178;-1.23064124584198;-1.9088311195373535;82.38282012939453
30;1673302987.2213643;47.130642599999995;7.2406179999999996;-0.039000000804662704;1673302987.3225706;-3.616319417953491;0.01971553824841976;87.12449645996094
31;1673302987.4236662;47.130642599999995;7.240615399999999;-0.030000001192092896;1673302987.5177608;-8.4525146484375;0.5584006905555725;86.20368194580078
32;1673302987.5996792;47.1306425;7.240611899999999;-0.01900000125169754;1673302987.686412;-13.192570686340332;0.12969259917736053;83.66902160644531
33;1673302987.7846477;47.1306425;7.2406077;-0.015000000596046448;1673302987.8824394;-15.631519317626953;1.658909797668457;84.19171142578125
34;1673302987.984646;47.1306424;7.240602699999999;-0.005000000353902578;1673302988.0765448;-16.012773513793945;2.2109177112579346;85.26897430419922
35;1673302988.163534;47.1306423;7.240596999999999;0.01100000087171793;1673302988.269315;-17.215749740600586;1.21144700050354;86.50117492675781
36;1673302988.376046;47.1306422;7.240590999999999;0.032999999821186066;1673302988.4824054;-18.827369689941406;0.6438531875610352;87.47455596923828
37;1673302988.5823953;47.130641999999995;7.2405846;0.05700000375509262;1673302988.6964939;-20.623706817626953;1.008190631866455;87.96238708496094
38;1673302988.7984383;47.1306418;7.2405783999999995;0.08100000023841858;1673302988.8975725;-22.57522201538086;0.43229609727859497;88.58724212646484
39;1673302988.9879167;47.1306416;7.2405721;0.10700000822544098;1673302989.0733736;-24.578325271606445;-0.4198063015937805;89.20915222167969
40;1673302989.1658516;47.1306413;7.240565999999999;0.13900001347064972;1673302989.2631843;-26.690143585205078;-0.29571348428726196;89.53678894042969
41;1673302989.3551323;47.1306412;7.240560299999999;0.16900001466274261;1673302989.4611242;-28.79597282409668;-0.24061383306980133;89.75452423095703
42;1673302989.5656695;47.130641;7.240555199999999;0.19600000977516174;1673302989.6613235;-30.920677185058594;-0.9517349600791931;90.1175308227539
43;1673302989.7536077;47.130640899999996;7.240550799999999;0.22200001776218414;1673302989.8661962;-33.088932037353516;-1.1268439292907715;90.33991241455078
44;1673302989.9674218;47.130640899999996;7.2405472;0.24900001287460327;1673302990.0763524;-35.29056930541992;-0.7539210915565491;90.25846862792969
45;1673302990.1812553;47.130640899999996;7.2405447999999994;0.27000001072883606;1673302990.2796;-37.48017120361328;-1.361928939819336;90.5194320678711
46;1673302990.3785264;47.130640899999996;7.2405434;0.29600000381469727;1673302990.4915528;-39.64506149291992;-1.758503794670105;90.74214935302734
47;1673302990.592631;47.130640899999996;7.240543199999999;0.32200002670288086;1673302990.7045114;-41.817230224609375;-1.125773310661316;90.53564453125
48;1673302990.8055081;47.130641;7.2405443;0.3450000286102295;1673302990.8968973;-44.04963302612305;-1.3387260437011719;90.509033203125
49;1673302990.9803965;47.1306412;7.2405466999999994;0.3680000305175781;1673302991.0777483;-46.22956466674805;-1.3641759157180786;90.5461654663086
50;1673302991.1766846;47.130641399999995;7.2405507;0.3890000283718109;1673302991.281871;-48.42333221435547;-1.1239570379257202;90.41658020019531
51;1673302991.378648;47.1306416;7.240556499999999;0.40300002694129944;1673302991.4803305;-47.492454528808594;-1.0982881784439087;90.39474487304688
52;1673302991.57366;47.1306418;7.2405637;0.4130000174045563;1673302991.6787732;-42.62528610229492;-0.8732520341873169;90.42086029052734
53;1673302991.781945;47.130641999999995;7.2405718;0.4190000295639038;1673302991.8892598;-37.53818130493164;-0.4237017035484314;90.31321716308594
54;1673302991.9774523;47.1306422;7.2405802999999995;0.4190000295639038;1673302992.0991561;-30.93118667602539;-0.3372194468975067;90.29080963134766
55;1673302992.1925235;47.1306424;7.2405886;0.445000022649765;1673302992.2975197;-27.43814468383789;-0.19802677631378174;90.27047729492188
56;1673302992.3964612;47.1306425;7.240596099999999;0.5020000338554382;1673302992.4918559;-22.30645751953125;-0.27680081129074097;90.30622100830078
57;1673302992.5929272;47.130642599999995;7.240602399999999;0.5560000538825989;1673302992.6999168;-19.7614688873291;-0.2637856900691986;90.47062683105469
58;1673302992.8146663;47.130642599999995;7.2406071999999995;0.6010000109672546;1673302992.910119;-19.4647159576416;-0.36884284019470215;90.38030242919922
59;1673302993.0028884;47.130642599999995;7.2406106999999995;0.6490000486373901;1673302993.1024966;-20.173336029052734;0.04593978822231293;90.19400024414062
60;1673302993.195943;47.1306425;7.240613;0.703000009059906;1673302993.297128;-21.854568481445312;-1.3048524856567383;90.64250183105469
61;1673302993.3812828;47.1306425;7.2406143;0.7700000405311584;1673302993.484552;-23.596830368041992;-1.9862498044967651;90.82810974121094
62;1673302993.5795147;47.1306424;7.2406149;0.8500000238418579;1673302993.675944;-24.965627670288086;1.1044312715530396;89.62625122070312
63;1673302993.7712457;47.1306423;7.240615099999999;0.9410000443458557;1673302993.8711884;-26.729589462280273;-1.0434329509735107;90.150390625
64;1673302993.9726133;47.1306422;7.240615;1.0420000553131104;1673302994.1137326;-28.270097732543945;-2.6957201957702637;90.71764373779297
65;1673302994.2315469;47.1306422;7.240615;1.156000018119812;1673302994.3237555;-29.070720672607422;0.9690417051315308;89.41067504882812
66;1673302994.4402723;47.1306422;7.240615;1.287000060081482;1673302994.528964;-29.43158721923828;-0.5504971146583557;89.69635009765625
67;1673302994.6183681;47.1306422;7.2406153;1.4320000410079956;1673302994.72457;-29.248933792114258;-2.138805866241455;90.28337860107422
68;1673302994.8156269;47.1306422;7.240615699999999;1.5890001058578491;1673302994.9109406;-29.15822982788086;-0.0638122633099556;93.12699127197266
69;1673302995.0201485;47.1306422;7.2406163;1.758000135421753;1673302995.1084554;-28.026756286621094;-0.7252278327941895;92.95892333984375
70;1673302995.208381;47.1306423;7.240616999999999;1.9340001344680786;1673302995.314496;-27.72290802001953;-2.469714403152466;93.83148193359375
71;1673302995.405256;47.1306424;7.240617599999999;2.121000051498413;1673302995.507179;-27.23590660095215;0.9100674986839294;92.75082397460938
72;1673302995.6238835;47.1306425;7.2406182;2.312000036239624;1673302995.7134619;-26.887428283691406;0.9915916323661804;92.7625732421875
73;1673302995.8068144;47.130642599999995;7.2406187;2.504000186920166;1673302995.9051998;-26.523157119750977;-1.3201637268066406;93.76846313476562
74;1673302996.0053253;47.130642599999995;7.2406191;2.694000244140625;1673302996.104564;-27.029516220092773;0.3792306184768677;93.5034408569336
75;1673302996.19597;47.1306425;7.2406194;2.886000156402588;1673302996.2892745;-26.736343383789062;0.524736762046814;93.16273498535156
76;1673302996.3988085;47.1306424;7.2406196;3.082000255584717;1673302996.516378;-27.155427932739258;-2.8083834648132324;94.24992370605469
77;1673302996.635434;47.1306423;7.2406197;3.2780001163482666;1673302996.7328458;-27.192489624023438;-0.8023989796638489;93.5757827758789
78;1673302996.8273525;47.1306423;7.240619799999999;3.4720001220703125;1673302996.9148514;-27.479656219482422;0.8608708381652832;92.95913696289062
79;1673302997.0003827;47.1306424;7.2406198999999996;3.6680002212524414;1673302997.096656;-27.276559829711914;-2.2765581607818604;94.15510559082031
80;1673302997.1891637;47.1306424;7.24062;3.8630001544952393;1673302997.2882922;-27.436473846435547;-1.5385050773620605;93.94180297851562
81;1673302997.3827004;47.1306423;7.2406201;4.059000015258789;1673302997.473713;-27.25381851196289;0.7721987962722778;93.10619354248047
82;1673302997.574786;47.1306424;7.2406203;4.258000373840332;1673302997.6803455;-27.416715621948242;-2.538560152053833;94.16968536376953
83;1673302997.774063;47.1306424;7.2406204;4.455000400543213;1673302997.8825977;-26.991819381713867;-1.084143877029419;93.90958404541016
84;1673302998.0022714;47.1306425;7.2406204;4.651000022888184;1673302998.1059422;-27.44504165649414;1.2231274843215942;93.03682708740234
85;1673302998.1963165;47.130642599999995;7.2406204999999995;4.8460001945495605;1673302998.299349;-27.0922908782959;-1.8900173902511597;94.16387176513672
86;1673302998.394623;47.130642699999996;7.2406206;5.0400004386901855;1673302998.5024476;-27.15437889099121;-1.101501703262329;93.97795867919922
87;1673302998.6006527;47.130642599999995;7.2406207;5.2330002784729;1673302998.708629;-26.960979461669922;1.1768378019332886;92.979248046875
88;1673302998.8010526;47.130642599999995;7.240620799999999;5.429000377655029;1673302998.8932908;-27.040071487426758;-1.8746157884597778;94.0074691772461
89;1673302998.9964998;47.130642599999995;7.2406209;5.623000144958496;1673302999.099535;-26.94833755493164;-1.6498700380325317;94.08220672607422
90;1673302999.198941;47.130642599999995;7.2406209;5.817000389099121;1673302999.3011072;-27.164897918701172;1.2888766527175903;93.01952362060547
91;1673302999.4020872;47.130642599999995;7.2406209;6.010000228881836;1673302999.513337;-27.021160125732422;-1.6431100368499756;93.9289779663086
92;1673302999.6017382;47.130642599999995;7.2406209;6.202000141143799;1673302999.7008867;-27.14522361755371;-1.928120493888855;94.084228515625
93;1673302999.7922993;47.130642599999995;7.2406209;6.39900016784668;1673302999.8895805;-27.087356567382812;1.0972163677215576;93.00223541259766
94;1673302999.9917848;47.1306425;7.2406209;6.594000339508057;1673303000.0792406;-27.250518798828125;-1.686366081237793;93.8755874633789
95;1673303000.1779184;47.1306425;7.2406209;6.789000511169434;1673303000.279113;-27.14251136779785;-2.364168643951416;94.27437591552734
96;1673303000.3766935;47.1306424;7.2406209;6.9860005378723145;1673303000.4818785;-27.30396270751953;1.0750638246536255;93.05838012695312
97;1673303000.5756211;47.1306424;7.240620799999999;7.182000160217285;1673303000.670852;-27.11437225341797;-1.2894443273544312;93.67029571533203
98;1673303000.7680826;47.1306424;7.240620799999999;7.372000217437744;1673303000.871118;-27.464014053344727;-2.4948878288269043;94.22683715820312
99;1673303000.9733286;47.1306423;7.2406209;7.566000461578369;1673303001.0773282;-27.109912872314453;0.5790268182754517;93.13321685791016
100;1673303001.1923919;47.1306423;7.2406209;7.762000560760498;1673303001.2876434;-27.32020378112793;-1.0324722528457642;93.55079650878906
101;1673303001.387559;47.1306423;7.2406209;7.960000514984131;1673303001.48778;-27.21217155456543;-2.7878100872039795;94.2860336303711
102;1673303001.5831223;47.1306423;7.240621;8.16100025177002;1673303001.6960213;-27.319120407104492;-0.0036227984819561243;93.41466522216797
103;1673303001.8153348;47.1306423;7.240621;8.359000205993652;1673303001.9181464;-27.25944709777832;0.11362376809120178;93.36028289794922
104;1673303002.0151756;47.1306424;7.240621;8.557000160217285;1673303002.1096916;-27.070207595825195;-2.802501916885376;94.40496063232422
105;1673303002.1952338;47.1306423;7.240621099999999;8.754000663757324;1673303002.2935014;-27.233095169067383;-0.16534854471683502;93.5194091796875
106;1673303002.3824563;47.1306423;7.2406212;8.955000877380371;1673303002.477682;-27.121896743774414;0.38310706615448;93.19747161865234
107;1673303002.5670779;47.1306423;7.2406212;9.157999992370605;1673303002.6691241;-27.075387954711914;-2.9713425636291504;94.3731460571289
108;1673303002.7733874;47.1306424;7.2406213;9.360000610351562;1673303002.8786085;-27.037574768066406;-0.4708233177661896;93.68739318847656
109;1673303002.978624;47.1306423;7.2406213;9.565999984741211;1673303003.0858176;-27.190101623535156;0.6109480857849121;93.14395904541016
110;1673303003.1906967;47.1306423;7.2406213;9.768000602722168;1673303003.2880993;-27.024559020996094;-2.6694202423095703;94.23554992675781
111;1673303003.3932748;47.1306423;7.2406213;9.975000381469727;1673303003.490685;-27.2021484375;-1.138083815574646;93.81166076660156
112;1673303003.5860314;47.1306423;7.240621399999999;10.187000274658203;1673303003.7021081;-27.02928924560547;0.3619139492511749;93.2999038696289
113;1673303003.7930748;47.1306424;7.2406216;10.455000877380371;1673303003.8849144;-32.13042449951172;-1.972808837890625;93.8458480834961
114;1673303003.9882631;47.1306424;7.2406223999999995;10.817000389099121;1673303004.0913448;-30.325166702270508;-1.2683618068695068;94.0836410522461
115;1673303004.1815655;47.1306424;7.2406236999999996;11.21500015258789;1673303004.280234;-26.840547561645508;0.31983864307403564;93.11872100830078
116;1673303004.3725736;47.1306424;7.240625;11.61500072479248;1673303004.4816713;-24.493545532226562;-1.4306385517120361;93.89218139648438
117;1673303004.5839493;47.1306425;7.2406261;12.007000923156738;1673303004.693551;-22.435958862304688;-1.0954476594924927;93.98220825195312
118;1673303004.7853634;47.1306425;7.240626799999999;12.392000198364258;1673303004.8730524;-21.618284225463867;1.083853006362915;93.13750457763672
119;1673303004.972647;47.1306425;7.240627;12.767000198364258;1673303005.0728984;-22.22484588623047;-1.221569299697876;93.95594787597656
120;1673303005.1673422;47.130642599999995;7.2406267;13.12600040435791;1673303005.269566;-22.713197708129883;-1.3836005926132202;94.07592010498047
121;1673303005.3701;47.1306425;7.240626;13.475000381469727;1673303005.4793055;-24.545127868652344;1.346860647201538;92.99745178222656
122;1673303005.5874395;47.1306425;7.240625;13.820000648498535;1673303005.6875355;-25.433687210083008;-1.885877013206482;93.8902359008789
123;1673303005.8096733;47.1306424;7.2406239;14.153000831604004;1673303005.929697;-26.989404678344727;-2.2902028560638428;94.07572937011719
124;1673303006.0334718;47.1306423;7.2406229;14.492000579833984;1673303006.1719906;-27.631378173828125;0.587833046913147;93.10186004638672
125;1673303006.245455;47.1306423;7.2406222;14.831000328063965;1673303006.3232777;-28.25884437561035;-1.2497453689575195;93.68380737304688
126;1673303006.40111;47.1306424;7.240621699999999;15.17300033569336;1673303006.4879875;-28.10014533996582;-2.2651631832122803;94.2083740234375
127;1673303006.5822263;47.1306424;7.2406216;15.52500057220459;1673303006.6853144;-28.03742218017578;0.5977089405059814;93.2580795288086
128;1673303006.7766716;47.1306423;7.2406216;15.880001068115234;1673303006.8748155;-27.579612731933594;-1.0981764793395996;93.70865631103516
129;1673303006.9680781;47.1306423;7.240621699999999;16.23400115966797;1673303007.0701463;-27.298892974853516;-2.4973950386047363;94.1586685180664
130;1673303007.165514;47.1306423;7.2406217999999996;16.597000122070312;1673303007.2637422;-26.62792205810547;0.38863247632980347;93.28836822509766
131;1673303007.3590832;47.1306424;7.2406220999999995;16.96500015258789;1673303007.463208;-26.47406768798828;-0.09902748465538025;93.50274658203125
132;1673303007.5584729;47.130642599999995;7.2406223;17.334001541137695;1673303007.6586397;-25.944774627685547;-1.9388446807861328;94.2024917602539
133;1673303007.7613912;47.130642599999995;7.2406225;17.707000732421875;1673303007.8733277;-25.89291763305664;0.6661195755004883;93.38349151611328
134;1673303007.9633174;47.130642599999995;7.2406225;18.084001541137695;1673303008.061407;-25.690980911254883;0.3132461905479431;93.37985229492188
135;1673303008.1528847;47.130642599999995;7.2406225;18.461000442504883;1673303008.2569385;-26.065595626831055;-2.1896393299102783;94.33386993408203
136;1673303008.35922;47.130642599999995;7.2406223999999995;18.826000213623047;1673303008.4638524;-26.06461524963379;0.0876423716545105;93.61026000976562
137;1673303008.5670617;47.1306425;7.2406222;19.192001342773438;1673303008.6681325;-26.323450088500977;0.4484613239765167;93.40911865234375
138;1673303008.7655537;47.1306425;7.2406220999999995;19.5570011138916;1673303008.878369;-26.324851989746094;-2.5114150047302246;94.36125183105469
139;1673303008.9781907;47.1306425;7.240622;19.924001693725586;1673303009.0770292;-26.860363006591797;-0.5366855263710022;93.63028717041016
140;1673303009.1852233;47.1306424;7.2406217999999996;20.293001174926758;1673303009.283187;-26.49086570739746;0.5777086019515991;93.13118743896484
141;1673303009.3878894;47.1306423;7.240621699999999;20.66200065612793;1673303009.4916902;-26.872350692749023;-2.439882278442383;94.08882141113281
142;1673303009.5833895;47.1306423;7.2406216;21.0260009765625;1673303009.6826448;-26.63814353942871;-1.1017919778823853;93.76438903808594
143;1673303009.8058555;47.1306423;7.2406215;21.39900016784668;1673303009.9108312;-26.994882583618164;1.0410923957824707;93.09722137451172
144;1673303010.028404;47.1306423;7.2406216;21.775001525878906;1673303010.1286242;-26.630329132080078;-1.7596640586853027;94.01513671875
145;1673303010.236706;47.1306424;7.2406216;22.150001525878906;1673303010.332097;-26.776138305664062;-1.3279004096984863;93.97065734863281
146;1673303010.4273121;47.1306423;7.2406216;22.529001235961914;1673303010.5333924;-26.554439544677734;1.0664172172546387;93.0363540649414
147;1673303010.6266763;47.1306423;7.240621699999999;22.9060001373291;1673303010.7221298;-26.590707778930664;-1.2229087352752686;93.76227569580078
148;1673303010.8116345;47.1306423;7.240621699999999;23.282001495361328;1673303010.9059718;-26.426969528198242;-1.8546370267868042;94.0521240234375
149;1673303010.9994838;47.1306423;7.2406216;23.652000427246094;1673303011.0944116;-26.665822982788086;1.0180679559707642;93.16268920898438
150;1673303011.1833198;47.1306424;7.2406216;24.0260009765625;1673303011.2854388;-26.477128982543945;-1.047876238822937;93.77767944335938
151;1673303011.3787107;47.1306424;7.2406216;24.404001235961914;1673303011.4799123;-26.4364070892334;-1.9098725318908691;94.20384979248047
152;1673303011.573364;47.1306424;7.240621699999999;24.78700065612793;1673303011.6803696;-26.471038818359375;0.9127866625785828;93.18553924560547
153;1673303011.7741458;47.1306424;7.240621699999999;25.171001434326172;1673303011.8788307;-26.397306442260742;-0.40441060066223145;93.43827056884766
154;1673303011.9787352;47.1306424;7.240621699999999;25.552001953125;1673303012.0858767;-26.45880699157715;-2.092939853668213;94.18840026855469
155;1673303012.1784322;47.1306425;7.2406216;25.92300033569336;1673303012.274598;-26.687211990356445;0.5433837175369263;93.41423034667969
156;1673303012.3670151;47.1306425;7.2406215;26.302001953125;1673303012.4721613;-26.595617294311523;-0.021302605047822;93.43022918701172
157;1673303012.5703583;47.130642599999995;7.2406215;26.681001663208008;1673303012.674603;-26.580001831054688;-2.048840284347534;94.29969024658203
158;1673303012.7718453;47.1306425;7.240621399999999;27.06100082397461;1673303012.8790562;-26.675424575805664;0.15529750287532806;93.53659057617188
159;1673303013.0013003;47.1306425;7.240621399999999;27.442001342773438;1673303013.1090007;-26.590919494628906;0.36044853925704956;93.39965057373047
160;1673303013.2586274;47.1306425;7.240621399999999;27.823001861572266;1673303013.339265;-26.678836822509766;-2.4442577362060547;94.26465606689453
161;1673303013.4238756;47.1306425;7.240621399999999;28.203001022338867;1673303013.5103288;-26.545881271362305;-0.1828935593366623;93.61019134521484
162;1673303013.5944214;47.1306425;7.2406213;28.57600212097168;1673303013.696554;-26.843334197998047;1.1307196617126465;93.2427978515625
163;1673303013.7874272;47.130642599999995;7.2406213;28.955001831054688;1673303013.8842397;-26.602453231811523;-1.9816449880599976;94.20077514648438
164;1673303013.9795763;47.130642599999995;7.2406212;29.339000701904297;1673303014.079869;-26.91627311706543;-0.6312910318374634;93.77412414550781
165;1673303014.1799474;47.1306425;7.2406212;29.72300148010254;1673303014.2840219;-26.473339080810547;0.9856297373771667;93.0998306274414
166;1673303014.3832078;47.1306425;7.2406213;30.10700225830078;1673303014.494238;-26.62630271911621;-1.3905179500579834;93.90007781982422
167;1673303014.6002367;47.1306425;7.2406213;30.49300193786621;1673303014.7099066;-26.47702407836914;-1.4204992055892944;94.08089447021484
168;1673303014.8412313;47.1306425;7.2406212;30.871002197265625;1673303014.9799619;-26.676809310913086;1.2978307008743286;93.10677337646484
169;1673303015.0543647;47.1306425;7.2406212;31.25400161743164;1673303015.1417792;-26.48631477355957;-0.8526270985603333;93.77079772949219
170;1673303015.2280362;47.1306425;7.2406212;31.64200210571289;1673303015.3300009;-26.734359741210938;-1.705379843711853;94.03031921386719
171;1673303015.437684;47.1306425;7.2406212;32.031002044677734;1673303015.5367389;-26.44784927368164;1.0048149824142456;93.1124496459961
172;1673303015.6320744;47.1306424;7.240621099999999;32.42100143432617;1673303015.7264335;-26.71439552307129;-0.9049860239028931;93.75313568115234
173;1673303015.8158956;47.1306424;7.240621099999999;32.81100082397461;1673303015.9081893;-26.617830276489258;-2.252403974533081;94.28937530517578
174;1673303015.996167;47.1306424;7.240621;33.19700241088867;1673303016.095336;-26.634929656982422;0.7022442817687988;93.29782104492188
175;1673303016.1888263;47.1306424;7.2406209;33.57400131225586;1673303016.2940273;-26.78863525390625;-0.38757452368736267;93.5106201171875
176;1673303016.4042575;47.1306424;7.2406209;33.95600128173828;1673303016.5031538;-26.701112747192383;-2.35066294670105;94.21099853515625
177;1673303016.6013832;47.1306423;7.2406209;34.34100341796875;1673303016.705428;-26.815269470214844;0.18469707667827606;93.38440704345703
178;1673303016.8046596;47.1306423;7.240620799999999;34.72600173950195;1673303016.9121435;-26.866622924804688;0.09867881238460541;93.37850952148438
179;1673303017.0171216;47.1306423;7.240620799999999;35.1140022277832;1673303017.1243968;-26.817373275756836;-2.327073574066162;94.2739028930664
180;1673303017.2216034;47.1306424;7.240620799999999;35.50200271606445;1673303017.3139434;-26.72020149230957;0.25829997658729553;93.4934310913086
181;1673303017.4197705;47.1306424;7.240620799999999;35.88300323486328;1673303017.5240517;-26.93057632446289;0.7001741528511047;93.32676696777344
182;1673303017.622434;47.1306424;7.240620799999999;36.27300262451172;1673303017.729411;-26.66461944580078;-1.948135256767273;94.15591430664062
183;1673303017.8160129;47.1306424;7.240620799999999;36.66400146484375;1673303017.9053872;-26.832605361938477;-0.2726447582244873;93.6777572631836
184;1673303017.9872382;47.1306424;7.240620799999999;37.05800247192383;1673303018.0905132;-26.52804946899414;0.6691101789474487;93.31019592285156
185;1673303018.1939635;47.1306424;7.240620799999999;37.45000076293945;1673303018.2948027;-26.899145126342773;-2.1602632999420166;94.18473815917969
186;1673303018.3990698;47.1306424;7.2406207;37.84100341796875;1673303018.5044918;-26.638689041137695;-0.6853234767913818;93.76241302490234
187;1673303018.6009715;47.1306424;7.2406207;38.22700119018555;1673303018.6952488;-26.963382720947266;1.1285710334777832;93.07547760009766
188;1673303018.7945147;47.1306424;7.2406206;38.60600280761719;1673303018.9103124;-26.73822593688965;-1.4337388277053833;93.87174987792969
189;1673303019.0150535;47.1306424;7.2406206;38.992000579833984;1673303019.1201317;-26.85110855102539;-1.468732476234436;94.04119873046875
190;1673303019.2270184;47.1306423;7.2406206;39.384002685546875;1673303019.3292952;-26.827035903930664;0.9860952496528625;93.21109008789062
191;1673303019.4197326;47.1306423;7.2406206;39.781002044677734;1673303019.5466835;-26.730911254882812;-0.8438462615013123;93.74495697021484
192;1673303019.6416564;47.1306424;7.2406207;40.17500305175781;1673303019.7368987;-26.674083709716797;-1.6842108964920044;94.19357299804688
193;1673303019.826449;47.1306425;7.2406207;40.570003509521484;1673303019.930232;-26.758939743041992;1.3331453800201416;93.19957733154297
194;1673303020.0312617;47.1306425;7.2406206;40.95500183105469;1673303020.1314611;-26.56208038330078;-0.5542868971824646;93.6621322631836
195;1673303020.2202098;47.1306425;7.2406206;41.34300231933594;1673303020.313792;-26.894420623779297;-1.9302303791046143;94.1568832397461
196;1673303020.4097486;47.1306425;7.2406206;41.73100280761719;1673303020.526203;-26.599430084228516;0.7631798386573792;93.2906723022461
197;1673303020.6293504;47.1306425;7.2406206;42.125003814697266;1673303020.7314067;-26.859355926513672;0.17875505983829498;93.48279571533203
198;1673303020.8237863;47.1306425;7.2406206;42.51700210571289;1673303020.9212651;-26.48931312561035;-2.207118034362793;94.24620819091797
199;1673303021.033247;47.130642599999995;7.2406206;42.909000396728516;1673303021.1767058;-26.693696975708008;0.9289407730102539;93.35712432861328
200;1673303021.28398;47.130642599999995;7.2406204999999995;43.303001403808594;1673303021.39337;-26.639352798461914;0.29375460743904114;93.397705078125
201;1673303021.4716988;47.1306425;7.2406204999999995;43.689002990722656;1673303021.569437;-26.774497985839844;-1.9577709436416626;94.238037109375
202;1673303021.66079;47.1306425;7.2406204999999995;44.079002380371094;1673303021.753301;-26.600343704223633;0.147845059633255;93.5423812866211
203;1673303021.8501964;47.1306424;7.2406204999999995;44.470001220703125;1673303021.932978;-26.66991424560547;0.9015186429023743;93.30670166015625
204;1673303022.0137439;47.1306424;7.2406204999999995;44.862003326416016;1673303022.113436;-26.594646453857422;-2.0933802127838135;94.37387084960938
205;1673303022.200938;47.1306425;7.2406204999999995;45.25800323486328;1673303022.320135;-26.67068099975586;-0.24340327084064484;93.78684997558594
206;1673303022.4056695;47.1306424;7.2406204;45.65300369262695;1673303022.5004666;-26.85441017150879;1.2487907409667969;93.14336395263672
207;1673303022.6016257;47.1306424;7.2406204;46.04100036621094;1673303022.7098467;-26.64911460876465;-1.6340930461883545;93.9494857788086
208;1673303022.8085392;47.1306423;7.2406203;46.43300247192383;1673303022.9048097;-26.91403579711914;-0.5848112106323242;93.75238800048828
209;1673303022.9951804;47.1306423;7.2406203;46.82600402832031;1673303023.0943294;-26.887889862060547;1.134995937347412;93.14529418945312
210;1673303023.1993823;47.1306423;7.2406201999999995;47.22100067138672;1673303023.3024056;-26.783004760742188;-1.3460105657577515;93.96428680419922
211;1673303023.3942788;47.1306423;7.2406201999999995;47.62000274658203;1673303023.4968612;-26.71404457092285;-1.020593285560608;93.94605255126953
212;1673303023.5992117;47.1306422;7.2406201;48.01300048828125;1673303023.6995049;-27.49410629272461;1.1272742748260498;93.29375457763672
213;1673303023.7962945;47.1306422;7.24062;48.371002197265625;1673303023.901959;-27.09341812133789;-1.4226628541946411;93.94811248779297
214;1673303023.9931405;47.1306422;7.240619799999999;48.66800308227539;1673303024.0893435;-27.266494750976562;-0.8723206520080566;93.91094970703125
215;1673303024.1886926;47.130642099999996;7.240619499999999;48.923004150390625;1673303024.2909997;-27.684606552124023;0.8847797513008118;93.23573303222656
216;1673303024.3883276;47.130642099999996;7.240619;49.137001037597656;1673303024.483679;-28.29075813293457;-0.8303427696228027;93.7642593383789
217;1673303024.5858047;47.130642099999996;7.2406185999999995;49.31800079345703;1673303024.6777296;-19.312108993530273;1.27937650680542;92.41461181640625
218;1673303024.7774124;47.130641999999995;7.2406177;49.452003479003906;1673303024.8847125;-15.694646835327148;16.72799301147461;81.06494140625
219;1673303024.9958487;47.130641499999996;7.2406160999999996;49.49700164794922;1673303025.1008801;-26.142578125;10.62343692779541;69.39562225341797
220;1673303025.2070234;47.130640799999995;7.2406142;49.53600311279297;1673303025.3110173;-22.801809310913086;15.965689659118652;58.46085739135742
221;1673303025.4128778;47.1306401;7.240612499999999;49.586002349853516;1673303025.5190825;-17.74468421936035;21.834857940673828;49.7557487487793
222;1673303025.6210256;47.1306394;7.2406106999999995;49.63800048828125;1673303025.7217188;-17.320480346679688;23.24030113220215;40.380313873291016
223;1673303025.8210347;47.1306387;7.2406090999999995;49.68600082397461;1673303025.9198787;-14.168432235717773;24.632333755493164;30.979103088378906
224;1673303026.0168521;47.130638;7.2406077;49.72600173950195;1673303026.1099536;-10.784974098205566;25.9249324798584;22.051490783691406
225;1673303026.214056;47.1306373;7.2406064;49.759002685546875;1673303026.328902;-6.3154683113098145;27.025836944580078;13.03632926940918
226;1673303026.4183004;47.1306367;7.2406054;49.78600311279297;1673303026.5161576;-1.4578803777694702;29.151697158813477;3.8658156394958496
227;1673303026.6168797;47.1306362;7.2406045;49.79900360107422;1673303026.7271218;3.502520799636841;30.6159725189209;-5.376170635223389
228;1673303026.8399634;47.130635899999994;7.2406038;49.81100082397461;1673303026.9380078;8.391788482666016;30.915285110473633;-14.524300575256348
229;1673303027.039103;47.1306357;7.2406033;49.82100296020508;1673303027.1428852;13.396678924560547;29.480613708496094;-23.428241729736328
230;1673303027.2348282;47.1306356;7.2406030999999995;49.827003479003906;1673303027.3300707;18.14788246154785;26.084516525268555;-32.504703521728516
231;1673303027.4116998;47.1306355;7.2406030999999995;49.83000183105469;1673303027.504088;22.19193458557129;21.10232162475586;-41.32086944580078
232;1673303027.5900464;47.1306355;7.2406033;49.833003997802734;1673303027.6862626;24.865421295166016;15.613845825195312;-50.275508880615234
233;1673303027.7934325;47.1306355;7.2406036;49.83000183105469;1673303027.891904;24.927141189575195;12.920470237731934;-53.55105972290039
234;1673303027.9977458;47.1306355;7.240603999999999;49.8280029296875;1673303028.108394;23.493507385253906;14.457077980041504;-50.478790283203125
235;1673303028.2231398;47.130635399999996;7.2406044;49.8280029296875;1673303028.324207;22.274686813354492;16.994340896606445;-47.78852081298828
236;1673303028.4222238;47.1306352;7.2406045;49.83000183105469;1673303028.5322247;21.842967987060547;18.33966064453125;-46.461082458496094
237;1673303028.6216016;47.130635;7.2406045;49.833003997802734;1673303028.735504;21.947080612182617;19.0679988861084;-45.66930389404297
238;1673303028.825829;47.1306349;7.2406044;49.836002349853516;1673303028.9239745;22.05033302307129;18.126615524291992;-45.67129898071289
239;1673303029.0193028;47.130634699999995;7.2406042;49.840003967285156;1673303029.1245234;21.936552047729492;17.368328094482422;-45.77783203125
240;1673303029.2100024;47.1306345;7.2406041;49.83700180053711;1673303029.3173332;21.416311264038086;17.60814666748047;-46.1385612487793
241;1673303029.4104714;47.1306344;7.2406039;49.84100341796875;1673303029.5136905;21.234527587890625;18.03835105895996;-46.63493347167969
242;1673303029.6087115;47.1306344;7.240603699999999;49.84800338745117;1673303029.7177444;19.406587600708008;20.110727310180664;-46.9295768737793
243;1673303029.8311572;47.1306344;7.2406035;49.858001708984375;1673303029.9547145;-7.34423828125;22.063568115234375;-49.74537658691406
244;1673303030.0434716;47.1306351;7.2406022;49.87000274658203;1673303030.1269855;-36.46405029296875;16.222942352294922;-48.340946197509766
245;1673303030.2109294;47.1306373;7.2405979;49.88100051879883;1673303030.302766;-50.13581848144531;8.702862739562988;-45.16770935058594
246;1673303030.3887272;47.1306418;7.2405892;49.849002838134766;1673303030.4886868;-44.2310676574707;4.105149745941162;-45.1175537109375
247;1673303030.5823145;47.130648;7.240576099999999;49.803001403808594;1673303030.6896825;-45.22484588623047;6.7303786277771;-44.186058044433594
248;1673303030.7847626;47.1306557;7.240558699999999;49.76700210571289;1673303030.8989394;-49.21955871582031;11.171279907226562;-42.92725372314453
249;1673303031.0026937;47.1306653;7.240537799999999;49.75400161743164;1673303031.1030622;-53.26594543457031;16.99760627746582;-43.32442092895508
250;1673303031.1959445;47.1306771;7.240513999999999;49.75300216674805;1673303031.299676;-54.71419906616211;20.191524505615234;-42.81536865234375
251;1673303031.39954;47.1306912;7.2404879;49.76900100708008;1673303031.499632;-54.44725799560547;21.22650146484375;-41.179710388183594
252;1673303031.5927248;47.1307076;7.240460199999999;49.78900146484375;1673303031.6863918;-53.791534423828125;22.78955078125;-41.6118278503418
253;1673303031.7770472;47.130725999999996;7.2404319;49.80000305175781;1673303031.886683;-55.64270782470703;22.006187438964844;-42.81660842895508
254;1673303031.998676;47.130745999999995;7.2404027;49.78400421142578;1673303032.1041138;-50.567832946777344;19.761188507080078;-42.55200958251953
255;1673303032.2006133;47.130767299999995;7.2403726;49.749000549316406;1673303032.2997048;-45.05423355102539;16.93054962158203;-42.984840393066406
256;1673303032.4100115;47.130789199999995;7.240342;49.69900131225586;1673303032.5009196;-42.46539306640625;16.182497024536133;-44.49629592895508
257;1673303032.600216;47.1308113;7.240310999999999;49.650001525878906;1673303032.7005043;-43.008140563964844;17.397136688232422;-44.95555877685547
258;1673303032.798818;47.1308335;7.240279699999999;49.621002197265625;1673303032.9003744;-31.51679229736328;23.7569522857666;-42.385948181152344
259;1673303032.9934583;47.1308557;7.2402489999999995;49.630001068115234;1673303033.1072457;13.640999794006348;23.52885627746582;-39.24325942993164
260;1673303033.208325;47.130876699999995;7.2402203;49.6140022277832;1673303033.3093603;25.83982276916504;14.329009056091309;-41.2369499206543
261;1673303033.4141982;47.1308952;7.240194;49.49500274658203;1673303033.5074298;16.968570709228516;4.892424583435059;-46.90629577636719
262;1673303033.5994742;47.1309106;7.2401703;49.39400100708008;1673303033.702485;26.26612663269043;6.740072727203369;-48.602561950683594
263;1673303033.7923822;47.130922999999996;7.2401491;49.34700393676758;1673303033.8957431;34.67679977416992;7.712492942810059;-48.6876106262207
264;1673303033.9984272;47.1309326;7.2401309;49.340003967285156;1673303034.1045303;39.156219482421875;8.185412406921387;-48.96345520019531
265;1673303034.2013097;47.130939399999995;7.2401161;49.362003326416016;1673303034.2974186;46.162010192871094;10.901087760925293;-48.726051330566406
266;1673303034.3972108;47.130943599999995;7.2401051;49.415000915527344;1673303034.5013583;50.28590393066406;14.065841674804688;-49.06400680541992
267;1673303034.6025076;47.1309456;7.240097899999999;49.47300338745117;1673303034.7045014;52.0406379699707;18.646804809570312;-47.83502960205078
268;1673303034.8136804;47.130945999999994;7.240094699999999;49.525001525878906;1673303034.9225583;53.842105865478516;23.150304794311523;-47.322391510009766
269;1673303035.02128;47.130944899999996;7.2400955;49.577003479003906;1673303035.120599;52.40501022338867;26.09079933166504;-47.72791290283203
270;1673303035.2264636;47.1309429;7.2400999;49.6400032043457;1673303035.3176079;45.80598449707031;27.312076568603516;-48.37580490112305
271;1673303035.4169793;47.1309403;7.2401069;49.68400192260742;1673303035.5143518;33.751644134521484;25.129064559936523;-48.539886474609375
272;1673303035.6193297;47.1309377;7.240114999999999;49.7130012512207;1673303035.7136965;21.207550048828125;24.191696166992188;-47.36577224731445
273;1673303035.8020973;47.1309355;7.2401233;49.72200393676758;1673303035.8973217;9.98302173614502;21.38484764099121;-45.88271713256836
274;1673303035.988637;47.1309338;7.2401307;49.715003967285156;1673303036.0907738;2.7500898838043213;18.775928497314453;-44.549278259277344
275;1673303036.1919606;47.1309328;7.2401364;49.704002380371094;1673303036.302882;-0.3132549226284027;17.3455810546875;-43.96323776245117
276;1673303036.395063;47.1309325;7.2401402;49.69400405883789;1673303036.497835;0.5934784412384033;16.707345962524414;-44.01820373535156
277;1673303036.5990863;47.1309328;7.240142;49.69000244140625;1673303036.6993625;4.31996488571167;16.035545349121094;-45.32992172241211
278;1673303036.7955737;47.1309336;7.240142199999999;49.69400405883789;1673303036.9007921;10.090255737304688;16.02301597595215;-46.395782470703125
279;1673303036.993231;47.1309344;7.2401409999999995;49.70600128173828;1673303037.0904448;16.9921875;16.30686378479004;-46.74184036254883
280;1673303037.186713;47.1309354;7.2401392;49.720001220703125;1673303037.29173;21.773693084716797;15.291766166687012;-46.744293212890625
281;1673303037.394537;47.130936299999995;7.2401373;49.733001708984375;1673303037.500336;24.319164276123047;15.798392295837402;-46.24089431762695
282;1673303037.5975487;47.130936999999996;7.2401355;49.743003845214844;1673303037.7034054;31.41781997680664;11.436397552490234;-46.10899353027344
283;1673303037.7976685;47.130937499999995;7.2401336999999995;49.590003967285156;1673303037.8968754;37.04350662231445;-8.385921478271484;-49.149288177490234
284;1673303037.999195;47.1309378;7.2401314999999995;49.077003479003906;1673303038.1082642;32.867305755615234;-35.645530700683594;-49.8521842956543
285;1673303038.2066138;47.130938199999996;7.240128899999999;48.17400360107422;1673303038.3039894;22.0516300201416;-62.49633026123047;-38.91078567504883
286;1673303038.3978896;47.1309386;7.2401262;46.902000427246094;1673303038.5023909;13.623208045959473;-84.57367706298828;-16.081911087036133
287;1673303038.606276;47.1309392;7.2401235999999995;45.262001037597656;1673303038.7091959;12.230975151062012;-94.51514434814453;12.090954780578613
288;1673303038.8123357;47.1309398;7.2401209;43.26000213623047;1673303038.9211318;11.107600212097168;-85.05005645751953;40.08625030517578
289;1673303039.0174613;47.1309402;7.2401181999999995;40.90800094604492;1673303039.1198502;-4.281111717224121;-57.24697494506836;59.005638122558594
290;1673303039.2140455;47.1309405;7.2401155;38.19700241088867;1673303039.312177;-14.267265319824219;-11.929689407348633;61.12174606323242
291;1673303039.4070582;47.1309405;7.2401126;35.10700225830078;1673303039.513498;-6.7083282470703125;33.6408805847168;60.43659210205078
292;1673303039.6019497;47.1309405;7.2401089999999995;31.613000869750977;1673303039.7011938;9.924328804016113;56.28168869018555;72.6734390258789
293;1673303039.7946684;47.1309407;7.2401051;27.76700210571289;1673303039.897739;26.475017547607422;49.6340217590332;91.5465316772461
294;1673303039.9966984;47.130941299999996;7.2401009;23.58100128173828;1673303040.0998952;41.370635986328125;13.861745834350586;103.01202392578125
295;1673303040.1990182;47.1309422;7.240097;19.030000686645508;1673303040.3021436;43.03962326049805;-32.30699157714844;104.44439697265625
296;1673303040.395635;47.1309428;7.2400933;14.113000869750977;1673303040.4957268;28.154052734375;-46.49929428100586;118.04444885253906
297;1673303040.5956202;47.130942999999995;7.240089599999999;8.861000061035156;1673303040.7056284;1.6814162731170654;-23.551477432250977;135.46353149414062
298;1673303040.803781;47.1309428;7.2400854;3.2430002689361572;1673303040.9059026;-13.142230987548828;31.14912986755371;139.9439697265625
299;1673303041.0109556;47.130941199999995;7.2400813;0.2410000115633011;1673303041.1109211;-7.867692947387695;7.203663349151611;133.63331604003906
300;1673303041.2159624;47.130935;7.2400772;0.534000039100647;1673303041.324818;-6.330766677856445;5.233675003051758;132.717041015625
301;1673303041.4232075;47.130928;7.2400736;0.7540000081062317;1673303041.5210307;-6.2002787590026855;7.828583240509033;132.65283203125
302;1673303041.6062133;47.1309209;7.240070299999999;0.9200000166893005;1673303041.7026455;-6.174029350280762;6.682060241699219;132.75335693359375
303;1673303041.805683;47.1309141;7.2400674;1.0390000343322754;1673303041.9038937;-6.161555290222168;6.661774635314941;132.870849609375
304;1673303042.0061815;47.130907699999995;7.2400651;1.127000093460083;1673303042.1132357;-6.065103054046631;6.669055938720703;132.97467041015625
305;1673303042.209205;47.130900499999996;7.2400626;1.2480000257492065;1673303042.3085387;-5.993503570556641;6.454763412475586;133.07896423339844
306;1673303042.4177356;47.1308949;7.2400611999999995;1.3420000076293945;1673303042.5204184;-5.881292343139648;6.30021333694458;133.24098205566406
307;1673303042.620903;47.130890799999996;7.2400607;1.4210001230239868;1673303042.7294714;-5.782752513885498;6.321613788604736;133.40646362304688
308;1673303042.8198535;47.1308879;7.240061;1.496000051498413;1673303042.9153552;-5.73868989944458;6.3159685134887695;133.5408172607422
309;1673303043.0016704;47.1308826;7.240060499999999;1.558000087738037;1673303043.0980625;-5.738044261932373;6.5072431564331055;133.5775604248047
310;1673303043.2023332;47.1308751;7.2400594;1.6090000867843628;1673303043.350521;-5.755270004272461;6.551785469055176;133.5823211669922
311;1673303043.445735;47.1308663;7.2400579;1.6910001039505005;1673303043.5380852;-5.770149230957031;6.755070686340332;133.67869567871094
312;1673303043.6361234;47.1308564;7.2400563;1.7500001192092896;1673303043.7431726;-5.78329610824585;6.900278091430664;133.71046447753906
313;1673303043.8336694;47.130845799999996;7.2400547;1.7990001440048218;1673303043.9347594;-5.728941440582275;7.03240442276001;133.74327087402344
314;1673303044.0271437;47.1308345;7.2400531;1.840000033378601;1673303044.129208;-5.740103721618652;7.099959373474121;133.7988739013672
315;1673303044.2197027;47.130822699999996;7.240051599999999;1.8780001401901245;1673303044.312081;-5.735044956207275;7.199562072753906;133.85089111328125
316;1673303044.4237993;47.130810399999994;7.2400500999999995;1.912000060081482;1673303044.5237772;-5.73509407043457;7.242936134338379;133.92393493652344
317;1673303044.6149728;47.130797699999995;7.2400487;1.943000078201294;1673303044.7090821;-5.758079528808594;7.260097980499268;133.9666290283203
318;1673303044.8006938;47.1307846;7.240047499999999;1.9940000772476196;1673303044.8971555;-5.754080772399902;7.22896146774292;134.03297424316406
319;1673303044.9909797;47.130770999999996;7.2400462999999995;2.0360000133514404;1673303045.1022196;-5.780158519744873;7.219345569610596;134.1056365966797
320;1673303045.1998498;47.130756999999996;7.2400452;2.071000099182129;1673303045.303872;-5.76536226272583;7.241100788116455;134.15403747558594
321;1673303045.4139042;47.1307425;7.2400442;2.0990002155303955;1673303045.541083;-5.739882946014404;7.160323143005371;134.2306365966797
322;1673303045.655017;47.1307275;7.2400433;2.120000123977661;1673303045.7572236;-5.740270137786865;7.098172664642334;134.25843811035156
323;1673303045.8423314;47.1307121;7.2400424;2.13700008392334;1673303045.9470282;-5.762268543243408;7.02988862991333;134.2947235107422
324;1673303046.0437503;47.1306964;7.2400417;2.1620001792907715;1673303046.1878085;-5.733737945556641;6.961130142211914;134.3688507080078
325;1673303046.2669897;47.1306802;7.240041;2.17900013923645;1673303046.4500208;-5.746188640594482;6.854733467102051;134.37196350097656
326;1673303046.5481157;47.1306636;7.2400404;2.19100022315979;1673303046.633786;-5.728487491607666;6.735439300537109;134.43502807617188
327;1673303046.699879;47.1306466;7.240039899999999;2.198000192642212;1673303046.7879114;-5.762770652770996;6.632058620452881;134.4691619873047
328;1673303046.8718255;47.1306292;7.2400395;2.203000068664551;1673303046.9706697;-5.72642183303833;6.5313310623168945;134.50985717773438
329;1673303047.0788922;47.1306113;7.2400391;2.203000068664551;1673303047.2751043;-5.73333740234375;6.4153289794921875;134.55743408203125
330;1673303047.39082;47.130593;7.2400388;2.201000213623047;1673303047.5100234;-5.716640949249268;6.310247898101807;134.57997131347656
331;1673303047.5618489;47.1305744;7.2400386;2.198000192642212;1673303047.6318085;-5.782285213470459;5.92134428024292;134.6400604248047
332;1673303047.698183;47.1305554;7.2400383999999995;2.193000078201294;1673303047.7739131;-5.754034042358398;5.494821071624756;134.65296936035156
333;1673303047.849095;47.130551499999996;7.2400383999999995;2.244000196456909;;;;
