;pos_time;latitude;longitude;altitude;alt_time;pitch;roll;yaw
0;1673303491.7238207;47.1306425;7.24062;-0.04000000283122063;1673303491.76384;0.046809516847133636;-0.22624896466732025;90.02655792236328
1;1673303491.9251719;47.1306425;7.2406201;-0.04200000315904617;1673303491.9613504;-0.15499380230903625;-0.17431597411632538;90.12364196777344
2;1673303492.1242182;47.1306425;7.2406201999999995;-0.04100000113248825;1673303492.1662931;-0.19408142566680908;-0.11197594553232193;90.03218841552734
3;1673303492.344592;47.1306425;7.2406201999999995;-0.03800000250339508;1673303492.3797295;-0.2339564859867096;-0.19839902222156525;90.05934143066406
4;1673303492.5346096;47.1306425;7.2406201999999995;-0.03500000014901161;1673303492.573707;-0.16444124281406403;-0.03704904019832611;90.03726959228516
5;1673303492.7435489;47.1306425;7.2406201;-0.03500000014901161;1673303492.7836046;0.11090593039989471;-0.20820574462413788;90.129638671875
6;1673303492.9484823;47.1306424;7.24062;-0.03500000014901161;1673303492.9806895;0.028227290138602257;0.024915577843785286;89.9638900756836
7;1673303493.1420684;47.1306424;7.2406198999999996;-0.03500000014901161;1673303493.1820848;0.13212382793426514;-0.16770662367343903;90.0
8;1673303493.3393846;47.1306424;7.240619799999999;-0.036000002175569534;1673303493.3774529;0.10785102844238281;-0.1829121708869934;90.20626831054688
9;1673303493.5415695;47.1306424;7.240619799999999;0.0;1673303493.581271;-0.23641164600849152;-0.09455402940511703;89.96407318115234
10;1673303493.7514544;47.1306423;7.2406198999999996;-0.0020000000949949026;1673303493.7885578;-0.33426356315612793;-0.2658730447292328;89.94425964355469
11;1673303493.9477885;47.1306423;7.24062;-0.005000000353902578;1673303493.9848757;-0.19684849679470062;-0.0931655541062355;89.87458801269531
12;1673303494.1422184;47.1306423;7.24062;-0.010000000707805157;1673303494.1812587;-0.36611151695251465;-0.24679480493068695;89.99649047851562
13;1673303494.3573716;47.1306423;7.2406198999999996;-0.01100000087171793;1673303494.3986063;-0.29674458503723145;-0.08491510897874832;89.94059753417969
14;1673303494.5769;47.1306424;7.240619799999999;-0.009000000543892384;1673303494.615248;-0.21954786777496338;-0.01897543855011463;89.9891586303711
15;1673303494.7636003;47.1306425;7.240619799999999;-0.00800000037997961;1673303494.8025448;-0.2623388469219208;-0.0953022763133049;90.1294937133789
16;1673303494.9626472;47.1306425;7.240619799999999;-0.005000000353902578;1673303495.001472;-0.5375080108642578;0.09629480540752411;90.01296997070312
17;1673303495.1509125;47.1306425;7.240619799999999;0.0020000000949949026;1673303495.1887214;-0.48779618740081787;-0.1965574026107788;90.20459747314453
18;1673303495.3542619;47.1306425;7.240619799999999;0.003000000026077032;1673303495.3894396;-0.6025210618972778;-0.2438073456287384;89.9936752319336
19;1673303495.5525846;47.1306425;7.240619799999999;-0.0020000000949949026;1673303495.585487;-0.5606606006622314;-0.05315539985895157;89.94866943359375
20;1673303495.755946;47.1306425;7.2406198999999996;-0.003000000026077032;1673303495.7884183;-0.6839981079101562;0.37432998418807983;89.95565795898438
21;1673303495.9493089;47.1306425;7.2406198999999996;-0.004000000189989805;1673303495.9878867;-0.615916907787323;-0.18494641780853271;89.98497009277344
22;1673303496.1567268;47.1306425;7.24062;0.0;1673303496.1924863;-0.610577404499054;-0.2021399587392807;90.2313461303711
23;1673303496.3443446;47.1306425;7.24062;0.0020000000949949026;1673303496.3793497;-0.6927419900894165;-0.1942209005355835;90.31448364257812
24;1673303496.5414085;47.1306425;7.24062;0.0010000000474974513;1673303496.5784504;-0.9932929873466492;-0.1779286116361618;90.36703491210938
25;1673303496.7264776;47.130642599999995;7.2406201;-0.0010000000474974513;1673303496.7613802;0.2810216546058655;0.03495392948389053;95.5080337524414
26;1673303496.9135847;47.130642599999995;7.2406207;0.0020000000949949026;1673303496.9504282;3.103501319885254;0.8132659792900085;98.43921661376953
27;1673303497.1403913;47.130642599999995;7.2406219;0.013000000268220901;1673303497.1807194;8.275457382202148;0.9582661986351013;97.90629577636719
28;1673303497.3882678;47.1306425;7.240623599999999;0.03100000135600567;1673303497.421307;14.092586517333984;3.249659776687622;96.7080307006836
29;1673303497.572694;47.1306424;7.2406257;0.058000002056360245;1673303497.6214368;14.425719261169434;0.18337002396583557;95.24278259277344
30;1673303497.8144119;47.1306424;7.2406279;0.0990000069141388;1673303497.8444881;15.91153621673584;0.7660499811172485;94.48828887939453
31;1673303497.9872966;47.1306423;7.240630299999999;0.15000000596046448;1673303498.0234945;17.523195266723633;3.581885814666748;94.33368682861328
32;1673303498.1815434;47.1306422;7.240632499999999;0.2120000123977661;1673303498.2163901;19.49118423461914;0.9454981088638306;93.4963607788086
33;1673303498.3683732;47.1306422;7.2406345;0.27900001406669617;1673303498.4074163;21.631122589111328;-0.5359278321266174;92.88430786132812
34;1673303498.5650544;47.1306423;7.240635999999999;0.35600000619888306;1673303498.6036658;23.66463279724121;2.4126453399658203;92.91850280761719
35;1673303498.7543066;47.1306423;7.2406369999999995;0.4440000355243683;1673303498.788058;25.7340030670166;2.4413514137268066;92.7293930053711
36;1673303498.9340534;47.1306423;7.2406372999999995;0.5400000214576721;1673303498.977552;27.98790168762207;-0.7670964598655701;92.05648040771484
37;1673303499.1451995;47.1306422;7.2406367;0.6390000581741333;1673303499.1799197;30.09835433959961;0.5686783790588379;92.114501953125
38;1673303499.3348365;47.1306422;7.2406352;0.7400000095367432;1673303499.3744557;28.782052993774414;2.863969326019287;92.54568481445312
39;1673303499.5351324;47.1306422;7.240633;0.8450000286102295;1673303499.5764053;25.926328659057617;-0.2235843390226364;91.908935546875
40;1673303499.7396317;47.1306422;7.2406304;0.9580000638961792;1673303499.7843585;23.074247360229492;-0.882340669631958;91.49555206298828
41;1673303499.9477348;47.1306424;7.2406276;1.0760000944137573;1673303499.9870398;19.963842391967773;2.473541498184204;92.15836334228516
42;1673303500.1696813;47.1306425;7.240624899999999;1.2010000944137573;1673303500.2038965;17.33249282836914;1.4170726537704468;91.70610046386719
43;1673303500.378664;47.1306425;7.2406226;1.3330000638961792;1673303500.412825;15.338580131530762;-1.2919248342514038;90.90719604492188
44;1673303500.5622704;47.1306425;7.240621;1.475000023841858;1673303500.596552;14.878259658813477;0.9660403728485107;91.06743621826172
45;1673303500.7494013;47.1306425;7.240619799999999;1.6290000677108765;1673303500.788982;14.529546737670898;2.465188980102539;99.52885437011719
46;1673303500.9601762;47.1306424;7.240619199999999;1.8020000457763672;1673303500.9933624;15.616128921508789;-1.3980172872543335;96.81245422363281
47;1673303501.152189;47.1306424;7.240618899999999;1.9840000867843628;1673303501.1849422;16.403520584106445;-1.1939202547073364;95.14396667480469
48;1673303501.334063;47.1306425;7.240619;2.1690001487731934;1673303501.3736806;17.51871681213379;2.766227960586548;94.57747650146484
49;1673303501.5463948;47.130642599999995;7.240619199999999;2.3560001850128174;1673303501.5843039;18.22185516357422;0.37943631410598755;93.59136199951172
50;1673303501.7715387;47.130642599999995;7.240619499999999;2.5410001277923584;1673303501.80937;19.015146255493164;-1.5846824645996094;92.7437744140625
51;1673303501.964097;47.130642699999996;7.2406197;2.7250001430511475;1673303502.001172;19.278335571289062;1.8892821073532104;92.98130798339844
52;1673303502.1684308;47.130642599999995;7.2406198999999996;2.9140000343322754;1673303502.204651;19.480236053466797;1.8953458070755005;93.2720947265625
53;1673303502.3938794;47.1306425;7.2406198999999996;3.1100001335144043;1673303502.4668372;19.545433044433594;-1.7695238590240479;92.75708770751953
54;1673303502.6406963;47.1306425;7.24062;3.3010001182556152;1673303502.6896334;19.55385971069336;0.3345051109790802;93.01881408691406
55;1673303502.8241308;47.130642599999995;7.24062;3.495000123977661;1673303502.8573318;19.631925582885742;3.1925113201141357;93.43136596679688
56;1673303503.0194485;47.130642599999995;7.24062;3.694000244140625;1673303503.054596;19.36210060119629;0.35225722193717957;93.04568481445312
57;1673303503.2073398;47.130642599999995;7.24062;3.88700008392334;1673303503.2366104;19.230146408081055;-0.8163633942604065;93.06336975097656
58;1673303503.3724363;47.130642599999995;7.2406198999999996;4.078000068664551;1673303503.4075933;19.016258239746094;2.611769199371338;93.45548248291016
59;1673303503.5680819;47.1306424;7.2406198999999996;4.269000053405762;1673303503.609056;18.98438835144043;1.619512677192688;93.48057556152344
60;1673303503.7571797;47.1306422;7.2406198999999996;4.458000183105469;1673303503.7948222;18.941993713378906;-1.608652114868164;92.90702056884766
61;1673303503.9594085;47.1306422;7.2406198999999996;4.651000022888184;1673303503.997043;19.002323150634766;0.2267806977033615;93.08353424072266
62;1673303504.154759;47.1306422;7.2406198999999996;4.843000411987305;1673303504.1935642;19.1784725189209;3.1062095165252686;93.54711151123047
63;1673303504.349413;47.1306423;7.2406198999999996;5.034000396728516;1673303504.3880267;18.98250389099121;0.3356289863586426;93.04481506347656
64;1673303504.5370252;47.1306424;7.2406198999999996;5.228000164031982;1673303504.5717697;19.04338264465332;-0.2500745952129364;93.01675415039062
65;1673303504.723936;47.1306424;7.240619799999999;5.420000076293945;1673303504.7629979;18.956140518188477;3.359971761703491;93.60792541503906
66;1673303504.9244545;47.1306423;7.240619799999999;5.617000102996826;1673303504.9625382;18.893251419067383;1.792799949645996;93.51301574707031
67;1673303505.1307883;47.1306422;7.240619799999999;5.813000202178955;1673303505.1693916;18.776222229003906;-1.4374334812164307;92.9360122680664
68;1673303505.3413277;47.130642099999996;7.240619799999999;6.015000343322754;1673303505.3794556;19.167556762695312;1.5688499212265015;93.32170867919922
69;1673303505.5617034;47.130642099999996;7.240619799999999;6.214000225067139;1673303505.5956745;18.95122718811035;2.779357433319092;93.48860931396484
70;1673303505.7685797;47.130642099999996;7.240619799999999;6.408000469207764;1673303505.802781;18.94631004333496;-0.7979360818862915;92.79353332519531
71;1673303505.964358;47.1306422;7.2406198999999996;6.600000381469727;1673303506.0078492;19.058923721313477;0.35851773619651794;93.12953186035156
72;1673303506.154269;47.1306422;7.2406198999999996;6.7910003662109375;1673303506.1905344;18.982017517089844;3.454223394393921;93.5926284790039
73;1673303506.349337;47.130642099999996;7.2406198999999996;6.988000392913818;1673303506.3840387;18.971153259277344;1.009799838066101;93.41178131103516
74;1673303506.5512059;47.130641999999995;7.2406198999999996;7.184000492095947;1673303506.5998986;18.965938568115234;-1.169093370437622;92.83667755126953
75;1673303506.7621255;47.130641999999995;7.24062;7.375000476837158;1673303506.7958999;19.145713806152344;2.507395029067993;93.6344223022461
76;1673303506.940458;47.130641999999995;7.24062;7.566000461578369;1673303506.9790802;19.157743453979492;2.1425259113311768;93.4673843383789
77;1673303507.1427014;47.130642099999996;7.2406201;7.762000560760498;1673303507.19108;19.08673858642578;-0.7624233365058899;92.99114990234375
78;1673303507.3721108;47.1306422;7.2406201;7.957000255584717;1673303507.405338;19.257396697998047;1.424182653427124;93.2743911743164
79;1673303507.5823758;47.1306422;7.2406201999999995;8.155000686645508;1673303507.6233666;19.159162521362305;3.401932954788208;93.65800476074219
80;1673303507.775771;47.130641999999995;7.2406201999999995;8.351000785827637;1673303507.8070614;18.990108489990234;-0.30235782265663147;93.12470245361328
81;1673303507.9549925;47.1306419;7.2406201999999995;8.54699993133545;1673303507.9936116;18.882068634033203;-0.5178385972976685;92.98771667480469
82;1673303508.150593;47.1306419;7.2406201999999995;8.743000030517578;1673303508.1907547;19.039249420166016;2.8601648807525635;93.61664581298828
83;1673303508.3542883;47.130641999999995;7.2406201;8.937000274658203;1673303508.3938866;18.961318969726562;1.885609745979309;93.48351287841797
84;1673303508.5585763;47.130641999999995;7.2406201;9.12700080871582;1673303508.5981658;18.9802188873291;-0.8481175303459167;92.95328521728516
85;1673303508.7591505;47.130642099999996;7.2406201999999995;9.324000358581543;1673303508.7998188;18.98115348815918;1.8758676052093506;93.22310638427734
86;1673303508.956735;47.130642099999996;7.2406203;9.52400016784668;1673303508.9934356;19.00469207763672;3.0179193019866943;93.65351104736328
87;1673303509.1474416;47.130641999999995;7.2406203;9.722000122070312;1673303509.1821997;19.17861557006836;-0.18588270246982574;93.182861328125
88;1673303509.3546138;47.130641999999995;7.2406204;9.921000480651855;1673303509.3912842;19.226600646972656;-0.6994341611862183;92.90116119384766
89;1673303509.5643122;47.130641999999995;7.2406204;10.119000434875488;1673303509.600553;19.460180282592773;2.393494129180908;93.33830261230469
90;1673303509.7790067;47.1306419;7.2406203;10.375000953674316;1673303509.8160872;19.54538917541504;1.9815601110458374;93.61300659179688
91;1673303509.9565194;47.1306419;7.2406198999999996;10.730000495910645;1673303509.9892993;20.383691787719727;-0.34166860580444336;93.13909149169922
92;1673303510.137347;47.130641999999995;7.2406194;11.118000984191895;1673303510.1779106;18.939292907714844;1.506572961807251;93.34494018554688
93;1673303510.3496912;47.130641999999995;7.240618899999999;11.517000198364258;1673303510.3887734;17.68299674987793;3.331902503967285;93.76744842529297
94;1673303510.5558157;47.130641999999995;7.2406184;11.920001029968262;1673303510.5925279;16.784698486328125;0.10966674983501434;93.31524658203125
95;1673303510.7496488;47.1306419;7.2406181;12.324000358581543;1673303510.7863586;16.577383041381836;-0.4593108892440796;93.14407348632812
96;1673303510.9384708;47.1306419;7.2406179999999996;12.725000381469727;1673303510.9839785;16.708717346191406;2.420053482055664;93.60134887695312
97;1673303511.1669915;47.1306419;7.2406181;13.129000663757324;1673303511.200718;17.00457000732422;1.5147678852081299;93.49562072753906
98;1673303511.3487115;47.1306419;7.2406182999999995;13.53600025177002;1673303511.3863227;17.421634674072266;-0.9470219016075134;93.10236358642578
99;1673303511.549087;47.130642099999996;7.2406185999999995;13.947000503540039;1673303511.5882933;17.997390747070312;1.5756378173828125;93.35124206542969
100;1673303511.739314;47.1306422;7.240619;14.361001014709473;1673303511.779904;18.343042373657227;3.284757375717163;93.6875991821289
101;1673303511.9481792;47.1306422;7.240619199999999;14.774001121520996;1673303511.9899166;18.629331588745117;0.17398501932621002;93.28784942626953
102;1673303512.1504824;47.1306423;7.2406194;15.182001113891602;1673303512.1920395;18.84576988220215;0.45530635118484497;93.23139953613281
103;1673303512.363707;47.1306423;7.2406196;15.592000961303711;1673303512.4033124;18.916593551635742;3.4797098636627197;93.62947845458984
104;1673303512.5644157;47.1306423;7.2406197;16.006999969482422;1673303512.6231422;18.803287506103516;1.2699296474456787;93.40729522705078
105;1673303512.79203;47.1306422;7.2406197;16.421001434326172;1673303512.8272402;18.651473999023438;-0.45117810368537903;93.11626434326172
106;1673303512.9827328;47.1306423;7.240619799999999;16.834001541137695;1673303513.0188406;18.72041893005371;2.512394905090332;93.42975616455078
107;1673303513.185154;47.1306424;7.240619799999999;17.240001678466797;1673303513.2227762;18.56804656982422;2.774501085281372;93.61234283447266
108;1673303513.3714707;47.1306424;7.240619799999999;17.647001266479492;1673303513.40618;18.472301483154297;-0.4650624394416809;93.1247787475586
109;1673303513.5661185;47.1306424;7.2406197;18.046001434326172;1673303513.6072083;18.360132217407227;0.8881946802139282;93.33699798583984
110;1673303513.7623029;47.1306424;7.2406197;18.44900131225586;1673303513.7980385;18.3636531829834;3.2157232761383057;93.7229232788086
111;1673303513.953821;47.1306423;7.2406197;18.85500144958496;1673303513.991504;18.32779312133789;0.1518157422542572;93.24689483642578
112;1673303514.1542177;47.1306424;7.2406197;19.261001586914062;1673303514.1939144;18.528074264526367;-0.0005969952908344567;93.15707397460938
113;1673303514.354809;47.1306425;7.2406197;19.668001174926758;1673303514.394353;18.40863800048828;3.5220541954040527;93.64260864257812
114;1673303514.57491;47.130642599999995;7.2406197;20.07400131225586;1673303514.613143;18.34854507446289;1.9247337579727173;93.55089569091797
115;1673303514.768048;47.130642599999995;7.2406197;20.47100067138672;1673303514.8126888;18.404644012451172;-0.3179128170013428;93.11577606201172
116;1673303514.9882884;47.130642699999996;7.2406197;20.871000289916992;1673303515.028466;18.589210510253906;1.9661437273025513;93.30876922607422
117;1673303515.1884463;47.130642699999996;7.2406197;21.273000717163086;1673303515.2237396;18.423372268676758;3.463740348815918;93.68922424316406
118;1673303515.363967;47.130642599999995;7.2406197;21.678001403808594;1673303515.4104972;18.523710250854492;-0.06882740557193756;93.19261932373047
119;1673303515.5921748;47.130642599999995;7.2406197;22.08100128173828;1673303515.630239;18.518503189086914;0.666858434677124;93.18058776855469
120;1673303515.7894669;47.130642699999996;7.2406197;22.48400115966797;1673303515.8236988;18.49183464050293;3.5148327350616455;93.70121002197266
121;1673303515.9936447;47.130642699999996;7.2406196;22.892000198364258;1673303516.032685;18.373170852661133;1.0766980648040771;93.38745880126953
122;1673303516.1738145;47.130642699999996;7.2406196;23.291000366210938;1673303516.2094934;18.384721755981445;-0.1566377878189087;93.12805938720703
123;1673303516.3585389;47.130642699999996;7.240619499999999;23.690000534057617;1673303516.3981764;18.45722198486328;2.9551031589508057;93.61692810058594
124;1673303516.5738835;47.130642699999996;7.240619499999999;24.093000411987305;1673303516.6082187;18.217247009277344;2.4452574253082275;93.54655456542969
125;1673303516.7588894;47.130642599999995;7.2406194;24.499000549316406;1673303516.7955527;18.27237892150879;-0.4193871319293976;93.08333587646484
126;1673303516.9532702;47.130642599999995;7.2406194;24.902000427246094;1673303516.9957952;18.43067741394043;1.5815891027450562;93.19884490966797
127;1673303517.1683583;47.130642699999996;7.2406194;25.308000564575195;1673303517.206968;18.379072189331055;3.5236563682556152;93.59373474121094
128;1673303517.3687427;47.130642699999996;7.2406194;25.705001831054688;1673303517.4063601;18.186323165893555;1.2209782600402832;93.3985595703125
129;1673303517.5662873;47.1306428;7.240619499999999;26.112001419067383;1673303517.6211433;18.30726432800293;0.3470976948738098;93.06208801269531
130;1673303517.7899122;47.1306429;7.2406194;26.523000717163086;1673303517.8250523;18.44327163696289;3.499621629714966;93.55806732177734
131;1673303517.9838085;47.1306428;7.2406194;26.931001663208008;1673303518.021434;18.317462921142578;2.948690414428711;93.58934020996094
132;1673303518.1901717;47.130642599999995;7.2406194;27.334001541137695;1673303518.2272592;18.271963119506836;-0.5242409706115723;93.06067657470703
133;1673303518.3773098;47.1306425;7.240619499999999;27.738000869750977;1673303518.414942;18.593215942382812;1.7795169353485107;93.41720581054688
134;1673303518.5562284;47.1306425;7.240619499999999;28.14000129699707;1673303518.592934;18.44106101989746;3.5270659923553467;93.66374206542969
135;1673303518.7540207;47.1306425;7.2406196;28.533000946044922;1673303518.7921343;18.474042892456055;0.807982861995697;93.33302307128906
136;1673303518.9537358;47.1306425;7.2406196;28.9320011138916;1673303518.9914775;18.478639602661133;0.24232074618339539;93.17874908447266
137;1673303519.1633084;47.130642599999995;7.2406196;29.3330020904541;1673303519.2006283;18.69841194152832;3.508707284927368;93.62979125976562
138;1673303519.3660607;47.1306425;7.2406196;29.73400115966797;1673303519.403696;18.454025268554688;2.006462812423706;93.53362274169922
139;1673303519.5682993;47.1306423;7.2406196;30.134000778198242;1673303519.608971;18.511613845825195;-0.33784356713294983;93.10807800292969
140;1673303519.7758312;47.1306423;7.2406196;30.536001205444336;1673303519.823375;18.71958351135254;1.7306233644485474;93.41793823242188
141;1673303519.9795322;47.1306423;7.2406197;30.928001403808594;1673303520.012287;18.50892448425293;3.2885422706604004;93.68208312988281
142;1673303520.1574602;47.1306422;7.2406196;31.325000762939453;1673303520.1960855;18.548486709594727;0.3868291974067688;93.1882095336914
143;1673303520.3587165;47.1306423;7.2406196;31.73000144958496;1673303520.4051447;18.502111434936523;0.3151888847351074;93.13674926757812
144;1673303520.5650008;47.1306423;7.2406196;32.134002685546875;1673303520.6016965;18.446853637695312;3.4386353492736816;93.70331573486328
145;1673303520.7565167;47.1306424;7.2406196;32.538002014160156;1673303520.795119;18.300945281982422;1.6572376489639282;93.47142791748047
146;1673303520.958941;47.1306423;7.2406196;32.94300079345703;1673303520.99825;18.506574630737305;-0.20990213751792908;93.19764709472656
147;1673303521.1680443;47.1306423;7.2406197;33.34700012207031;1673303521.1998265;18.58864402770996;2.424816608428955;93.46837615966797
148;1673303521.3634415;47.1306424;7.2406197;33.74100112915039;1673303521.404011;18.506349563598633;3.415916681289673;93.59115600585938
149;1673303521.575445;47.1306424;7.2406197;34.1410026550293;1673303521.6082478;18.427629470825195;0.14982843399047852;93.18519592285156
150;1673303521.7652903;47.1306424;7.240619799999999;34.54300308227539;1673303521.802947;18.548423767089844;1.1833590269088745;93.23116302490234
151;1673303521.9731853;47.1306425;7.240619799999999;34.94600296020508;1673303522.0118039;18.597923278808594;3.6513113975524902;93.67788696289062
152;1673303522.1745396;47.1306425;7.2406197;35.349002838134766;1673303522.2112234;18.328176498413086;1.1769206523895264;93.33644104003906
153;1673303522.375941;47.1306424;7.2406197;35.75400161743164;1673303522.4155428;18.473276138305664;-0.03551030904054642;93.2060317993164
154;1673303522.5723264;47.1306424;7.2406197;36.147003173828125;1673303522.6070747;18.50786590576172;3.076071262359619;93.64625549316406
155;1673303522.760645;47.1306424;7.2406197;36.54900360107422;1673303522.7982838;18.373212814331055;2.226963520050049;93.52709197998047
156;1673303522.9752223;47.1306424;7.240619799999999;36.95500183105469;1673303523.0152986;18.48101806640625;-0.5964657664299011;93.05093383789062
157;1673303523.180302;47.1306425;7.240619799999999;37.36300277709961;1673303523.2332175;18.55750846862793;2.3342576026916504;93.35496520996094
158;1673303523.3992016;47.130642599999995;7.240619799999999;37.7660026550293;1673303523.440297;18.548091888427734;3.6398568153381348;93.61383819580078
159;1673303523.6408875;47.130642599999995;7.2406198999999996;38.17100143432617;1673303523.6721523;18.51960563659668;0.4891279637813568;93.23594665527344
160;1673303523.833102;47.130642599999995;7.2406198999999996;38.57500076293945;1673303523.8634014;18.6187744140625;0.8973610997200012;93.19164276123047
161;1673303524.025753;47.130642599999995;7.2406198999999996;38.9640007019043;1673303524.0853312;18.50921630859375;3.8173317909240723;93.73976135253906
162;1673303524.253802;47.1306425;7.2406198999999996;39.35600280761719;1673303524.283086;18.45920753479004;1.5348979234695435;93.38044738769531
163;1673303524.4351451;47.130642599999995;7.2406198999999996;39.75200271606445;1673303524.4654012;18.52533531188965;0.04562664404511452;93.08917236328125
164;1673303524.6543639;47.130642699999996;7.2406198999999996;40.15300369262695;1673303524.6846204;18.62762451171875;3.513361930847168;93.56319427490234
165;1673303524.8566346;47.130642699999996;7.2406198999999996;40.553001403808594;1673303524.8839626;18.574338912963867;2.8487682342529297;93.56353759765625
166;1673303525.0149868;47.130642699999996;7.2406198999999996;40.954002380371094;1673303525.0522842;18.608360290527344;0.07246505469083786;93.09329986572266
167;1673303525.205678;47.130642599999995;7.2406198999999996;41.34100341796875;1673303525.2437427;18.799983978271484;1.5655341148376465;93.34208679199219
168;1673303525.3880432;47.130642599999995;7.2406198999999996;41.7390022277832;1673303525.4227533;18.525318145751953;3.7120654582977295;93.6749496459961
169;1673303525.5855272;47.1306425;7.240619799999999;42.137001037597656;1673303525.6221893;18.351802825927734;1.032128930091858;93.29470825195312
170;1673303525.781973;47.130642599999995;7.240619799999999;42.53200149536133;1673303525.8207076;18.52370262145996;0.22215186059474945;93.110595703125
171;1673303526.001206;47.130642699999996;7.240619799999999;42.93100357055664;1673303526.0389142;18.528541564941406;3.557404041290283;93.60933685302734
172;1673303526.2247164;47.1306428;7.240619799999999;43.33100128173828;1673303526.2647114;18.466524124145508;3.250840902328491;93.6244125366211
173;1673303526.406425;47.130642699999996;7.2406197;43.733001708984375;1673303526.4415603;18.391033172607422;-0.01901392638683319;93.13302612304688
174;1673303526.5876403;47.130642699999996;7.2406197;44.121002197265625;1673303526.6243021;18.611387252807617;1.5129921436309814;93.36637115478516
175;1673303526.789813;47.130642599999995;7.2406197;44.51700210571289;1673303526.8323767;18.47420883178711;3.495964765548706;93.67788696289062
176;1673303526.9993682;47.130642599999995;7.2406197;44.9170036315918;1673303527.0364695;18.498676300048828;1.1308412551879883;93.30985260009766
177;1673303527.2032006;47.130642599999995;7.2406197;45.31800079345703;1673303527.240823;18.400991439819336;0.06335074454545975;93.1652603149414
178;1673303527.3874583;47.130642699999996;7.2406197;45.72300338745117;1673303527.4236195;18.553936004638672;3.344641923904419;93.5938949584961
179;1673303527.5848877;47.1306428;7.2406197;46.125003814697266;1673303527.6220276;18.40835952758789;3.521371364593506;93.6103515625
180;1673303527.780669;47.1306428;7.2406197;46.51400375366211;1673303527.8173459;18.505489349365234;0.3157956600189209;93.1322021484375
181;1673303527.981717;47.1306429;7.2406197;46.91100311279297;1673303528.0195594;18.357769012451172;2.1533186435699463;93.36093139648438
182;1673303528.20124;47.1306429;7.2406197;47.314002990722656;1673303528.2386518;18.39629554748535;4.313600063323975;93.6899642944336
183;1673303528.4008493;47.1306429;7.2406196;47.71900177001953;1673303528.434581;18.24222183227539;0.8927383422851562;93.24855041503906
184;1673303528.5969973;47.1306428;7.2406196;48.118003845214844;1673303528.6321657;18.32868003845215;0.45504996180534363;93.19623565673828
185;1673303528.788082;47.1306429;7.2406197;48.47700119018555;1673303528.8296454;18.46896743774414;4.194587707519531;93.50984191894531
186;1673303528.990365;47.1306429;7.2406198999999996;48.78300094604492;1673303529.0202067;18.27861213684082;2.417269706726074;93.2070083618164
187;1673303529.190096;47.1306429;7.2406201;49.0260009765625;1673303529.227566;18.667694091796875;-0.28827646374702454;92.91352081298828
188;1673303529.3859713;47.1306429;7.2406204999999995;49.23200225830078;1673303529.42166;19.030805587768555;3.1040828227996826;93.3272705078125
189;1673303529.5984054;47.1306428;7.240620799999999;49.410003662109375;1673303529.6541162;25.989290237426758;2.898404359817505;91.88919830322266
190;1673303529.8202658;47.130642699999996;7.2406209;49.551002502441406;1673303529.8524647;31.845130920410156;8.652374267578125;84.41779327392578
191;1673303530.0023825;47.1306422;7.2406204;49.60900115966797;1673303530.0361311;27.25875473022461;2.975325345993042;70.6244125366211
192;1673303530.1947908;47.1306412;7.2406196;49.63800048828125;1673303530.236321;21.53096580505371;-8.51904582977295;61.646095275878906
193;1673303530.3932064;47.1306401;7.2406185;49.68800354003906;1673303530.427825;20.162506103515625;-12.122276306152344;53.75666427612305
194;1673303530.579962;47.1306389;7.240617299999999;49.737003326416016;1673303530.6219838;17.80986213684082;-13.135873794555664;45.67301559448242
195;1673303530.7779915;47.1306376;7.2406162;49.78000259399414;1673303530.813657;13.155386924743652;-14.792105674743652;37.16023254394531
196;1673303530.9808967;47.1306365;7.2406152;49.81900405883789;1673303531.0167108;9.249296188354492;-15.439641952514648;27.818269729614258
197;1673303531.1990707;47.130635399999996;7.2406144999999995;49.858001708984375;1673303531.2342412;5.11683464050293;-15.83012580871582;17.714807510375977
198;1673303531.3969848;47.1306346;7.240614;49.8910026550293;1673303531.4387338;0.26363447308540344;-16.209794998168945;7.835119724273682
199;1673303531.5960562;47.130634099999995;7.2406139;49.92000198364258;1673303531.633185;-4.502074718475342;-16.27428436279297;-1.8766709566116333
200;1673303531.8088272;47.1306338;7.240613799999999;49.93400192260742;1673303531.8480115;-7.097003936767578;-17.2882022857666;-11.334495544433594
201;1673303532.003148;47.1306338;7.240613799999999;49.95500183105469;1673303532.0389;-8.49640941619873;-18.728986740112305;-20.385223388671875
202;1673303532.1851203;47.1306339;7.2406137;49.974002838134766;1673303532.2177613;-9.638815879821777;-19.829748153686523;-29.115745544433594
203;1673303532.3739111;47.130634;7.2406136;49.987003326416016;1673303532.4130778;-11.306499481201172;-19.217376708984375;-37.652828216552734
204;1673303532.5708375;47.130634099999995;7.2406134;49.993003845214844;1673303532.6097856;-13.460976600646973;-16.299272537231445;-46.66794967651367
205;1673303532.782363;47.130634099999995;7.2406131;50.00200271606445;1673303532.821436;-15.95836067199707;-12.78018856048584;-51.6452751159668
206;1673303532.9791224;47.130634;7.2406127;50.00100326538086;1673303533.0148623;-15.527655601501465;-10.845248222351074;-49.5299072265625
207;1673303533.1745222;47.130634099999995;7.2406124;50.012001037597656;1673303533.2121587;-14.761388778686523;-12.41429615020752;-46.28470993041992
208;1673303533.383501;47.130634099999995;7.240612199999999;50.02300262451172;1673303533.4211361;-13.813677787780762;-14.309088706970215;-44.987342834472656
209;1673303533.5838695;47.130634099999995;7.240611899999999;50.031002044677734;1673303533.6215072;-12.912446022033691;-16.285350799560547;-44.411006927490234
210;1673303533.796744;47.130634;7.240611599999999;50.035003662109375;1673303533.833418;-12.208535194396973;-17.28438377380371;-44.34619903564453
211;1673303533.9979427;47.1306339;7.240611299999999;50.03900146484375;1673303534.034591;-12.318928718566895;-17.793546676635742;-44.18656921386719
212;1673303534.2875192;47.1306337;7.2406109999999995;50.03900146484375;1673303534.3124473;-12.862943649291992;-16.686100006103516;-44.310028076171875
213;1673303534.4515982;47.130633499999995;7.240610599999999;50.02400207519531;1673303534.4857585;-13.497618675231934;-15.0696439743042;-44.36418151855469
214;1673303534.626453;47.130633499999995;7.2406104;50.018001556396484;1673303534.6674452;-14.480132102966309;-12.977709770202637;-44.78239059448242
215;1673303534.819802;47.130633599999996;7.2406101;50.018001556396484;1673303534.853963;-31.647031784057617;-12.060555458068848;-45.6619987487793
216;1673303535.005801;47.1306344;7.240609;50.03600311279297;1673303535.0424552;-47.986244201660156;-7.304419040679932;-47.01153564453125
217;1673303535.20501;47.1306365;7.2406058;50.060001373291016;1673303535.2455716;-57.30971145629883;-5.334939956665039;-48.21852493286133
218;1673303535.3988185;47.130640799999995;7.2405998;50.07400131225586;1673303535.430585;-57.94829177856445;-5.796407699584961;-50.45800018310547
219;1673303535.5814598;47.1306472;7.2405906;50.06200408935547;1673303535.6143167;-57.37812042236328;-4.220127582550049;-52.42643356323242
220;1673303535.7855895;47.130655;7.240579299999999;50.047000885009766;1673303535.822431;-54.348487854003906;-2.5432870388031006;-51.79298400878906
221;1673303535.9834964;47.1306643;7.240566299999999;50.0420036315918;1673303536.0256317;-52.29207992553711;-4.89069128036499;-49.701866149902344
222;1673303536.1826768;47.1306747;7.2405519;50.051002502441406;1673303536.225321;-55.202850341796875;-6.20195198059082;-49.25025939941406
223;1673303536.383582;47.1306861;7.240536199999999;50.044002532958984;1673303536.4175978;-54.17351150512695;-6.941962242126465;-49.180023193359375
224;1673303536.583772;47.1306982;7.240519399999999;50.02100372314453;1673303536.6335857;-52.260433197021484;-7.268131732940674;-49.07577896118164
225;1673303536.7965283;47.1307109;7.2405016;49.99800109863281;1673303536.83645;-50.12187194824219;-8.436911582946777;-48.731727600097656
226;1673303536.9945269;47.1307239;7.2404832;49.9630012512207;1673303537.0363078;-47.69355392456055;-8.380313873291016;-49.066070556640625
227;1673303537.1965876;47.130736999999996;7.2404644;49.941001892089844;1673303537.2361047;-47.586891174316406;-8.230354309082031;-49.09453201293945
228;1673303537.3959908;47.130750299999995;7.2404452;49.93000411987305;1673303537.4347346;-48.244022369384766;-8.609029769897461;-48.959144592285156
229;1673303537.579517;47.130763699999996;7.2404258;49.92100143432617;1673303537.6160672;-48.27818298339844;-8.456282615661621;-49.087135314941406
230;1673303537.7673242;47.130777099999996;7.240405999999999;49.91800308227539;1673303537.8164358;-47.0325813293457;-10.229565620422363;-50.28667449951172
231;1673303537.9970334;47.130790399999995;7.240386;49.922000885009766;1673303538.0302625;-47.78076171875;-10.215961456298828;-51.22663879394531
232;1673303538.1996868;47.1308035;7.2403657;49.92000198364258;1673303538.239268;-46.51190185546875;-14.414244651794434;-50.45376968383789
233;1673303538.4057472;47.1308162;7.240345;49.92900085449219;1673303538.4396603;-44.35117721557617;-18.835853576660156;-50.89406967163086
234;1673303538.5976572;47.130828099999995;7.2403239;49.95600128173828;1673303538.6346982;-16.479942321777344;-13.594705581665039;-53.47004699707031
235;1673303538.8186414;47.1308389;7.2403045;49.98100280761719;1673303538.863635;24.306495666503906;-10.12793254852295;-51.40718078613281
236;1673303539.0309975;47.1308479;7.240289;49.88200378417969;1673303539.0655024;25.357280731201172;-1.1191174983978271;-54.23063659667969
237;1673303539.2117193;47.130855399999994;7.2402777;49.6150016784668;1673303539.2496252;16.419334411621094;-1.6797319650650024;-48.98041915893555
238;1673303539.4051027;47.130860999999996;7.240270799999999;49.340003967285156;1673303539.4417722;14.505874633789062;-1.1277867555618286;-47.73092269897461
239;1673303539.5977058;47.130865;7.240268299999999;49.1510009765625;1673303539.6538086;13.204554557800293;-1.363849401473999;-47.78411865234375
240;1673303539.8051276;47.130867699999996;7.240268899999999;49.07600402832031;1673303539.8374872;12.548248291015625;-2.0903306007385254;-47.60245132446289
241;1673303539.987696;47.130869;7.240272099999999;49.11600112915039;1673303540.0224423;29.402589797973633;-13.002111434936523;-47.05923080444336
242;1673303540.1807723;47.130868299999996;7.240277799999999;49.21800231933594;1673303540.2240052;34.849693298339844;-22.109678268432617;-45.234375
243;1673303540.3855205;47.130865299999996;7.240285399999999;49.340003967285156;1673303540.4236727;22.864505767822266;-26.48858642578125;-43.945308685302734
244;1673303540.598918;47.1308605;7.2402937;49.470001220703125;1673303540.6379507;5.63771915435791;-26.95723533630371;-45.00910949707031
245;1673303540.779329;47.130854899999996;7.2403016;49.586002349853516;1673303540.818431;-9.561949729919434;-20.91895866394043;-46.67775344848633
246;1673303540.980983;47.1308493;7.2403089;49.691001892089844;1673303541.0215995;-22.456928253173828;-8.925716400146484;-48.92414093017578
247;1673303541.1861653;47.130844499999995;7.2403153;49.77700424194336;1673303541.2259545;-32.405174255371094;-5.893039703369141;-50.45927429199219
248;1673303541.3885894;47.1308411;7.2403204;49.840003967285156;1673303541.4253936;-33.03462219238281;-5.158168792724609;-51.345821380615234
249;1673303541.5871685;47.1308389;7.2403241;49.88300323486328;1673303541.6309025;-23.82107925415039;-1.3383077383041382;-49.78507995605469
250;1673303541.7739444;47.130837899999996;7.2403271;49.9170036315918;1673303541.8115835;-19.227733612060547;-3.856456995010376;-48.88791275024414
251;1673303541.9743278;47.1308376;7.2403298;49.94900131225586;1673303542.0129585;-15.317581176757812;-6.8651556968688965;-48.84934616088867
252;1673303542.1821177;47.130837799999995;7.2403321;49.97200393676758;1673303542.2155914;-11.389362335205078;-10.07271957397461;-48.988929748535156
253;1673303542.3703759;47.1308381;7.2403343;49.993003845214844;1673303542.4080267;-9.496023178100586;-12.06935977935791;-49.1246337890625
254;1673303542.5815957;47.1308383;7.2403365;50.00700378417969;1673303542.6177764;-9.219952583312988;-14.48723316192627;-48.899253845214844
255;1673303542.7815866;47.1308383;7.2403388;49.87700271606445;1673303542.817955;11.353789329528809;-35.24473190307617;-51.79140090942383
256;1673303542.9848526;47.130838399999995;7.240341399999999;49.384002685546875;1673303543.02103;32.94027328491211;-54.179588317871094;-65.10839080810547
257;1673303543.189472;47.1308386;7.2403442;48.52100372314453;1673303543.2242298;49.03828430175781;-74.55140686035156;-91.37713623046875
258;1673303543.3853378;47.130838999999995;7.2403471999999995;47.26900100708008;1673303543.4214993;56.357364654541016;-92.36549377441406;-125.74458312988281
259;1673303543.5792358;47.1308393;7.240350299999999;45.66600036621094;1673303543.6159365;58.96867370605469;-90.69219970703125;-150.50755310058594
260;1673303543.7912455;47.1308398;7.240353499999999;43.70800018310547;1673303543.831798;60.11079788208008;-59.58583450317383;-154.49346923828125
261;1673303543.980794;47.130840199999994;7.2403565;41.393001556396484;1673303544.0213506;52.89047622680664;-7.837660312652588;-143.1310272216797
262;1673303544.1810994;47.1308405;7.2403593;38.707000732421875;1673303544.2189813;28.806259155273438;32.573150634765625;-141.45701599121094
263;1673303544.3747735;47.1308405;7.2403623999999995;35.647003173828125;1673303544.409501;0.7141061425209045;47.5180778503418;-157.51014709472656
264;1673303544.576788;47.1308404;7.240366;32.22300338745117;1673303544.615479;-24.6184139251709;41.42039489746094;-173.8673095703125
265;1673303544.795542;47.130840299999996;7.2403701;28.426000595092773;1673303544.8318594;-40.636775970458984;6.28223991394043;-174.47775268554688
266;1673303544.9909284;47.1308405;7.2403745;24.269001007080078;1673303545.0271223;-30.78978729248047;-39.14524459838867;-171.7821807861328
267;1673303545.1879504;47.130841;7.2403787;19.751001358032227;1673303545.2304745;-8.910438537597656;-57.708763122558594;169.33851623535156
268;1673303545.3882496;47.1308416;7.2403825;14.890000343322754;1673303545.427844;14.757479667663574;-49.627647399902344;146.11483764648438
269;1673303545.5848086;47.1308418;7.2403859;9.682000160217285;1673303545.6205366;31.937074661254883;-12.44727611541748;140.04074096679688
270;1673303545.7803516;47.1308417;7.2403895;4.111000061035156;1673303545.8200796;22.732038497924805;30.870452880859375;141.01132202148438
271;1673303546.001072;47.1308417;7.2403866;-0.2600000202655792;1673303546.038211;6.206830978393555;16.98801612854004;140.2680206298828
272;1673303546.20385;47.130839699999996;7.2403552;-0.9080000519752502;1673303546.2434902;9.89288330078125;23.7969970703125;124.52220916748047
273;1673303546.4012654;47.130837299999996;7.240321;-1.7330000400543213;1673303546.4359593;18.53770637512207;20.937068939208984;132.39476013183594
274;1673303546.5968306;47.1308343;7.2402865;-2.5360000133514404;1673303546.6354501;18.232776641845703;22.4449520111084;131.5518798828125
275;1673303546.8043535;47.130831;7.2402482;-3.3460001945495605;1673303546.8436158;18.240737915039062;22.541351318359375;131.45513916015625
276;1673303547.0170693;47.1308273;7.240207;-4.171000003814697;1673303547.0527298;18.305315017700195;22.7092342376709;131.2984161376953
277;1673303547.2051227;47.130823199999995;7.2401643;-4.835000038146973;1673303547.2408378;18.397010803222656;22.840654373168945;131.25254821777344
278;1673303547.3955169;47.1308189;7.2401181;-5.6620001792907715;1673303547.4329515;18.347959518432617;22.727800369262695;131.19512939453125
279;1673303547.5879056;47.1308146;7.2400712;-0.8010000586509705;1673303547.625051;18.298250198364258;22.596921920776367;131.17898559570312
280;1673303547.785884;47.130809899999996;7.2400212999999995;-0.43800002336502075;1673303547.8247926;18.323650360107422;22.500097274780273;131.15280151367188
281;1673303547.9859402;47.1308048;7.2399686;-0.2150000035762787;1673303548.024902;18.389328002929688;22.48780059814453;131.1231231689453
282;1673303548.1830459;47.1307993;7.2399132999999996;-0.13500000536441803;1673303548.2171247;18.42998504638672;22.47028160095215;131.09010314941406
283;1673303548.3869586;47.1307933;7.2398530999999995;-0.13199999928474426;1673303548.4231243;18.42672348022461;22.348064422607422;131.07655334472656
284;1673303548.5821295;47.1307875;7.239795099999999;-0.1980000138282776;1673303548.6179566;18.483243942260742;22.279096603393555;131.06121826171875
285;1673303548.7759967;47.1307811;7.239732399999999;-0.24500000476837158;1673303548.8101506;18.565088272094727;22.211017608642578;131.06985473632812
286;1673303548.9715748;47.1307744;7.2396671999999995;-0.2670000195503235;1673303549.0090525;18.523672103881836;22.149490356445312;131.052978515625
287;1673303549.1719067;47.1307671;7.239597;-0.28200000524520874;1673303549.2100842;18.59184455871582;22.104663848876953;131.0341339111328
288;1673303549.3860261;47.130759999999995;7.2395298;-0.28600001335144043;1673303549.4269116;18.558300018310547;22.001537322998047;130.98995971679688
289;1673303549.582159;47.1307524;7.2394576;-0.2900000214576721;1673303549.6208532;18.584575653076172;21.93270492553711;130.97891235351562
290;1673303549.7880332;47.1307444;7.2393829;-0.29600000381469727;1673303549.8290281;18.63340950012207;21.886903762817383;130.92813110351562
291;1673303549.99818;47.1307349;7.2393078;-0.3580000102519989;1673303550.0337675;18.670896530151367;21.7387638092041;130.643310546875
292;1673303550.1992006;47.130723599999996;7.239229;-0.36900001764297485;1673303550.2368417;18.631643295288086;21.574695587158203;130.28512573242188
293;1673303550.401;47.1307122;7.2391551;-0.3570000231266022;1673303550.435995;18.561973571777344;21.46219253540039;129.9856719970703
294;1673303550.5919108;47.1306997;7.2390761999999995;-0.33900001645088196;1673303550.62489;18.580516815185547;21.322839736938477;129.6815948486328
295;1673303550.7782714;47.130685899999996;7.238992;-0.32200002670288086;1673303550.8129964;18.567378997802734;21.203126907348633;129.4288330078125
296;1673303550.9829879;47.1306727;7.2389122;-0.30800002813339233;1673303551.0259707;18.582910537719727;21.07646942138672;129.169189453125
297;1673303551.2009819;47.130658399999994;7.238826899999999;-0.3620000183582306;1673303551.2580776;18.5380916595459;20.973491668701172;128.9261016845703
298;1673303551.4412258;47.1306437;7.238739499999999;-0.3630000054836273;1673303551.4755352;18.4970645904541;20.86744499206543;128.6813507080078
299;1673303551.6258163;47.1306425;7.2387324;-0.3500000238418579;1673303551.6592343;18.42732048034668;20.729061126708984;128.40658569335938
300;;;;;1673303551.8601267;18.43714141845703;20.638307571411133;128.2047576904297
301;;;;;1673303552.0572045;18.39376449584961;20.578166961669922;127.95986938476562
302;;;;;1673303552.2357252;18.37070083618164;20.535470962524414;127.75959777832031
303;;;;;1673303552.424982;18.362770080566406;20.454442977905273;127.59263610839844
304;;;;;1673303552.616028;18.336790084838867;20.397029876708984;127.4094009399414
305;;;;;1673303552.839053;18.359399795532227;20.624391555786133;127.25337219238281
306;;;;;1673303553.0481222;18.349945068359375;20.659542083740234;127.08585357666016
307;;;;;1673303553.2350588;18.38675308227539;20.671531677246094;126.92381286621094
