;pos_time;latitude;longitude;altitude;alt_time;pitch;roll;yaw
0;1673303241.8684022;47.1306425;7.2406193;-0.030000001192092896;1673303241.8840175;0.6821585297584534;-0.8348211050033569;90.06272888183594
1;1673303242.0896018;47.1306425;7.240619199999999;-0.03200000151991844;1673303242.110328;0.6229220032691956;-0.8492245078086853;89.94840240478516
2;1673303242.2974288;47.1306425;7.240619199999999;-0.03400000184774399;1673303242.3149927;0.2882618010044098;0.2835509479045868;90.0109634399414
3;1673303242.487986;47.1306424;7.240619199999999;-0.039000000804662704;1673303242.506582;0.28222987055778503;-0.1217704564332962;90.13259887695312
4;1673303242.6869068;47.1306424;7.2406193;-0.0430000014603138;1673303242.7054503;0.19089695811271667;-0.0834057405591011;90.25733947753906
5;1673303242.9099784;47.1306424;7.2406194;-0.046000003814697266;1673303242.927563;0.007056985516101122;-0.07237276434898376;90.044677734375
6;1673303243.105676;47.1306424;7.2406194;-0.049000002443790436;1673303243.1222847;-0.1253547966480255;-0.11713486909866333;90.22515869140625
7;1673303243.3106124;47.1306424;7.240619499999999;-0.05000000074505806;1673303243.3252401;-0.07992981374263763;0.1143295168876648;90.00387573242188
8;1673303243.4931824;47.1306424;7.2406197;-0.05000000074505806;1673303243.5107589;-0.13914018869400024;-0.14923641085624695;90.19203186035156
9;1673303243.6740205;47.1306425;7.240619799999999;-0.05000000074505806;1673303243.6945183;-0.09462039172649384;-0.02989266812801361;90.1150131225586
10;1673303243.877448;47.1306425;7.240619799999999;-0.049000002443790436;1673303243.8940525;-0.10370618104934692;-0.20830439031124115;90.23725891113281
11;1673303244.0706477;47.1306425;7.240619799999999;-0.04800000041723251;1673303244.090206;-0.2559383809566498;0.030258653685450554;90.05799102783203
12;1673303244.2707999;47.1306424;7.2406198999999996;-0.0010000000474974513;1673303244.2903214;-0.26818618178367615;-0.17086823284626007;90.14302062988281
13;1673303244.4798594;47.1306424;7.24062;-0.0010000000474974513;1673303244.5005102;-0.19706203043460846;-0.12419800460338593;90.15958404541016
14;1673303244.692471;47.1306424;7.2406201;-0.0010000000474974513;1673303244.711016;-0.22922471165657043;-0.026415053755044937;90.10850524902344
15;1673303244.899777;47.1306424;7.2406201;0.0;1673303244.9173446;-0.284840852022171;-0.23740361630916595;90.14087677001953
16;1673303245.1002688;47.1306424;7.2406201999999995;0.003000000026077032;1673303245.1172876;-0.2857748568058014;-0.017738888040184975;90.13954162597656
17;1673303245.2955127;47.1306424;7.2406201999999995;0.005000000353902578;1673303245.313322;-0.16966111958026886;-0.1747351586818695;90.32015228271484
18;1673303245.4901657;47.1306424;7.2406201999999995;0.007000000216066837;1673303245.5095925;-0.09097100794315338;-0.30219388008117676;90.05880737304688
19;1673303245.7027392;47.1306424;7.2406201999999995;0.0;1673303245.7214365;-0.2054985612630844;-0.29608502984046936;90.12419128417969
20;1673303245.9395332;47.1306424;7.2406203;0.0;1673303245.9564915;-0.19140169024467468;-0.49167054891586304;90.31623840332031
21;1673303246.1175365;47.1306424;7.2406203;0.0;1673303246.133478;-0.0668390542268753;0.4598384499549866;90.20545959472656
22;1673303246.3034632;47.1306424;7.2406201999999995;-0.0010000000474974513;1673303246.3244517;-0.13590727746486664;-0.5539023280143738;90.21670532226562
23;1673303246.498513;47.1306424;7.2406201999999995;-0.003000000026077032;1673303246.5144656;-0.05391833558678627;0.12362370640039444;90.07340240478516
24;1673303246.6827986;47.1306424;7.2406201;-0.007000000216066837;1673303246.6985762;-0.19976240396499634;-0.197685107588768;90.21587371826172
25;1673303246.8872693;47.1306424;7.2406201;-0.009000000543892384;1673303246.9056501;-0.35556718707084656;-0.19873441755771637;90.2679214477539
26;1673303247.1015494;47.1306424;7.24062;-0.01100000087171793;1673303247.1213143;-0.29274994134902954;-0.17980238795280457;90.19384765625
27;1673303247.3063493;47.1306424;7.2406201;-0.00800000037997961;1673303247.3235116;-0.2929101288318634;-0.20247645676136017;90.24107360839844
28;1673303247.5202324;47.1306424;7.2406201;-0.004000000189989805;1673303247.5394273;-0.4321805536746979;-0.20709000527858734;90.30390167236328
29;1673303247.7044995;47.1306424;7.2406201;-0.004000000189989805;1673303247.7244236;-0.5746517777442932;-0.17763936519622803;90.30036926269531
30;1673303247.8974009;47.1306424;7.2406203;-0.004000000189989805;1673303247.9163234;0.8965057134628296;-0.08950775861740112;90.58126068115234
31;1673303248.092371;47.1306424;7.2406206;0.006000000052154064;1673303248.1081872;6.148804664611816;-1.2604385614395142;90.15108489990234
32;1673303248.2878866;47.1306424;7.240621;0.029000001028180122;1673303248.3062155;11.696100234985352;0.19527068734169006;90.3182144165039
33;1673303248.4926894;47.1306425;7.2406213;0.06599999964237213;1673303248.5114694;11.353675842285156;2.27420973777771;90.30088806152344
34;1673303248.703494;47.130642599999995;7.240621399999999;0.11500000208616257;1673303248.7535727;11.315043449401855;-1.8698911666870117;90.14118194580078
35;1673303248.9447536;47.130642599999995;7.240621399999999;0.17900000512599945;1673303248.9633584;11.254587173461914;0.22708414494991302;90.23355865478516
36;1673303249.1321692;47.1306425;7.2406212;0.2600000202655792;1673303249.1487823;11.051209449768066;2.5103092193603516;90.2000503540039
37;1673303249.3130827;47.1306424;7.2406209;0.3530000150203705;1673303249.3317924;11.039097785949707;-2.219561815261841;89.86021423339844
38;1673303249.502625;47.1306424;7.2406206;0.4610000252723694;1673303249.5192482;11.429474830627441;-1.7047102451324463;89.5905532836914
39;1673303249.6968966;47.1306424;7.2406201999999995;0.5879999995231628;1673303249.7155507;10.316753387451172;1.9988021850585938;90.06805419921875
40;1673303249.899955;47.130642599999995;7.240619799999999;0.7270000576972961;1673303249.917631;9.240482330322266;-0.19195696711540222;90.59062957763672
41;1673303250.0919933;47.130642599999995;7.240619499999999;0.8770000338554382;1673303250.108362;8.915146827697754;-1.8331032991409302;90.89495849609375
42;1673303250.3006926;47.130642599999995;7.240619199999999;1.0430001020431519;1673303250.317386;8.248604774475098;2.2681186199188232;90.88202667236328
43;1673303250.497319;47.130642599999995;7.240619;1.221000075340271;1673303250.514933;8.756674766540527;0.8392800688743591;90.76292419433594
44;1673303250.680759;47.130642599999995;7.240618899999999;1.4040000438690186;1673303250.6985052;9.357722282409668;-2.3623907566070557;90.04660034179688
45;1673303250.889192;47.130642599999995;7.240619;1.592000126838684;1673303250.9048169;10.068092346191406;0.6904312968254089;89.8900375366211
46;1673303251.0801554;47.130642699999996;7.240619;1.783000111579895;1673303251.0997686;9.326598167419434;1.7004822492599487;89.73909759521484
47;1673303251.275996;47.130642699999996;7.2406191;1.9730000495910645;1673303251.2976952;9.44544792175293;-1.959307074546814;89.6776123046875
48;1673303251.4748406;47.130642599999995;7.240619199999999;2.1640000343322754;1673303251.4939322;9.451253890991211;-0.1275140792131424;89.80038452148438
49;1673303251.6820068;47.130642599999995;7.2406193;2.3550000190734863;1673303251.7025037;9.659911155700684;2.3415632247924805;89.98358917236328
50;1673303251.893278;47.1306425;7.2406194;2.5470001697540283;1673303251.9104111;10.142244338989258;-2.4528849124908447;89.94810485839844
51;1673303252.1034968;47.1306424;7.240619499999999;2.742000102996826;1673303252.1176999;10.54648208618164;-1.8489434719085693;90.00274658203125
52;1673303252.292369;47.1306425;7.240619499999999;2.936000108718872;1673303252.3104837;10.68713092803955;3.1276934146881104;90.14525604248047
53;1673303252.4905956;47.130642699999996;7.240619499999999;3.130000114440918;1673303252.509895;9.983774185180664;-0.03803832456469536;90.04409790039062
54;1673303252.6929584;47.130642699999996;7.240619499999999;3.328000068664551;1673303252.7097268;9.621390342712402;-1.5746135711669922;90.01117706298828
55;1673303252.9061399;47.130642599999995;7.240619499999999;3.5260002613067627;1673303252.9257913;8.925288200378418;2.1219418048858643;90.12091064453125
56;1673303253.1039073;47.130642599999995;7.240619499999999;3.7190001010894775;1673303253.123977;9.044522285461426;0.18981969356536865;90.20082092285156
57;1673303253.2957346;47.130642599999995;7.2406196;3.9100000858306885;1673303253.3115053;9.497714042663574;-2.6642916202545166;89.89336395263672
58;1673303253.5064433;47.130642599999995;7.240619799999999;4.1020002365112305;1673303253.5260832;10.320584297180176;1.2294572591781616;90.24549865722656
59;1673303253.717662;47.130642699999996;7.24062;4.295000076293945;1673303253.7362325;10.549941062927246;2.1015055179595947;90.55793762207031
60;1673303253.9222724;47.130642699999996;7.2406201999999995;4.48900032043457;1673303253.938013;10.703888893127441;-1.7339764833450317;90.4267807006836
61;1673303254.0964441;47.1306425;7.2406203;4.688000202178955;1673303254.1135733;9.964155197143555;0.1701982468366623;89.95944213867188
62;1673303254.2742;47.1306424;7.2406203;4.890000343322754;1673303254.2937899;9.940028190612793;2.435371160507202;89.8799057006836
63;1673303254.49576;47.1306422;7.2406204;5.087000370025635;1673303254.5163212;10.154501914978027;-2.7724969387054443;89.88504028320312
64;1673303254.7157788;47.130642099999996;7.2406203;5.2870001792907715;1673303254.7353086;10.43110179901123;-1.717355728149414;89.71757507324219
65;1673303254.9159865;47.1306422;7.2406203;5.490000247955322;1673303254.9307852;10.510316848754883;2.5402188301086426;90.34140014648438
66;1673303255.1092567;47.1306423;7.2406201;5.694000244140625;1673303255.1268845;10.320934295654297;-0.8922936916351318;90.24995422363281
67;1673303255.3014555;47.1306423;7.24062;5.89900016784668;1673303255.3219895;9.67684268951416;-1.6030700206756592;90.16072082519531
68;1673303255.5036318;47.1306423;7.24062;6.100000381469727;1673303255.519293;9.47925853729248;1.6701831817626953;89.96900939941406
69;1673303255.681856;47.1306423;7.2406198999999996;6.297000408172607;1673303255.6984475;9.188162803649902;0.41948238015174866;89.99048614501953
70;1673303255.8756773;47.1306423;7.2406198999999996;6.493000507354736;1673303255.8961916;9.134821891784668;-2.6258351802825928;90.2813720703125
71;1673303256.0705276;47.1306423;7.24062;6.691000461578369;1673303256.0907078;9.667672157287598;1.5583232641220093;90.35775756835938
72;1673303256.275674;47.1306424;7.24062;6.890000343322754;1673303256.2918887;10.212400436401367;2.0598666667938232;90.41654968261719
73;1673303256.4807541;47.1306425;7.2406201;7.089000225067139;1673303256.4992998;10.4501371383667;-2.1546452045440674;89.93865203857422
74;1673303256.7017953;47.1306423;7.2406201;7.2860002517700195;1673303256.7150111;10.015440940856934;0.27150020003318787;89.71039581298828
75;1673303256.8727322;47.1306422;7.2406201999999995;7.484000205993652;1673303256.8924415;9.917001724243164;1.728081464767456;89.90711212158203
76;1673303257.0788627;47.130642099999996;7.2406201999999995;7.682000160217285;1673303257.099522;9.448697090148926;-2.6222658157348633;90.05523681640625
77;1673303257.2883542;47.130642099999996;7.2406201999999995;7.884000301361084;1673303257.3088543;9.684893608093262;-1.5814769268035889;90.31795501708984
78;1673303257.5278547;47.130642099999996;7.2406203;8.087000846862793;1673303257.542531;10.09292984008789;2.3158771991729736;90.25917053222656
79;1673303257.7440178;47.1306422;7.2406203;8.284000396728516;1673303257.7626839;10.381560325622559;-1.1217777729034424;90.10337829589844
80;1673303257.9321802;47.1306423;7.2406203;8.479000091552734;1673303257.9468217;10.549428939819336;-2.0040669441223145;90.05542755126953
81;1673303258.1123397;47.1306423;7.2406203;8.676000595092773;1673303258.1294925;10.334321975708008;2.2811660766601562;90.10325622558594
82;1673303258.3022113;47.1306423;7.2406203;8.874000549316406;1673303258.3193777;9.420665740966797;-0.23997795581817627;90.040283203125
83;1673303258.4992201;47.1306424;7.2406201999999995;9.070000648498535;1673303258.515862;9.325418472290039;-2.394219160079956;90.27410125732422
84;1673303258.6875155;47.1306425;7.2406201999999995;9.267000198364258;1673303258.707152;9.680756568908691;2.3970093727111816;90.3624496459961
85;1673303258.8925707;47.130642599999995;7.2406201999999995;9.467000007629395;1673303258.910148;9.682331085205078;1.2696789503097534;90.14874267578125
86;1673303259.0912745;47.1306425;7.2406203;9.665000915527344;1673303259.1097841;10.207910537719727;-2.4164342880249023;90.03433227539062
87;1673303259.2848072;47.1306424;7.2406203;9.866000175476074;1673303259.3014386;10.351576805114746;0.7946107387542725;90.1276626586914
88;1673303259.4831548;47.1306424;7.2406203;10.067000389099121;1673303259.503734;10.436041831970215;1.9291025400161743;90.154541015625
89;1673303259.7041373;47.1306423;7.2406203;10.293000221252441;1673303259.7178054;10.073960304260254;-2.1048500537872314;90.09162139892578
90;1673303259.8883748;47.1306422;7.2406201;10.61400032043457;1673303259.9098442;10.640741348266602;-1.450286626815796;89.92900085449219
91;1673303260.0770981;47.1306422;7.240619799999999;10.983000755310059;1673303260.0946805;10.044719696044922;2.018953323364258;89.75975036621094
92;1673303260.2852335;47.1306423;7.2406194;11.368000984191895;1673303260.3018265;9.634263038635254;-0.6542373895645142;89.58988189697266
93;1673303260.4852946;47.1306423;7.2406191;11.76300048828125;1673303260.5018876;8.925304412841797;-2.462707281112671;89.9275131225586
94;1673303260.6983783;47.1306423;7.240618899999999;12.16200065612793;1673303260.7157226;8.705103874206543;1.915353775024414;90.29696655273438
95;1673303260.886921;47.1306423;7.2406188;12.56100082397461;1673303260.906579;8.686643600463867;0.6835107803344727;90.27816009521484
96;1673303261.0781655;47.1306423;7.2406188;12.962000846862793;1673303261.095733;8.66516399383545;-2.3742804527282715;90.13170623779297
97;1673303261.2856057;47.1306423;7.240618899999999;13.366000175476074;1673303261.3051503;8.606439590454102;1.016726016998291;90.1778793334961
98;1673303261.497512;47.1306424;7.240619;13.772000312805176;1673303261.51313;8.821253776550293;1.9265676736831665;90.24882507324219
99;1673303261.6931057;47.1306424;7.240619199999999;14.181000709533691;1673303261.7126603;9.226058959960938;-2.1964168548583984;90.00505065917969
100;1673303261.8965883;47.1306423;7.240619499999999;14.594000816345215;1673303261.9133158;9.625863075256348;0.18184836208820343;90.19819641113281
101;1673303262.1576033;47.1306423;7.2406196;15.004000663757324;1673303262.1771257;10.139595031738281;2.239353656768799;90.2503433227539
102;1673303262.3441875;47.1306422;7.240619799999999;15.41200065612793;1673303262.3685925;10.397689819335938;-1.322165608406067;90.01721954345703
103;1673303262.5338721;47.1306422;7.240619799999999;15.820000648498535;1673303262.549488;10.413393020629883;-1.9025166034698486;89.9959716796875
104;1673303262.7043886;47.1306423;7.240619799999999;16.229000091552734;1673303262.7273786;10.142478942871094;2.0621705055236816;90.0818099975586
105;1673303262.895217;47.1306424;7.240619799999999;16.638999938964844;1673303262.9098682;9.629189491271973;-0.13588623702526093;90.2022476196289
106;1673303263.0993402;47.1306424;7.240619799999999;17.049001693725586;1673303263.1188688;9.54892349243164;-1.6790472269058228;90.09494018554688
107;1673303263.3100855;47.1306424;7.2406197;17.459001541137695;1673303263.3247774;9.351574897766113;1.6790329217910767;90.15766143798828
108;1673303263.4992127;47.1306425;7.2406197;17.86600112915039;1673303263.51881;9.490663528442383;0.6450364589691162;90.1065444946289
109;1673303263.7128918;47.1306424;7.2406196;18.27400016784668;1673303263.7339454;9.73621940612793;-2.3909108638763428;89.9383544921875
110;1673303263.9095752;47.1306424;7.2406196;18.68800163269043;1673303263.9347339;9.98061752319336;1.0050307512283325;90.13460540771484
111;1673303264.1298814;47.1306425;7.2406197;19.104000091552734;1673303264.149402;9.681416511535645;1.6546478271484375;90.22091674804688
112;1673303264.3081648;47.130642599999995;7.2406197;19.518001556396484;1673303264.3353193;9.686274528503418;-1.7033218145370483;89.9896469116211
113;1673303264.533436;47.1306425;7.2406197;19.931001663208008;1673303264.5470872;9.320051193237305;0.202375590801239;90.03540802001953
114;1673303264.7277925;47.1306425;7.2406197;20.34000015258789;1673303264.7463486;9.450135231018066;2.2412452697753906;90.15735626220703
115;1673303264.915494;47.1306425;7.2406197;20.744001388549805;1673303264.9320946;9.512202262878418;-1.7702754735946655;89.99513244628906
116;1673303265.1048176;47.1306424;7.240619799999999;21.150001525878906;1673303265.1233976;9.70431137084961;-1.5679008960723877;89.9858627319336
117;1673303265.3003283;47.1306425;7.240619799999999;21.5570011138916;1673303265.3179045;10.106657028198242;2.459869861602783;90.19499969482422
118;1673303265.5167668;47.130642599999995;7.240619799999999;21.966001510620117;1673303265.5359547;10.067915916442871;-0.2567695379257202;90.08748626708984
119;1673303265.7244258;47.130642699999996;7.240619799999999;22.375001907348633;1673303265.7421672;9.853163719177246;-1.5387364625930786;90.09439849853516
120;1673303265.9392266;47.130642599999995;7.240619799999999;22.779001235961914;1673303265.9558518;9.61266040802002;1.8654791116714478;90.22664642333984
121;1673303266.1461775;47.130642599999995;7.240619799999999;23.1820011138916;1673303266.1608217;9.30443286895752;0.8100109696388245;90.24838256835938
122;1673303266.32274;47.130642599999995;7.2406197;23.582000732421875;1673303266.342899;9.354490280151367;-2.0403172969818115;90.14038848876953
123;1673303266.5158186;47.130642599999995;7.2406197;23.98600196838379;1673303266.5353951;9.36199951171875;0.693097710609436;90.10064697265625
124;1673303266.7192984;47.130642699999996;7.2406197;24.39200210571289;1673303266.738386;9.709684371948242;2.1242144107818604;90.1064224243164
125;1673303266.9038796;47.130642699999996;7.240619799999999;24.796001434326172;1673303266.919499;9.879069328308105;-1.778165578842163;89.9590072631836
126;1673303267.1003032;47.130642699999996;7.240619799999999;25.198001861572266;1673303267.1188588;9.926697731018066;0.1025170311331749;90.095458984375
127;1673303267.2997236;47.130642599999995;7.240619799999999;25.59600067138672;1673303267.3184347;9.83945083618164;1.9590507745742798;90.17709350585938
128;1673303267.496488;47.130642599999995;7.240619799999999;25.99300193786621;1673303267.515033;9.562117576599121;-1.5496060848236084;89.94590759277344
129;1673303267.6887727;47.130642599999995;7.240619799999999;26.393001556396484;1673303267.710237;9.404972076416016;-1.7034962177276611;89.94902801513672
130;1673303267.9009943;47.130642699999996;7.240619799999999;26.79800033569336;1673303267.9195797;9.466354370117188;2.5836331844329834;90.10323333740234
131;1673303268.0947082;47.1306428;7.2406197;27.203001022338867;1673303268.1152034;9.462814331054688;0.5163851380348206;90.10572052001953
132;1673303268.3021939;47.1306429;7.2406197;27.606000900268555;1673303268.3227308;9.685243606567383;-1.7166452407836914;90.11566162109375
133;1673303268.5109487;47.1306428;7.2406197;28.009000778198242;1673303268.5285208;9.901546478271484;2.2091429233551025;90.203125
134;1673303268.7179008;47.1306428;7.2406196;28.405000686645508;1673303268.7335577;9.773448944091797;1.5917494297027588;90.2118911743164
135;1673303268.9013972;47.130642699999996;7.2406196;28.801000595092773;1673303268.9209335;9.457085609436035;-2.2613093852996826;90.03754425048828
136;1673303269.0919127;47.130642699999996;7.2406196;29.20100212097168;1673303269.1085062;9.342341423034668;0.7950494289398193;89.97186279296875
137;1673303269.2794454;47.1306428;7.2406196;29.602001190185547;1673303269.2962272;9.408641815185547;2.342479944229126;90.08118438720703
138;1673303269.491142;47.1306428;7.240619499999999;30.00200080871582;1673303269.510688;9.406267166137695;-1.991566777229309;89.9517822265625
139;1673303269.6972735;47.130642699999996;7.240619499999999;30.400001525878906;1673303269.7163386;9.572562217712402;-0.08345820754766464;90.13423156738281
140;1673303269.8966465;47.130642599999995;7.2406196;30.795001983642578;1673303269.9142668;9.819095611572266;2.3876607418060303;90.16373443603516
141;1673303270.0926244;47.1306425;7.2406196;31.192001342773438;1673303270.112145;9.944202423095703;-1.53403902053833;90.03694152832031
142;1673303270.297841;47.1306424;7.2406196;31.59400177001953;1673303270.3154106;9.831703186035156;-1.662622332572937;90.11366271972656
143;1673303270.48974;47.1306424;7.240619499999999;31.99700164794922;1673303270.5053892;9.52463150024414;2.495370388031006;90.1829605102539
144;1673303270.6865764;47.1306425;7.2406196;32.4010009765625;1673303270.7061021;9.506880760192871;0.3037642538547516;90.18132781982422
145;1673303270.8961406;47.130642599999995;7.2406196;32.80400085449219;1673303270.9127305;9.544086456298828;-2.284463882446289;90.06693267822266
146;1673303271.0917706;47.1306425;7.2406196;33.20600128173828;1673303271.1083632;9.632604598999023;1.8205513954162598;90.17454528808594
147;1673303271.2890713;47.130642599999995;7.2406196;33.60600280761719;1673303271.3076293;9.691717147827148;1.5102977752685547;90.16121673583984
148;1673303271.5065124;47.130642599999995;7.2406196;34.00600051879883;1673303271.5243092;9.729652404785156;-2.42046856880188;89.90033721923828
149;1673303271.7261345;47.130642599999995;7.2406197;34.41200256347656;1673303271.7452486;9.661368370056152;0.7035374641418457;90.12178802490234
150;1673303271.919932;47.130642699999996;7.2406197;34.81800079345703;1673303271.937487;9.707088470458984;2.194988965988159;90.21824645996094
151;1673303272.1034355;47.130642699999996;7.2406197;35.224002838134766;1673303272.1229553;9.638273239135742;-1.4917023181915283;90.00080871582031
152;1673303272.3229463;47.130642699999996;7.2406197;35.62800216674805;1673303272.338614;9.700894355773926;-0.645307719707489;90.06392669677734
153;1673303272.5444179;47.130642699999996;7.240619799999999;36.025001525878906;1673303272.5629652;9.597321510314941;2.3733279705047607;90.19053649902344
154;1673303272.709287;47.130642599999995;7.240619799999999;36.4170036315918;1673303272.7239258;9.634095191955566;-1.3059543371200562;89.99864959716797
155;1673303272.9172602;47.130642599999995;7.240619799999999;36.81500244140625;1673303272.932019;9.733575820922852;-1.4332199096679688;90.00807189941406
156;1673303273.1044796;47.130642699999996;7.2406197;37.217002868652344;1673303273.128112;9.677471160888672;2.6081888675689697;90.17385864257812
157;1673303273.2961197;47.1306428;7.2406197;37.61900329589844;1673303273.3146703;9.406326293945312;0.45687586069107056;90.20252990722656
158;1673303273.5139704;47.1306428;7.2406197;38.01700210571289;1673303273.5316377;9.481325149536133;-1.9077837467193604;90.07247924804688
159;1673303273.6999938;47.1306428;7.2406197;38.41600036621094;1673303273.7195497;9.49911880493164;1.6724557876586914;90.11624908447266
160;1673303273.8975616;47.1306428;7.240619799999999;38.816001892089844;1673303273.9181678;9.539023399353027;1.722639560699463;90.25518798828125
161;1673303274.0918612;47.130642699999996;7.240619799999999;39.21200180053711;1673303274.1104074;9.813796043395996;-2.2367234230041504;89.982177734375
162;1673303274.2965446;47.130642699999996;7.240619799999999;39.612003326416016;1673303274.3160462;9.89735221862793;0.46271130442619324;90.01422119140625
163;1673303274.498855;47.1306428;7.2406198999999996;40.01300048828125;1673303274.519351;9.95931625366211;2.4985125064849854;90.02239990234375
164;1673303274.7067027;47.1306429;7.2406198999999996;40.41400146484375;1673303274.7242846;9.866985321044922;-0.8748360872268677;90.0198745727539
165;1673303274.9163978;47.1306428;7.2406198999999996;40.81700134277344;1673303274.9369636;9.779655456542969;-0.5728386044502258;90.09797668457031
166;1673303275.1252632;47.130642699999996;7.2406198999999996;41.21600341796875;1673303275.1409116;9.568624496459961;2.2884981632232666;90.14371490478516
167;1673303275.3123245;47.130642599999995;7.240619799999999;41.6150016784668;1673303275.3325284;9.558802604675293;-0.9404128193855286;90.15396118164062
168;1673303275.5478213;47.130642599999995;7.240619799999999;42.01700210571289;1673303275.5692916;9.511548042297363;-1.8430945873260498;89.99479675292969
169;1673303275.7532961;47.130642699999996;7.240619799999999;42.422000885009766;1673303275.7698944;9.650674819946289;2.1867542266845703;90.26139831542969
170;1673303275.9456694;47.1306428;7.2406197;42.829002380371094;1673303275.966191;9.706650733947754;0.8896763920783997;90.20442199707031
171;1673303276.1428354;47.1306429;7.2406197;43.23500061035156;1673303276.158015;9.78060245513916;-1.8059418201446533;90.04842376708984
172;1673303276.3111043;47.1306428;7.2406197;43.63900375366211;1673303276.3267097;9.568009376525879;1.51626718044281;90.2211685180664
173;1673303276.4901161;47.1306428;7.2406197;44.040000915527344;1673303276.5066955;9.526647567749023;1.8236867189407349;90.16377258300781
174;1673303276.6899428;47.130642699999996;7.2406197;44.435001373291016;1673303276.707545;9.37642765045166;-1.9799003601074219;90.0190200805664
175;1673303276.8878;47.130642699999996;7.2406197;44.83100128173828;1673303276.9053729;9.308430671691895;0.0818871408700943;90.02902221679688
176;1673303277.0961485;47.1306428;7.2406197;45.230003356933594;1673303277.1127365;9.263721466064453;2.5062782764434814;90.23651885986328
177;1673303277.3050985;47.1306428;7.2406197;45.63100051879883;1673303277.3226805;9.549941062927246;-1.4047237634658813;89.99313354492188
178;1673303277.5090108;47.1306428;7.2406197;46.03200149536133;1673303277.5246148;9.601244926452637;-0.3656286597251892;89.95906066894531
179;1673303277.6892223;47.130642699999996;7.2406197;46.427001953125;1673303277.707767;9.897822380065918;2.5665018558502197;90.20006561279297
180;1673303277.917186;47.130642699999996;7.2406197;46.823001861572266;1673303277.9335532;9.657389640808105;-0.8330048322677612;90.09381103515625
181;1673303278.118495;47.130642599999995;7.2406197;47.22500228881836;1673303278.137035;9.502872467041016;-1.828156590461731;90.03258514404297
182;1673303278.3193192;47.130642699999996;7.2406197;47.62900161743164;1673303278.3398454;9.259163856506348;2.447540283203125;90.2099838256836
183;1673303278.524422;47.1306428;7.2406197;48.03000259399414;1673303278.5429704;9.244698524475098;0.11317136883735657;90.30125427246094
184;1673303278.7297304;47.1306428;7.2406197;48.3900032043457;1673303278.7483191;9.501173973083496;-1.5522661209106445;90.07034301757812
185;1673303278.9332497;47.1306429;7.240619799999999;48.69400405883789;1673303278.9523604;9.458425521850586;2.1941280364990234;90.26741027832031
186;1673303279.128021;47.1306429;7.2406198999999996;48.94600296020508;1673303279.1461735;9.505261421203613;2.079089403152466;90.23786926269531
187;1673303279.3279047;47.1306428;7.2406201;49.15300369262695;1673303279.3436806;9.680405616760254;-2.092963933944702;89.9853744506836
188;1673303279.5134797;47.1306428;7.2406203;49.327003479003906;1673303279.5300722;13.248441696166992;4.08636474609375;90.07813262939453
189;1673303279.7128062;47.130642699999996;7.2406201999999995;49.46200180053711;1673303279.7293966;24.16884422302246;14.240144729614258;85.46837615966797
190;1673303279.9474082;47.130642099999996;7.240619499999999;49.54300308227539;1673303279.9655416;14.811244010925293;2.7906932830810547;71.48517608642578
191;1673303280.1333199;47.1306411;7.2406185999999995;49.60100173950195;1673303280.146397;12.965896606445312;-3.7310850620269775;61.809417724609375
192;1673303280.3094883;47.13064;7.240617599999999;49.647003173828125;1673303280.328416;14.170700073242188;-5.17665433883667;53.402408599853516
193;1673303280.499215;47.1306389;7.2406163999999995;49.68000411987305;1673303280.5173442;10.196795463562012;-8.523713111877441;44.505802154541016
194;1673303280.7008731;47.1306377;7.2406152;49.70900344848633;1673303280.7234292;7.643215179443359;-9.877440452575684;35.27253723144531
195;1673303280.916363;47.130636599999995;7.240614099999999;49.733001708984375;1673303280.9344308;4.3028082847595215;-9.217358589172363;25.762128829956055
196;1673303281.1274393;47.1306357;7.2406131;49.75400161743164;1673303281.1433387;1.0494612455368042;-6.741217136383057;16.454103469848633
197;1673303281.3133743;47.130635;7.2406124;49.77300262451172;1673303281.331257;-2.1633729934692383;-5.464009761810303;7.336264133453369
198;1673303281.4964063;47.1306345;7.240611899999999;49.79300308227539;1673303281.5136323;-4.367706298828125;-7.2281599044799805;-1.5066832304000854
199;1673303281.7455;47.130634199999996;7.2406118;49.81100082397461;1673303281.762399;-5.670373439788818;-9.163667678833008;-10.689284324645996
200;1673303281.9234211;47.130634099999995;7.2406118;49.82600402832031;1673303281.9453485;-4.389884948730469;-10.300202369689941;-19.35494041442871
201;1673303282.119183;47.130634199999996;7.240611899999999;49.840003967285156;1673303282.1403818;-2.8228299617767334;-9.955286026000977;-27.4622745513916
202;1673303282.3535762;47.1306343;7.240612;49.85300064086914;1673303282.368583;-3.9817545413970947;-8.650372505187988;-36.075557708740234
203;1673303282.5333874;47.1306343;7.2406121;49.86600112915039;1673303282.550964;-7.069622993469238;-5.988129138946533;-45.01356887817383
204;1673303282.7135837;47.130634099999995;7.2406123;49.87600326538086;1673303282.73018;-10.48888111114502;-5.988247871398926;-52.04141616821289
205;1673303282.9160273;47.130634;7.2406123;49.88200378417969;1673303282.9355462;-10.97497844696045;-8.363736152648926;-52.253326416015625
206;1673303283.1116014;47.1306339;7.240612199999999;49.88500213623047;1673303283.1262398;-8.686614990234375;-10.169041633605957;-49.07408142089844
207;1673303283.3119862;47.1306339;7.240611899999999;49.8900032043457;1673303283.32756;-6.301135063171387;-7.855810642242432;-46.747806549072266
208;1673303283.5156834;47.130634;7.2406117;49.89400100708008;1673303283.5322797;-5.656510353088379;-7.4703779220581055;-46.2940673828125
209;1673303283.72128;47.130634;7.2406115;49.897003173828125;1673303283.7340176;-6.996585369110107;-5.03519344329834;-46.66010284423828
210;1673303283.9014435;47.130634;7.240611299999999;49.90300369262695;1673303283.922959;-8.723830223083496;-6.355335235595703;-46.18025207519531
211;1673303284.1057718;47.130634099999995;7.2406112;49.90800094604492;1673303284.126268;-9.280912399291992;-6.870157241821289;-45.95517349243164
212;1673303284.3277233;47.130634099999995;7.2406111;49.90900421142578;1673303284.3452861;-8.35941219329834;-9.290956497192383;-45.424747467041016
213;1673303284.5216718;47.130634199999996;7.2406109;49.90500259399414;1673303284.5412605;-5.966465950012207;-10.237214088439941;-45.71184539794922
214;1673303284.7232752;47.1306343;7.240610599999999;49.90300369262695;1673303284.737946;-16.081340789794922;-10.224655151367188;-45.85332107543945
215;1673303284.9122117;47.130634799999996;7.2406095;49.90900421142578;1673303284.929791;-37.265907287597656;-2.9611029624938965;-46.790496826171875
216;1673303285.0959704;47.1306365;7.2406067;49.92000198364258;1673303285.1138084;-52.787353515625;0.048103004693984985;-48.85287094116211
217;1673303285.2956681;47.130640199999995;7.240601099999999;49.91400146484375;1673303285.3130312;-55.9821891784668;-0.07864569127559662;-49.28048324584961
218;1673303285.498831;47.130646;7.2405925;49.8900032043457;1673303285.5155103;-53.33027648925781;-2.76004695892334;-49.12073516845703
219;1673303285.7071009;47.130653599999995;7.240581199999999;49.874000549316406;1673303285.7248816;-55.1274299621582;-3.8105123043060303;-48.477989196777344
220;1673303285.8957186;47.130662799999996;7.2405675;49.87700271606445;1673303285.9128437;-58.51416778564453;-0.36348026990890503;-49.38235855102539
221;1673303286.0948253;47.130673699999996;7.240551399999999;49.875003814697266;1673303286.1117592;-56.40952682495117;-1.4635519981384277;-49.51694107055664
222;1673303286.3021991;47.1306861;7.2405330999999995;49.871002197265625;1673303286.322041;-54.10445785522461;-3.5471742153167725;-48.42708206176758
223;1673303286.5146868;47.130699299999996;7.240513399999999;49.871002197265625;1673303286.5348556;-53.3682746887207;-4.45566463470459;-47.93319320678711
224;1673303286.7018688;47.1307133;7.2404923;49.862003326416016;1673303286.7199492;-54.020240783691406;-5.329623222351074;-47.70134353637695
225;1673303286.9138606;47.130727799999995;7.2404701;49.84600067138672;1673303286.931901;-51.68374252319336;-5.350131511688232;-47.95808029174805
226;1673303287.1178603;47.1307426;7.2404471;49.82100296020508;1673303287.1360002;-48.75303268432617;-3.8113389015197754;-48.394683837890625
227;1673303287.3256447;47.1307577;7.2404234999999995;49.79900360107422;1673303287.3447924;-48.47050857543945;-3.714724540710449;-48.35837936401367
228;1673303287.526787;47.130773;7.2403996;49.78700256347656;1673303287.5447245;-48.538150787353516;-4.061939716339111;-48.221492767333984
229;1673303287.717804;47.1307884;7.2403755;49.78000259399414;1673303287.737501;-48.16700744628906;-5.625631332397461;-48.73278045654297
230;1673303287.9199314;47.130803799999995;7.2403511;49.77900314331055;1673303287.9366777;-48.654727935791016;-6.016335964202881;-49.32361602783203
231;1673303288.1164033;47.1308191;7.2403264;49.79300308227539;1673303288.1350484;-41.21349334716797;-9.315702438354492;-49.69586944580078
232;1673303288.306973;47.1308338;7.2403021;49.81100082397461;1673303288.3236635;-5.986135959625244;-3.3011562824249268;-51.96297073364258
233;1673303288.5081291;47.130846999999996;7.2402804;49.79300308227539;1673303288.5245621;35.590702056884766;-3.013650894165039;-48.77619934082031
234;1673303288.718959;47.130858499999995;7.2402624;49.57100296020508;1673303288.7350752;22.219507217407227;-0.7290486693382263;-49.58225631713867
235;1673303288.9239407;47.130867599999995;7.2402489999999995;49.28000259399414;1673303288.9427314;17.04506492614746;-1.3511528968811035;-48.17067337036133
236;1673303289.1140294;47.1308746;7.2402397999999994;49.05600357055664;1673303289.1316948;15.754695892333984;-1.6748844385147095;-48.26054382324219
237;1673303289.3181527;47.1308796;7.240234399999999;48.99800109863281;1673303289.3350887;25.24818992614746;-4.567000865936279;-48.623313903808594
238;1673303289.5064821;47.130882199999995;7.240233099999999;49.10100173950195;1673303289.526023;49.524662017822266;-9.204748153686523;-47.66089630126953
239;1673303289.7090168;47.1308814;7.2402362;49.23100280761719;1673303289.7334507;45.360923767089844;-9.670011520385742;-44.802886962890625
240;1673303289.9142413;47.1308782;7.2402424;49.342002868652344;1673303289.933434;39.10342025756836;-13.461481094360352;-45.216453552246094
241;1673303290.1210465;47.130873;7.2402507;49.43400192260742;1673303290.1371868;23.293718338012695;-15.519078254699707;-44.939544677734375
242;1673303290.3172908;47.1308667;7.240259699999999;49.505001068115234;1673303290.3312414;1.7118175029754639;-14.080537796020508;-44.894195556640625
243;1673303290.4988594;47.130860399999996;7.2402679999999995;49.56100082397461;1673303290.5154557;-17.309803009033203;-7.175644397735596;-46.34644317626953
244;1673303290.6953542;47.130854899999996;7.240274899999999;49.60200119018555;1673303290.7187982;-30.405323028564453;-4.394419193267822;-49.00300216674805
245;1673303290.903668;47.130851;7.240279699999999;49.62700271606445;1673303290.9222066;-37.590919494628906;-0.4795299470424652;-50.45942687988281
246;1673303291.0994577;47.1308486;7.240282499999999;49.61000061035156;1673303291.1189692;-35.802818298339844;-1.8888676166534424;-50.537513732910156
247;1673303291.3060114;47.1308477;7.2402831;49.573001861572266;1673303291.3226116;-31.503684997558594;-6.1469221115112305;-49.577308654785156
248;1673303291.5073495;47.130848;7.2402817;49.56300354003906;1673303291.5264497;-21.949190139770508;-8.279624938964844;-49.14244842529297
249;1673303291.71076;47.1308489;7.2402792;49.59800338745117;1673303291.7308254;-10.461465835571289;-9.198773384094238;-48.4459114074707
250;1673303291.9093523;47.130849999999995;7.240276499999999;49.64800262451172;1673303291.9271061;-0.4603135883808136;-9.211542129516602;-47.76219177246094
251;1673303292.113311;47.1308509;7.240274299999999;49.69700241088867;1673303292.1359775;5.751936435699463;-7.822548866271973;-47.535499572753906
252;1673303292.31759;47.130851299999996;7.240272999999999;49.74100112915039;1673303292.3341947;7.83101224899292;-4.54478645324707;-47.92115020751953
253;1673303292.5346477;47.1308511;7.2402728;49.7760009765625;1673303292.551272;8.51911735534668;2.3333346843719482;-49.05813980102539
254;1673303292.7229125;47.1308508;7.240273299999999;49.60000228881836;1673303292.741503;-3.8017728328704834;28.036888122558594;-55.58308029174805
255;1673303292.9256322;47.1308505;7.2402739;49.04600143432617;1673303292.9422276;-9.929722785949707;55.593570709228516;-64.27912902832031
256;1673303293.111787;47.130850099999996;7.240274599999999;48.11100387573242;1673303293.1298845;-10.269103050231934;77.20039367675781;-70.00666809082031
257;1673303293.3301392;47.1308496;7.2402755;46.79900360107422;1673303293.3477085;-8.673163414001465;87.176513671875;-70.4548568725586
258;1673303293.5304766;47.1308492;7.2402764;45.117000579833984;1673303293.5481117;-7.154090404510498;81.77531433105469;-65.42121124267578
259;1673303293.7247283;47.1308487;7.2402774999999995;43.08300018310547;1673303293.742337;-3.588888645172119;58.76456069946289;-55.71345901489258
260;1673303293.914786;47.130848;7.240278399999999;40.6870002746582;1673303293.9328847;7.01456356048584;20.641151428222656;-45.72121810913086
261;1673303294.1360242;47.1308472;7.2402793;37.9010009765625;1673303294.1752288;21.36124610900879;-22.730623245239258;-44.80726623535156
262;1673303294.4231408;47.1308467;7.2402804;34.730003356933594;1673303294.4354796;28.189006805419922;-53.276817321777344;-48.367919921875
263;1673303294.588355;47.130846299999995;7.240281599999999;31.21000099182129;1673303294.606061;26.459209442138672;-52.794071197509766;-42.65537643432617
264;1673303294.7811062;47.130846299999995;7.240283;27.341001510620117;1673303294.7977073;13.393309593200684;-21.927278518676758;-30.241544723510742
265;1673303294.974173;47.130846399999996;7.2402847999999995;23.08300018310547;1673303294.9908211;-9.452360153198242;21.2651309967041;-28.608154296875
266;1673303295.1723523;47.130846399999996;7.2402864;18.439001083374023;1673303295.1879685;-22.653287887573242;53.26517105102539;-35.54027557373047
267;1673303295.3661246;47.1308461;7.2402878;13.455000877380371;1673303295.3819137;-23.23678970336914;48.294090270996094;-29.76896095275879
268;1673303295.5759482;47.1308454;7.2402888999999995;8.129000663757324;1673303295.5927703;-5.360779762268066;10.788022994995117;-15.091137886047363
269;1673303295.7451067;47.130844599999996;7.2402899;2.4120001792907715;1673303295.7617037;21.192745208740234;-28.087629318237305;-14.939508438110352
270;1673303295.9171963;47.1308341;7.2402779;-0.4490000307559967;1673303295.936272;15.095831871032715;-13.06485366821289;-21.253896713256836
271;1673303296.1106083;47.1308138;7.2402542;-1.5840001106262207;1673303296.1306705;18.042343139648438;-19.69162940979004;-19.40673065185547
272;1673303296.3356106;47.1307926;7.2402283999999995;-2.7800002098083496;1673303296.352208;19.982458114624023;-21.088010787963867;-14.002527236938477
273;1673303296.5251184;47.1307702;7.2402017;-3.9580001831054688;1673303296.5428987;19.958301544189453;-21.46862030029297;-13.456750869750977
274;1673303296.722301;47.1307462;7.240172899999999;-5.029000282287598;1673303296.7398689;19.904077529907227;-21.557720184326172;-12.97288703918457
275;1673303296.9113483;47.1307216;7.2401431;-5.889000415802002;1673303296.9314177;19.781970977783203;-22.09330177307129;-12.487524032592773
276;1673303297.1143801;47.1306963;7.2401121999999996;-1.340000033378601;1673303297.135894;19.6988582611084;-22.354637145996094;-12.04988956451416
277;1673303297.3208604;47.1306698;7.2400799;-0.6200000047683716;1673303297.3371768;19.692855834960938;-22.409189224243164;-11.775516510009766
278;1673303297.5082512;47.130641399999995;7.2400458;-0.28700000047683716;1673303297.5278964;19.743011474609375;-22.452638626098633;-11.611202239990234
279;1673303297.7248886;47.1306113;7.2400098999999996;-0.12800000607967377;1673303297.7439063;19.79918098449707;-22.39470672607422;-11.502938270568848
280;1673303297.9569535;47.1305796;7.2399724999999995;-0.06599999964237213;1673303297.9748886;19.858991622924805;-22.17641830444336;-11.467252731323242
281;1673303298.1399856;47.1305465;7.2399336;-0.055000003427267075;1673303298.1598253;19.852285385131836;-21.946626663208008;-11.39889144897461
282;1673303298.335024;47.130511999999996;7.2398931;-0.07300000637769699;1673303298.3550832;19.86656951904297;-21.761722564697266;-11.354415893554688
283;1673303298.5301745;47.130476099999996;7.2398513;-0.11900000274181366;1673303298.5450914;19.859432220458984;-21.54214859008789;-11.302988052368164
284;1673303298.7360618;47.130438999999996;7.239808;-0.1850000023841858;1673303298.754187;19.88302230834961;-21.382814407348633;-11.25363826751709
285;1673303298.9319534;47.1304005;7.239763399999999;-0.21700000762939453;1673303298.9480639;19.923702239990234;-21.22386360168457;-11.275134086608887
286;1673303299.1390438;47.1303608;7.2397173;-0.2330000102519989;1673303299.15403;19.873184204101562;-21.051921844482422;-11.242074966430664
287;1673303299.3189611;47.130319799999995;7.2396699;-0.24000000953674316;1673303299.3390343;19.816144943237305;-20.943506240844727;-11.208366394042969
288;1673303299.546283;47.1302775;7.2396211;-0.24800001084804535;1673303299.5649505;19.85431480407715;-20.750713348388672;-11.231027603149414
289;1673303299.751919;47.1302339;7.2395708999999995;-0.2600000202655792;1673303299.7985358;19.769025802612305;-20.558218002319336;-11.20386791229248
290;1673303299.9640598;47.130188999999994;7.239519199999999;-0.28600001335144043;1673303299.9790418;19.729076385498047;-20.376070022583008;-11.206318855285645
291;1673303300.142947;47.130142799999994;7.2394662;-0.33500000834465027;1673303300.161676;19.711816787719727;-20.219301223754883;-11.18659496307373
292;1673303300.321971;47.1300953;7.2394118999999995;-0.3460000157356262;1673303300.3389633;19.7113094329834;-20.08156967163086;-11.208425521850586
293;1673303300.5291755;47.1300467;7.2393562;-0.3400000035762787;1673303300.5473716;19.725234985351562;-19.926895141601562;-11.186494827270508
294;1673303300.7338555;47.1299967;7.239299099999999;-0.3330000042915344;1673303300.7552342;19.699459075927734;-19.822221755981445;-11.187657356262207
295;1673303300.940096;47.1299455;7.2392406;-0.32600000500679016;1673303300.9592426;19.705732345581055;-19.682384490966797;-11.173686027526855
296;1673303301.1410022;47.129892899999994;7.2391808;-0.34300002455711365;1673303301.1610458;19.65331268310547;-19.598133087158203;-11.155360221862793
297;1673303301.3619351;47.1298628;7.2391466;-0.3830000162124634;1673303301.3790324;19.684993743896484;-19.5146427154541;-11.153965950012207
298;;;;;1673303301.5865717;19.643367767333984;-19.40632438659668;-11.140237808227539
299;;;;;1673303301.761874;19.628063201904297;-19.35096549987793;-11.131771087646484
300;;;;;1673303301.9577498;19.639293670654297;-19.270214080810547;-11.122802734375
301;;;;;1673303302.1528823;19.564512252807617;-19.18918800354004;-11.1063232421875
302;;;;;1673303302.3461223;19.490333557128906;-19.119401931762695;-11.055951118469238
303;;;;;1673303302.5480561;19.442028045654297;-18.913681030273438;-11.051709175109863
304;;;;;1673303302.738075;19.412246704101562;-19.131853103637695;-11.05916976928711
305;;;;;1673303302.9519775;19.413034439086914;-19.120607376098633;-11.101714134216309
306;;;;;1673303303.1649544;19.33193016052246;-19.159526824951172;-11.222710609436035
