;pos_time;latitude;longitude;altitude;alt_time;pitch;roll;yaw
0;1673445923.8918507;47.1306423;7.240619799999999;-0.02200000174343586;1673445923.9988086;-0.07190360873937607;0.6951962113380432;90.230224609375
1;1673445924.099147;47.1306423;7.240619799999999;-0.023000001907348633;1673445924.1914647;-0.10818410664796829;0.3443560004234314;90.19245147705078
2;1673445924.2773974;47.1306423;7.240619799999999;-0.023000001907348633;1673445924.373598;-0.012814180925488472;0.47349831461906433;90.24992370605469
3;1673445924.467894;47.1306423;7.2406197;-0.024000000208616257;1673445924.576787;0.31228235363960266;0.37734419107437134;90.13729858398438
4;1673445924.716678;47.1306423;7.2406197;-0.026000000536441803;1673445924.812886;0.2832031846046448;0.5676043033599854;90.17478942871094
5;1673445924.9078858;47.1306423;7.2406197;-0.030000001192092896;1673445925.010127;0.12657415866851807;0.2670227885246277;90.33401489257812
6;1673445925.1063912;47.1306423;7.2406197;-0.032999999821186066;1673445925.2037091;0.017453692853450775;0.3726542294025421;90.3336410522461
7;1673445925.308763;47.1306423;7.2406197;-0.036000002175569534;1673445925.3943017;-0.18671536445617676;0.3206481635570526;90.19519805908203
8;1673445925.480477;47.1306423;7.2406197;-0.03500000014901161;1673445925.5875788;0.018436787649989128;0.2664121985435486;90.35242462158203
9;1673445925.6876767;47.1306422;7.2406197;-0.03400000184774399;1673445925.7909222;0.12041711062192917;0.26756978034973145;90.35184478759766
10;1673445925.8899133;47.1306422;7.2406197;-0.03200000151991844;1673445925.9951024;0.1735512614250183;0.29638466238975525;90.14519500732422
11;1673445926.0912778;47.1306422;7.240619799999999;-0.032999999821186066;1673445926.1893213;-0.2132674902677536;0.21917155385017395;90.3152847290039
12;1673445926.2837532;47.1306423;7.240619799999999;-0.03200000151991844;1673445926.3766625;-0.11210363358259201;0.2600703239440918;90.16484069824219
13;1673445926.4715812;47.1306423;7.2406198999999996;-0.0020000000949949026;1673445926.575254;-0.16149228811264038;-1.1932438611984253;90.23534393310547
14;1673445926.6799293;47.1306423;7.2406198999999996;-0.004000000189989805;1673445926.7780747;-0.2098209112882614;-0.48295390605926514;90.33541107177734
15;1673445926.8740194;47.1306423;7.2406198999999996;-0.0020000000949949026;1673445926.9687395;-0.05538662523031235;-0.7430352568626404;90.20743560791016
16;1673445927.0639586;47.1306423;7.2406198999999996;0.003000000026077032;1673445927.1710334;-0.1765533983707428;-0.5654718279838562;90.30455017089844
17;1673445927.287151;47.1306423;7.2406198999999996;0.009000000543892384;1673445927.3976803;-0.09514497965574265;-0.5915488600730896;90.33058166503906
18;1673445927.485223;47.1306424;7.2406198999999996;0.012000000104308128;1673445927.5803778;-0.38186413049697876;-1.3764688968658447;90.36750793457031
19;1673445927.673907;47.1306424;7.2406198999999996;0.009000000543892384;1673445927.7748556;-0.44300103187561035;-1.143169641494751;90.38380432128906
20;1673445927.860752;47.1306424;7.2406198999999996;0.009000000543892384;1673445927.9717786;-0.3397359251976013;-1.0865548849105835;90.57300567626953
21;1673445928.0765986;47.1306424;7.2406198999999996;0.0020000000949949026;1673445928.1790998;-0.31676796078681946;-0.6232218146324158;90.97700500488281
22;1673445928.2766116;47.1306424;7.2406198999999996;0.0020000000949949026;1673445928.3767717;-0.40893685817718506;-0.8136327862739563;90.81927490234375
23;1673445928.4754858;47.1306424;7.2406198999999996;0.0010000000474974513;1673445928.5795956;-0.6073481440544128;-0.7659164071083069;91.3285140991211
24;1673445928.6728034;47.1306424;7.2406198999999996;0.004000000189989805;1673445928.8026917;-0.6678417325019836;-1.0022149085998535;91.6113052368164
25;1673445928.9044585;47.1306424;7.2406198999999996;0.005000000353902578;1673445929.0048287;-0.5858074426651001;-1.0484353303909302;92.23543548583984
26;1673445929.090889;47.130642599999995;7.2406198999999996;0.009000000543892384;1673445929.1860886;-0.5028930902481079;-0.934278666973114;93.70350646972656
27;1673445929.2878637;47.130642699999996;7.2406198999999996;0.01600000075995922;1673445929.3828058;-0.19447068870067596;-0.3873406946659088;98.96065521240234
28;1673445929.4768229;47.1306431;7.2406203;0.02500000037252903;1673445929.5708458;-0.4537658989429474;-0.7994630336761475;107.95133972167969
29;1673445929.6689937;47.1306437;7.240621;0.04200000315904617;1673445929.7709076;0.3644140958786011;0.1232471913099289;113.73855590820312
30;1673445929.883212;47.1306448;7.2406223999999995;0.04800000041723251;1673445929.9824662;0.8737723231315613;0.8991341590881348;107.27850341796875
31;1673445930.0836852;47.130646399999996;7.2406248;0.05900000408291817;1673445930.184722;4.345423221588135;4.7790045738220215;99.30774688720703
32;1673445930.2777836;47.1306485;7.2406279;0.07600000500679016;1673445930.37793;7.960596084594727;7.422163963317871;96.9865951538086
33;1673445930.4839725;47.130651;7.2406317;0.09600000083446503;1673445930.5810235;9.808880805969238;12.837782859802246;97.30082702636719
34;1673445930.680811;47.1306539;7.240635999999999;0.11500000208616257;1673445930.7778008;10.825206756591797;15.425151824951172;97.6976547241211
35;1673445930.8934364;47.130656699999996;7.240640699999999;0.1340000033378601;1673445931.0067933;12.150821685791016;16.465171813964844;97.94758605957031
36;1673445931.1242857;47.1306596;7.2406456;0.15400001406669617;1673445931.2333658;13.459095001220703;17.394956588745117;98.16474151611328
37;1673445931.3247535;47.1306624;7.2406505999999995;0.17500001192092896;1673445931.4192262;14.900195121765137;18.584945678710938;98.31330108642578
38;1673445931.5081933;47.130665099999995;7.2406554;0.19700001180171967;1673445931.634938;16.333967208862305;19.84895896911621;98.34720611572266
39;1673445931.7438478;47.130667599999995;7.24066;0.21800000965595245;1673445931.8501043;17.93123435974121;21.063264846801758;98.37359619140625
40;1673445931.9394803;47.1306699;7.2406643;0.23800000548362732;1673445932.0249195;19.585540771484375;22.303606033325195;98.32699584960938
41;1673445932.1094034;47.130671799999995;7.2406682;0.2590000033378601;1673445932.211457;21.292264938354492;23.68798065185547;98.15518951416016
42;1673445932.3057034;47.1306735;7.2406716;0.2800000011920929;1673445932.4059181;23.10943031311035;24.741069793701172;97.98887634277344
43;1673445932.4925323;47.130674899999995;7.2406742;0.29600000381469727;1673445932.595546;24.93317985534668;26.215200424194336;97.7608413696289
44;1673445932.7390702;47.1306758;7.2406761;0.3140000104904175;1673445932.818681;26.86900520324707;27.470178604125977;97.38424682617188
45;1673445932.9109929;47.1306763;7.2406771999999995;0.3330000042915344;1673445933.0042715;28.84745979309082;28.567501068115234;96.87860870361328
46;1673445933.092802;47.1306763;7.2406773;0.3500000238418579;1673445933.1845512;31.10457992553711;29.709211349487305;96.28504180908203
47;1673445933.2801547;47.1306757;7.240676499999999;0.3660000264644623;1673445933.392127;33.3472900390625;30.63207244873047;95.5704116821289
48;1673445933.4973023;47.1306745;7.2406745;0.38100001215934753;1673445933.593513;35.666500091552734;31.698646545410156;94.8576431274414
49;1673445933.7042315;47.1306727;7.2406714999999995;0.3920000195503235;1673445933.7994533;38.27024841308594;32.32897186279297;93.96041107177734
50;1673445933.8920143;47.130670099999996;7.2406672;0.4020000100135803;1673445933.998152;38.053550720214844;30.847578048706055;92.39816284179688
51;1673445934.1129332;47.1306669;7.2406616999999995;0.4090000092983246;1673445934.2043204;34.20167922973633;27.22162437438965;90.61537170410156
52;1673445934.3084705;47.1306632;7.240655599999999;0.41100001335144043;1673445934.4112387;30.067794799804688;23.47625732421875;89.3121109008789
53;1673445934.512495;47.1306594;7.2406492;0.4090000092983246;1673445934.6106622;24.48578453063965;19.35588836669922;88.5550537109375
54;1673445934.707034;47.1306557;7.2406429999999995;0.4310000240802765;1673445934.8188548;20.882488250732422;16.384252548217773;88.380859375
55;1673445934.9415233;47.130652399999995;7.2406375;0.46400001645088196;1673445935.031856;16.84037971496582;14.392194747924805;88.5203628540039
56;1673445935.1231709;47.1306497;7.240632799999999;0.49500003457069397;1673445935.222853;14.841047286987305;13.304691314697266;88.61016082763672
57;1673445935.3148046;47.130647499999995;7.2406292;0.5320000052452087;1673445935.41889;14.138471603393555;12.416153907775879;88.6243896484375
58;1673445935.5178468;47.1306461;7.2406266;0.5730000138282776;1673445935.620998;15.060100555419922;14.654781341552734;89.20849609375
59;1673445935.7114558;47.1306452;7.2406251;0.6230000257492065;1673445935.806693;16.31422233581543;15.895547866821289;89.4590835571289
60;1673445935.9497812;47.1306447;7.2406242;0.6790000200271606;1673445936.0374153;18.081790924072266;14.887990951538086;89.13065338134766
61;1673445936.1328537;47.1306444;7.2406238;0.7430000305175781;1673445936.2191634;19.74051856994629;17.583492279052734;89.58659362792969
62;1673445936.3038259;47.1306444;7.2406236999999996;0.8190000653266907;1673445936.40982;21.131088256835938;19.932214736938477;89.89617919921875
63;1673445936.5168004;47.130644499999995;7.2406238;0.9110000729560852;1673445936.6190622;22.406322479248047;18.478755950927734;89.3378677368164
64;1673445936.7015812;47.130644499999995;7.2406236999999996;1.0160000324249268;1673445936.8506043;22.76178550720215;20.283584594726562;89.56582641601562
65;1673445936.9449403;47.130644499999995;7.240623599999999;1.1340000629425049;1673445937.041231;22.83728790283203;21.125282287597656;89.71245574951172
66;1673445937.1404037;47.1306444;7.240623299999999;1.2670000791549683;1673445937.2385933;22.903974533081055;18.78321647644043;89.1653823852539
67;1673445937.3240964;47.1306441;7.2406229;1.409000039100647;1673445937.4116428;22.46043586730957;19.495567321777344;89.40119934082031
68;1673445937.496213;47.1306438;7.2406225;1.5570000410079956;1673445937.592382;21.863222122192383;19.930950164794922;89.83590698242188
69;1673445937.681883;47.1306435;7.240622;1.715000033378601;1673445937.7834585;21.384180068969727;17.487060546875;89.25310516357422
70;1673445937.8876219;47.130643199999994;7.240621399999999;1.8870000839233398;1673445937.9918048;20.94083595275879;18.06683349609375;89.26809692382812
71;1673445938.0831306;47.1306429;7.240621;2.068000078201294;1673445938.1910403;20.66634750366211;18.87541389465332;89.6025161743164
72;1673445938.2886112;47.130642699999996;7.2406206;2.25;1673445938.3863428;20.381404876708984;16.542205810546875;89.0961685180664
73;1673445938.5015266;47.1306425;7.2406203;2.430000066757202;1673445938.6016686;20.51364517211914;17.270620346069336;89.18001556396484
74;1673445938.6944835;47.1306425;7.2406201999999995;2.6120002269744873;1673445938.7906756;20.638328552246094;19.149555206298828;89.6661148071289
75;1673445938.8821185;47.1306425;7.2406201;2.7970001697540283;1673445938.9935293;20.714906692504883;17.34691619873047;89.12422180175781
76;1673445939.0932765;47.130642599999995;7.2406201;2.9800002574920654;1673445939.2028592;21.153928756713867;18.218767166137695;89.36134338378906
77;1673445939.2918472;47.130642599999995;7.2406201999999995;3.1640000343322754;1673445939.3919535;21.310426712036133;19.567373275756836;89.6620864868164
78;1673445939.4829454;47.130642599999995;7.2406201999999995;3.3490002155303955;1673445939.5943727;21.376726150512695;17.4768009185791;89.18923950195312
79;1673445939.6927578;47.130642599999995;7.2406201999999995;3.5390002727508545;1673445939.799364;21.538541793823242;18.126998901367188;89.25737762451172
80;1673445939.9006085;47.130642699999996;7.2406201999999995;3.7340002059936523;1673445940.0076609;21.347047805786133;20.221723556518555;89.57981872558594
81;1673445940.1068635;47.1306428;7.2406201999999995;3.92900013923645;1673445940.2042897;21.431581497192383;17.943056106567383;89.07738494873047
82;1673445940.2882655;47.1306428;7.2406201999999995;4.123000144958496;1673445940.3913255;21.416011810302734;18.403484344482422;89.23381042480469
83;1673445940.499649;47.1306428;7.2406201999999995;4.318000316619873;1673445940.604791;21.322145462036133;20.05364990234375;89.5587158203125
84;1673445940.6946323;47.1306428;7.2406201;4.514000415802002;1673445940.7989948;21.264223098754883;17.841238021850586;89.13611602783203
85;1673445940.8923042;47.130642699999996;7.2406201999999995;4.706000328063965;1673445941.012032;21.403711318969727;17.86832618713379;89.17732238769531
86;1673445941.108305;47.130642699999996;7.2406201999999995;4.900000095367432;1673445941.2076323;21.497425079345703;19.81672477722168;89.56412506103516
87;1673445941.294544;47.130642699999996;7.2406201999999995;5.0920000076293945;1673445941.3975773;21.340023040771484;18.042451858520508;89.21249389648438
88;1673445941.49545;47.1306428;7.2406201999999995;5.281000137329102;1673445941.5976985;21.502222061157227;18.00857925415039;89.10912322998047
89;1673445941.700272;47.130642699999996;7.2406201999999995;5.4720001220703125;1673445941.8274596;21.451217651367188;19.846534729003906;89.55689239501953
90;1673445941.9207556;47.130642699999996;7.2406201999999995;5.664000034332275;1673445942.0208719;21.334354400634766;17.907302856445312;89.26419067382812
91;1673445942.11219;47.130642699999996;7.2406201999999995;5.8560004234313965;1673445942.2074509;21.43532943725586;17.61988067626953;89.11524963378906
92;1673445942.297259;47.130642599999995;7.2406201999999995;6.050000190734863;1673445942.3944545;21.31822395324707;20.047819137573242;89.62483978271484
93;1673445942.4967422;47.130642599999995;7.2406201999999995;6.243000507354736;1673445942.6030037;21.44999885559082;17.86229133605957;89.11547088623047
94;1673445942.7110815;47.130642599999995;7.2406201999999995;6.436000347137451;1673445942.8109684;21.462509155273438;17.994922637939453;89.169189453125
95;1673445942.9102867;47.130642599999995;7.2406201999999995;6.627000331878662;1673445943.005318;21.409564971923828;19.747798919677734;89.51725006103516
96;1673445943.1182458;47.1306425;7.2406201;6.820000171661377;1673445943.2200859;21.356494903564453;17.964143753051758;89.23832702636719
97;1673445943.3308942;47.1306425;7.2406201;7.015000343322754;1673445943.421242;21.357370376586914;17.798063278198242;89.10015869140625
98;1673445943.5313094;47.1306425;7.2406201;7.211000442504883;1673445943.6334388;21.46401596069336;19.9207820892334;89.6123046875
99;1673445943.7309375;47.130642599999995;7.2406201;7.4120001792907715;1673445943.8320034;21.351177215576172;18.20732879638672;89.27153778076172
100;1673445943.9456031;47.130642599999995;7.24062;7.613000392913818;1673445944.0463243;21.34434700012207;17.30219078063965;89.10372161865234
101;1673445944.135694;47.1306425;7.24062;7.812000274658203;1673445944.230798;21.320980072021484;19.94474983215332;89.64116668701172
102;1673445944.343818;47.130642599999995;7.24062;8.006000518798828;1673445944.4493532;21.21506690979004;18.515281677246094;89.31388092041016
103;1673445944.5432458;47.130642599999995;7.2406198999999996;8.199000358581543;1673445944.638304;21.267745971679688;17.52729606628418;89.00117492675781
104;1673445944.739201;47.130642599999995;7.2406198999999996;8.396000862121582;1673445944.8365862;21.214611053466797;20.1667537689209;89.65889739990234
105;1673445944.935904;47.130642599999995;7.2406198999999996;8.594000816345215;1673445945.0585976;21.278152465820312;18.426942825317383;89.20744323730469
106;1673445945.1479652;47.130642599999995;7.2406198999999996;8.794000625610352;1673445945.243238;21.408906936645508;17.604516983032227;89.06314849853516
107;1673445945.3666427;47.1306425;7.240619799999999;8.997000694274902;1673445945.4536989;21.23674964904785;19.630704879760742;89.51448822021484
108;1673445945.5445585;47.1306425;7.240619799999999;9.202000617980957;1673445945.6378078;21.298011779785156;18.334331512451172;89.33102416992188
109;1673445945.730183;47.1306425;7.240619799999999;9.410000801086426;1673445945.84418;21.26081657409668;17.381797790527344;89.0427017211914
110;1673445945.9375272;47.1306425;7.240619799999999;9.616000175476074;1673445946.0338404;21.39813804626465;19.53217887878418;89.56509399414062
111;1673445946.1283264;47.1306425;7.240619799999999;9.821000099182129;1673445946.2255409;21.116016387939453;18.50185203552246;89.41925048828125
112;1673445946.3049645;47.1306425;7.2406197;10.030000686645508;1673445946.3978467;21.244049072265625;16.89369010925293;89.16643524169922
113;1673445946.4990292;47.1306425;7.2406197;10.26400089263916;1673445946.6059551;20.02655601501465;17.373077392578125;89.28765106201172
114;1673445946.698539;47.1306424;7.2406194;10.616000175476074;1673445946.8071017;21.806224822998047;20.731664657592773;89.85848236083984
115;1673445946.9014168;47.1306423;7.240619;11.015000343322754;1673445946.9939528;20.753618240356445;18.259557723999023;89.02503204345703
116;1673445947.0934312;47.130642099999996;7.2406187;11.416000366210938;1673445947.2121441;20.24771499633789;18.267147064208984;89.41524505615234
117;1673445947.3122509;47.1306419;7.2406182999999995;11.819000244140625;1673445947.4151762;19.693815231323242;18.39044761657715;89.60584259033203
118;1673445947.5050642;47.1306417;7.2406181;12.224000930786133;1673445947.6092527;19.39645004272461;16.099374771118164;89.22637939453125
119;1673445947.7047286;47.1306416;7.240617899999999;12.634000778198242;1673445947.8128164;19.439903259277344;16.939960479736328;89.34380340576172
120;1673445947.912954;47.1306416;7.240617899999999;13.046000480651855;1673445948.0210173;19.40445899963379;18.49049186706543;89.62528228759766
121;1673445948.1199634;47.1306418;7.240617899999999;13.458000183105469;1673445948.2269864;19.755102157592773;16.42903709411621;89.18183898925781
122;1673445948.3322575;47.1306419;7.2406179999999996;13.86600112915039;1673445948.4305105;19.931854248046875;18.207307815551758;89.36980438232422
123;1673445948.506688;47.130641999999995;7.2406182;14.270000457763672;1673445948.6058235;20.292922973632812;19.000524520874023;89.58686828613281
124;1673445948.6941926;47.130642099999996;7.2406184;14.672000885009766;1673445948.7995749;20.467466354370117;17.31491470336914;89.23847198486328
125;1673445948.9055254;47.1306422;7.2406185999999995;15.077000617980957;1673445949.0159624;20.888145446777344;18.067665100097656;89.25978088378906
126;1673445949.1163206;47.1306423;7.240618899999999;15.482000350952148;1673445949.2226017;20.794572830200195;19.586591720581055;89.58072662353516
127;1673445949.325633;47.1306425;7.240619;15.88800048828125;1673445949.4268575;20.95323371887207;17.715932846069336;89.18263244628906
128;1673445949.5153472;47.1306425;7.240619199999999;16.295000076293945;1673445949.6130126;21.098419189453125;18.358510971069336;89.26553344726562
129;1673445949.7183535;47.1306425;7.240619199999999;16.696001052856445;1673445949.819425;20.890382766723633;19.32598876953125;89.44860076904297
130;1673445949.9053237;47.1306425;7.240619199999999;17.093000411987305;1673445950.0109942;20.70319938659668;17.709251403808594;89.26341247558594
131;1673445950.106879;47.1306425;7.240619199999999;17.493000030517578;1673445950.2200484;20.756338119506836;17.577491760253906;89.13215637207031
132;1673445950.3211577;47.1306425;7.240619199999999;17.893001556396484;1673445950.4328134;20.54521942138672;19.52533531188965;89.56459045410156
133;1673445950.5319738;47.1306425;7.240619199999999;18.29400062561035;1673445950.6304104;20.45427131652832;18.1254825592041;89.27992248535156
134;1673445950.7168548;47.130642599999995;7.240619199999999;18.694000244140625;1673445950.807695;20.4149169921875;17.57056427001953;89.15579223632812
135;1673445950.9030628;47.130642599999995;7.240619199999999;19.089000701904297;1673445950.9994068;20.420166015625;19.101299285888672;89.5211410522461
136;1673445951.0927153;47.1306425;7.240619199999999;19.477001190185547;1673445951.194585;20.465848922729492;18.255691528320312;89.39179992675781
137;1673445951.2997081;47.1306425;7.240619199999999;19.862001419067383;1673445951.4017503;20.405773162841797;17.154008865356445;89.07447052001953
138;1673445951.5055196;47.1306425;7.240619199999999;20.251001358032227;1673445951.6158366;20.657861709594727;19.26010513305664;89.49345397949219
139;1673445951.714643;47.1306425;7.2406193;20.64000129699707;1673445951.8163812;20.463899612426758;18.467838287353516;89.30995178222656
140;1673445951.9117014;47.1306425;7.2406193;21.030000686645508;1673445952.0120645;20.671398162841797;17.244550704956055;89.07734680175781
141;1673445952.1141632;47.1306425;7.2406194;21.422000885009766;1673445952.2228584;20.579341888427734;19.057409286499023;89.3729019165039
142;1673445952.310732;47.1306425;7.2406194;21.808000564575195;1673445952.4108322;20.505674362182617;18.59284210205078;89.46361541748047
143;1673445952.5038092;47.1306425;7.2406194;22.19500160217285;1673445952.6017256;20.5020694732666;17.16497039794922;89.1339340209961
144;1673445952.7028077;47.1306425;7.240619499999999;22.589000701904297;1673445952.8167214;20.640592575073242;19.00848388671875;89.44486236572266
145;1673445952.912682;47.1306425;7.240619499999999;22.985000610351562;1673445953.0283031;20.562942504882812;18.87238121032715;89.4613265991211
146;1673445953.1236546;47.1306425;7.240619499999999;23.381000518798828;1673445953.2346857;20.57890510559082;17.374095916748047;89.15389251708984
147;1673445953.325162;47.1306425;7.240619499999999;23.7760009765625;1673445953.4234035;20.637948989868164;18.718067169189453;89.47777557373047
148;1673445953.5206995;47.1306425;7.240619499999999;24.172000885009766;1673445953.6124966;20.403287887573242;18.892623901367188;89.46942901611328
149;1673445953.714795;47.1306425;7.240619499999999;24.565000534057617;1673445953.815444;20.516347885131836;17.09688949584961;89.1089859008789
150;1673445953.9210875;47.1306425;7.240619499999999;24.955001831054688;1673445954.033587;20.50164222717285;18.58550262451172;89.38575744628906
151;1673445954.137801;47.1306425;7.2406196;25.350000381469727;1673445954.2390134;20.53594970703125;19.08649253845215;89.51605987548828
152;1673445954.3362238;47.130642599999995;7.2406196;25.74700164794922;1673445954.4389186;20.555065155029297;17.384519577026367;89.03240203857422
153;1673445954.530763;47.130642599999995;7.2406196;26.14200210571289;1673445954.6335433;20.588478088378906;18.605737686157227;89.31172180175781
154;1673445954.7258806;47.130642599999995;7.2406197;26.536001205444336;1673445954.8309186;20.626535415649414;19.36847686767578;89.56591033935547
155;1673445954.9331126;47.130642599999995;7.2406197;26.92500114440918;1673445955.0381565;20.44308090209961;17.680673599243164;89.193359375
156;1673445955.127558;47.130642599999995;7.2406197;27.31300163269043;1673445955.2326324;20.63880157470703;17.916858673095703;89.2708740234375
157;1673445955.3307896;47.130642599999995;7.240619799999999;27.70600128173828;1673445955.4340556;20.508270263671875;19.65531349182129;89.61690521240234
158;1673445955.5182676;47.130642699999996;7.240619799999999;28.10300064086914;1673445955.620359;20.545875549316406;17.756919860839844;89.13748931884766
159;1673445955.7128463;47.130642699999996;7.240619799999999;28.500001907348633;1673445955.8100185;20.462751388549805;18.06671142578125;89.16143798828125
160;1673445955.9062233;47.130642699999996;7.240619799999999;28.894001007080078;1673445956.0025902;20.543508529663086;19.390819549560547;89.58301544189453
161;1673445956.0939956;47.130642699999996;7.240619799999999;29.28700065612793;1673445956.1943135;20.52248764038086;18.278898239135742;89.39391326904297
162;1673445956.2964935;47.130642599999995;7.2406198999999996;29.676000595092773;1673445956.3946352;20.59976577758789;17.62211799621582;89.15974426269531
163;1673445956.4956126;47.130642599999995;7.2406198999999996;30.065000534057617;1673445956.6070395;20.568708419799805;19.542795181274414;89.55402374267578
164;1673445956.7041988;47.130642599999995;7.2406198999999996;30.46000099182129;1673445956.8038464;20.509660720825195;18.153396606445312;89.29337310791016
165;1673445956.896142;47.130642599999995;7.2406198999999996;30.85700225830078;1673445957.0021443;20.6090145111084;17.511520385742188;89.13439178466797
166;1673445957.1053867;47.130642599999995;7.2406198999999996;31.25200080871582;1673445957.2117603;20.416147232055664;19.207307815551758;89.49650573730469
167;1673445957.3094077;47.130642599999995;7.240619799999999;31.647001266479492;1673445957.4154177;20.403488159179688;18.636947631835938;89.39183807373047
168;1673445957.5159194;47.130642599999995;7.240619799999999;32.03900146484375;1673445957.6113045;20.56648826599121;17.357009887695312;89.06961822509766
169;1673445957.7121413;47.130642599999995;7.240619799999999;32.42900085449219;1673445957.810366;20.588815689086914;19.496753692626953;89.50147247314453
170;1673445957.901677;47.1306425;7.240619799999999;32.823001861572266;1673445958.0077002;20.486116409301758;18.419891357421875;89.30998992919922
171;1673445958.1136703;47.1306425;7.240619799999999;33.22200012207031;1673445958.2252042;20.464256286621094;17.274484634399414;89.18821716308594
172;1673445958.323638;47.1306425;7.240619799999999;33.62200164794922;1673445958.4317813;20.464506149291992;19.010643005371094;89.50711822509766
173;1673445958.5282679;47.1306425;7.2406197;34.020999908447266;1673445958.629507;20.296871185302734;18.572999954223633;89.40132141113281
174;1673445958.7270706;47.1306425;7.2406196;34.41699981689453;1673445958.8321352;20.407821655273438;17.259506225585938;89.11228942871094
175;1673445958.9499378;47.1306425;7.2406196;34.807003021240234;1673445959.0451977;20.19736099243164;19.36526870727539;89.53113555908203
176;1673445959.1396067;47.1306424;7.240619499999999;35.194000244140625;1673445959.230439;20.31540298461914;18.556324005126953;89.40373992919922
177;1673445959.3507366;47.1306424;7.240619499999999;35.586002349853516;1673445959.4518862;20.24995231628418;17.218795776367188;89.14175415039062
178;1673445959.5507102;47.1306424;7.240619499999999;35.98200225830078;1673445959.6477034;20.44649887084961;18.98883628845215;89.4551010131836
179;1673445959.7353206;47.1306425;7.240619499999999;36.380001068115234;1673445959.8335443;20.285200119018555;18.848926544189453;89.40874481201172
180;1673445959.9195776;47.1306425;7.2406196;36.77900314331055;1673445960.017559;20.421327590942383;17.551637649536133;89.12869262695312
181;1673445960.1156948;47.1306425;7.2406196;37.17300033569336;1673445960.2229173;20.392080307006836;19.234325408935547;89.46963500976562
182;1673445960.3201158;47.1306425;7.2406196;37.564002990722656;1673445960.4232666;20.363338470458984;19.113954544067383;89.50975036621094
183;1673445960.5157094;47.1306425;7.2406196;37.95800018310547;1673445960.6188595;20.425811767578125;17.227481842041016;89.11652374267578
184;1673445960.7200506;47.1306425;7.2406196;38.35200119018555;1673445960.819144;20.352968215942383;18.780193328857422;89.32347106933594
185;1673445960.9183586;47.1306425;7.2406196;38.74300003051758;1673445961.0294106;20.34516716003418;19.150022506713867;89.51006317138672
186;1673445961.1296282;47.1306425;7.2406196;39.13600158691406;1673445961.227815;20.231964111328125;17.68918228149414;89.17190551757812
187;1673445961.3244307;47.1306425;7.2406196;39.53000259399414;1673445961.427144;20.470380783081055;18.1781063079834;89.35430145263672
188;1673445961.5114326;47.1306424;7.2406196;39.92100143432617;1673445961.6081061;20.39413070678711;19.295623779296875;89.53010559082031
189;1673445961.7133377;47.1306424;7.2406196;40.31500244140625;1673445961.838464;20.384349822998047;17.237382888793945;89.20780181884766
190;1673445961.9425094;47.1306423;7.2406196;40.71200180053711;1673445962.0629642;20.342615127563477;17.918859481811523;89.24439239501953
191;1673445962.2074592;47.1306423;7.2406196;41.11000061035156;1673445962.2900074;20.422122955322266;19.362661361694336;89.57191467285156
192;1673445962.3793461;47.1306423;7.2406196;41.509002685546875;1673445962.4863243;20.423959732055664;17.550905227661133;89.18016815185547
193;1673445962.594382;47.1306424;7.2406196;41.906002044677734;1673445962.6808488;20.321704864501953;17.67791175842285;89.1396713256836
194;1673445962.7565622;47.1306423;7.2406196;42.297000885009766;1673445962.842071;20.351083755493164;19.203149795532227;89.52241516113281
195;1673445962.9240994;47.1306423;7.2406196;42.691001892089844;1673445963.0164485;20.22503089904785;17.698734283447266;89.2856216430664
196;1673445963.1108832;47.1306423;7.2406196;43.086002349853516;1673445963.221473;20.48521614074707;17.570032119750977;89.22249603271484
197;1673445963.315216;47.1306423;7.2406196;43.483001708984375;1673445963.4105291;20.324085235595703;19.496278762817383;89.5040283203125
198;1673445963.5147333;47.1306424;7.2406196;43.88300323486328;1673445963.6218188;20.33634376525879;18.073156356811523;89.2467269897461
199;1673445963.716205;47.1306425;7.2406196;44.281002044677734;1673445963.8194304;20.357261657714844;17.89691925048828;89.16808319091797
200;1673445963.9119124;47.1306425;7.2406196;44.67900085449219;1673445964.008179;20.296247482299805;19.654626846313477;89.59085083007812
201;1673445964.1026008;47.1306425;7.2406196;45.07200241088867;1673445964.2027247;20.225696563720703;18.485591888427734;89.37091064453125
202;1673445964.2990663;47.1306425;7.2406196;45.46200180053711;1673445964.3993087;20.35813331604004;17.64191436767578;89.0538558959961
203;1673445964.507017;47.1306425;7.2406196;45.855003356933594;1673445964.6094062;20.435285568237305;19.43622589111328;89.45399475097656
204;1673445964.7169673;47.1306425;7.2406196;46.250003814697266;1673445964.8278275;20.34722137451172;18.332115173339844;89.30365753173828
205;1673445964.9250417;47.1306425;7.2406197;46.64900207519531;1673445965.0222316;20.41790771484375;17.773435592651367;89.18338012695312
206;1673445965.11673;47.1306425;7.2406197;47.04800033569336;1673445965.221792;20.45643424987793;19.68886375427246;89.57526397705078
207;1673445965.3328094;47.1306424;7.2406197;47.441001892089844;1673445965.437019;20.25654411315918;18.405704498291016;89.36239624023438
208;1673445965.5340016;47.1306424;7.2406197;47.83100128173828;1673445965.6331937;20.47417640686035;17.72996711730957;89.17961883544922
209;1673445965.7238185;47.1306424;7.2406197;48.21000289916992;1673445965.8263793;20.597492218017578;19.510879516601562;89.62727355957031
210;1673445965.9256217;47.1306424;7.240619799999999;48.538002014160156;1673445966.0250623;20.59843635559082;18.624149322509766;89.39330291748047
211;1673445966.1165414;47.1306425;7.24062;48.81700134277344;1673445966.219018;20.90114402770996;18.351463317871094;89.33020782470703
212;1673445966.326479;47.130642599999995;7.2406201999999995;49.05000305175781;1673445966.4383023;21.174745559692383;19.99224853515625;89.66239166259766
213;1673445966.5586882;47.1306428;7.2406204999999995;49.242000579833984;1673445966.6734624;22.13368034362793;19.85865020751953;89.42864227294922
214;1673445966.7628138;47.130643;7.240620799999999;49.40200424194336;1673445966.8541796;30.76123809814453;17.65508460998535;86.83345794677734
215;1673445966.9569495;47.130643199999994;7.2406209;49.500003814697266;1673445967.0582168;21.29391860961914;20.529354095458984;77.24626922607422
216;1673445967.1495755;47.1306434;7.240621;49.512001037597656;1673445967.2526052;32.94850158691406;15.29343318939209;65.94730377197266
217;1673445967.3444571;47.1306431;7.2406212;49.538002014160156;1673445967.44105;40.016212463378906;7.064241409301758;55.562530517578125
218;1673445967.5330768;47.1306422;7.2406207;49.58700180053711;1673445967.6372368;29.09539794921875;0.4645885229110718;46.733543395996094
219;1673445967.7362998;47.1306411;7.2406198999999996;49.6400032043457;1673445967.8285508;31.72563362121582;-5.868344306945801;37.4052619934082
220;1673445967.939363;47.1306401;7.240618899999999;49.68600082397461;1673445968.036085;29.053098678588867;-10.601204872131348;28.499807357788086
221;1673445968.1204154;47.130638999999995;7.2406178;49.724002838134766;1673445968.2193933;25.979515075683594;-14.62218952178955;19.415761947631836
222;1673445968.3235116;47.1306381;7.2406168;49.76000213623047;1673445968.43147;22.96578598022461;-16.761035919189453;10.711332321166992
223;1673445968.5353804;47.1306374;7.2406158;49.794002532958984;1673445968.652408;19.333829879760742;-18.582380294799805;1.4982705116271973
224;1673445968.7501707;47.1306368;7.2406149;49.82600402832031;1673445968.8516312;15.386430740356445;-21.038185119628906;-7.930492877960205
225;1673445968.9472675;47.1306364;7.2406142;49.85400390625;1673445969.0409954;11.740521430969238;-23.980497360229492;-17.387407302856445
226;1673445969.1425118;47.1306361;7.240613799999999;49.87700271606445;1673445969.2426558;7.919261455535889;-26.805509567260742;-26.81606101989746
227;1673445969.3352602;47.1306361;7.2406134;49.8900032043457;1673445969.4383507;3.6645867824554443;-28.308391571044922;-36.02165985107422
228;1673445969.533412;47.1306361;7.240613199999999;49.90400314331055;1673445969.635652;-1.2032783031463623;-28.83378791809082;-45.066444396972656
229;1673445969.7310433;47.1306362;7.240613;49.922000885009766;1673445969.8311858;-6.240509033203125;-28.353422164916992;-52.357975006103516
230;1673445969.920592;47.1306363;7.2406128999999995;49.941001892089844;1673445970.025707;-6.295224189758301;-26.791522979736328;-51.02986526489258
231;1673445970.116185;47.1306365;7.2406128;49.96000289916992;1673445970.2143197;-3.978177309036255;-26.84857940673828;-47.47682571411133
232;1673445970.3115323;47.1306367;7.240612499999999;49.97300338745117;1673445970.419911;-2.0714173316955566;-28.472700119018555;-45.88996505737305
233;1673445970.5222785;47.130637;7.240612199999999;49.97800064086914;1673445970.6270523;0.015472939237952232;-30.173254013061523;-45.35032272338867
234;1673445970.7208824;47.130637199999995;7.240611899999999;49.983001708984375;1673445970.8191307;0.7404019832611084;-31.457626342773438;-45.19695281982422
235;1673445970.9341698;47.1306373;7.240611599999999;49.992000579833984;1673445971.036385;0.9388976097106934;-31.288541793823242;-45.155460357666016
236;1673445971.1277661;47.1306374;7.2406115;50.00100326538086;1673445971.2377942;0.5219472050666809;-29.855295181274414;-45.005611419677734
237;1673445971.331254;47.1306373;7.240611299999999;50.00600051879883;1673445971.4373417;-0.01722658984363079;-28.395105361938477;-44.96092224121094
238;1673445971.5585093;47.130637199999995;7.2406112;50.009002685546875;1673445971.6503088;-0.4064372181892395;-27.546329498291016;-44.99995422363281
239;1673445971.7563136;47.1306369;7.2406111;50.00700378417969;1673445971.8609865;-1.1918872594833374;-28.20380210876465;-45.1317253112793
240;1673445971.9809616;47.1306367;7.2406109;50.000003814697266;1673445972.0870237;-20.3763370513916;-27.27006721496582;-45.84383010864258
241;1673445972.1801515;47.1306368;7.2406102;50.000003814697266;1673445972.27839;-39.02806854248047;-22.829181671142578;-46.91205596923828
242;1673445972.3662295;47.1306383;7.240608;50.009002685546875;1673445972.4553835;-52.587013244628906;-17.8165225982666;-47.892051696777344
243;1673445972.5514355;47.1306418;7.2406033;50.012001037597656;1673445972.662679;-56.73700714111328;-14.445242881774902;-48.04069137573242
244;1673445972.7903824;47.130648;7.2405956;49.993003845214844;1673445972.880369;-52.06650161743164;-11.619414329528809;-49.37220001220703
245;1673445972.9785864;47.1306564;7.240585299999999;49.967002868652344;1673445973.0846775;-52.95744705200195;-12.091439247131348;-52.04706573486328
246;1673445973.1715574;47.1306668;7.2405728;49.941001892089844;1673445973.2762532;-53.76166915893555;-13.125649452209473;-51.90604782104492
247;1673445973.3715465;47.1306787;7.240558399999999;49.915000915527344;1673445973.4765904;-50.15874481201172;-13.918781280517578;-51.744510650634766
248;1673445973.5567036;47.130691899999995;7.2405424;49.89200210571289;1673445973.6428034;-50.4403190612793;-17.200157165527344;-50.535640716552734
249;1673445973.734625;47.1307058;7.240525099999999;49.87700271606445;1673445973.8332267;-48.77560806274414;-18.123334884643555;-50.20823287963867
250;1673445973.9254725;47.1307203;7.2405064999999995;49.86100387573242;1673445974.0308475;-48.2532844543457;-20.269123077392578;-49.78357696533203
251;1673445974.131486;47.1307352;7.2404869;49.8390007019043;1673445974.2275531;-45.81692123413086;-20.38827896118164;-50.103145599365234
252;1673445974.316612;47.1307502;7.240466499999999;49.82100296020508;1673445974.4272902;-43.704383850097656;-18.421398162841797;-50.34669876098633
253;1673445974.5385613;47.1307651;7.240445599999999;49.79600143432617;1673445974.635245;-43.169193267822266;-18.345983505249023;-49.95963668823242
254;1673445974.7341273;47.130780099999996;7.2404245;49.77300262451172;1673445974.845403;-42.35192108154297;-18.691593170166016;-49.948760986328125
255;1673445974.9396641;47.1307951;7.2404033;49.76000213623047;1673445975.033903;-44.155513763427734;-21.86545181274414;-51.883792877197266
256;1673445975.1291237;47.13081;7.2403816999999995;49.76300048828125;1673445975.230258;-44.2666130065918;-26.75480842590332;-52.73394012451172
257;1673445975.3330836;47.130824399999995;7.2403596;49.77300262451172;1673445975.437094;-41.42731475830078;-29.179508209228516;-53.62215805053711
258;1673445975.5310647;47.130838;7.2403369;49.77900314331055;1673445975.6332958;-28.173391342163086;-35.879547119140625;-55.45861053466797
259;1673445975.7282262;47.1308504;7.2403144;49.76700210571289;1673445975.828341;9.230295181274414;-32.464210510253906;-63.19908142089844
260;1673445975.9285405;47.1308611;7.240294;49.704002380371094;1673445976.0321531;14.867220878601074;-10.276342391967773;-57.78652572631836
261;1673445976.1301541;47.1308705;7.2402777;49.5880012512207;1673445976.2271407;12.785639762878418;-4.789953231811523;-47.88584899902344
262;1673445976.3221097;47.1308789;7.2402662;49.535003662109375;1673445976.4211366;26.692466735839844;-6.917075157165527;-46.22724151611328
263;1673445976.5152545;47.1308861;7.2402596;49.52900314331055;1673445976.6221776;35.1627311706543;-12.084495544433594;-45.56686019897461
264;1673445976.7172263;47.130891899999995;7.2402576;49.557003021240234;1673445976.816251;42.47589111328125;-17.105318069458008;-45.46739196777344
265;1673445976.90448;47.130895599999995;7.240259999999999;49.60900115966797;1673445977.0011306;45.84850311279297;-22.460025787353516;-45.404502868652344
266;1673445977.1074452;47.130896899999996;7.2402660999999995;49.6670036315918;1673445977.2172525;46.13129806518555;-30.088577270507812;-45.19440460205078
267;1673445977.3168802;47.1308955;7.240274899999999;49.733001708984375;1673445977.4204063;38.118534088134766;-35.06960678100586;-44.844093322753906
268;1673445977.5202756;47.130891899999995;7.2402849;49.790000915527344;1673445977.630914;18.607561111450195;-41.2358512878418;-45.03444290161133
269;1673445977.7278285;47.1308869;7.2402945;49.836002349853516;1673445977.823059;-2.0195722579956055;-42.306854248046875;-47.00240707397461
270;1673445977.9272532;47.1308812;7.240302499999999;49.8640022277832;1673445978.040634;-7.1337761878967285;-34.40966796875;-49.70631790161133
271;1673445978.1324105;47.130875599999996;7.240308799999999;49.87900161743164;1673445978.2237647;-16.56833839416504;-28.753517150878906;-50.30960464477539
272;1673445978.3239765;47.130870699999996;7.2403134;49.88800048828125;1673445978.4260948;-19.113201141357422;-25.01481819152832;-51.01630783081055
273;1673445978.523318;47.130866999999995;7.2403165;49.89400100708008;1673445978.6306202;-19.69931411743164;-22.229379653930664;-50.78827667236328
274;1673445978.7386558;47.1308643;7.2403185;49.897003173828125;1673445978.845599;-18.3287296295166;-20.692197799682617;-50.96677017211914
275;1673445978.957552;47.1308629;7.240319599999999;49.89900207519531;1673445979.0537524;-14.325651168823242;-22.19509506225586;-50.75094985961914
276;1673445979.1488378;47.1308623;7.2403201;49.906002044677734;1673445979.245212;-3.5553455352783203;-32.29066848754883;-51.13942337036133
277;1673445979.3340316;47.1308619;7.240320199999999;49.9160041809082;1673445979.4417045;-9.276805877685547;-23.69643783569336;-49.509830474853516
278;1673445979.5356772;47.1308617;7.24032;49.92100143432617;1673445979.6545591;-0.5695839524269104;-27.574235916137695;-50.40053176879883
279;1673445979.7558854;47.130861599999996;7.2403198;49.927001953125;1673445979.8511283;-0.9697845578193665;-21.038869857788086;-49.751747131347656
280;1673445979.9522188;47.1308617;7.240319899999999;49.807003021240234;1673445980.0618818;-2.696270704269409;7.886765956878662;-50.515567779541016
281;1673445980.1574745;47.1308619;7.240320199999999;49.314002990722656;1673445980.2554147;-2.0075230598449707;49.1923828125;-51.386322021484375
282;1673445980.3428183;47.1308623;7.2403207;48.43400192260742;1673445980.4411466;-0.29134467244148254;90.68817138671875;-48.95112609863281
283;1673445980.5389137;47.1308625;7.2403211999999995;47.17900085449219;1673445980.6372356;-0.31009379029273987;118.42974853515625;-44.48503112792969
284;1673445980.72863;47.130862799999996;7.2403217;45.570003509521484;1673445980.8296673;-1.3851255178451538;124.91287231445312;-39.6502685546875
285;1673445980.921038;47.130863299999994;7.240322399999999;43.59400177001953;1673445981.0271654;-2.974187135696411;107.07041931152344;-35.59038162231445
286;1673445981.1312416;47.1308639;7.2403233;41.2660026550293;1673445981.2334254;-4.4101033210754395;64.15535736083984;-30.74175453186035
287;1673445981.3721817;47.1308645;7.2403242;38.59100341796875;1673445981.4701252;0.06418778002262115;6.100210666656494;-26.296354293823242
288;1673445981.5748043;47.130865;7.2403248;35.520999908447266;1673445981.6788719;3.8625357151031494;-41.527610778808594;-28.271873474121094
289;1673445981.7954943;47.1308657;7.240325899999999;32.066001892089844;1673445981.8981094;3.2256011962890625;-56.94232940673828;-27.5410213470459
290;1673445982.0150054;47.1308667;7.2403273;28.268001556396484;1673445982.1118572;-2.0980381965637207;-33.354129791259766;-23.577346801757812
291;1673445982.1954083;47.1308679;7.2403293;24.121000289916992;1673445982.2889318;-9.96677303314209;20.648664474487305;-23.95552635192871
292;1673445982.3695292;47.1308693;7.240331599999999;19.56800079345703;1673445982.4739306;-13.112980842590332;69.1626205444336;-27.157548904418945
293;1673445982.5923498;47.1308705;7.2403336;14.645000457763672;1673445982.739154;-13.450089454650879;76.85116577148438;-23.743106842041016
294;1673445982.8164835;47.1308716;7.2403353;9.417000770568848;1673445982.8989632;-8.238194465637207;38.629817962646484;-15.257240295410156
295;1673445982.986374;47.1308727;7.2403365;3.8560001850128174;1673445983.0825791;1.7369322776794434;-19.21685791015625;-13.753445625305176
296;1673445983.1737392;47.1308714;7.2403365;0.0950000062584877;1673445983.271722;8.469087600708008;2.985203742980957;-21.939239501953125
297;1673445983.3736582;47.130865199999995;7.2403296;0.14100000262260437;1673445983.4906487;6.976137161254883;-3.3283135890960693;-19.494752883911133
298;1673445983.5939982;47.1308584;7.2403189;0.12800000607967377;1673445983.6937938;7.467173099517822;-0.7567573189735413;-19.395174026489258
299;1673445983.782727;47.1308517;7.240308499999999;0.11300000548362732;1673445983.9125257;7.559188365936279;-1.800421118736267;-18.70967674255371
300;1673445984.024621;47.1308453;7.2402995;0.09300000220537186;1673445984.1135685;7.572757720947266;-0.8003365397453308;-17.717586517333984
301;1673445984.2197113;47.130839599999995;7.2402921;0.07300000637769699;1673445984.3136382;7.490321636199951;-0.7823244333267212;-17.059947967529297
302;1673445984.4105315;47.1308346;7.2402865;0.05700000375509262;1673445984.5035918;7.386476039886475;-1.1789298057556152;-16.558048248291016
303;1673445984.593757;47.130830499999995;7.2402826;0.049000002443790436;1673445984.696558;7.237367153167725;-1.2068507671356201;-16.087148666381836
304;1673445984.7938232;47.1308274;7.2402805;0.04800000041723251;1673445984.889615;7.057433128356934;-0.9102498888969421;-15.639443397521973
305;1673445984.9904933;47.130823899999996;7.2402783;0.04700000211596489;1673445985.0775511;7.065892219543457;-0.7196787595748901;-15.433231353759766
306;1673445985.1636627;47.130821;7.2402771999999995;0.05100000277161598;1673445985.2706156;6.7235283851623535;-0.034134961664676666;-15.09770679473877
307;1673445985.3635676;47.130820199999995;7.2402789;0.07300000637769699;1673445985.4644659;6.463841438293457;0.6136963963508606;-14.762819290161133
308;1673445985.5487213;47.1308207;7.240282499999999;0.10600000619888306;1673445985.6382449;6.188060760498047;1.224730372428894;-14.4934663772583
309;1673445985.730393;47.130822099999996;7.2402872;0.14400000870227814;1673445985.8304214;5.946134567260742;1.8203043937683105;-14.268108367919922
310;1673445985.9197328;47.130823899999996;7.2402925;0.1810000091791153;1673445986.0265174;5.669219970703125;2.3165760040283203;-14.054037094116211
311;1673445986.1277013;47.1308242;7.2402966;0.20800000429153442;1673445986.230554;5.646121501922607;2.466498374938965;-14.04131031036377
312;1673445986.3296409;47.1308243;7.2403004;0.23600001633167267;1673445986.4345086;5.3445024490356445;2.9351003170013428;-13.850519180297852
313;1673445986.5298393;47.1308261;7.2403058;0.2720000147819519;1673445986.6314456;5.064856052398682;3.3633737564086914;-13.715985298156738
314;1673445986.72745;47.130828699999995;7.2403119;0.30800002813339233;1673445986.8315005;4.804534435272217;3.716444492340088;-13.583876609802246
315;1673445986.9346461;47.1308314;7.2403179;0.33900001645088196;1673445987.0416527;4.5763325691223145;4.03261137008667;-13.510247230529785
316;1673445987.133721;47.1308339;7.240323699999999;0.3660000264644623;1673445987.2295578;4.365284442901611;4.305942058563232;-13.426473617553711
317;1673445987.3265393;47.1308363;7.2403292;0.3850000202655792;1673445987.4315689;4.176225662231445;4.528964519500732;-13.361173629760742
318;1673445987.5385985;47.130837199999995;7.240333799999999;0.3970000147819519;1673445987.6457124;4.087164402008057;4.626183986663818;-13.362086296081543
319;1673445987.7496743;47.1308376;7.2403379999999995;0.40400001406669617;1673445987.8507135;3.902219295501709;4.815187454223633;-13.304804801940918
320;1673445987.9454458;47.1308392;7.2403423;0.41200003027915955;1673445988.0604064;3.69289493560791;5.003065586090088;-13.255654335021973
321;1673445988.1636226;47.1308411;7.2403464;0.41600000858306885;1673445988.257576;3.4305179119110107;5.132396221160889;-13.251516342163086
322;1673445988.3517807;47.130843;7.2403504;0.4130000174045563;1673445988.4503524;3.2341668605804443;5.251349925994873;-13.22679328918457
323;1673445988.5597239;47.1308449;7.240354099999999;0.406000018119812;1673445988.6676168;2.9926977157592773;5.453519344329834;-13.21873664855957
324;1673445988.7678828;47.1308456;7.240357899999999;0.39500001072883606;1673445988.8676074;2.948421001434326;5.597410202026367;-13.246057510375977
325;1673445988.961586;47.1308461;7.240361399999999;0.3840000033378601;1673445989.0595782;2.761258363723755;5.69356632232666;-13.299903869628906
326;1673445989.154693;47.1308473;7.2403644;0.3750000298023224;1673445989.2574682;2.573941707611084;5.776714324951172;-13.331048965454102
327;1673445989.3488388;47.1308489;7.240367;0.3620000183582306;1673445989.4496005;2.460428237915039;5.786448955535889;-13.37733268737793
328;1673445989.5517657;47.130850699999996;7.2403694;0.34700000286102295;1673445989.647647;2.3083884716033936;5.772858619689941;-13.421586036682129
329;1673445989.7446961;47.130852399999995;7.240371499999999;0.3330000042915344;1673445989.8561823;2.187469005584717;5.468984603881836;-13.475518226623535
330;1673445989.9387636;47.1308541;7.240373399999999;0.31700000166893005;1673445990.0361156;1.9103320837020874;4.922464847564697;-13.572611808776855
331;1673445990.130822;47.130855;7.2403759999999995;-0.004000000189989805;1673445990.2328858;1.9164175987243652;4.674018383026123;-13.554020881652832
332;1673445990.333051;47.1308556;7.2403787;-0.024000000208616257;;;;
