;pos_time;latitude;longitude;altitude;alt_time;pitch;roll;yaw
0;1673301193.510294;47.1306422;7.24062;-0.007000000216066837;1673301193.6724288;0.21939601004123688;-0.5841501951217651;90.50204467773438
1;1673301193.7095175;47.1306422;7.2406198999999996;-0.007000000216066837;1673301193.8924432;0.4403664469718933;-0.4923405647277832;90.26753997802734
2;1673301193.9416053;47.1306422;7.2406198999999996;-0.00800000037997961;1673301194.1268587;0.028983479365706444;-0.6205786466598511;90.21257781982422
3;1673301194.172292;47.1306423;7.2406198999999996;-0.009000000543892384;1673301194.3265994;-0.05967933312058449;-0.31608885526657104;90.21136474609375
4;1673301194.361937;47.1306423;7.24062;-0.007000000216066837;1673301194.5207238;-0.0663003996014595;-0.44062337279319763;90.33068084716797
5;1673301194.557188;47.1306423;7.24062;-0.007000000216066837;1673301194.7153907;-0.07910062372684479;-0.2528069019317627;90.2686538696289
6;1673301194.7511337;47.1306424;7.2406201;-0.00800000037997961;1673301194.9081228;0.07127844542264938;-0.4043407440185547;90.30097961425781
7;1673301194.9433537;47.1306424;7.2406201;-0.010000000707805157;1673301195.1012602;0.2876386344432831;-0.243120014667511;90.16477966308594
8;1673301195.1363988;47.1306424;7.2406201;-0.010000000707805157;1673301195.2976017;0.11855760216712952;-0.5062524080276489;90.2801513671875
9;1673301195.333722;47.1306424;7.2406201999999995;-0.005000000353902578;1673301195.4949796;-0.06672090291976929;-0.8622090220451355;90.35026550292969
10;1673301195.5310926;47.1306424;7.2406201999999995;0.004000000189989805;1673301195.6902955;-0.09992747753858566;-1.2537918090820312;90.41680908203125
11;1673301195.7273872;47.1306424;7.2406203;0.00800000037997961;1673301195.8897924;-0.22775104641914368;-0.968898594379425;90.30281066894531
12;1673301195.9260423;47.1306423;7.2406204;0.009000000543892384;1673301196.0886395;-0.09268655627965927;-1.0331604480743408;90.16725158691406
13;1673301196.1258402;47.1306423;7.2406204;0.007000000216066837;1673301196.2953892;0.08523022383451462;-0.9891704320907593;90.26176452636719
14;1673301196.334315;47.1306423;7.2406204;0.007000000216066837;1673301196.5021079;-0.21368075907230377;-0.976313591003418;90.17477416992188
15;1673301196.5424325;47.1306423;7.2406204;0.005000000353902578;1673301196.7174754;0.0860033705830574;-1.058701515197754;90.06945037841797
16;1673301196.7583256;47.1306423;7.2406204;0.004000000189989805;1673301196.9206226;0.2069120556116104;-1.2738218307495117;89.99051666259766
17;1673301196.9572453;47.1306424;7.2406204;0.004000000189989805;1673301197.1207488;0.07126861065626144;-1.223256230354309;90.12457275390625
18;1673301197.156406;47.1306424;7.2406204;0.0;1673301197.319305;0.016653601080179214;-1.0771174430847168;90.05477142333984
19;1673301197.3551283;47.1306424;7.2406204;-0.0010000000474974513;1673301197.5162675;-0.002492832252755761;-0.8405641913414001;89.9108657836914
20;1673301197.5544055;47.1306424;7.2406204999999995;-0.003000000026077032;1673301197.7135284;0.200588658452034;-0.5420541763305664;89.91641235351562
21;1673301197.7493026;47.1306424;7.2406204999999995;-0.004000000189989805;1673301197.9144454;0.2930639386177063;-0.7831286787986755;89.39869689941406
22;1673301197.9512813;47.1306424;7.2406204999999995;-0.004000000189989805;1673301198.1162884;0.09908030182123184;-0.21512098610401154;89.3115005493164
23;1673301198.156487;47.1306425;7.2406204999999995;-0.0020000000949949026;1673301198.321436;0.8364911675453186;-0.5083552002906799;88.67601013183594
24;1673301198.3593035;47.130642599999995;7.2406204999999995;-0.003000000026077032;1673301198.5284545;1.440871000289917;-0.5804598331451416;87.97586059570312
25;1673301198.5653312;47.130642599999995;7.2406204;-0.0020000000949949026;1673301198.7305505;1.4337176084518433;-0.2747252583503723;84.54725646972656
26;1673301198.7683427;47.1306428;7.2406203;-0.0020000000949949026;1673301198.9362352;-0.04280386120080948;0.7990750074386597;74.89302062988281
27;1673301198.974386;47.130643199999994;7.2406197;-0.0020000000949949026;1673301199.126383;-0.4898504614830017;3.737830638885498;76.95812225341797
28;1673301199.1614456;47.1306438;7.2406187;0.00800000037997961;1673301199.3213499;-4.189407825469971;6.390002250671387;82.95462799072266
29;1673301199.3554254;47.130644499999995;7.2406175;0.027000000700354576;1673301199.542496;-8.888625144958496;10.456319808959961;84.60261535644531
30;1673301199.576315;47.1306452;7.240615999999999;0.04700000211596489;1673301199.72962;-11.386903762817383;13.2682466506958;84.42231750488281
31;1673301199.765509;47.1306461;7.240614399999999;0.07200000435113907;1673301199.9225986;-12.393937110900879;14.734416007995605;84.2537612915039
32;1673301199.9584165;47.130646899999995;7.2406128;0.10700000822544098;1673301200.1151803;-13.371828079223633;15.904250144958496;84.14476013183594
33;1673301200.1514454;47.1306477;7.240611299999999;0.15400001406669617;1673301200.313102;-15.029840469360352;15.886068344116211;84.2403793334961
34;1673301200.3492131;47.130648199999996;7.2406101;0.2160000056028366;1673301200.5111713;-16.776853561401367;16.91683006286621;84.19647216796875
35;1673301200.553289;47.1306486;7.2406092;0.29200002551078796;1673301200.7360783;-17.86513900756836;19.437681198120117;84.07481384277344
36;1673301200.772503;47.130648699999995;7.2406087999999995;0.3790000081062317;1673301200.9266396;-18.769086837768555;21.061113357543945;84.20709991455078
37;1673301200.961958;47.1306485;7.2406090999999995;0.4740000367164612;1673301201.1200204;-19.494543075561523;19.01836395263672;84.7768325805664
38;1673301201.1582477;47.130648;7.240609999999999;0.5820000171661377;1673301201.3233762;-17.750099182128906;16.28864288330078;85.08028411865234
39;1673301201.3594923;47.1306472;7.2406115;0.703000009059906;1673301201.5268662;-15.254437446594238;18.56165313720703;84.29938507080078
40;1673301201.565137;47.130646299999995;7.240613199999999;0.8400000333786011;1673301201.732348;-12.784687042236328;13.480833053588867;84.94133758544922
41;1673301201.7689526;47.1306454;7.240615099999999;0.9910000562667847;1673301201.9359372;-11.517434120178223;11.7137451171875;85.03267669677734
42;1673301201.9702342;47.1306446;7.2406168;1.15500009059906;1673301202.1245494;-9.545191764831543;14.562747955322266;84.0363998413086
43;1673301202.1608036;47.1306438;7.2406182999999995;1.3340001106262207;1673301202.317182;-8.790700912475586;11.422872543334961;84.15922546386719
44;1673301202.3523672;47.130643199999994;7.2406193;1.5260000228881836;1673301202.5106373;-8.817004203796387;9.914619445800781;78.8020248413086
45;1673301202.5457747;47.1306428;7.2406198999999996;1.7220001220703125;1673301202.706918;-9.482291221618652;13.46971607208252;79.05674743652344
46;1673301202.7430286;47.130642599999995;7.2406201;1.9200000762939453;1673301202.9075136;-9.860891342163086;13.82418441772461;79.44554901123047
47;1673301202.9437978;47.1306425;7.24062;2.118000030517578;1673301203.1033995;-11.007003784179688;11.268195152282715;80.39531707763672
48;1673301203.140173;47.130642699999996;7.240619799999999;2.317000150680542;1673301203.3032458;-11.697500228881836;15.187210083007812;80.10649108886719
49;1673301203.3413396;47.1306428;7.2406196;2.515000104904175;1673301203.5153458;-11.720559120178223;16.731828689575195;79.88504028320312
50;1673301203.5504904;47.1306429;7.2406194;2.7120001316070557;1673301203.72858;-12.28731632232666;13.530231475830078;80.20011901855469
51;1673301203.766645;47.1306429;7.240619199999999;2.9100000858306885;1673301203.939686;-12.835077285766602;14.35058879852295;80.19500732421875
52;1673301203.9748197;47.1306429;7.240619199999999;3.1130001544952393;1673301204.1431134;-12.470236778259277;17.50199317932129;79.72793579101562
53;1673301204.182153;47.1306429;7.240619199999999;3.319000244140625;1673301204.360852;-12.165677070617676;14.780434608459473;80.21419525146484
54;1673301204.4008658;47.130643;7.2406193;3.5220000743865967;1673301204.5610428;-12.262933731079102;14.194735527038574;80.26393127441406
55;1673301204.5961878;47.130643;7.2406196;3.7220001220703125;1673301204.7522988;-11.299187660217285;17.9446964263916;79.69336700439453
56;1673301204.7884018;47.1306429;7.2406198999999996;3.9210002422332764;1673301204.9485884;-10.83959674835205;14.52413558959961;79.99827575683594
57;1673301204.980831;47.1306428;7.2406201;4.11899995803833;1673301205.1429765;-11.312692642211914;12.75765323638916;80.36380004882812
58;1673301205.1771307;47.130642599999995;7.2406203;4.317000389099121;1673301205.339382;-11.013676643371582;16.09113121032715;79.6671142578125
59;1673301205.3754885;47.1306425;7.2406204;4.515000343322754;1673301205.5395827;-10.343144416809082;15.894073486328125;79.85423278808594
60;1673301205.5776772;47.1306425;7.2406204999999995;4.713000297546387;1673301205.7399206;-11.02945327758789;12.606791496276855;80.26628112792969
61;1673301205.7779734;47.1306425;7.2406204999999995;4.914000034332275;1673301205.9374318;-11.300095558166504;15.869263648986816;79.80070495605469
62;1673301205.973543;47.130642599999995;7.2406204999999995;5.115000247955322;1673301206.137669;-10.821074485778809;16.76609992980957;79.54603576660156
63;1673301206.1737592;47.1306425;7.2406204999999995;5.314000129699707;1673301206.345749;-11.306312561035156;13.381706237792969;80.18705749511719
64;1673301206.380886;47.1306424;7.2406204999999995;5.514000415802002;1673301206.5498853;-11.715836524963379;14.480940818786621;80.17444610595703
65;1673301206.588912;47.1306423;7.2406204;5.713000297546387;1673301206.7549567;-11.18459415435791;17.342893600463867;79.5510482788086
66;1673301206.794968;47.1306423;7.2406203;5.914000511169434;1673301206.9502637;-11.498172760009766;13.638465881347656;80.30497741699219
67;1673301206.98744;47.1306424;7.2406203;6.115000247955322;1673301207.152513;-11.79843521118164;14.286225318908691;80.19281005859375
68;1673301207.190655;47.1306425;7.2406204;6.316000461578369;1673301207.3577886;-11.130464553833008;17.894287109375;79.62062072753906
69;1673301207.3929276;47.1306424;7.2406204;6.514000415802002;1673301207.5443387;-11.08455753326416;14.47425651550293;79.9192123413086
70;1673301207.5863073;47.1306424;7.2406204;6.710000514984131;1673301207.7523649;-11.680183410644531;13.18372631072998;80.32511901855469
71;1673301207.7905078;47.1306423;7.2406204;6.906000137329102;1673301207.9476583;-11.183856964111328;16.790678024291992;79.6488265991211
72;1673301207.988696;47.1306423;7.2406204999999995;7.104000568389893;1673301208.1478922;-10.851972579956055;16.150476455688477;79.74018096923828
73;1673301208.181134;47.1306423;7.2406204999999995;7.302000522613525;1673301208.3435247;-11.337828636169434;12.905924797058105;80.46179962158203
74;1673301208.3776953;47.1306424;7.2406204999999995;7.499000549316406;1673301208.539369;-11.504054069519043;16.40104103088379;79.78152465820312
75;1673301208.577585;47.1306424;7.2406204999999995;7.694000244140625;1673301208.7393336;-10.76417350769043;16.548398971557617;79.56110382080078
76;1673301208.7771251;47.1306424;7.2406204999999995;7.88800048828125;1673301208.947623;-11.310089111328125;13.327614784240723;80.2693862915039
77;1673301208.9895747;47.1306423;7.2406206;8.084000587463379;1673301209.1518612;-11.470020294189453;14.493535995483398;80.10184478759766
78;1673301209.1930356;47.1306422;7.2406206;8.280000686645508;1673301209.3530784;-10.907958030700684;17.267070770263672;79.40059661865234
79;1673301209.3884363;47.1306423;7.2406206;8.475000381469727;1673301209.5504634;-11.157443046569824;13.37307357788086;80.33660125732422
80;1673301209.5872784;47.1306424;7.2406206;8.676000595092773;1673301209.7478983;-11.330338478088379;14.560155868530273;80.0632095336914
81;1673301209.7840137;47.1306425;7.2406206;8.87600040435791;1673301209.95071;-10.850114822387695;18.163713455200195;79.4763412475586
82;1673301209.992252;47.1306425;7.2406206;9.074000358581543;1673301210.1558766;-10.932884216308594;14.865704536437988;79.99251556396484
83;1673301210.191013;47.1306424;7.2406206;9.270000457763672;1673301210.3543692;-11.564986228942871;13.278021812438965;80.43708801269531
84;1673301210.3877244;47.1306424;7.2406206;9.46500015258789;1673301210.5507572;-11.128791809082031;16.88517189025879;79.57283020019531
85;1673301210.5888467;47.1306424;7.2406206;9.66200065612793;1673301210.7549062;-10.865534782409668;16.425498962402344;79.83441925048828
86;1673301210.7900417;47.1306425;7.2406206;9.856000900268555;1673301210.955307;-11.31448745727539;12.982049942016602;80.38984680175781
87;1673301210.988498;47.1306425;7.2406206;10.047000885009766;1673301211.145823;-10.988296508789062;15.525724411010742;79.805908203125
88;1673301211.1831322;47.1306425;7.2406207;10.267000198364258;1673301211.3373418;-11.477644920349121;17.797836303710938;79.7308120727539
89;1673301211.3744128;47.1306424;7.2406209;10.601000785827637;1673301211.538341;-12.482401847839355;15.402587890625;80.37683868408203
90;1673301211.576408;47.130642099999996;7.2406212;10.97700023651123;1673301211.741711;-10.88269329071045;13.837074279785156;80.33077239990234
91;1673301211.7799256;47.1306418;7.240621699999999;11.360000610351562;1673301211.9476492;-10.008618354797363;16.01145362854004;79.55866241455078
92;1673301211.9837577;47.130641499999996;7.2406220999999995;11.75100040435791;1673301212.149118;-9.310123443603516;13.07570743560791;80.06986236572266
93;1673301212.186358;47.130641399999995;7.2406225;12.1510009765625;1673301212.348471;-9.562328338623047;11.654462814331055;80.19754028320312
94;1673301212.3826303;47.130641399999995;7.240622699999999;12.554000854492188;1673301212.5467253;-9.284096717834473;16.03264045715332;79.67345428466797
95;1673301212.586741;47.130641399999995;7.240622699999999;12.953001022338867;1673301212.7450938;-9.196781158447266;14.16555404663086;79.71855163574219
96;1673301212.78023;47.130641499999996;7.2406225;13.346000671386719;1673301212.9395587;-10.236376762390137;12.366544723510742;80.09193420410156
97;1673301212.9768069;47.130641499999996;7.2406222;13.732000350952148;1673301213.1460874;-10.63093376159668;14.994844436645508;79.94169616699219
98;1673301213.1814034;47.1306416;7.2406219;14.112000465393066;1673301213.3458853;-10.692025184631348;16.70203399658203;79.63652801513672
99;1673301213.3829873;47.1306417;7.2406216;14.493000984191895;1673301213.5451086;-10.98344612121582;13.370187759399414;80.28917694091797
100;1673301213.5821965;47.1306418;7.2406213;14.875000953674316;1673301213.7492664;-11.597947120666504;14.540739059448242;80.05595397949219
101;1673301213.788285;47.130641999999995;7.2406212;15.256000518798828;1673301213.951568;-11.040146827697754;17.96608543395996;79.59278106689453
102;1673301213.9908786;47.130641999999995;7.240621099999999;15.635001182556152;1673301214.156518;-11.106335639953613;14.372397422790527;80.0859146118164
103;1673301214.1927004;47.130641999999995;7.240621;16.019001007080078;1673301214.3560715;-11.214006423950195;13.61949348449707;80.3402099609375
104;1673301214.3882806;47.1306419;7.240621099999999;16.405000686645508;1673301214.5517998;-10.727896690368652;16.56264877319336;79.69242858886719
105;1673301214.5898666;47.1306419;7.2406212;16.791000366210938;1673301214.7440174;-10.435474395751953;15.674267768859863;79.83720397949219
106;1673301214.7811463;47.1306419;7.2406212;17.179000854492188;1673301214.943506;-10.865862846374512;12.637446403503418;80.27220916748047
107;1673301214.9836643;47.1306419;7.2406213;17.569000244140625;1673301215.1543753;-10.629711151123047;16.406112670898438;79.6803970336914
108;1673301215.1943908;47.1306419;7.2406213;17.95400047302246;1673301215.3563673;-10.152384757995605;15.976081848144531;79.79420471191406
109;1673301215.390579;47.1306419;7.2406213;18.33500099182129;1673301215.547005;-10.724929809570312;12.928820610046387;80.19994354248047
110;1673301215.5832672;47.1306419;7.2406213;18.716001510620117;1673301215.7444203;-10.799407958984375;14.411624908447266;80.07286834716797
111;1673301215.7834606;47.1306418;7.2406213;19.10300064086914;1673301215.9515095;-10.203661918640137;16.717897415161133;79.58522033691406
112;1673301215.9876993;47.1306418;7.2406213;19.492000579833984;1673301216.1555624;-10.242050170898438;14.019957542419434;79.99713134765625
113;1673301216.1918035;47.1306419;7.2406213;19.881000518798828;1673301216.35214;-10.965590476989746;13.222542762756348;80.24779510498047
114;1673301216.3884084;47.130641999999995;7.2406212;20.270000457763672;1673301216.5508754;-10.407622337341309;17.559036254882812;79.69783782958984
115;1673301216.587963;47.130642099999996;7.2406212;20.6560001373291;1673301216.7491212;-10.3187837600708;15.322731018066406;79.81167602539062
116;1673301216.7871864;47.1306422;7.240621099999999;21.041000366210938;1673301216.9408815;-10.824482917785645;13.569478988647461;80.24656677246094
117;1673301216.9742854;47.1306422;7.240621099999999;21.428001403808594;1673301217.1557765;-10.4717378616333;16.29423713684082;79.70413970947266
118;1673301217.2084794;47.1306422;7.240621099999999;21.81800079345703;1673301217.3751118;-9.93362045288086;16.52228546142578;79.70613861083984
119;1673301217.413263;47.1306422;7.240621;22.21000099182129;1673301217.5731945;-10.749824523925781;12.964722633361816;80.3662109375
120;1673301217.605402;47.1306423;7.2406209;22.60300064086914;1673301217.7736127;-10.687756538391113;15.339164733886719;79.96013641357422
121;1673301217.806794;47.1306423;7.2406209;22.992000579833984;1673301217.9698868;-10.390840530395508;17.16363525390625;79.56733703613281
122;1673301218.0069723;47.1306423;7.240620799999999;23.37900161743164;1673301218.1722293;-10.534956932067871;14.02298641204834;80.15131378173828
123;1673301218.2120757;47.1306423;7.240620799999999;23.769001007080078;1673301218.371608;-10.929679870605469;13.696464538574219;80.18498229980469
124;1673301218.4067528;47.1306422;7.2406207;24.16200065612793;1673301218.5542572;-10.823646545410156;16.691373825073242;79.59662628173828
125;1673301218.591373;47.1306422;7.2406206;24.556001663208008;1673301218.7561994;-10.517972946166992;15.487866401672363;79.9787826538086
126;1673301218.7952201;47.1306422;7.2406204999999995;24.95100212097168;1673301218.9495661;-10.968167304992676;12.892553329467773;80.26547241210938
127;1673301218.981775;47.1306423;7.2406204999999995;25.349000930786133;1673301219.14502;-10.620770454406738;16.67997932434082;79.79283142089844
128;1673301219.1861973;47.1306423;7.2406204999999995;25.74100112915039;1673301219.3532882;-10.388628005981445;16.56312370300293;79.78428649902344
129;1673301219.3886158;47.1306424;7.2406204999999995;26.134000778198242;1673301219.5557022;-10.544832229614258;13.630990982055664;80.27069091796875
130;1673301219.5927916;47.1306425;7.2406204999999995;26.531002044677734;1673301219.7569103;-10.732855796813965;15.620283126831055;80.02297973632812
131;1673301219.7939978;47.1306425;7.2406204999999995;26.928001403808594;1673301219.9613628;-10.03948974609375;17.29034423828125;79.51697540283203
132;1673301219.9976046;47.1306424;7.2406204;27.32400131225586;1673301220.1578746;-10.400647163391113;14.289228439331055;80.11212921142578
133;1673301220.1960223;47.1306425;7.2406204;27.722002029418945;1673301220.348509;-10.927595138549805;14.142098426818848;80.14834594726562
134;1673301220.3850057;47.1306425;7.2406203;28.125001907348633;1673301220.5425715;-10.62478256225586;17.987781524658203;79.67232513427734
135;1673301220.58454;47.1306425;7.2406203;28.522001266479492;1673301220.7504373;-10.206280708312988;15.210528373718262;79.9193115234375
136;1673301220.7867403;47.1306424;7.2406203;28.921001434326172;1673301220.9459412;-10.952662467956543;13.433867454528809;80.17163848876953
137;1673301220.981119;47.1306423;7.2406203;29.319002151489258;1673301221.1452026;-10.528602600097656;16.235965728759766;79.74107360839844
138;1673301221.1852198;47.1306422;7.2406203;29.715002059936523;1673301221.3533976;-10.21247673034668;16.579113006591797;79.70935821533203
139;1673301221.3875942;47.130642099999996;7.2406203;30.112001419067383;1673301221.5468032;-10.894710540771484;12.762707710266113;80.38521575927734
140;1673301221.5799892;47.130642099999996;7.2406203;30.509000778198242;1673301221.7476974;-10.911611557006836;14.785174369812012;79.93649291992188
141;1673301221.7868054;47.1306422;7.2406203;30.9010009765625;1673301221.9618018;-10.353219032287598;17.814481735229492;79.60501098632812
142;1673301221.9969366;47.1306423;7.2406203;31.292001724243164;1673301222.164008;-10.287946701049805;14.221172332763672;80.07866668701172
143;1673301222.203078;47.1306423;7.2406203;31.685001373291016;1673301222.3665624;-11.077980041503906;14.691452980041504;80.16057586669922
144;1673301222.4017377;47.1306423;7.2406203;32.08000183105469;1673301222.5596561;-10.531533241271973;17.310108184814453;79.64207458496094
145;1673301222.5948417;47.1306422;7.2406201999999995;32.48100280761719;1673301222.7601156;-10.403045654296875;15.253002166748047;79.9016342163086
146;1673301222.8030775;47.1306422;7.2406201999999995;32.88500213623047;1673301222.9605303;-10.81091594696045;13.332795143127441;80.17977905273438
147;1673301222.9956915;47.1306422;7.2406201999999995;33.28700256347656;1673301223.147096;-10.680710792541504;16.925268173217773;79.7532958984375
148;1673301223.1822302;47.1306423;7.2406203;33.682003021240234;1673301223.3523443;-10.154356002807617;16.713241577148438;79.8210220336914
149;1673301223.3884556;47.1306423;7.2406203;34.07500076293945;1673301223.5609958;-10.60546588897705;13.512079238891602;80.16401672363281
150;1673301223.5971446;47.1306423;7.2406204;34.470001220703125;1673301223.76654;-10.7476224899292;15.320836067199707;80.01101684570312
151;1673301223.8047893;47.1306423;7.2406204;34.86900329589844;1673301223.970242;-9.967497825622559;16.870532989501953;79.54505157470703
152;1673301224.008325;47.1306422;7.2406204;35.272003173828125;1673301224.1789584;-10.292169570922852;14.384435653686523;80.0899887084961
153;1673301224.2140837;47.1306422;7.2406204;35.677001953125;1673301224.3753204;-10.861617088317871;13.607277870178223;80.2121353149414
154;1673301224.409479;47.1306422;7.2406204;36.07600021362305;1673301224.564784;-10.372621536254883;17.583864212036133;79.59545135498047
155;1673301224.5979688;47.1306423;7.2406203;36.47500228881836;1673301224.7680075;-10.495404243469238;15.10221004486084;79.9118423461914
156;1673301224.8080575;47.1306423;7.2406203;36.880001068115234;1673301224.97328;-10.840468406677246;13.758764266967773;80.25483703613281
157;1673301225.008415;47.1306424;7.2406203;37.284000396728516;1673301225.1739898;-10.624510765075684;16.95711898803711;79.63990020751953
158;1673301225.2122335;47.1306423;7.2406203;37.68600082397461;1673301225.373173;-10.031301498413086;16.53114128112793;79.76603698730469
159;1673301225.4093258;47.1306423;7.2406203;38.08700180053711;1673301225.5686395;-10.785565376281738;13.125628471374512;80.39306640625
160;1673301225.6076937;47.1306424;7.2406203;38.4890022277832;1673301225.7681463;-10.708337783813477;15.87408447265625;79.89805603027344
161;1673301225.8023145;47.1306425;7.2406203;38.884002685546875;1673301225.9636016;-10.152255058288574;17.890262603759766;79.63969421386719
162;1673301225.999367;47.1306425;7.2406203;39.27800369262695;1673301226.1637003;-10.319880485534668;14.17686653137207;80.15907287597656
163;1673301226.2027779;47.130642599999995;7.2406203;39.67400360107422;1673301226.3675587;-10.891199111938477;14.808732032775879;80.13151550292969
164;1673301226.4038873;47.1306425;7.2406203;40.07400131225586;1673301226.5706902;-10.50235652923584;17.57535743713379;79.59392547607422
165;1673301226.6067932;47.1306425;7.2406203;40.47100067138672;1673301226.7759728;-10.191070556640625;15.430482864379883;79.92961883544922
166;1673301226.8140347;47.1306424;7.2406201999999995;40.871002197265625;1673301226.9595978;-10.833212852478027;13.392087936401367;80.25379180908203
167;1673301226.9966831;47.1306424;7.2406201999999995;41.268001556396484;1673301227.1600199;-10.428759574890137;17.092370986938477;79.5987777709961
168;1673301227.1951234;47.1306425;7.2406203;41.66800308227539;1673301227.354233;-10.169156074523926;16.472814559936523;79.82691955566406
169;1673301227.3904366;47.1306425;7.2406201999999995;42.070003509521484;1673301227.5712717;-10.635631561279297;13.268376350402832;80.2898178100586
170;1673301227.6103442;47.1306425;7.2406201999999995;42.47500228881836;1673301227.7745986;-10.666573524475098;16.173503875732422;79.8449478149414
171;1673301227.8157575;47.1306424;7.2406201999999995;42.87800216674805;1673301227.983422;-10.083625793457031;17.124839782714844;79.55908203125
172;1673301228.0216105;47.1306424;7.2406201999999995;43.28200149536133;1673301228.1792526;-10.492801666259766;13.998102188110352;80.19762420654297
173;1673301228.2193937;47.1306424;7.2406201;43.689002990722656;1673301228.3786247;-11.00933837890625;14.449951171875;80.16895294189453
174;1673301228.4147372;47.1306424;7.2406201;44.0880012512207;1673301228.5804682;-10.233113288879395;17.910083770751953;79.67082214355469
175;1673301228.6146283;47.1306425;7.2406201;44.48500061035156;1673301228.7779908;-10.273420333862305;14.895682334899902;80.04347229003906
176;1673301228.8141024;47.1306425;7.2406201;44.887001037597656;1673301228.9822707;-10.852986335754395;14.019551277160645;80.10393524169922
177;1673301229.0167272;47.1306424;7.2406201;45.285003662109375;1673301229.18453;-10.696972846984863;16.992218017578125;79.77970886230469
178;1673301229.2217324;47.1306423;7.2406201;45.68300247192383;1673301229.3761404;-10.102682113647461;15.933090209960938;79.74947357177734
179;1673301229.4112806;47.1306423;7.2406201;46.083003997802734;1673301229.5842392;-10.683357238769531;13.350571632385254;80.37751007080078
180;1673301229.6232796;47.1306423;7.2406201;46.48200225830078;1673301229.7817748;-10.480570793151855;15.882720947265625;79.77649688720703
181;1673301229.8188634;47.1306423;7.2406201;46.88100051879883;1673301229.9804761;-10.224766731262207;17.287227630615234;79.6451644897461
182;1673301230.016714;47.1306424;7.2406201;47.28300094604492;1673301230.1722445;-10.595541000366211;13.902080535888672;80.09344482421875
183;1673301230.215179;47.1306425;7.2406201;47.68600082397461;1673301230.3850386;-10.77871036529541;16.199491500854492;80.02819061279297
184;1673301230.4212177;47.1306425;7.2406201;48.08500289916992;1673301230.583412;-10.393804550170898;18.136056900024414;79.89968872070312
185;1673301230.6239405;47.1306425;7.2406201;48.43800354003906;1673301230.7876813;-10.714722633361816;14.389988899230957;80.3890380859375
186;1673301230.8249826;47.130642599999995;7.2406198999999996;48.7390022277832;1673301230.9850059;-11.084158897399902;15.31344223022461;80.14595794677734
187;1673301231.0212162;47.130642699999996;7.240619799999999;48.98500061035156;1673301231.180833;-10.51869010925293;18.447681427001953;79.54498291015625
188;1673301231.2190714;47.1306429;7.240619499999999;49.191001892089844;1673301231.3816392;-7.072619915008545;18.2724609375;80.04103088378906
189;1673301231.420505;47.1306431;7.240619199999999;49.36600112915039;1673301231.5847557;8.81238079071045;25.93403434753418;73.68663787841797
190;1673301231.6315818;47.130643;7.2406185;49.49500274658203;1673301231.8224456;-3.5696897506713867;22.17182159423828;58.45499038696289
191;1673301231.8567095;47.1306424;7.2406171;49.566001892089844;1673301232.036773;2.588491439819336;22.075014114379883;49.76060104370117
192;1673301232.0786178;47.1306417;7.240615699999999;49.62000274658203;1673301232.21045;6.7421135902404785;22.49020004272461;40.166717529296875
193;1673301232.2391322;47.130640899999996;7.2406143;49.660003662109375;1673301232.3837957;7.485221862792969;21.126300811767578;30.724382400512695
194;1673301232.4247544;47.1306401;7.2406128999999995;49.69300079345703;1673301232.5906415;9.241598129272461;18.5739688873291;21.722116470336914
195;1673301232.6345785;47.1306392;7.2406115;49.72300338745117;1673301232.8007457;10.911799430847168;16.1092586517334;12.74735164642334
196;1673301232.8395445;47.130638399999995;7.240610299999999;49.74700164794922;1673301232.9994752;13.57632827758789;13.880407333374023;3.96079158782959
197;1673301233.029989;47.1306377;7.2406093;49.77000045776367;1673301233.182776;16.050506591796875;12.516080856323242;-4.636539936065674
198;1673301233.218827;47.130637199999995;7.2406085;49.7910041809082;1673301233.3706203;17.042455673217773;12.204736709594727;-13.243094444274902
199;1673301233.407477;47.1306368;7.240608099999999;49.810001373291016;1673301233.5729353;16.723804473876953;11.171429634094238;-21.9223690032959
200;1673301233.6058824;47.130636599999995;7.240607799999999;49.823001861572266;1673301233.77787;16.85898208618164;7.255145072937012;-30.794063568115234
201;1673301233.813034;47.1306365;7.2406076;49.83700180053711;1673301233.9670348;18.811626434326172;0.7166654467582703;-39.609615325927734
202;1673301234.005146;47.1306365;7.240607499999999;49.85600280761719;1673301234.1866703;20.13443374633789;-2.2728891372680664;-47.7762336730957
203;1673301234.22309;47.1306368;7.2406074;49.87300109863281;1673301234.4090455;19.394392013549805;-2.3715498447418213;-51.55803298950195
204;1673301234.443882;47.130637;7.2406071;49.88500213623047;1673301234.6088636;19.52559471130371;-1.272284746170044;-49.60646057128906
205;1673301234.642092;47.130637199999995;7.2406067;49.893001556396484;1673301234.8137739;21.346036911010742;-0.5658593773841858;-46.9159049987793
206;1673301234.85364;47.1306373;7.2406063;49.893001556396484;1673301235.0001101;22.52752685546875;-1.2781074047088623;-45.894779205322266
207;1673301235.0328507;47.130637199999995;7.240605899999999;49.8910026550293;1673301235.1771061;23.382217407226562;-2.5299105644226074;-46.16968536376953
208;1673301235.2094326;47.1306371;7.2406057;49.89200210571289;1673301235.375741;22.781784057617188;-2.5233945846557617;-46.10003662109375
209;1673301235.4151373;47.130637;7.240605599999999;49.89600372314453;1673301235.5867567;21.273923873901367;-2.1746976375579834;-45.83179473876953
210;1673301235.6274555;47.1306368;7.240605599999999;49.89900207519531;1673301235.7971745;19.987876892089844;-0.352210134267807;-45.54816436767578
211;1673301235.8333585;47.130636599999995;7.2406057;49.90300369262695;1673301235.9947236;19.612653732299805;1.9296231269836426;-45.17339324951172
212;1673301236.0285213;47.1306364;7.240605899999999;49.90700149536133;1673301236.1853938;19.6116943359375;2.707746982574463;-45.25629806518555
213;1673301236.2240555;47.130635999999996;7.240606;49.90300369262695;1673301236.3800433;19.699962615966797;1.7100536823272705;-45.34469985961914
214;1673301236.4144359;47.1306358;7.2406061;49.89900207519531;1673301236.5867898;4.525642395019531;0.424358993768692;-46.503475189208984
215;1673301236.6234393;47.1306358;7.240606;49.900001525878906;1673301236.784479;-30.394695281982422;2.3501880168914795;-48.93997573852539
216;1673301236.8246348;47.1306368;7.2406044;49.8900032043457;1673301236.9895425;-41.2779541015625;-1.0128754377365112;-47.78543472290039
217;1673301237.0245314;47.130639699999996;7.240599899999999;49.84300231933594;1673301237.1859279;-41.290428161621094;-3.810155153274536;-46.28690719604492
218;1673301237.2255757;47.1306449;7.2405919;49.79600143432617;1673301237.3971071;-41.8586311340332;-3.226915121078491;-46.70974349975586
219;1673301237.4369035;47.1306519;7.2405805999999995;49.75100326538086;1673301237.614446;-36.803009033203125;0.18296721577644348;-47.54790496826172
220;1673301237.6528082;47.130660299999995;7.240566299999999;49.70000076293945;1673301237.8172257;-32.78287124633789;3.926880359649658;-48.26346969604492
221;1673301237.8562832;47.1306698;7.2405498999999995;49.660003662109375;1673301238.0215976;-33.62748718261719;3.7261979579925537;-48.02662658691406
222;1673301238.058649;47.1306802;7.2405317;49.64400100708008;1673301238.227203;-39.93851089477539;3.459789752960205;-47.58454895019531
223;1673301238.2664785;47.1306918;7.2405119;49.65900421142578;1673301238.3972306;-46.11100387573242;3.6866848468780518;-47.575992584228516
224;1673301238.4327645;47.1307048;7.2404902;49.68800354003906;1673301238.6244342;-51.47709274291992;2.0107033252716064;-46.972740173339844
225;1673301238.6664248;47.1307194;7.2404664;49.72300338745117;1673301238.844844;-55.07280349731445;2.6178665161132812;-46.2157096862793
226;1673301238.927604;47.1307359;7.2404404;49.772003173828125;1673301239.0662885;-55.71295928955078;2.1213936805725098;-45.3057975769043
227;1673301239.1000147;47.1307541;7.2404120999999995;49.83100128173828;1673301239.2504659;-51.78014373779297;2.328436851501465;-45.7974967956543
228;1673301239.2816834;47.1307736;7.2403819;49.87700271606445;1673301239.4238784;-48.34424591064453;2.3587374687194824;-45.829341888427734
229;1673301239.4611578;47.130794099999996;7.2403505;49.90700149536133;1673301239.6158907;-26.42595863342285;1.7264678478240967;-44.862945556640625
230;1673301239.6521444;47.1308149;7.2403186999999996;49.91400146484375;1673301239.8160646;13.749034881591797;0.8249347805976868;-45.28962326049805
231;1673301239.8510697;47.130834799999995;7.2402884;49.90800094604492;1673301240.011066;29.652698516845703;4.037240028381348;-45.16744613647461
232;1673301240.0459497;47.130852399999995;7.240261599999999;49.807003021240234;1673301240.2050116;18.08639144897461;1.0171020030975342;-45.18117904663086
233;1673301240.2441514;47.1308675;7.2402387;49.689002990722656;1673301240.4059694;44.971622467041016;1.2856085300445557;-46.457576751708984
234;1673301240.4494004;47.1308801;7.2402199;49.682003021240234;1673301240.5993934;47.503570556640625;-0.8520479202270508;-47.47985076904297
235;1673301240.633188;47.130889599999996;7.240205899999999;49.72700119018555;1673301240.81945;53.41255569458008;-0.14487190544605255;-46.687252044677734
236;1673301240.8550603;47.1308961;7.240196999999999;49.814002990722656;1673301241.0103266;53.8687629699707;-1.859841227531433;-46.0759162902832
237;1673301241.0550246;47.130899899999996;7.2401924;49.887001037597656;1673301241.2200804;52.216800689697266;-2.7567267417907715;-46.07451629638672
238;1673301241.254098;47.1309013;7.2401915;49.948001861572266;1673301241.4012659;46.4022331237793;-2.812293529510498;-46.00861740112305
239;1673301241.4361196;47.1309006;7.2401933;49.99800109863281;1673301241.5810554;36.924076080322266;-1.70475435256958;-45.736270904541016
240;1673301241.6150296;47.1308985;7.2401966;50.03600311279297;1673301241.7828975;25.365367889404297;-0.25046244263648987;-45.40703201293945
241;1673301241.8227973;47.1308958;7.2402006;50.057003021240234;1673301242.001232;14.209835052490234;1.859624981880188;-45.341209411621094
242;1673301242.039306;47.1308929;7.2402044;50.06200408935547;1673301242.2033956;6.0895891189575195;3.774094343185425;-45.93003463745117
243;1673301242.2421315;47.1308904;7.2402074;50.060001373291016;1673301242.3968914;2.6299121379852295;2.723306179046631;-46.637176513671875
244;1673301242.4379227;47.1308887;7.2402093;50.05500411987305;1673301242.5932229;1.9536489248275757;0.5593863129615784;-46.397396087646484
245;1673301242.6293428;47.130888;7.2402099;50.04300308227539;1673301242.8115377;5.993827819824219;0.6303055882453918;-46.10264205932617
246;1673301242.844764;47.1308881;7.2402093;50.035003662109375;1673301243.0061097;8.484498023986816;-0.9924413561820984;-46.45719528198242
247;1673301243.0417862;47.1308888;7.240208099999999;50.03400421142578;1673301243.2060685;12.05404281616211;-0.21283647418022156;-46.17591857910156
248;1673301243.2423542;47.1308899;7.2402066;50.03900146484375;1673301243.3970852;16.24892807006836;0.9353573322296143;-45.83148193359375
249;1673301243.4341812;47.1308911;7.2402051;50.044002532958984;1673301243.5899377;20.01089859008789;1.9007723331451416;-45.737972259521484
250;1673301243.627147;47.1308923;7.2402036;50.05000305175781;1673301243.795724;22.858247756958008;2.3996002674102783;-46.16183090209961
251;1673301243.837916;47.130893199999996;7.2402022;50.05800247192383;1673301244.0235167;24.507278442382812;1.4923725128173828;-46.578514099121094
252;1673301244.0645766;47.130893799999996;7.240201099999999;50.064002990722656;1673301244.2578273;25.14603042602539;0.5585428476333618;-46.02318572998047
253;1673301244.2919867;47.1308943;7.240200199999999;50.070003509521484;1673301244.4418595;26.477869033813477;13.030529022216797;-43.00894546508789
254;1673301244.4775376;47.1308946;7.2401995999999995;49.992000579833984;1673301244.6352885;20.509960174560547;39.42818832397461;-40.020835876464844
255;1673301244.6719396;47.130894999999995;7.240198899999999;49.566001892089844;1673301244.8286395;8.15951156616211;60.2063102722168;-46.935794830322266
256;1673301244.871178;47.1308954;7.2401979;48.78000259399414;1673301245.039799;-4.720654010772705;74.3858642578125;-64.50326538085938
257;1673301245.074497;47.1308958;7.240196699999999;47.62800216674805;1673301245.2361302;-14.292363166809082;80.96430969238281;-90.7505111694336
258;1673301245.268965;47.130896199999995;7.2401953;46.099002838134766;1673301245.440534;-22.873809814453125;77.06928253173828;-120.18206024169922
259;1673301245.4757988;47.1308966;7.240193799999999;44.204002380371094;1673301245.6242223;-33.17884063720703;59.64430236816406;-144.19947814941406
260;1673301245.6614578;47.130896799999995;7.2401925;41.94700241088867;1673301245.8163667;-41.81003189086914;25.950298309326172;-153.82289123535156
261;1673301245.8540468;47.130897;7.2401915;39.32500076293945;1673301246.0177565;-36.28770065307617;-16.690004348754883;-149.4229736328125
262;1673301246.055391;47.130897499999996;7.240190699999999;36.329002380371094;1673301246.214457;-14.024602890014648;-37.26319885253906;-158.08297729492188
263;1673301246.2516952;47.1308984;7.2401898;32.961002349853516;1673301246.4147925;15.4375581741333;-35.41921615600586;-176.01869201660156
264;1673301246.44928;47.1308994;7.2401883;29.22300148010254;1673301246.5942512;43.0337028503418;-12.35119915008545;172.96780395507812
265;1673301246.6323278;47.1309003;7.2401864;25.10700035095215;1673301246.799386;51.71898651123047;27.842355728149414;175.544921875
266;1673301246.8413818;47.130900999999994;7.240184299999999;20.63300132751465;1673301246.9985633;37.68031692504883;44.684425354003906;160.6745147705078
267;1673301247.0347204;47.1309015;7.2401826;15.827000617980957;1673301247.206976;7.785257339477539;35.157894134521484;135.93081665039062
268;1673301247.246277;47.1309021;7.2401814;10.677000045776367;1673301247.396035;-26.07784080505371;7.29822301864624;125.21992492675781
269;1673301247.433294;47.1309031;7.240180499999999;5.151000022888184;1673301247.5935068;-30.919713973999023;-29.90475845336914;125.8996810913086
270;1673301247.6267226;47.1309056;7.2401813;-0.05400000140070915;1673301247.8094108;-24.478487014770508;-28.29315948486328;122.496826171875
271;1673301247.8550537;47.1309185;7.2402175;-1.158000111579895;1673301248.011893;-24.45204734802246;-32.40720748901367;119.93628692626953
272;1673301248.0470326;47.130932;7.240255599999999;-2.3510000705718994;1673301248.208209;-25.067190170288086;-29.595556259155273;119.11199188232422
273;1673301248.2409837;47.1309465;7.2402972;-3.5500001907348633;1673301248.3909838;-25.368467330932617;-29.50408363342285;118.74349975585938
274;1673301248.4280872;47.1309622;7.2403422;-4.789000034332275;1673301248.596064;-25.437002182006836;-29.058916091918945;118.33897399902344
275;1673301248.6331515;47.1309787;7.2403894;-5.929000377655029;1673301248.8011916;-25.38004493713379;-28.44405746459961;117.81717681884766
276;1673301248.8394086;47.130995999999996;7.2404379;-6.8560004234313965;1673301249.013918;-25.345905303955078;-28.09502410888672;117.45201873779297
277;1673301249.0559344;47.131014199999996;7.2404889;-0.8390000462532043;1673301249.2190723;-25.416454315185547;-27.968339920043945;117.26477813720703
278;1673301249.2568398;47.1310333;7.2405436;-0.4390000104904175;1673301249.4071126;-25.552696228027344;-27.924427032470703;117.09123992919922
279;1673301249.4383905;47.1310534;7.2406016;-0.3150000274181366;1673301249.5987556;-25.603042602539062;-27.78083610534668;116.92750549316406
280;1673301249.639122;47.1310745;7.2406627;-0.2990000247955322;1673301249.813845;-25.667688369750977;-27.74571990966797;116.75151824951172
281;1673301249.8520322;47.1310964;7.2407268;-0.3290000259876251;1673301250.0190322;-25.708412170410156;-27.747400283813477;116.61985778808594
282;1673301250.0611815;47.131119299999995;7.2407939;-0.3700000047683716;1673301250.2228763;-25.775524139404297;-27.797704696655273;116.56710052490234
283;1673301250.261415;47.131143099999996;7.2408638;-0.41700002551078796;1673301250.4350667;-25.75699234008789;-28.14893341064453;116.54431915283203
284;1673301250.485995;47.1311677;7.2409367;-0.5049999952316284;1673301250.6338246;-25.795461654663086;-28.410884857177734;116.55326843261719
285;1673301250.6710572;47.1311933;7.2410122999999995;-0.5940000414848328;1673301250.8289812;-25.788206100463867;-28.527610778808594;116.50904846191406
286;1673301250.8650527;47.131219699999995;7.2410906;-0.6200000047683716;1673301251.0239465;-25.797027587890625;-28.574111938476562;116.46681213378906
287;1673301251.061135;47.131246999999995;7.2411715999999995;-0.6170000433921814;1673301251.2218106;-25.82534408569336;-28.596778869628906;116.42350769042969
288;1673301251.2616537;47.1312752;7.241255499999999;-0.6040000319480896;1673301251.403417;-25.7981014251709;-28.6088809967041;116.35594177246094
289;1673301251.4381387;47.1313043;7.2413422;-0.5920000076293945;1673301251.5888605;-25.80888557434082;-28.604894638061523;116.3003158569336
290;1673301251.6287482;47.1313343;7.2414318;-0.5890000462532043;1673301251.8007877;-25.812519073486328;-28.571430206298828;116.22943115234375
291;1673301251.8484852;47.1313651;7.2415243;-0.6390000581741333;1673301252.0269337;-25.827096939086914;-28.574283599853516;116.18194580078125
292;1673301252.0729072;47.1313969;7.2416195;-0.7010000348091125;1673301252.248003;-25.843366622924805;-28.5261287689209;116.12972259521484
293;1673301252.293798;47.131429399999995;7.2417172999999995;-0.6960000395774841;1673301252.451329;-25.78743553161621;-28.495534896850586;116.06649017333984
294;1673301252.5009122;47.131462899999995;7.2418179;-0.6660000085830688;1673301252.653136;-25.840211868286133;-28.474964141845703;116.04486846923828
295;1673301252.68615;47.1314972;7.2419213;-0.6350000500679016;1673301252.8479342;-25.84328269958496;-28.436498641967773;115.99003601074219
296;1673301252.8820713;47.1315324;7.2420275;-0.609000027179718;1673301253.0488732;-25.88948631286621;-28.472312927246094;115.963134765625
297;1673301253.0849884;47.1315467;7.2420708;-0.6460000276565552;1673301253.2441244;-25.937986373901367;-28.496688842773438;115.96977233886719
298;1673301254.9628634;47.130927299999996;7.2402263;29.24300193786621;1673301253.4129982;-25.890108108520508;-28.442895889282227;115.90213012695312
299;1673301255.161629;47.130915699999996;7.2402032;29.178001403808594;1673301253.609628;-25.872785568237305;-28.41339111328125;115.88845825195312
300;1673301255.3577495;47.1309095;7.2401902;-0.30100002884864807;1673301253.8128402;-25.873693466186523;-28.405418395996094;115.8619384765625
301;;;;;1673301254.0218909;-25.86978530883789;-28.360919952392578;115.82154846191406
302;;;;;1673301254.24102;-25.887617111206055;-28.3261775970459;115.82337951660156
303;;;;;1673301254.431702;-26.018775939941406;-28.151708602905273;115.87748718261719
304;;;;;1673301254.6339502;-25.97866439819336;-27.984554290771484;115.8218994140625
305;;;;;1673301254.8272314;-25.886150360107422;-27.849140167236328;115.983642578125
306;;;;;1673301255.012938;-25.67794418334961;-27.914926528930664;116.67510223388672
307;;;;;1673301255.218806;-25.248720169067383;-28.169313430786133;117.76664733886719
308;;;;;1673301255.4051259;-24.642959594726562;-28.611629486083984;119.2444839477539
