;pos_time;latitude;longitude;altitude;alt_time;pitch;roll;yaw
0;1673303659.1198719;47.1306423;7.2406196;0.0020000000949949026;1673303659.1227987;-0.14689885079860687;-0.3014582395553589;90.22513580322266
1;1673303659.342156;47.1306423;7.2406197;0.0;1673303659.3441095;0.0031184281688183546;-0.01808050274848938;90.18368530273438
2;1673303659.529843;47.1306423;7.2406197;0.0010000000474974513;1673303659.5327713;0.21341565251350403;-0.2701897621154785;90.21728515625
3;1673303659.7298653;47.1306423;7.2406196;0.0020000000949949026;1673303659.733771;-0.01676248386502266;-0.1514500379562378;90.12714385986328
4;1673303659.9317331;47.1306423;7.2406196;0.004000000189989805;1673303659.9356394;-0.1439490169286728;-0.2671056389808655;90.16169738769531
5;1673303660.1299083;47.1306423;7.2406196;0.005000000353902578;1673303660.1347768;0.03229381516575813;-0.07453646510839462;89.98450469970703
6;1673303660.3420148;47.1306423;7.2406196;0.003000000026077032;1673303660.3458853;0.06767958402633667;-0.11032974720001221;90.19300842285156
7;1673303660.5327892;47.1306423;7.2406197;0.0010000000474974513;1673303660.535719;0.14723019301891327;-0.2391682118177414;90.05255889892578
8;1673303660.725617;47.1306423;7.2406196;0.0010000000474974513;1673303660.728589;0.2779007852077484;-0.157823383808136;90.1178207397461
9;1673303660.9265192;47.1306424;7.240619499999999;-0.0010000000474974513;1673303660.9309735;0.1152285560965538;-0.2647065222263336;90.00757598876953
10;1673303661.1342993;47.1306424;7.2406194;-0.0020000000949949026;1673303661.137236;-0.007694714702665806;-0.21522243320941925;90.1128158569336
11;1673303661.3345215;47.1306424;7.2406194;-0.005000000353902578;1673303661.3374565;-0.06598608195781708;-0.3520979881286621;90.14514923095703
12;1673303661.5298195;47.1306424;7.240619499999999;-0.0020000000949949026;1673303661.5327537;-0.24680830538272858;-0.15906959772109985;89.90582275390625
13;1673303661.7310832;47.1306424;7.240619499999999;0.004000000189989805;1673303661.7340102;-0.027854759246110916;-0.25001445412635803;90.07665252685547
14;1673303661.948384;47.1306424;7.240619499999999;0.007000000216066837;1673303661.9513104;0.09879991412162781;-0.19793708622455597;90.0341567993164
15;1673303662.141921;47.1306424;7.240619499999999;0.01100000087171793;1673303662.1477852;-0.2138385772705078;0.04403819888830185;89.92347717285156
16;1673303662.3306105;47.1306424;7.2406196;0.012000000104308128;1673303662.3346965;-0.2123466283082962;-0.126801535487175;89.90013885498047
17;1673303662.5334456;47.1306424;7.2406197;0.0;1673303662.5367286;-0.3667314648628235;-0.7594863176345825;90.12686157226562
18;1673303662.7267427;47.1306424;7.2406197;0.0010000000474974513;1673303662.7286956;-0.6160354614257812;-0.34205150604248047;90.11322784423828
19;1673303662.9376912;47.1306423;7.240619799999999;-0.0010000000474974513;1673303662.939642;-0.5586156249046326;0.12447362393140793;90.18114471435547
20;1673303663.1333418;47.1306423;7.2406198999999996;-0.004000000189989805;1673303663.1381469;-0.2771214246749878;-0.22610697150230408;90.25535583496094
21;1673303663.3378646;47.1306423;7.2406198999999996;-0.00800000037997961;1673303663.3408046;-0.46630850434303284;-0.1527363806962967;89.98199462890625
22;1673303663.5410354;47.1306423;7.2406198999999996;-0.01100000087171793;1673303663.5445495;-0.4885673522949219;-0.17232201993465424;90.12974548339844
23;1673303663.7365923;47.1306423;7.2406198999999996;-0.013000000268220901;1673303663.739536;-0.5237788558006287;-0.18378351628780365;90.23506164550781
24;1673303663.9455338;47.1306423;7.240619799999999;-0.01100000087171793;1673303663.9479358;-0.6853925585746765;-0.227815642952919;90.20947265625
25;1673303664.1677797;47.1306424;7.240619799999999;-0.007000000216066837;1673303664.1716979;-0.7031840682029724;-0.25991496443748474;90.30245971679688
26;1673303664.3878412;47.1306424;7.2406201;-0.0020000000949949026;1673303664.389792;0.7791898846626282;-0.20595011115074158;91.38697052001953
27;1673303664.5796988;47.1306424;7.240620799999999;0.01100000087171793;1673303664.5816545;6.622118949890137;0.1251240372657776;91.80897521972656
28;1673303664.7836595;47.1306425;7.2406217999999996;0.024000000208616257;1673303664.7856658;13.157266616821289;0.7705552577972412;92.12962341308594
29;1673303664.9885788;47.130642599999995;7.2406232;0.04500000178813934;1673303664.9915066;16.254919052124023;2.4510083198547363;92.18009185791016
30;1673303665.163505;47.130642599999995;7.2406247;0.0820000022649765;1673303665.165539;16.707656860351562;-0.9128159880638123;91.24577331542969
31;1673303665.3456466;47.130642599999995;7.2406261999999995;0.1340000033378601;1673303665.3476038;17.878013610839844;0.42287513613700867;91.14470672607422
32;1673303665.5446455;47.130642599999995;7.2406277;0.20200000703334808;1673303665.548563;19.4044132232666;2.8148436546325684;91.355712890625
33;1673303665.7531161;47.130642599999995;7.240628999999999;0.2850000262260437;1673303665.7550573;21.282550811767578;-0.8745821714401245;90.6848373413086
34;1673303665.9265702;47.130642599999995;7.2406299;0.3830000162124634;1673303665.9304838;23.313283920288086;-0.38496002554893494;90.54891204833984
35;1673303666.1420834;47.1306425;7.240630299999999;0.4960000216960907;1673303666.1450272;25.30340003967285;2.4235458374023438;90.97347259521484
36;1673303666.346201;47.1306424;7.2406299999999995;0.6260000467300415;1673303666.3491256;27.367948532104492;-0.7417883276939392;90.40839385986328
37;1673303666.534811;47.1306423;7.240628999999999;0.7700000405311584;1673303666.5396912;26.361724853515625;-1.7699180841445923;90.01819610595703
38;1673303666.756092;47.1306423;7.240627399999999;0.9260000586509705;1673303666.7580442;24.426952362060547;1.85880446434021;90.6648178100586
39;1673303666.9361243;47.1306424;7.2406254;1.0950000286102295;1673303666.9400337;21.983604431152344;-0.7120445966720581;90.05224609375
40;1673303667.1291714;47.1306424;7.240623299999999;1.2740000486373901;1673303667.1320977;19.478904724121094;-1.3535884618759155;89.5136947631836
41;1673303667.330472;47.1306424;7.240621399999999;1.4510000944137573;1673303667.3349438;17.377546310424805;1.997998595237732;90.162353515625
42;1673303667.5459526;47.1306424;7.2406198999999996;1.627000093460083;1673303667.5488625;15.8050537109375;0.3199327290058136;95.75967407226562
43;1673303667.745128;47.1306423;7.240618899999999;1.8060001134872437;1673303667.7470942;15.46937370300293;-2.323155641555786;93.88684844970703
44;1673303667.9520137;47.1306424;7.2406182;1.9850001335144043;1673303667.95398;15.23255729675293;1.5207371711730957;93.4100112915039
45;1673303668.1669824;47.1306425;7.2406179999999996;2.1660001277923584;1673303668.1708877;16.003049850463867;0.3499460816383362;92.41622161865234
46;1673303668.3949084;47.130642599999995;7.2406181;2.3500001430511475;1673303668.4007654;16.58643913269043;-1.9018617868423462;91.6113052368164
47;1673303668.602471;47.130642699999996;7.2406184;2.5360000133514404;1673303668.6054006;17.745746612548828;2.0493454933166504;91.7996597290039
48;1673303668.7914088;47.130642699999996;7.2406187;2.7220001220703125;1673303668.793351;18.584274291992188;1.2421114444732666;91.94556427001953
49;1673303668.9662342;47.130642699999996;7.2406191;2.9080002307891846;1673303668.9701433;19.34183692932129;-2.0910401344299316;91.50814056396484
50;1673303669.1668165;47.130642699999996;7.240619499999999;3.0980000495910645;1673303669.1687346;19.798397064208984;0.8903579115867615;92.0050277709961
51;1673303669.3664334;47.130642699999996;7.240619799999999;3.2900002002716064;1673303669.370378;20.0803165435791;2.510920763015747;92.2062759399414
52;1673303669.5718215;47.130642699999996;7.2406198999999996;3.4790000915527344;1673303669.574754;19.90590476989746;-1.33120858669281;91.6701431274414
53;1673303669.7553961;47.130642599999995;7.2406198999999996;3.6630001068115234;1673303669.76132;19.76340675354004;0.947754979133606;92.0072250366211
54;1673303669.9605875;47.1306425;7.2406198999999996;3.8520002365112305;1673303669.964492;19.641590118408203;1.8695892095565796;92.26749420166016
55;1673303670.141409;47.1306425;7.2406198999999996;4.044000148773193;1673303670.1462977;19.564891815185547;-1.596209168434143;91.66881561279297
56;1673303670.3418646;47.1306425;7.240619799999999;4.235000133514404;1673303670.3438241;19.22529411315918;0.32268980145454407;91.92134857177734
57;1673303670.5499814;47.1306425;7.2406197;4.425000190734863;1673303670.5529099;19.02168083190918;2.799882650375366;92.33546447753906
58;1673303670.7564836;47.1306425;7.2406196;4.616000175476074;1673303670.7603893;18.913684844970703;-1.0432265996932983;91.6684341430664
59;1673303670.9493551;47.1306424;7.2406196;4.810000419616699;1673303670.952387;18.966360092163086;-0.09348897635936737;91.78230285644531
60;1673303671.1561966;47.1306423;7.2406196;5.00700044631958;1673303671.160101;18.88593864440918;2.535635232925415;92.14311218261719
61;1673303671.3495905;47.1306423;7.2406196;5.201000213623047;1673303671.353494;18.917984008789062;-0.8973140120506287;91.84922790527344
62;1673303671.562433;47.1306423;7.2406196;5.398000240325928;1673303671.565359;18.921655654907227;-0.49114367365837097;91.77780151367188
63;1673303671.7721992;47.1306423;7.2406196;5.5970001220703125;1673303671.7751093;19.0738582611084;3.068481206893921;92.37162017822266
64;1673303671.9557397;47.1306423;7.2406196;5.797000408172607;1673303671.9616;19.03274917602539;0.3577079474925995;92.06702423095703
65;1673303672.1422486;47.1306422;7.2406196;5.99500036239624;1673303672.1442;19.015695571899414;-0.9512293934822083;91.86791229248047
66;1673303672.349439;47.130642099999996;7.2406196;6.191000461578369;1673303672.3533428;18.942914962768555;2.210085868835449;92.25228118896484
67;1673303672.5566344;47.130641999999995;7.2406196;6.389000415802002;1673303672.559552;19.077028274536133;0.5477421879768372;92.05770111083984
68;1673303672.7442274;47.130642099999996;7.2406197;6.588000297546387;1673303672.7491074;18.99605369567871;-1.8814733028411865;91.71714782714844
69;1673303672.9372916;47.130642099999996;7.2406197;6.782000541687012;1673303672.9402044;19.08409881591797;2.3197548389434814;92.26671600341797
70;1673303673.1170287;47.1306422;7.2406197;6.9760003089904785;1673303673.11996;19.069835662841797;2.386686325073242;92.31257629394531
71;1673303673.3274105;47.1306423;7.2406197;7.168000221252441;1673303673.3293772;18.9989070892334;-1.146870732307434;91.84813690185547
72;1673303673.5259833;47.1306422;7.2406197;7.362000465393066;1673303673.5289223;19.094505310058594;1.748186469078064;92.18696594238281
73;1673303673.7275097;47.130642099999996;7.2406197;7.559000492095947;1673303673.730443;19.0433349609375;2.33194899559021;92.39816284179688
74;1673303673.9188356;47.1306422;7.240619799999999;7.753000259399414;1673303673.922755;19.01106834411621;-1.0758105516433716;91.69722747802734
75;1673303674.1230092;47.1306422;7.240619799999999;7.948000431060791;1673303674.1269133;19.130578994750977;0.17207631468772888;91.86196899414062
76;1673303674.330211;47.1306422;7.240619799999999;8.144000053405762;1673303674.3331528;19.09629249572754;3.0544867515563965;92.25093078613281
77;1673303674.5239878;47.1306422;7.2406198999999996;8.34000015258789;1673303674.528861;19.143802642822266;-0.5823628306388855;91.79884338378906
78;1673303674.7195024;47.130642099999996;7.2406198999999996;8.538000106811523;1673303674.7224298;19.26068878173828;-0.2297874540090561;91.8579330444336
79;1673303674.920677;47.130641999999995;7.2406198999999996;8.734000205993652;1673303674.9236066;19.18610191345215;2.703867197036743;92.39927673339844
80;1673303675.1357024;47.130641999999995;7.2406198999999996;8.931000709533691;1673303675.1376607;19.223833084106445;-0.4533529281616211;91.8108901977539
81;1673303675.3349926;47.130642099999996;7.2406198999999996;9.12600040435791;1673303675.3379228;19.04709243774414;-0.820214569568634;91.77293395996094
82;1673303675.5287144;47.130642099999996;7.2406198999999996;9.317000389099121;1673303675.531662;19.013538360595703;3.1175408363342285;92.37357330322266
83;1673303675.7218866;47.130642099999996;7.24062;9.508000373840332;1673303675.7257907;18.984926223754883;1.077024221420288;92.32025909423828
84;1673303675.9409895;47.130642099999996;7.24062;9.701000213623047;1673303675.9439197;19.108642578125;-1.4719078540802002;91.90572357177734
85;1673303676.1586206;47.130641999999995;7.24062;9.896000862121582;1673303676.161639;19.20667839050293;2.44893479347229;92.30638122558594
86;1673303676.3843424;47.130642099999996;7.24062;10.092000007629395;1673303676.3862941;19.25760841369629;0.9071261286735535;92.06401824951172
87;1673303676.6196437;47.1306422;7.2406198999999996;10.32800006866455;1673303676.6215951;19.06551170349121;-0.9920312166213989;91.89312744140625
88;1673303676.8070655;47.1306423;7.2406196;10.67300033569336;1673303676.812918;20.483592987060547;2.0963895320892334;92.18458557128906
89;1673303676.992053;47.1306423;7.2406191;11.055000305175781;1673303676.994986;19.57483673095703;2.5991954803466797;92.45455169677734
90;1673303677.194056;47.1306423;7.2406185999999995;11.44800090789795;1673303677.195032;18.15037727355957;-0.8755812644958496;91.92498779296875
91;1673303677.3651168;47.130642099999996;7.2406181;11.848000526428223;1673303677.3680964;17.4152889251709;1.2960559129714966;92.33094787597656
92;1673303677.5604339;47.130642099999996;7.2406178;12.253000259399414;1673303677.5643365;16.886781692504883;1.772805094718933;92.45142364501953
93;1673303677.7529798;47.130642099999996;7.2406177;12.660000801086426;1673303677.7558956;16.57445526123047;-1.4062039852142334;91.84674072265625
94;1673303677.948024;47.130642099999996;7.2406177;13.064001083374023;1673303677.9514997;16.87700843811035;1.0488438606262207;92.0315933227539
95;1673303678.1336873;47.1306422;7.240617899999999;13.4660005569458;1673303678.1366203;17.17416763305664;2.530134677886963;92.42145538330078
96;1673303678.3397572;47.1306422;7.2406182;13.86500072479248;1673303678.3417134;17.69118309020996;-0.637775719165802;91.95391082763672
97;1673303678.5365987;47.1306422;7.2406185;14.262001037597656;1673303678.5405207;18.2298526763916;0.5642052888870239;92.05500793457031
98;1673303678.745026;47.130642099999996;7.240618899999999;14.657000541687012;1673303678.7469766;18.647029876708984;2.718205451965332;92.43666076660156
99;1673303678.9365542;47.1306422;7.240619199999999;15.053000450134277;1673303678.9404683;19.162364959716797;-0.2633315920829773;92.00532531738281
100;1673303679.1406848;47.1306422;7.2406194;15.443000793457031;1673303679.1426482;19.32149314880371;0.22863425314426422;91.94711303710938
101;1673303679.3342643;47.1306423;7.240619499999999;15.831000328063965;1673303679.336202;19.129213333129883;3.2056643962860107;92.45361328125
102;1673303679.532771;47.1306423;7.240619499999999;16.22300148010254;1673303679.5356996;19.070377349853516;-0.10086284577846527;92.05132293701172
103;1673303679.7262132;47.1306422;7.2406194;16.618000030517578;1673303679.730117;19.009986877441406;-0.008056770078837872;91.95633697509766
104;1673303679.9248567;47.1306422;7.2406194;17.01300048828125;1673303679.9277844;18.801841735839844;2.8134241104125977;92.36053466796875
105;1673303680.131518;47.1306422;7.2406193;17.41200065612793;1673303680.1354053;18.41915512084961;-0.04563440382480621;92.00096130371094
106;1673303680.3349347;47.1306422;7.240619199999999;17.810001373291016;1673303680.3388498;18.42604637145996;-0.49937617778778076;91.90718078613281
107;1673303680.5317636;47.1306422;7.2406191;18.204999923706055;1673303680.5356848;18.30189323425293;2.667623996734619;92.42485046386719
108;1673303680.744834;47.130642099999996;7.240619;18.60300064086914;1673303680.7477603;18.112035751342773;0.07409759610891342;92.10358428955078
109;1673303680.9421809;47.130642099999996;7.240618899999999;19.006999969482422;1673303680.9441423;18.219846725463867;-0.786348819732666;91.9847412109375
110;1673303681.1839485;47.130642099999996;7.240618899999999;19.413000106811523;1673303681.1868753;18.29201316833496;2.63175892829895;92.41316223144531
111;1673303681.3875456;47.1306422;7.240619;19.819000244140625;1673303681.3904557;18.25593376159668;0.4504554271697998;92.11491394042969
112;1673303681.5680332;47.1306423;7.240619;20.22300148010254;1673303681.570982;18.320833206176758;-0.6796181201934814;91.84646606445312
113;1673303681.755821;47.1306423;7.2406191;20.619001388549805;1673303681.759746;18.486080169677734;2.7731735706329346;92.36779022216797
114;1673303681.9510078;47.1306423;7.2406191;21.011001586914062;1673303681.954162;18.551372528076172;0.9586969614028931;92.10799407958984
115;1673303682.1548111;47.1306423;7.240619199999999;21.4060001373291;1673303682.1567957;18.733320236206055;-1.0210579633712769;91.78401184082031
116;1673303682.3362052;47.1306424;7.240619199999999;21.80000114440918;1673303682.3391216;18.6861572265625;2.0558547973632812;92.34109497070312
117;1673303682.5411901;47.1306425;7.240619199999999;22.19700050354004;1673303682.544121;18.578981399536133;1.9139435291290283;92.30217742919922
118;1673303682.7510614;47.130642599999995;7.240619199999999;22.591001510620117;1673303682.7539742;18.747438430786133;-0.616180419921875;91.81153106689453
119;1673303682.9407625;47.130642599999995;7.240619199999999;22.98200035095215;1673303682.9437108;18.56409454345703;2.4864258766174316;92.2696533203125
120;1673303683.1382332;47.130642599999995;7.2406191;23.36800193786621;1673303683.1421373;18.52099609375;2.094858407974243;92.34586334228516
121;1673303683.3345861;47.130642599999995;7.2406191;23.756000518798828;1673303683.3394673;18.3731746673584;-0.7911989092826843;91.8131332397461
122;1673303683.5647216;47.1306425;7.240619;24.147001266479492;1673303683.5676491;18.488309860229492;1.4158682823181152;92.08180236816406
123;1673303683.7639704;47.130642599999995;7.240619;24.543001174926758;1673303683.765909;18.314903259277344;2.6325347423553467;92.42158508300781
124;1673303683.9625494;47.130642699999996;7.240619;24.941001892089844;1673303683.965534;18.38409423828125;-0.008794475346803665;91.92253112792969
125;1673303684.1679518;47.130642699999996;7.240618899999999;25.340002059936523;1673303684.1708813;18.35264015197754;0.9071232676506042;92.03439331054688
126;1673303684.3550253;47.130642699999996;7.240618899999999;25.731000900268555;1673303684.3579364;18.40662384033203;3.197904109954834;92.4189453125
127;1673303684.5315957;47.130642699999996;7.240619;26.1200008392334;1673303684.5345232;18.467479705810547;-0.663908839225769;91.93004608154297
128;1673303684.721132;47.130642699999996;7.240619;26.511001586914062;1673303684.7250192;18.475215911865234;0.41318586468696594;91.93341064453125
129;1673303684.928605;47.130642699999996;7.240619;26.906002044677734;1673303684.9315574;18.487619400024414;3.155630350112915;92.42691040039062
130;1673303685.1325467;47.1306428;7.240619;27.30000114440918;1673303685.1364505;18.498672485351562;0.7112416625022888;92.06551361083984
131;1673303685.3435488;47.1306428;7.240619;27.689001083374023;1673303685.346483;18.54042625427246;0.33158785104751587;91.88768768310547
132;1673303685.583869;47.1306428;7.240619;28.078001022338867;1673303685.585853;18.599802017211914;3.1829702854156494;92.45402526855469
133;1673303685.808504;47.1306429;7.240619;28.465002059936523;1673303685.8104553;18.332077026367188;0.8096763491630554;92.12078857421875
134;1673303685.9863105;47.1306429;7.2406191;28.85500144958496;1673303685.9882267;18.631418228149414;0.10533227771520615;91.92887115478516
135;1673303686.2014263;47.1306429;7.2406191;29.251001358032227;1673303686.2054915;18.47443199157715;3.47123122215271;92.4251937866211
136;1673303686.3823102;47.1306429;7.240619199999999;29.643001556396484;1673303686.3842633;18.631906509399414;1.687789797782898;92.18985748291016
137;1673303686.6013818;47.1306429;7.2406193;30.035001754760742;1673303686.6033344;18.793132781982422;-0.17969727516174316;91.82411193847656
138;1673303686.769263;47.1306428;7.2406193;30.427001953125;1673303686.7721915;18.65760040283203;3.090045928955078;92.37026977539062
139;1673303686.956258;47.130642699999996;7.2406194;30.814001083374023;1673303686.95821;18.60309410095215;1.184954047203064;92.19805145263672
140;1673303687.1602266;47.130642599999995;7.2406194;31.19900131225586;1673303687.163695;18.6663875579834;-0.6046578288078308;91.82061767578125
141;1673303687.3338466;47.130642599999995;7.2406193;31.589000701904297;1673303687.3367739;18.747093200683594;2.6527581214904785;92.27755737304688
142;1673303687.523474;47.130642699999996;7.2406193;31.98200225830078;1673303687.5293293;18.4477481842041;1.9386955499649048;92.2275161743164
143;1673303687.7368038;47.130642699999996;7.2406193;32.37600326538086;1673303687.7397316;18.491817474365234;-0.560969352722168;91.83919525146484
144;1673303687.9481218;47.130642599999995;7.2406194;32.770999908447266;1673303687.952031;18.55775260925293;2.6800262928009033;92.30148315429688
145;1673303688.151275;47.130642599999995;7.2406194;33.165000915527344;1673303688.155162;18.468870162963867;2.28462290763855;92.3328857421875
146;1673303688.352588;47.130642599999995;7.2406194;33.555999755859375;1673303688.3545406;18.654329299926758;-0.7524600625038147;91.76959991455078
147;1673303688.5354195;47.130642599999995;7.2406194;33.944000244140625;1673303688.5383496;18.62006378173828;1.466713309288025;92.02454376220703
148;1673303688.736539;47.130642699999996;7.240619499999999;34.3390007019043;1673303688.7394676;18.596471786499023;2.815842628479004;92.32585906982422
149;1673303688.9574268;47.130642699999996;7.240619499999999;34.736000061035156;1673303688.9593797;18.548248291015625;-0.34508541226387024;91.82433319091797
150;1673303689.1373427;47.130642599999995;7.240619499999999;35.13600158691406;1673303689.1412463;18.733348846435547;1.3170863389968872;92.12503051757812
151;1673303689.3357382;47.130642599999995;7.240619499999999;35.53499984741211;1673303689.3386672;18.611114501953125;2.8940508365631104;92.40412902832031
152;1673303689.530266;47.130642599999995;7.240619499999999;35.92900085449219;1673303689.5322163;18.5964298248291;0.07247618585824966;91.98625183105469
153;1673303689.7170784;47.130642599999995;7.240619499999999;36.31800079345703;1673303689.7209754;18.74103546142578;0.4797876179218292;91.9276351928711
154;1673303689.9365747;47.130642599999995;7.240619499999999;36.7130012512207;1673303689.9404895;18.537517547607422;3.6915581226348877;92.44685363769531
155;1673303690.1387706;47.130642599999995;7.240619499999999;37.111000061035156;1673303690.1426752;18.527931213378906;0.5181850790977478;91.99854278564453
156;1673303690.3411555;47.130642599999995;7.240619499999999;37.509002685546875;1673303690.3440826;18.641759872436523;0.40168526768684387;91.9736099243164
157;1673303690.5715466;47.130642599999995;7.240619499999999;37.902000427246094;1673303690.5735154;18.610088348388672;3.2799341678619385;92.4939193725586
158;1673303690.7721076;47.130642599999995;7.2406196;38.297000885009766;1673303690.7750423;18.52860450744629;0.7257635593414307;92.10678100585938
159;1673303690.970735;47.130642599999995;7.2406196;38.6870002746582;1673303690.9736674;18.679903030395508;0.13473865389823914;91.82157135009766
160;1673303691.151975;47.130642699999996;7.2406196;39.0780029296875;1673303691.1539273;18.583223342895508;3.394026279449463;92.40982818603516
161;1673303691.335614;47.130642699999996;7.2406196;39.474002838134766;1673303691.339505;18.660478591918945;2.0526561737060547;92.21286010742188
162;1673303691.5449567;47.130642599999995;7.2406196;39.874000549316406;1673303691.5478995;18.741416931152344;-0.44586125016212463;91.775390625
163;1673303691.7433896;47.130642599999995;7.2406196;40.27300262451172;1673303691.7463315;18.67095375061035;3.104130268096924;92.40284729003906
164;1673303691.951731;47.130642599999995;7.2406196;40.672000885009766;1673303691.9536858;18.51154899597168;1.81659734249115;92.31453704833984
165;1673303692.1513534;47.130642599999995;7.2406196;41.06500244140625;1673303692.1552572;18.694963455200195;-0.4379871189594269;91.85291290283203
166;1673303692.357078;47.130642599999995;7.2406196;41.45500183105469;1673303692.3629205;18.642257690429688;2.961411237716675;92.31393432617188
167;1673303692.576256;47.130642599999995;7.2406196;41.85100173950195;1673303692.5811405;18.492904663085938;2.1978981494903564;92.27173614501953
168;1673303692.7628508;47.130642599999995;7.240619499999999;42.25100326538086;1673303692.7658827;18.59525489807129;-0.522889256477356;91.85828399658203
169;1673303692.9667032;47.1306425;7.240619499999999;42.652000427246094;1673303692.9696302;18.616235733032227;1.9953222274780273;92.22294616699219
170;1673303693.1743286;47.1306425;7.240619499999999;43.052001953125;1673303693.1782353;18.57050132751465;2.3835625648498535;92.34705352783203
171;1673303693.3754203;47.1306425;7.240619499999999;43.45100021362305;1673303693.3773646;18.633649826049805;-0.14627985656261444;91.85728454589844
172;1673303693.5667026;47.1306425;7.240619499999999;43.84400177001953;1673303693.568653;18.678483963012695;1.8999660015106201;92.08245849609375
173;1673303693.754217;47.1306425;7.240619499999999;44.23600387573242;1673303693.7581208;18.598617553710938;2.9961891174316406;92.39818572998047
174;1673303693.9419804;47.1306425;7.240619499999999;44.63200378417969;1673303693.9459126;18.698713302612305;-0.3566778600215912;91.83167266845703
175;1673303694.14768;47.1306424;7.240619499999999;45.03200149536133;1673303694.1525965;18.74295425415039;1.0230873823165894;92.02837371826172
176;1673303694.3683722;47.1306424;7.2406194;45.43300247192383;1673303694.3722782;18.42407989501953;3.0924274921417236;92.41615295410156
177;1673303694.570012;47.1306425;7.2406194;45.83700180053711;1673303694.573903;18.48313331604004;-0.22808296978473663;91.77111053466797
178;1673303694.7683084;47.1306425;7.2406194;46.23500061035156;1673303694.7731893;18.506088256835938;1.307401180267334;91.98542785644531
179;1673303694.9513466;47.1306425;7.2406194;46.62800216674805;1673303694.9562263;18.564739227294922;3.5641064643859863;92.3651123046875
180;1673303695.1575983;47.130642599999995;7.240619499999999;47.027000427246094;1673303695.1605268;18.54207992553711;0.34938740730285645;91.94197082519531
181;1673303695.3433173;47.130642599999995;7.240619499999999;47.428001403808594;1673303695.347218;18.608915328979492;0.5416701436042786;91.8968276977539
182;1673303695.5366352;47.130642599999995;7.240619499999999;47.829002380371094;1673303695.540529;18.542470932006836;3.6103262901306152;92.37733459472656
183;1673303695.741642;47.130642599999995;7.240619499999999;48.217002868652344;1673303695.744557;18.49715805053711;1.1249701976776123;91.88443756103516
184;1673303695.9526358;47.130642599999995;7.2406196;48.55800247192383;1673303695.9555662;18.701154708862305;0.7442224621772766;91.84920501708984
185;1673303696.1522477;47.130642599999995;7.240619799999999;48.842002868652344;1673303696.1571255;18.457088470458984;3.660655975341797;92.47441101074219
186;1673303696.3530211;47.1306425;7.24062;49.079002380371094;1673303696.357903;18.75292205810547;0.4367947280406952;91.993896484375
187;1673303696.5486157;47.1306425;7.2406204;49.28300094604492;1673303696.5515435;19.235239028930664;-0.5339266657829285;91.54432678222656
188;1673303696.7540753;47.1306424;7.2406206;49.461002349853516;1673303696.756029;31.024883270263672;2.511430501937866;89.38363647460938
189;1673303696.9466417;47.1306424;7.2406204;49.56700134277344;1673303696.949569;21.298446655273438;-0.16545544564723969;79.27986907958984
190;1673303697.1475658;47.1306423;7.2406203;49.592002868652344;1673303697.1524456;14.97572135925293;-0.3861021399497986;68.16278839111328
191;1673303697.3415408;47.1306419;7.2406203;49.605003356933594;1673303697.3445687;31.025360107421875;-3.4649949073791504;58.183563232421875
192;1673303697.536344;47.130640899999996;7.2406197;49.625003814697266;1673303697.5392728;25.201635360717773;-10.403397560119629;49.16051483154297
193;1673303697.7464974;47.130639599999995;7.2406187;49.67400360107422;1673303697.7494278;12.977004051208496;-17.120922088623047;40.7751350402832
194;1673303697.9533527;47.130638399999995;7.2406177;49.720001220703125;1673303697.9563003;15.279952049255371;-17.860973358154297;32.01982498168945
195;1673303698.1375928;47.130637199999995;7.2406166999999995;49.76400375366211;1673303698.1405208;8.799703598022461;-18.135957717895508;22.912782669067383
196;1673303698.3313992;47.1306362;7.240615699999999;49.80500411987305;1673303698.3344686;4.206880569458008;-18.19356346130371;12.654902458190918
197;1673303698.5345469;47.1306355;7.2406149;49.842002868652344;1673303698.5374749;-1.258273720741272;-16.590164184570312;3.195364475250244
198;1673303698.7356284;47.1306349;7.2406142;49.86900329589844;1673303698.737587;-5.4450531005859375;-16.61688995361328;-6.453058242797852
199;1673303698.943425;47.1306346;7.240613799999999;49.8900032043457;1673303698.9485958;-7.201193332672119;-17.70852279663086;-15.655447959899902
200;1673303699.1551476;47.1306345;7.2406137;49.91200256347656;1673303699.1580825;-8.28789234161377;-19.818967819213867;-24.35594940185547
201;1673303699.3539505;47.1306345;7.2406137;49.93400192260742;1673303699.3578396;-9.981103897094727;-19.702016830444336;-32.81041717529297
202;1673303699.557236;47.1306344;7.2406137;49.952003479003906;1673303699.5601823;-12.127032279968262;-17.758743286132812;-41.2576904296875
203;1673303699.754001;47.1306344;7.2406136;49.96800231933594;1673303699.758879;-14.949875831604004;-15.269132614135742;-49.325157165527344
204;1673303699.9484367;47.130634199999996;7.2406133;49.97800064086914;1673303699.9523418;-16.76011085510254;-12.11747932434082;-50.92292404174805
205;1673303700.1578386;47.130634099999995;7.2406128999999995;49.98400115966797;1673303700.1598067;-15.053770065307617;-12.029953956604004;-48.17885971069336
206;1673303700.3759594;47.130634099999995;7.2406125999999995;49.99700164794922;1673303700.379895;-13.907824516296387;-14.400911331176758;-45.92539596557617
207;1673303700.571986;47.130634099999995;7.2406123;50.01300048828125;1673303700.5761023;-12.903974533081055;-17.13209342956543;-45.27948760986328
208;1673303700.7683802;47.130634;7.240611899999999;50.02700424194336;1673303700.774247;-12.493865013122559;-18.41939353942871;-44.6274299621582
209;1673303700.9562657;47.1306338;7.240611599999999;50.03600311279297;1673303700.9591947;-12.375433921813965;-17.754779815673828;-44.38340759277344
210;1673303701.1410358;47.1306337;7.240611299999999;50.0420036315918;1673303701.14592;-13.142221450805664;-14.644881248474121;-44.284305572509766
211;1673303701.344224;47.130633499999995;7.2406109999999995;50.038002014160156;1673303701.3471515;-13.725923538208008;-13.202803611755371;-44.26318359375
212;1673303701.54208;47.1306333;7.240610599999999;50.02800369262695;1673303701.5450118;-13.224124908447266;-12.961669921875;-44.44667053222656
213;1673303701.737014;47.130632999999996;7.2406104;50.025001525878906;1673303701.7413776;-13.150306701660156;-13.733766555786133;-44.331058502197266
214;1673303701.9453435;47.1306328;7.2406101;50.02900314331055;1673303701.9488196;-26.582521438598633;-14.932963371276855;-44.925025939941406
215;1673303702.133867;47.1306333;7.240609;50.048004150390625;1673303702.1367953;-44.19916915893555;-12.0262451171875;-46.21205139160156
216;1673303702.3567052;47.1306352;7.240606;50.06700134277344;1673303702.3611436;-55.593109130859375;-8.945631980895996;-47.91726303100586
217;1673303702.555229;47.1306393;7.2406;50.06700134277344;1673303702.557181;-59.694366455078125;-6.622035980224609;-49.49451446533203
218;1673303702.752786;47.1306455;7.2405911;50.052001953125;1673303702.7566974;-56.58333206176758;-4.885378360748291;-51.672420501708984
219;1673303702.9689085;47.1306532;7.2405798;50.038002014160156;1673303702.9718423;-54.2715950012207;-3.686612367630005;-51.59097671508789
220;1673303703.1586764;47.1306623;7.2405667;50.03200149536133;1673303703.1635885;-55.066917419433594;-3.8114147186279297;-50.208805084228516
221;1673303703.3519511;47.1306727;7.2405520999999995;50.03300094604492;1673303703.3568466;-53.63566970825195;-5.160139560699463;-49.346534729003906
222;1673303703.5453706;47.130684099999996;7.2405364;50.02000427246094;1673303703.5473216;-54.41918182373047;-6.655613422393799;-48.89015579223633
223;1673303703.756951;47.1306963;7.2405197;50.000003814697266;1673303703.7599413;-53.2411994934082;-7.336116313934326;-48.70501708984375
224;1673303703.9869022;47.1307091;7.2405021;49.97300338745117;1673303703.9888842;-50.00951385498047;-8.043293952941895;-48.63303756713867
225;1673303704.1865976;47.1307222;7.2404839;49.94300079345703;1673303704.1897008;-48.52054977416992;-9.488882064819336;-48.43037033081055
226;1673303704.3766649;47.1307355;7.2404652;49.92400360107422;1673303704.3786273;-47.873592376708984;-8.483627319335938;-48.95402526855469
227;1673303704.576959;47.1307489;7.2404461;49.90700149536133;1673303704.579849;-48.05660629272461;-8.687261581420898;-48.90700912475586
228;1673303704.7661252;47.130762399999995;7.2404268;49.89400100708008;1673303704.7690527;-48.33420944213867;-9.244099617004395;-48.922447204589844
229;1673303705.0040054;47.130775799999995;7.2404072;49.89400100708008;1673303705.0088902;-47.16360092163086;-10.672207832336426;-50.144439697265625
230;1673303705.1882973;47.1307891;7.2403872;49.89400100708008;1673303705.1917489;-47.509727478027344;-11.102131843566895;-50.999881744384766
231;1673303705.374039;47.1308022;7.2403669;49.89800262451172;1673303705.379895;-47.240455627441406;-15.662867546081543;-50.12500762939453
232;1673303705.5698335;47.130814799999996;7.240346;49.90900421142578;1673303705.5728471;-43.11924743652344;-18.141338348388672;-51.506919860839844
233;1673303705.7668445;47.1308265;7.2403252;49.93600082397461;1673303705.7697566;-10.216303825378418;-13.779515266418457;-53.045753479003906
234;1673303705.9640856;47.1308368;7.2403071;49.94300079345703;1673303705.9660392;29.211986541748047;-9.988052368164062;-51.304161071777344
235;1673303706.1689222;47.1308455;7.2402928;49.775001525878906;1673303706.1708906;23.241817474365234;-1.149059534072876;-54.19267272949219
236;1673303706.3859458;47.1308526;7.240283;49.4900016784668;1673303706.3878968;16.240629196166992;-3.054290771484375;-48.55392837524414
237;1673303706.5952518;47.130857899999995;7.2402777;49.23800277709961;1673303706.597203;14.969217300415039;-2.808749198913574;-47.685726165771484
238;1673303706.786393;47.130861499999995;7.240276499999999;49.134002685546875;1673303706.7902648;12.609824180603027;-4.962070941925049;-48.39009094238281
239;1673303706.9932103;47.1308632;7.2402789;49.208003997802734;1673303706.9951375;40.07731246948242;-19.500520706176758;-48.342559814453125
240;1673303707.1833751;47.1308625;7.2402843;49.285003662109375;1673303707.1858664;37.859867095947266;-19.994983673095703;-42.8247184753418
241;1673303707.3799093;47.1308594;7.240291999999999;49.367000579833984;1673303707.3818765;29.34400749206543;-26.813718795776367;-42.52888870239258
242;1673303707.5656502;47.1308541;7.240300599999999;49.47200393676758;1673303707.5676146;10.27003288269043;-27.8375244140625;-43.42863082885742
243;1673303707.75916;47.130848;7.2403089;49.570003509521484;1673303707.7659805;-7.839908599853516;-20.9445743560791;-45.33599853515625
244;1673303707.9706788;47.130842;7.2403163;49.65400314331055;1673303707.9736087;-22.02188491821289;-9.418145179748535;-47.8912467956543
245;1673303708.1628604;47.1308368;7.240322399999999;49.72100067138672;1673303708.1658058;-33.2330322265625;-3.4444024562835693;-50.042667388916016
246;1673303708.3545887;47.1308332;7.2403271;49.768001556396484;1673303708.3565593;-33.94529342651367;-6.099515914916992;-50.47397994995117
247;1673303708.5450866;47.130831;7.2403303;49.80000305175781;1673303708.548013;-24.89920997619629;-5.566790580749512;-48.813289642333984
248;1673303708.7466528;47.130829999999996;7.2403327;49.83100128173828;1673303708.7497606;-21.425539016723633;-9.010003089904785;-48.397666931152344
249;1673303708.9607885;47.1308298;7.2403344999999995;49.862003326416016;1673303708.9627411;-17.90349578857422;-11.024554252624512;-48.364871978759766
250;1673303709.1509905;47.1308301;7.2403362;49.88800048828125;1673303709.152941;-14.422235488891602;-11.354574203491211;-48.67641067504883
251;1673303709.3542;47.130830499999995;7.2403378;49.90900421142578;1673303709.356113;-11.340703010559082;-11.33243179321289;-48.541996002197266
252;1673303709.5494704;47.1308308;7.240339499999999;49.926002502441406;1673303709.553375;-9.445347785949707;-10.794218063354492;-48.59708023071289
253;1673303709.7505198;47.1308309;7.2403413;49.93800354003906;1673303709.7524724;-6.345121383666992;-8.966317176818848;-49.1524543762207
254;1673303709.9581208;47.130831;7.2403435;49.7400016784668;1673303709.9629931;-0.16625043749809265;23.115041732788086;-53.431243896484375
255;1673303710.1652384;47.130831199999996;7.2403458;49.160003662109375;1673303710.168167;10.823607444763184;57.51984786987305;-50.83528518676758
256;1673303710.3536737;47.1308313;7.240348099999999;48.18400192260742;1673303710.3575807;19.48341941833496;88.76505279541016;-38.615760803222656
257;1673303710.6005356;47.1308313;7.2403505;46.829002380371094;1673303710.6024911;21.942176818847656;109.406982421875;-23.36246681213379
258;1673303710.8186612;47.1308313;7.240353;45.118003845214844;1673303710.8206143;21.039819717407227;112.40258026123047;-11.081076622009277
259;1673303711.0033321;47.1308313;7.2403558;43.051002502441406;1673303711.0052876;19.58622932434082;95.78814697265625;-3.6930058002471924
260;1673303711.1840413;47.1308313;7.2403585999999995;40.63200378417969;1673303711.1869826;19.685955047607422;56.6873893737793;-0.3980478048324585
261;1673303711.3780835;47.1308314;7.2403612;37.83700180053711;1673303711.3810296;21.033870697021484;2.016909599304199;1.2454619407653809
262;1673303711.5669656;47.1308316;7.240364;34.6510009765625;1673303711.5698938;17.48386001586914;-45.25259780883789;-1.2244452238082886
263;1673303711.7692146;47.1308319;7.2403673;31.104001998901367;1673303711.7721379;8.093177795410156;-63.9439811706543;4.1099042892456055
264;1673303711.9646544;47.130832299999994;7.240371;27.218000411987305;1673303711.9685483;-4.051041126251221;-47.059783935546875;13.829769134521484
265;1673303712.1493711;47.1308325;7.240375299999999;22.98600196838379;1673303712.1513197;-17.389699935913086;0.5914217233657837;13.660019874572754
266;1673303712.3595192;47.1308325;7.2403797;18.361000061035156;1673303712.3643997;-16.426769256591797;53.13914108276367;10.496302604675293
267;1673303712.5809546;47.130832399999996;7.2403835;13.382000923156738;1673303712.583885;-9.215431213378906;71.57234954833984;18.99179458618164
268;1673303712.7805035;47.1308325;7.240386999999999;8.083000183105469;1673303712.7853837;1.3536653518676758;44.755496978759766;30.944313049316406
269;1673303712.9858785;47.130832899999994;7.24039;2.4170000553131104;1673303712.9878197;12.029945373535156;-8.887386322021484;35.07651138305664
270;1673303713.1920354;47.1308339;7.2403777;-0.24900001287460327;1673303713.197447;13.747668266296387;-14.741543769836426;40.18296813964844
271;1673303713.3989654;47.1308357;7.240349999999999;-0.4710000157356262;1673303713.4008992;16.85283851623535;-8.517035484313965;53.41449737548828
272;1673303713.6082242;47.130837299999996;7.2403214;-0.6510000228881836;1673303713.61017;17.014568328857422;-8.045158386230469;52.934268951416016
273;1673303713.7875679;47.130838499999996;7.240292299999999;-0.8040000200271606;1673303713.7904737;17.07301902770996;-7.653508186340332;53.171607971191406
274;1673303713.9669533;47.1308394;7.2402614;-0.937000036239624;1673303713.9698975;17.176433563232422;-8.248623847961426;53.55168914794922
275;1673303714.1669166;47.13084;7.2402292;-1.068000078201294;1673303714.168871;17.238189697265625;-7.629487991333008;53.71725845336914
276;1673303714.357703;47.130840199999994;7.240195399999999;-1.2280000448226929;1673303714.3616047;17.293880462646484;-7.715400695800781;53.901710510253906
277;1673303714.596478;47.13084;7.2401605;-1.3960000276565552;1673303714.5974858;17.263427734375;-7.700937271118164;54.04552459716797
278;1673303714.810609;47.1308394;7.2401249;-1.5250000953674316;1673303714.8125603;17.28754425048828;-7.890557765960693;54.1708869934082
279;1673303715.008467;47.1308386;7.2400885;-1.63100004196167;1673303715.0113986;17.21007537841797;-8.000602722167969;54.28224182128906
280;1673303715.2084546;47.1308376;7.2400514;-1.721000075340271;1673303715.212364;17.15149688720703;-8.050481796264648;54.33861541748047
281;1673303715.4115126;47.1308362;7.2400135;-1.8010001182556152;1673303715.4154162;17.089942932128906;-8.032872200012207;54.336734771728516
282;1673303715.6075776;47.1308345;7.2399742;-1.9180001020431519;1673303715.6095448;17.05434799194336;-7.993597984313965;54.34730529785156
283;1673303715.796455;47.130832399999996;7.239933799999999;-2.055000066757202;1673303715.7984905;17.01930809020996;-7.960087299346924;54.371578216552734
284;1673303715.9961972;47.1308303;7.239893299999999;-2.1470000743865967;1673303715.9997034;16.947195053100586;-7.794279098510742;54.39369583129883
285;1673303716.1825051;47.130828;7.2398525;-2.2090001106262207;1673303716.186411;16.86557960510254;-7.639669418334961;54.40542221069336
286;1673303716.3758488;47.1308255;7.2398112;-2.258000135421753;1673303716.3795161;16.74688148498535;-7.403250217437744;54.36410903930664
287;1673303716.59159;47.1308229;7.2397693;-2.2990000247955322;1673303716.5954783;16.677846908569336;-7.222145080566406;54.37788009643555
288;1673303716.802638;47.13082;7.2397266;-2.3440001010894775;1673303716.8055663;16.559282302856445;-6.985092639923096;54.35828399658203
289;1673303716.9945834;47.130816599999996;7.2396825;-2.4170000553131104;1673303716.9975595;16.50199317932129;-6.752735614776611;54.343196868896484
290;1673303717.1884885;47.130812899999995;7.2396370999999995;-2.509000062942505;1673303717.1904447;16.408750534057617;-6.529574871063232;54.319488525390625
291;1673303717.3713012;47.130809299999996;7.239592099999999;-2.555000066757202;1673303717.373256;16.273601531982422;-6.298095703125;54.29217529296875
292;1673303717.5425758;47.130805699999996;7.239547;-2.574000120162964;1673303717.5464807;16.145112991333008;-5.97482442855835;54.2769889831543
293;1673303717.7395477;47.130801999999996;7.2395014;-2.579000234603882;1673303717.7444265;16.005115509033203;-5.783332824707031;54.28350067138672
294;1673303717.943644;47.1307981;7.2394552999999995;-2.572000026702881;1673303717.9465725;15.905375480651855;-5.514285087585449;54.27906799316406
295;1673303718.158657;47.1307936;7.239407399999999;-2.5980000495910645;1673303718.1625752;15.824956893920898;-5.337387561798096;54.19220733642578
296;1673303718.3555992;47.1307887;7.239357999999999;-2.6450002193450928;1673303718.3586154;15.744298934936523;-5.136813163757324;54.1690673828125
297;1673303718.5685859;47.1307858;7.23933;-2.6450002193450928;1673303718.5763931;15.670968055725098;-4.924592971801758;54.137168884277344
298;1673303720.5297043;47.1308286;7.240369599999999;29.214000701904297;1673303718.7794828;15.520185470581055;-4.729409694671631;54.10121154785156
299;1673303720.7085814;47.1308307;7.2403857;-1.9530000686645508;1673303718.9645507;15.386406898498535;-4.570106506347656;54.059574127197266
300;;;;;1673303719.1545427;15.31677532196045;-4.4153733253479;54.02857208251953
301;;;;;1673303719.3784;15.206095695495605;-4.275114059448242;53.97845458984375
302;;;;;1673303719.5765593;15.083501815795898;-4.135066986083984;53.920997619628906
303;;;;;1673303719.7739403;15.018451690673828;-4.112573146820068;53.84553909301758
304;;;;;1673303719.9796338;14.954148292541504;-4.169342517852783;53.773948669433594
305;;;;;1673303720.1832342;14.887272834777832;-4.128606796264648;53.69968795776367
306;;;;;1673303720.3865883;14.704161643981934;-4.2214131355285645;53.608924865722656
307;;;;;1673303720.5783992;14.697224617004395;-4.198143005371094;53.451995849609375
308;;;;;1673303720.7614887;14.660537719726562;-4.199685096740723;53.345829010009766
