;pos_time;latitude;longitude;altitude;alt_time;pitch;roll;yaw
0;1673300385.5635605;47.1306424;7.2406201999999995;-0.010000000707805157;1673300385.683126;0.11775662004947662;0.026664547622203827;89.9321517944336
1;1673300385.7612638;47.1306423;7.2406203;-0.012000000104308128;1673300385.8716884;0.1070462316274643;0.042641013860702515;90.03536987304688
2;1673300385.9522796;47.1306423;7.2406203;-0.015000000596046448;1673300386.0794811;-0.07329431921243668;-0.08903729170560837;89.94410705566406
3;1673300386.159201;47.1306423;7.2406203;-0.018000001087784767;1673300386.286256;-0.21166010200977325;-0.523405909538269;90.22037506103516
4;1673300386.3750858;47.1306424;7.2406203;-0.018000001087784767;1673300386.486147;-0.15023839473724365;-0.22215276956558228;90.09044647216797
5;1673300386.5720131;47.1306424;7.2406201999999995;-0.017000000923871994;1673300386.6823764;0.08549246937036514;-0.5439283847808838;90.31340789794922
6;1673300386.7716043;47.1306423;7.2406201999999995;-0.01900000125169754;1673300386.8904047;-0.10161814838647842;-0.49659761786460876;90.22421264648438
7;1673300386.9720073;47.1306423;7.2406201;-0.02200000174343586;1673300387.0941625;0.10654310137033463;-0.22205792367458344;89.99250793457031
8;1673300387.178105;47.1306423;7.24062;-0.027000000700354576;1673300387.2912898;0.2853776812553406;-0.3634367883205414;89.95410919189453
9;1673300387.3795335;47.1306423;7.2406198999999996;-0.030000001192092896;1673300387.4952114;-0.011346638202667236;-0.43646374344825745;90.17340087890625
10;1673300387.5773757;47.1306423;7.2406198999999996;-0.03400000184774399;1673300387.6903327;-0.2375011146068573;-0.2805090844631195;90.05768585205078
11;1673300387.7785263;47.1306423;7.24062;-0.03500000014901161;1673300387.8971367;-0.2056894451379776;-0.34870731830596924;89.96686553955078
12;1673300387.982335;47.1306424;7.24062;-0.036000002175569534;1673300388.0911822;-0.1356276571750641;-0.33701586723327637;89.98023986816406
13;1673300388.184123;47.1306424;7.24062;-0.036000002175569534;1673300388.2841423;-0.056903429329395294;-0.3883490264415741;90.08354949951172
14;1673300388.3632095;47.1306424;7.24062;0.0;1673300388.4753854;0.10563164949417114;-1.0620840787887573;89.9528579711914
15;1673300388.5678585;47.1306424;7.24062;-0.0010000000474974513;1673300388.7122126;-0.19499212503433228;-0.8156055808067322;90.1056137084961
16;1673300388.8035922;47.1306425;7.24062;0.0;1673300388.920748;-0.30962303280830383;-0.8991456031799316;90.14065551757812
17;1673300389.0087526;47.1306425;7.24062;0.0010000000474974513;1673300389.1841786;0.03921910747885704;-0.9240677952766418;90.10240173339844
18;1673300389.2521937;47.1306425;7.24062;0.005000000353902578;1673300389.3690996;-0.10678547620773315;-0.7227314710617065;90.18291473388672
19;1673300389.4334576;47.1306425;7.24062;0.007000000216066837;1673300389.5331593;-0.0783718004822731;-0.6489483714103699;90.28176879882812
20;1673300389.6114967;47.1306425;7.24062;0.00800000037997961;1673300389.7163632;-0.1376868188381195;-1.3357713222503662;90.23589324951172
21;1673300389.8001602;47.1306425;7.24062;-0.0010000000474974513;1673300389.9141762;-0.15594743192195892;-1.8144221305847168;90.32325744628906
22;1673300389.99068;47.1306425;7.2406198999999996;-0.0020000000949949026;1673300390.1051009;-0.2539881765842438;-1.2313400506973267;90.2376480102539
23;1673300390.193225;47.1306425;7.2406198999999996;-0.0010000000474974513;1673300390.3130474;-0.2849706709384918;-0.9122214317321777;90.34178161621094
24;1673300390.4006174;47.1306425;7.240619799999999;-0.0020000000949949026;1673300390.5118542;-0.2519122362136841;-0.7519118189811707;90.43712615966797
25;1673300390.5813067;47.1306425;7.2406198999999996;-0.0010000000474974513;1673300390.696367;-0.1445855051279068;-0.44320544600486755;90.62701416015625
26;1673300390.7761052;47.1306425;7.2406198999999996;-0.003000000026077032;1673300390.890434;-0.5207516551017761;-0.45831555128097534;90.6252212524414
27;1673300390.9837935;47.130642599999995;7.240619799999999;-0.010000000707805157;1673300391.1040785;-0.5963343977928162;-0.6205298900604248;90.91929626464844
28;1673300391.183869;47.130642599999995;7.240619799999999;-0.017000000923871994;1673300391.293653;-0.5137988328933716;-0.47708895802497864;91.42007446289062
29;1673300391.3761938;47.130642699999996;7.240619799999999;-0.020000001415610313;1673300391.4932606;-0.8163661360740662;-0.5364111661911011;92.55196380615234
30;1673300391.5843217;47.1306428;7.2406198999999996;-0.01600000075995922;1673300391.6878128;-0.3414456844329834;-0.3740840554237366;97.0408706665039
31;1673300391.7763543;47.1306431;7.2406203;-0.013000000268220901;1673300391.8921032;0.721301794052124;1.97807776927948;101.69371032714844
32;1673300391.9854794;47.1306435;7.240621;-0.005000000353902578;1673300392.088293;3.627782106399536;4.544791221618652;96.2135238647461
33;1673300392.1693864;47.1306441;7.2406219;0.01100000087171793;1673300392.2734218;7.922796249389648;8.474297523498535;93.41809844970703
34;1673300392.3552077;47.1306448;7.2406232;0.02800000086426735;1673300392.46504;11.256468772888184;12.411563873291016;92.93075561523438
35;1673300392.552353;47.1306456;7.240624599999999;0.0560000017285347;1673300392.6686113;12.59129810333252;12.800793647766113;92.62660217285156
36;1673300392.75408;47.130646399999996;7.240626;0.09700000286102295;1673300392.8704994;14.176788330078125;13.199543952941895;92.32467651367188
37;1673300392.9550304;47.1306471;7.240627399999999;0.15000000596046448;1673300393.0702715;15.278155326843262;15.345762252807617;92.17597961425781
38;1673300393.1571896;47.1306477;7.2406285;0.2150000035762787;1673300393.27407;16.37053871154785;16.417648315429688;91.93585205078125
39;1673300393.3581705;47.130648099999995;7.240629299999999;0.2930000126361847;1673300393.4833806;18.66428565979004;15.203194618225098;91.46997833251953
40;1673300393.57247;47.130648199999996;7.2406296999999995;0.38100001215934753;1673300393.6824548;20.936243057250977;16.42283058166504;91.08399963378906
41;1673300393.7993565;47.130648099999995;7.2406296;0.4780000150203705;1673300393.9172716;21.537578582763672;19.339136123657227;90.82103729248047
42;1673300394.0024657;47.1306477;7.2406289;0.5830000042915344;1673300394.103887;19.958053588867188;16.39461326599121;89.99003601074219
43;1673300394.1787732;47.130646999999996;7.2406277;0.6930000185966492;1673300394.3261585;18.556379318237305;12.267512321472168;88.64784240722656
44;1673300394.4062777;47.1306461;7.2406261999999995;0.8110000491142273;1673300394.5062952;17.06908416748047;14.045416831970215;87.92335510253906
45;1673300394.5924268;47.1306453;7.2406245;0.940000057220459;1673300394.7073896;15.107975006103516;12.057573318481445;86.87944793701172
46;1673300394.8021374;47.1306446;7.2406228;1.0820000171661377;1673300394.9101784;13.554119110107422;8.033529281616211;85.3803482055664
47;1673300394.9862072;47.130643899999995;7.2406215;1.2320001125335693;1673300395.1092374;12.639979362487793;10.376834869384766;84.73199462890625
48;1673300395.1973357;47.1306434;7.2406204;1.3940000534057617;1673300395.301163;12.546217918395996;11.082318305969238;83.9441146850586
49;1673300395.3783286;47.130643;7.2406196;1.5700000524520874;1673300395.4931316;12.6749906539917;7.124277114868164;88.3341064453125
50;1673300395.5742037;47.130642699999996;7.240619199999999;1.7600001096725464;1673300395.692518;12.802536010742188;9.884346961975098;86.27816772460938
51;1673300395.7822587;47.130642599999995;7.240619;1.9580000638961792;1673300395.8992481;14.147241592407227;11.726385116577148;84.91262817382812
52;1673300395.9854445;47.130642699999996;7.2406191;2.1560001373291016;1673300396.09838;15.071260452270508;8.190681457519531;83.27948760986328
53;1673300396.1892848;47.130642699999996;7.2406193;2.3500001430511475;1673300396.3015144;15.956542015075684;9.382475852966309;82.35054779052734
54;1673300396.4192598;47.1306428;7.240619499999999;2.5430002212524414;1673300396.5321631;16.700000762939453;12.16995620727539;81.78457641601562
55;1673300396.6172523;47.1306428;7.240619799999999;2.7340002059936523;1673300396.7339156;17.514881134033203;7.903493404388428;80.66265869140625
56;1673300396.8350902;47.130642699999996;7.24062;2.9280002117156982;1673300396.9453607;17.15601921081543;7.919316291809082;80.39126586914062
57;1673300397.0332468;47.1306428;7.2406201;3.126000165939331;1673300397.1351798;16.882431030273438;12.11610221862793;80.95574188232422
58;1673300397.213267;47.1306429;7.24062;3.327000141143799;1673300397.32066;17.091211318969727;9.53156852722168;80.71121978759766
59;1673300397.4092853;47.1306429;7.24062;3.5220000743865967;1673300397.5313368;16.85088348388672;7.987137317657471;80.48323059082031
60;1673300397.6344416;47.1306428;7.24062;3.7120001316070557;1673300397.7395313;16.481611251831055;11.471280097961426;80.88475799560547
61;1673300397.8181627;47.130642699999996;7.24062;3.9020001888275146;1673300397.9232116;16.65378761291504;9.494939804077148;80.815673828125
62;1673300398.002169;47.130642599999995;7.2406198999999996;4.0920000076293945;1673300398.1141696;16.330781936645508;7.1713080406188965;80.49383544921875
63;1673300398.1938052;47.1306425;7.240619799999999;4.285000324249268;1673300398.2962043;15.937418937683105;11.557903289794922;81.03888702392578
64;1673300398.3744302;47.130642599999995;7.240619799999999;4.482000350952148;1673300398.480448;16.162071228027344;10.842281341552734;81.07809448242188
65;1673300398.5620515;47.130642699999996;7.2406197;4.680000305175781;1673300398.6837995;16.29433250427246;8.172165870666504;80.86630249023438
66;1673300398.7770987;47.130642699999996;7.2406197;4.877000331878662;1673300398.8898816;15.989265441894531;10.518522262573242;81.01329803466797
67;1673300398.980492;47.130642699999996;7.240619799999999;5.075000286102295;1673300399.0923069;16.114444732666016;11.979875564575195;81.32713317871094
68;1673300399.1827168;47.130642599999995;7.240619799999999;5.277000427246094;1673300399.301569;16.43278694152832;7.815781593322754;80.92528533935547
69;1673300399.388267;47.130642599999995;7.240619799999999;5.479000091552734;1673300399.50998;15.974187850952148;9.690533638000488;80.92613983154297
70;1673300399.5964067;47.130642599999995;7.2406198999999996;5.677000045776367;1673300399.7182207;16.103593826293945;12.202990531921387;81.32776641845703
71;1673300399.795876;47.130642699999996;7.2406198999999996;5.874000072479248;1673300399.9211552;16.263809204101562;8.799266815185547;80.9355239868164
72;1673300400.0319693;47.1306428;7.2406198999999996;6.070000171661377;1673300400.166096;16.000019073486328;9.266594886779785;80.88736724853516
73;1673300400.2409875;47.1306428;7.2406198999999996;6.265000343322754;1673300400.3486614;16.13874053955078;12.546953201293945;81.19490051269531
74;1673300400.424363;47.130642699999996;7.2406198999999996;6.460000514984131;1673300400.5362582;16.25884437561035;9.150733947753906;80.89632415771484
75;1673300400.6166704;47.130642699999996;7.24062;6.653000354766846;1673300400.7228267;16.21562385559082;7.980074882507324;80.73209381103516
76;1673300400.8087542;47.130642699999996;7.2406201;6.8460001945495605;1673300400.9311495;16.24437713623047;11.82861614227295;81.08596801757812
77;1673300401.0072923;47.1306428;7.2406201999999995;7.0420002937316895;1673300401.141229;16.46856117248535;10.317880630493164;80.99873352050781
78;1673300401.2393513;47.1306428;7.2406203;7.242000579833984;1673300401.3507779;16.65997886657715;8.021842002868652;80.8109359741211
79;1673300401.4171426;47.1306428;7.2406204;7.443000316619873;1673300401.5212202;16.421621322631836;10.94226360321045;81.01275634765625
80;1673300401.5959814;47.130642699999996;7.2406204;7.640000343322754;1673300401.7059865;16.714569091796875;11.32677936553955;81.18181610107422
81;1673300401.784683;47.130642699999996;7.2406204999999995;7.837000370025635;1673300401.9036787;16.503774642944336;7.789100170135498;80.68057250976562
82;1673300401.988758;47.130642699999996;7.2406204999999995;8.038000106811523;1673300402.1174655;16.12427520751953;10.465720176696777;80.94617462158203
83;1673300402.202921;47.1306428;7.2406204999999995;8.23900032043457;1673300402.3091075;16.435333251953125;12.064807891845703;81.21651458740234
84;1673300402.3938286;47.1306429;7.2406204999999995;8.438000679016113;1673300402.5066755;16.716415405273438;8.63144302368164;80.79560089111328
85;1673300402.5918279;47.1306429;7.2406204999999995;8.63700008392334;1673300402.7086325;16.30630111694336;9.208251953125;80.77455139160156
86;1673300402.7863135;47.1306429;7.2406204999999995;8.835000038146973;1673300402.9098616;16.20482063293457;12.288302421569824;81.21398162841797
87;1673300402.9963858;47.1306429;7.2406204999999995;9.031000137329102;1673300403.1168058;16.461088180541992;8.57103443145752;80.88203430175781
88;1673300403.2013175;47.1306429;7.2406204999999995;9.22700023651123;1673300403.3174553;16.446407318115234;8.833918571472168;80.85218811035156
89;1673300403.4110901;47.130643;7.2406206;9.42300033569336;1673300403.514109;16.369333267211914;12.758044242858887;81.24832153320312
90;1673300403.5986385;47.1306431;7.2406206;9.616000175476074;1673300403.7197912;16.609766006469727;10.124857902526855;81.05168151855469
91;1673300403.7974432;47.1306431;7.2406206;9.81100082397461;1673300403.9034321;16.46906089782715;8.655436515808105;80.9115982055664
92;1673300403.9782724;47.1306431;7.2406206;10.005000114440918;1673300404.1037548;16.285009384155273;11.935604095458984;81.26969146728516
93;1673300404.1835024;47.130643;7.2406206;10.213000297546387;1673300404.2993448;16.21564292907715;11.689301490783691;81.58618927001953
94;1673300404.390655;47.1306428;7.2406204;10.515000343322754;1673300404.5132244;17.287883758544922;10.668739318847656;81.41609954833984
95;1673300404.6057982;47.1306425;7.2406201999999995;10.890000343322754;1673300404.7314749;16.43963050842285;11.564279556274414;81.5284194946289
96;1673300404.8150878;47.130642099999996;7.240619799999999;11.281000137329102;1673300404.9156764;15.406190872192383;11.977052688598633;81.673583984375
97;1673300405.003188;47.1306417;7.240619499999999;11.676000595092773;1673300405.121212;15.17117977142334;7.8092474937438965;81.2762451171875
98;1673300405.201465;47.1306413;7.2406193;12.07300090789795;1673300405.3133867;14.568767547607422;7.586909770965576;81.2303237915039
99;1673300405.4049141;47.1306411;7.240619199999999;12.471000671386719;1673300405.526875;14.619841575622559;9.904101371765137;81.40430450439453
100;1673300405.6082287;47.130640899999996;7.240619199999999;12.871000289916992;1673300405.747698;14.970107078552246;6.934985637664795;81.03471374511719
101;1673300405.835112;47.130641;7.240619199999999;13.277000427246094;1673300405.9571118;14.891046524047852;7.044137001037598;80.82814025878906
102;1673300406.0465493;47.1306412;7.2406193;13.68600082397461;1673300406.1564395;15.079263687133789;11.240114212036133;81.3264389038086
103;1673300406.2286732;47.130641499999996;7.2406194;14.095000267028809;1673300406.3470812;15.710970878601074;9.736540794372559;81.19963073730469
104;1673300406.4336715;47.1306418;7.2406194;14.503000259399414;1673300406.5417662;15.965511322021484;8.804889678955078;81.296875
105;1673300406.6200716;47.130641999999995;7.240619499999999;14.910000801086426;1673300406.7260375;15.68742561340332;12.092741012573242;81.49205017089844
106;1673300406.8046973;47.1306422;7.2406196;15.317000389099121;1673300406.9204578;16.02590560913086;11.211761474609375;81.4202880859375
107;1673300407.0040524;47.1306422;7.2406196;15.723000526428223;1673300407.1227922;16.06231117248535;8.683954238891602;81.1582260131836
108;1673300407.2074428;47.1306422;7.2406196;16.131999969482422;1673300407.3243482;15.735969543457031;11.59496784210205;81.48228454589844
109;1673300407.4096806;47.1306422;7.2406196;16.545000076293945;1673300407.5333726;15.696690559387207;11.309106826782227;81.34517669677734
110;1673300407.6233656;47.1306422;7.240619499999999;16.959001541137695;1673300407.7376993;15.906665802001953;8.41761302947998;81.08140563964844
111;1673300407.8207483;47.130642099999996;7.240619499999999;17.375;1673300407.9328933;15.610946655273438;10.074251174926758;81.23522186279297
112;1673300408.0168326;47.130641999999995;7.2406194;17.785001754760742;1673300408.1257174;15.561485290527344;11.415375709533691;81.53094482421875
113;1673300408.198486;47.130641999999995;7.2406194;18.192001342773438;1673300408.3065627;15.49792194366455;7.991741180419922;81.0144271850586
114;1673300408.394968;47.130641999999995;7.2406194;18.601001739501953;1673300408.5207067;15.492785453796387;8.51465892791748;80.8529281616211
115;1673300408.6062176;47.130641999999995;7.2406194;19.010000228881836;1673300408.7063591;15.363249778747559;11.638880729675293;81.23249053955078
116;1673300408.7849846;47.1306422;7.2406194;19.413000106811523;1673300408.9055877;15.735986709594727;8.974100112915039;81.104248046875
117;1673300408.9922643;47.1306422;7.2406194;19.812000274658203;1673300409.1138408;15.720316886901855;8.357959747314453;81.07035827636719
118;1673300409.2063496;47.1306423;7.2406194;20.21000099182129;1673300409.3231423;15.67304801940918;11.408401489257812;81.36367797851562
119;1673300409.405839;47.1306423;7.2406194;20.608001708984375;1673300409.5176883;15.770755767822266;10.432140350341797;81.22795867919922
120;1673300409.6011984;47.1306423;7.2406194;21.010000228881836;1673300409.7149875;15.766338348388672;8.096707344055176;80.7843246459961
121;1673300409.7995286;47.1306423;7.2406194;21.418001174926758;1673300409.9166622;15.486639022827148;11.436965942382812;81.4530029296875
122;1673300409.998842;47.1306424;7.2406193;21.828001022338867;1673300410.1145742;15.386324882507324;11.543825149536133;81.51285552978516
123;1673300410.1988454;47.1306425;7.240619199999999;22.23400115966797;1673300410.3220785;15.638825416564941;8.730056762695312;81.11284637451172
124;1673300410.4204414;47.1306425;7.240619199999999;22.634000778198242;1673300410.5353017;15.359091758728027;10.781832695007324;81.14453887939453
125;1673300410.6199977;47.1306425;7.240619199999999;23.029001235961914;1673300410.771785;15.557074546813965;11.79000473022461;81.43560028076172
126;1673300410.9230237;47.1306424;7.2406193;23.422000885009766;1673300411.0537183;15.731236457824707;8.245485305786133;81.09992218017578
127;1673300411.1103442;47.1306424;7.2406193;23.817001342773438;1673300411.1870236;15.658663749694824;9.659896850585938;81.08900451660156
128;1673300411.2949374;47.1306425;7.2406194;24.213001251220703;1673300411.4146929;15.60677433013916;11.979081153869629;81.17154693603516
129;1673300411.4749122;47.130642599999995;7.2406194;24.60900115966797;1673300411.5613997;15.981982231140137;8.795397758483887;81.00013732910156
130;1673300411.6326563;47.130642599999995;7.240619499999999;25.006000518798828;1673300411.7338817;15.957245826721191;9.111701011657715;81.01839447021484
131;1673300411.8135781;47.130642599999995;7.240619499999999;25.398000717163086;1673300411.9214804;15.80633544921875;12.091553688049316;81.47808837890625
132;1673300412.001192;47.1306425;7.2406196;25.78900146484375;1673300412.1277924;15.860689163208008;9.298787117004395;81.20028686523438
133;1673300412.2083702;47.1306425;7.240619499999999;26.18800163269043;1673300412.3127332;15.80983829498291;8.529671669006348;80.7905502319336
134;1673300412.39234;47.130642599999995;7.240619499999999;26.590002059936523;1673300412.5023568;15.462285995483398;12.324176788330078;81.37312316894531
135;1673300412.588821;47.130642599999995;7.240619499999999;26.988000869750977;1673300412.7095315;15.724523544311523;10.635077476501465;81.22492980957031
136;1673300412.8040063;47.130642599999995;7.240619499999999;27.38300132751465;1673300412.9316716;15.741661071777344;8.543417930603027;81.17687225341797
137;1673300413.011269;47.130642599999995;7.240619499999999;27.7760009765625;1673300413.1203797;15.587252616882324;11.519792556762695;81.38060760498047
138;1673300413.2089965;47.130642599999995;7.240619499999999;28.16600227355957;1673300413.3317933;15.824633598327637;11.060665130615234;81.36373901367188
139;1673300413.4071643;47.1306425;7.2406196;28.5570011138916;1673300413.5341454;15.863511085510254;8.157307624816895;81.00232696533203
140;1673300413.6192327;47.1306425;7.2406196;28.950000762939453;1673300413.725944;15.604978561401367;10.946662902832031;81.3340835571289
141;1673300413.8144858;47.130642599999995;7.240619499999999;29.34400177001953;1673300413.9322572;15.561657905578613;11.816790580749512;81.41362762451172
142;1673300414.008756;47.130642599999995;7.240619499999999;29.738000869750977;1673300414.1148388;15.953051567077637;8.348897933959961;80.94293212890625
143;1673300414.2003374;47.130642599999995;7.240619499999999;30.131000518798828;1673300414.3127637;15.56357192993164;9.965932846069336;80.9793701171875
144;1673300414.4048476;47.1306425;7.2406196;30.518001556396484;1673300414.5247278;15.564074516296387;11.931281089782715;81.49097442626953
145;1673300414.6093197;47.1306425;7.2406196;30.908000946044922;1673300414.7362297;15.675426483154297;8.50051498413086;81.07434844970703
146;1673300414.8066494;47.1306425;7.2406196;31.304000854492188;1673300414.9287708;15.669775009155273;9.36784553527832;80.9666748046875
147;1673300415.0254486;47.130642599999995;7.2406196;31.704002380371094;1673300415.1450894;15.66900634765625;12.303675651550293;81.24653625488281
148;1673300415.2286925;47.130642599999995;7.2406196;32.10200119018555;1673300415.3684459;15.917176246643066;9.357511520385742;81.09413146972656
149;1673300415.4535499;47.130642599999995;7.2406197;32.49800109863281;1673300415.5693398;15.638323783874512;9.14483642578125;81.2260971069336
150;1673300415.6419532;47.130642599999995;7.2406197;32.89400100708008;1673300415.734817;15.537056922912598;11.935648918151855;81.54286193847656
151;1673300415.819423;47.130642599999995;7.2406197;33.28700256347656;1673300415.9367802;15.880009651184082;10.224333763122559;81.2620849609375
152;1673300416.0178547;47.130642599999995;7.2406197;33.680999755859375;1673300416.1355517;15.818131446838379;8.40910530090332;80.86604309082031
153;1673300416.2161515;47.130642699999996;7.2406197;34.08000183105469;1673300416.3349478;15.64417552947998;11.797928810119629;81.24764251708984
154;1673300416.4213986;47.130642699999996;7.2406197;34.480003356933594;1673300416.538364;15.708889961242676;11.133879661560059;81.23749542236328
155;1673300416.611313;47.1306428;7.240619799999999;34.875;1673300416.7105653;15.82327651977539;8.620722770690918;81.14964294433594
156;1673300416.7862644;47.1306428;7.240619799999999;35.26900100708008;1673300416.8991876;15.6741943359375;10.932329177856445;81.27831268310547
157;1673300416.9847295;47.1306428;7.240619799999999;35.65800094604492;1673300417.1160746;15.797491073608398;11.933886528015137;81.41816711425781
158;1673300417.2064047;47.130642699999996;7.2406198999999996;36.047000885009766;1673300417.3367972;15.871639251708984;8.785853385925293;81.04022216796875
159;1673300417.4311018;47.130642699999996;7.2406198999999996;36.441001892089844;1673300417.5393496;15.711054801940918;10.321357727050781;81.37589263916016
160;1673300417.6239355;47.1306428;7.2406198999999996;36.8390007019043;1673300417.736806;15.658465385437012;12.45539379119873;81.47486877441406
161;1673300417.8184557;47.1306428;7.2406198999999996;37.237003326416016;1673300417.9425833;15.982122421264648;9.164629936218262;81.1090316772461
162;1673300418.0308726;47.1306428;7.2406198999999996;37.63100051879883;1673300418.1269066;15.834524154663086;9.345613479614258;81.04864501953125
163;1673300418.2013185;47.130642699999996;7.24062;38.02400207519531;1673300418.3157566;15.622421264648438;12.155250549316406;81.4256362915039
164;1673300418.4120789;47.130642699999996;7.2406198999999996;38.41400146484375;1673300418.5337758;15.790445327758789;9.997687339782715;81.26398468017578
165;1673300418.6182618;47.130642699999996;7.2406198999999996;38.80500030517578;1673300418.728134;15.825931549072266;8.560015678405762;81.01212310791016
166;1673300418.8096905;47.130642699999996;7.2406198999999996;39.202003479003906;1673300418.9458492;15.656261444091797;11.947604179382324;81.20429229736328
167;1673300419.0177028;47.130642699999996;7.2406198999999996;39.60100173950195;1673300419.1416187;15.949419975280762;10.530694007873535;81.06145477294922
168;1673300419.23399;47.130642699999996;7.2406198999999996;39.996002197265625;1673300419.3540447;15.90929889678955;8.313915252685547;80.96737670898438
169;1673300419.4430084;47.130642699999996;7.2406198999999996;40.393001556396484;1673300419.5565207;15.473516464233398;10.668835639953613;81.12337493896484
170;1673300419.6424932;47.130642599999995;7.2406198999999996;40.78600311279297;1673300419.7389107;15.717235565185547;11.465354919433594;81.4375
171;1673300419.8136988;47.130642599999995;7.2406198999999996;41.177001953125;1673300419.92254;15.854609489440918;8.227640151977539;80.91844177246094
172;1673300420.0101643;47.130642599999995;7.240619799999999;41.57400131225586;1673300420.1288452;15.579047203063965;10.497447967529297;81.10160064697266
173;1673300420.2045462;47.130642699999996;7.240619799999999;41.97800064086914;1673300420.312612;15.523609161376953;12.030795097351074;81.36383819580078
174;1673300420.4016185;47.130642699999996;7.240619799999999;42.380001068115234;1673300420.5203195;15.903141975402832;8.887385368347168;81.26590728759766
175;1673300420.6094403;47.130642699999996;7.240619799999999;42.777000427246094;1673300420.7175543;15.631200790405273;9.843196868896484;81.13523864746094
176;1673300420.804185;47.130642699999996;7.240619799999999;43.17300033569336;1673300420.931138;15.677543640136719;12.424649238586426;81.52067565917969
177;1673300421.0685797;47.130642699999996;7.240619799999999;43.5620002746582;1673300421.174264;15.722744941711426;9.474311828613281;81.12567901611328
178;1673300421.2533352;47.130642699999996;7.240619799999999;43.94900131225586;1673300421.3581574;15.713804244995117;9.408352851867676;81.19514465332031
179;1673300421.437505;47.130642699999996;7.240619799999999;44.34100341796875;1673300421.5352237;15.6183500289917;12.688640594482422;81.55561828613281
180;1673300421.6236832;47.130642699999996;7.240619799999999;44.73600387573242;1673300421.741527;15.969487190246582;10.524893760681152;81.24577331542969
181;1673300421.8289483;47.130642699999996;7.240619799999999;45.130001068115234;1673300421.932311;15.810614585876465;8.59598159790039;80.95822143554688
182;1673300422.005561;47.130642599999995;7.240619799999999;45.5260009765625;1673300422.1258001;15.517416954040527;11.687396049499512;81.26884460449219
183;1673300422.2165532;47.130642599999995;7.240619799999999;45.919002532958984;1673300422.3276057;15.57614517211914;11.151993751525879;81.42076873779297
184;1673300422.4064126;47.130642599999995;7.240619799999999;46.30900192260742;1673300422.516372;15.655790328979492;8.37624740600586;80.95295715332031
185;1673300422.602093;47.130642599999995;7.2406197;46.7030029296875;1673300422.7199693;15.477625846862793;11.208671569824219;81.17495727539062
186;1673300422.8132718;47.130642699999996;7.2406197;47.099002838134766;1673300422.9367938;15.685383796691895;11.871663093566895;81.32877349853516
187;1673300423.0197823;47.130642699999996;7.240619799999999;47.4900016784668;1673300423.140133;15.74658203125;8.61208724975586;81.1221923828125
188;1673300423.2304711;47.130642599999995;7.240619799999999;47.88300323486328;1673300423.348488;15.583572387695312;10.359761238098145;81.06073760986328
189;1673300423.4251606;47.130642599999995;7.240619799999999;48.262001037597656;1673300423.5419579;15.942792892456055;12.59446907043457;81.53958892822266
190;1673300423.6254668;47.130642599999995;7.2406198999999996;48.58700180053711;1673300423.7405074;15.736414909362793;9.048332214355469;81.12109375
191;1673300423.8167508;47.130642699999996;7.2406201;48.86300277709961;1673300423.9321969;15.924590110778809;9.8193941116333;80.93968963623047
192;1673300424.0279973;47.1306429;7.2406203;49.099002838134766;1673300424.1238725;16.32375144958496;12.271613121032715;80.8774642944336
193;1673300424.213602;47.130643;7.2406204999999995;49.29900360107422;1673300424.339176;23.011384963989258;6.954652786254883;79.44622802734375
194;1673300424.435485;47.1306431;7.2406206;49.461002349853516;1673300424.5610306;28.046527862548828;12.646212577819824;74.1379623413086
195;1673300424.639646;47.130643199999994;7.2406201999999995;49.557003021240234;1673300424.7765925;29.394533157348633;14.249532699584961;61.23987579345703
196;1673300424.8468633;47.130642699999996;7.2406194;49.58700180053711;1673300424.9472976;20.877769470214844;2.088381290435791;51.446044921875
197;1673300425.018907;47.1306419;7.2406185;49.63600158691406;1673300425.118051;26.232391357421875;0.591862142086029;43.178348541259766
198;1673300425.2006125;47.130641;7.240617599999999;49.68600082397461;1673300425.3300622;24.325542449951172;-1.6318538188934326;34.334285736083984
199;1673300425.4083362;47.1306399;7.2406165;49.730003356933594;1673300425.5210745;20.65272331237793;-5.305178165435791;26.1860294342041
200;1673300425.609369;47.1306387;7.2406155;49.77000045776367;1673300425.737366;17.128318786621094;-9.464883804321289;17.495792388916016
201;1673300425.8243606;47.1306376;7.2406146;49.80600357055664;1673300425.9340508;13.501791954040527;-12.869511604309082;8.492255210876465
202;1673300426.0466895;47.1306367;7.2406139;49.840003967285156;1673300426.182246;10.757272720336914;-14.31022834777832;-0.5889874696731567
203;1673300426.2597702;47.130635999999996;7.2406134;49.8650016784668;1673300426.377215;8.676898956298828;-14.820660591125488;-10.264450073242188
204;1673300426.4581912;47.1306356;7.2406131;49.88200378417969;1673300426.5734563;5.581982612609863;-14.992956161499023;-20.10466766357422
205;1673300426.6479614;47.130635399999996;7.2406131;49.9010009765625;1673300426.7547626;0.9537377953529358;-15.597695350646973;-30.08214569091797
206;1673300426.8586867;47.130635399999996;7.240613199999999;49.92400360107422;1673300426.986217;-2.650620460510254;-17.244625091552734;-39.806087493896484
207;1673300427.0755405;47.1306357;7.2406133;49.94600296020508;1673300427.2094514;-4.497025489807129;-19.727041244506836;-48.88508987426758
208;1673300427.3061998;47.1306361;7.2406133;49.96600341796875;1673300427.4332266;-5.406611442565918;-21.58296775817871;-52.70162582397461
209;1673300427.518104;47.130636599999995;7.2406131;49.97800064086914;1673300427.6633096;-2.838386297225952;-23.309310913085938;-49.4461669921875
210;1673300427.7556653;47.1306369;7.2406127;49.98400115966797;1673300427.8386261;-0.269610732793808;-22.437211990356445;-46.284637451171875
211;1673300427.9067602;47.1306371;7.2406123;49.996002197265625;1673300428.012641;-0.3286858797073364;-21.333871841430664;-45.496402740478516
212;1673300428.1079245;47.1306371;7.240612;50.00600051879883;1673300428.2111833;-0.19539372622966766;-19.877456665039062;-45.55908203125
213;1673300428.287041;47.1306371;7.240611599999999;50.01400375366211;1673300428.3910801;0.5077095627784729;-19.830368041992188;-45.32839584350586
214;1673300428.467934;47.1306369;7.2406112;50.02300262451172;1673300428.580005;0.8298529982566833;-20.794410705566406;-45.28174591064453
215;1673300428.6655867;47.1306368;7.2406109999999995;50.02900314331055;1673300428.784389;1.1773486137390137;-22.39531707763672;-45.304412841796875
216;1673300428.9064107;47.1306365;7.2406106999999995;50.02400207519531;1673300429.0236754;0.8008068203926086;-22.743370056152344;-45.14334487915039
217;1673300429.1003633;47.1306361;7.2406104;50.0160026550293;1673300429.191882;-0.31260135769844055;-20.417381286621094;-44.91973876953125
218;1673300429.2900624;47.1306356;7.2406102;50.012001037597656;1673300429.407798;-2.317378044128418;-17.7287540435791;-44.98807144165039
219;1673300429.4861681;47.130635299999994;7.240609999999999;50.012001037597656;1673300429.5930982;-24.345458984375;-15.988799095153809;-45.79018783569336
220;1673300429.6690183;47.130635399999996;7.2406092;50.01900100708008;1673300429.779887;-43.952247619628906;-10.029454231262207;-47.42055130004883
221;1673300429.854613;47.1306369;7.2406067;50.03000259399414;1673300429.9625793;-54.69936752319336;-7.61349630355835;-48.219459533691406
222;1673300430.040714;47.130640799999995;7.2406011999999995;50.01900100708008;1673300430.1630049;-54.375118255615234;-8.765028953552246;-49.274627685546875
223;1673300430.2372522;47.1306472;7.240592599999999;49.99500274658203;1673300430.346957;-55.8720703125;-8.79244613647461;-50.946502685546875
224;1673300430.4282017;47.130655499999996;7.2405811;49.983001708984375;1673300430.5428474;-56.73324966430664;-6.817558288574219;-51.48086929321289
225;1673300430.6267016;47.130665699999994;7.2405669999999995;49.97100067138672;1673300430.7379062;-53.89520263671875;-6.724021911621094;-50.64363479614258
226;1673300430.8320465;47.1306777;7.2405506;49.96000289916992;1673300430.9557488;-54.03610610961914;-9.263323783874512;-50.24946975708008
227;1673300431.0522325;47.130691;7.2405322;49.957000732421875;1673300431.1683226;-53.51115798950195;-10.452754020690918;-50.005741119384766
228;1673300431.2440302;47.130705299999995;7.2405121999999995;49.954002380371094;1673300431.3450055;-51.41168975830078;-13.033293724060059;-49.415409088134766
229;1673300431.434814;47.1307203;7.240490899999999;49.93600082397461;1673300431.5431435;-51.86906433105469;-14.46226692199707;-49.342220306396484
230;1673300431.6339898;47.130735699999995;7.2404683;49.915000915527344;1673300431.7411964;-49.329872131347656;-12.348878860473633;-49.930908203125
231;1673300431.8237028;47.130751499999995;7.2404446;49.8910026550293;1673300431.9448485;-46.66680145263672;-11.797514915466309;-49.66404724121094
232;1673300432.033636;47.1307675;7.2404204;49.86900329589844;1673300432.1599712;-46.35806655883789;-11.919049263000488;-49.4040412902832
233;1673300432.286047;47.130783699999995;7.240395899999999;49.85700225830078;1673300432.3903608;-46.05752182006836;-12.287993431091309;-49.367431640625
234;1673300432.4742057;47.1307999;7.240371199999999;49.84800338745117;1673300432.5899558;-46.74761962890625;-15.527880668640137;-50.90235137939453
235;1673300432.6704173;47.1308161;7.240346199999999;49.84600067138672;1673300432.7789242;-46.33675003051758;-20.519819259643555;-51.751277923583984
236;1673300432.8563209;47.1308319;7.2403207;49.85300064086914;1673300432.9825518;-35.32786178588867;-20.26567268371582;-55.08366012573242
237;1673300433.05821;47.130846899999995;7.240294899999999;49.87900161743164;1673300433.1700966;8.875319480895996;-17.604820251464844;-54.984920501708984
238;1673300433.2452874;47.1308606;7.2402712;49.89500427246094;1673300433.3952165;29.33824348449707;-4.61878776550293;-58.84477615356445
239;1673300433.498415;47.1308728;7.240251199999999;49.749000549316406;1673300433.615359;17.047426223754883;-4.76671838760376;-51.51099395751953
240;1673300433.7083907;47.1308836;7.2402359;49.492000579833984;1673300433.8123865;14.537431716918945;-4.116392135620117;-47.022579193115234
241;1673300433.87936;47.130893;7.240225;49.2650032043457;1673300433.9863253;13.781793594360352;-4.674068450927734;-46.803306579589844
242;1673300434.072159;47.130901099999996;7.240218199999999;49.152000427246094;1673300434.189918;18.27177619934082;-7.310086250305176;-46.61290740966797
243;1673300434.2720494;47.130907799999996;7.240215;49.18100357055664;1673300434.3702753;34.55683135986328;-13.24946117401123;-46.578468322753906
244;1673300434.4747791;47.130912699999996;7.240215;49.26700210571289;1673300434.5991957;41.94472885131836;-17.281593322753906;-45.30025863647461
245;1673300434.68428;47.1309153;7.240218;49.37000274658203;1673300434.7999325;46.0758171081543;-22.708398818969727;-45.79376983642578
246;1673300434.882285;47.130915099999996;7.2402238;49.47600173950195;1673300434.9842591;47.0468864440918;-29.026758193969727;-45.356773376464844
247;1673300435.0716534;47.1309119;7.2402314;49.58500289916992;1673300435.2111733;39.63230895996094;-33.75674819946289;-44.271331787109375
248;1673300435.2863107;47.130905899999995;7.2402397999999994;49.68400192260742;1673300435.400241;25.5817928314209;-35.64701461791992;-44.57048416137695
249;1673300435.4792352;47.1308983;7.2402478;49.755001068115234;1673300435.5842452;7.287318706512451;-30.49522590637207;-46.367515563964844
250;1673300435.6616778;47.130890099999995;7.2402551;49.798004150390625;1673300435.788196;-9.15670394897461;-24.388620376586914;-48.72136306762695
251;1673300435.9078078;47.130882199999995;7.240260999999999;49.827003479003906;1673300436.0362847;-18.92140769958496;-16.224504470825195;-50.00687789916992
252;1673300436.107099;47.130875599999996;7.2402655;49.849002838134766;1673300436.2102873;-24.05486297607422;-8.07089614868164;-50.869380950927734
253;1673300436.2900443;47.1308708;7.2402685;49.8650016784668;1673300436.386463;-25.517229080200195;-5.5637431144714355;-51.113731384277344
254;1673300436.466561;47.1308679;7.240270199999999;49.87700271606445;1673300436.5754845;-23.943029403686523;-7.7593865394592285;-50.49565124511719
255;1673300436.654322;47.1308668;7.2402707;49.8910026550293;1673300436.764213;-18.07477569580078;-12.162646293640137;-49.657718658447266
256;1673300436.8467414;47.1308669;7.2402703;49.90500259399414;1673300436.9645774;-10.23554801940918;-16.571908950805664;-49.58441925048828
257;1673300437.0444767;47.130867699999996;7.240269499999999;49.919002532958984;1673300437.1615348;-2.6027612686157227;-19.000410079956055;-49.54548645019531
258;1673300437.2497041;47.130868799999995;7.240268599999999;49.935001373291016;1673300437.3576179;4.866989612579346;-17.152265548706055;-50.18355941772461
259;1673300437.4540834;47.1308698;7.2402679999999995;49.89600372314453;1673300437.5630486;32.38726043701172;-14.881099700927734;-52.31076431274414
260;1673300437.6475792;47.130871;7.2402675;49.518001556396484;1673300437.7614098;59.237510681152344;-2.0774760246276855;-51.22080993652344
261;1673300437.8499498;47.1308724;7.2402672;48.76100158691406;1673300437.9708004;77.8863754272461;43.9401969909668;-23.965085983276367
262;1673300438.061468;47.130874;7.2402669;47.634002685546875;1673300438.1763558;77.62151336669922;122.39535522460938;29.605484008789062
263;1673300438.2553005;47.130875599999996;7.240266699999999;46.150001525878906;1673300438.3726833;78.18465423583984;133.55165100097656;13.614424705505371
264;1673300438.457409;47.130877399999996;7.2402666;44.3120002746582;1673300438.5653791;76.30766296386719;57.01106643676758;-88.03997039794922
265;1673300438.6451805;47.1308791;7.240266399999999;42.12000274658203;1673300438.7659178;45.20066452026367;29.796113967895508;-135.92063903808594
266;1673300438.847786;47.1308806;7.2402663;39.56800079345703;1673300438.9672062;2.2782859802246094;25.156536102294922;-156.06607055664062
267;1673300439.0490572;47.130882;7.2402665;36.63300323486328;1673300439.1579814;-37.35865783691406;16.743850708007812;-168.6016082763672
268;1673300439.2356484;47.130883499999996;7.2402671;33.302001953125;1673300439.3465998;-55.39907455444336;-7.509621620178223;-167.00885009765625
269;1673300439.4340706;47.130885299999996;7.2402679;29.612001419067383;1673300439.5499675;-43.98257827758789;-31.255203247070312;-170.06573486328125
270;1673300439.6364985;47.1308874;7.240268899999999;25.578001022338867;1673300439.7532346;-10.624527931213379;-38.61310958862305;166.97755432128906
271;1673300439.8397226;47.1308899;7.240269499999999;21.184001922607422;1673300439.9638135;28.001895904541016;-40.98680877685547;139.29388427734375
272;1673300440.0546968;47.1308921;7.2402698;16.420000076293945;1673300440.174459;51.3817253112793;-30.838117599487305;121.48653411865234
273;1673300440.262345;47.130894;7.240270199999999;11.312000274658203;1673300440.3734362;42.78567123413086;2.533512830734253;126.31568145751953
274;1673300440.4459047;47.130895599999995;7.2402712;5.861000061035156;1673300440.5526426;2.6685597896575928;21.84941864013672;119.49919128417969
275;1673300440.635538;47.1308973;7.2402728;0.036000002175569534;1673300440.7673001;-1.6924710273742676;13.510790824890137;120.29305267333984
276;1673300440.8547707;47.1308837;7.240274299999999;-0.13700000941753387;1673300440.9780219;-7.728763103485107;20.241884231567383;129.83908081054688
277;1673300441.0557487;47.130868799999995;7.2402767;-0.3360000252723694;1673300441.1770267;-6.907525539398193;17.121286392211914;128.33177185058594
278;1673300441.2596922;47.1308535;7.240278699999999;-0.4540000259876251;1673300441.3754976;-6.448357105255127;17.1860294342041;127.8722152709961
279;1673300441.4690056;47.1308376;7.2402802;-0.5509999990463257;1673300441.5778902;-6.176328182220459;17.934480667114258;127.56510162353516
280;1673300441.653756;47.130820299999996;7.2402812;-0.6440000534057617;1673300441.7674372;-6.023004531860352;18.067161560058594;127.23278045654297
281;1673300441.8599088;47.1308018;7.2402817;-0.7700000405311584;1673300441.9649642;-5.885892391204834;18.159461975097656;126.93804931640625
282;1673300442.043602;47.1307822;7.2402817;-0.906000018119812;1673300442.1585536;-5.712777614593506;18.322288513183594;126.67462158203125
283;1673300442.243274;47.130761799999995;7.2402812;-1.0180000066757202;1673300442.3500571;-5.582582950592041;18.455955505371094;126.45844268798828
284;1673300442.4331112;47.130740499999995;7.240280299999999;-1.1170001029968262;1673300442.5478928;-5.4528937339782715;18.433460235595703;126.2928237915039
285;1673300442.6309898;47.1307185;7.2402789;-1.2070000171661377;1673300442.7538636;-5.319002628326416;18.474517822265625;126.07979583740234
286;1673300442.8407626;47.1306957;7.240277099999999;-1.2920000553131104;1673300442.9539702;-5.151529312133789;18.454118728637695;125.93682098388672
287;1673300443.0460927;47.130671899999996;7.2402748;-1.4180001020431519;1673300443.1610038;-5.10773229598999;18.44561004638672;125.70867156982422
288;1673300443.2461538;47.1306477;7.2402723;-1.533000111579895;1673300443.3999507;-4.982296943664551;18.273670196533203;125.58596801757812
289;1673300443.4889808;47.1306225;7.2402691;-1.6340000629425049;1673300443.596108;-4.81895112991333;18.117557525634766;125.43147277832031
290;1673300443.6753519;47.1305967;7.2402656;-1.7120001316070557;1673300443.7709498;-4.729729652404785;17.950641632080078;125.30155944824219
291;1673300443.8428586;47.130570299999995;7.2402617;-1.7850000858306885;1673300443.9600222;-4.666990756988525;17.686113357543945;125.17681884765625
292;1673300444.0469627;47.1305432;7.2402574;-1.849000096321106;1673300444.1539288;-4.564810276031494;17.500629425048828;125.05117797851562
293;1673300444.2400825;47.1305155;7.2402527;-1.9070000648498535;1673300444.3651748;-4.502979278564453;17.258106231689453;124.92725372314453
294;1673300444.4578633;47.1304866;7.2402475;-2.005000114440918;1673300444.5690796;-4.463540554046631;17.05321502685547;124.81302642822266
295;1673300444.6508963;47.1304569;7.2402419;-2.114000082015991;1673300444.7690437;-4.361019611358643;16.816946029663086;124.7295913696289
296;1673300444.8577306;47.130427;7.2402359999999994;-2.186000108718872;1673300444.9740098;-4.311235427856445;16.541240692138672;124.62631225585938
297;1673300445.060954;47.1303966;7.2402298;-2.236999988555908;1673300445.1737907;-4.241272449493408;16.297090530395508;124.56100463867188
298;1673300445.25886;47.1303657;7.240223299999999;-2.2730000019073486;1673300445.3859718;-4.174766540527344;16.12087059020996;124.46202087402344
299;1673300445.4652245;47.1303341;7.2402163999999996;-2.2990000247955322;1673300445.5771685;-4.081423759460449;15.943723678588867;124.36946105957031
300;1673300445.6663313;47.1303012;7.2402089;-2.369000196456909;1673300445.8081527;-4.011532783508301;15.83329963684082;124.31302642822266
301;1673300445.9015343;47.130267499999995;7.240201;-2.44100022315979;1673300446.021931;-3.976529836654663;15.665729522705078;124.2146224975586
302;1673300446.1102128;47.1302336;7.240192899999999;-2.4730000495910645;1673300446.215015;-3.9591317176818848;15.549539566040039;124.15559387207031
303;1673300446.2940297;47.1302142;7.2401881999999995;-2.4850001335144043;1673300446.4229033;-3.9009249210357666;15.414667129516602;124.08678436279297
304;;;;;1673300446.6080356;-3.868177890777588;15.285926818847656;124.01579284667969
305;;;;;1673300446.8081212;-3.800851821899414;15.130915641784668;123.9389419555664
306;;;;;1673300446.993834;-3.75937819480896;15.1034517288208;123.86067962646484
307;;;;;1673300447.2028334;-3.757974147796631;15.155256271362305;123.75616455078125
308;;;;;1673300447.4007204;-3.738072633743286;15.375378608703613;123.7086410522461
309;;;;;1673300447.6260486;-3.7182445526123047;15.698247909545898;123.66333770751953
310;;;;;1673300447.8374686;-3.6336779594421387;15.789462089538574;123.60733032226562
311;;;;;1673300448.0240538;-3.6168668270111084;15.88387680053711;123.59362030029297
312;;;;;1673300448.2109785;-3.5837459564208984;15.934101104736328;123.52809143066406
