;pos_time;latitude;longitude;altitude;alt_time;pitch;roll;yaw
0;1673300137.1674955;47.1306425;7.2406201;0.020000001415610313;1673300137.1714005;-0.1872464418411255;-0.5965789556503296;90.16452026367188
1;1673300137.372843;47.1306425;7.2406201;0.02200000174343586;1673300137.3748124;-0.1741843968629837;-0.39686086773872375;90.1095962524414
2;1673300137.5751321;47.1306425;7.2406201;0.02200000174343586;1673300137.5780725;0.0564817376434803;-0.15851081907749176;90.15103149414062
3;1673300137.768556;47.1306425;7.2406201999999995;0.02500000037252903;1673300137.7724452;-0.06407684087753296;-0.1513565629720688;90.1270523071289
4;1673300137.9718366;47.1306425;7.2406201999999995;0.026000000536441803;1673300137.974759;-0.11434624344110489;-0.22306323051452637;90.23126983642578
5;1673300138.1771438;47.1306425;7.2406201999999995;0.02500000037252903;1673300138.181047;-0.08667666465044022;-0.07967890799045563;90.1019287109375
6;1673300138.368585;47.1306425;7.2406201;0.021000001579523087;1673300138.3715131;-0.2608258128166199;-0.26726317405700684;90.38880920410156
7;1673300138.5509071;47.1306425;7.2406201;0.017000000923871994;1673300138.5548513;-0.11740272492170334;-0.09770005196332932;90.20166015625
8;1673300138.7529943;47.1306425;7.24062;0.014000000432133675;1673300138.755922;0.02876598760485649;-0.1822805106639862;90.23286437988281
9;1673300138.9463675;47.1306425;7.2406201;0.020000001415610313;1673300138.951246;0.09502056986093521;-0.04786952957510948;90.04873657226562
10;1673300139.1611466;47.1306425;7.2406201;0.021000001579523087;1673300139.1640677;-0.14382940530776978;-0.2637813985347748;90.2686538696289
11;1673300139.379318;47.1306425;7.2406201;0.020000001415610313;1673300139.3822465;-0.05009444057941437;-0.15788444876670837;90.35155487060547
12;1673300139.5573773;47.1306425;7.2406201;0.01900000125169754;1673300139.5593445;-0.20701847970485687;-0.20657137036323547;90.31415557861328
13;1673300139.7512367;47.1306425;7.24062;0.01900000125169754;1673300139.7541718;-0.18549714982509613;-0.07088041305541992;90.24161529541016
14;1673300139.946678;47.1306425;7.2406198999999996;0.0;1673300139.9496043;-0.2472299486398697;-0.5277101993560791;90.30303955078125
15;1673300140.1596956;47.1306425;7.2406198999999996;-0.003000000026077032;1673300140.1635985;-0.26538681983947754;-0.4941428005695343;90.32763671875
16;1673300140.3667722;47.1306425;7.240619799999999;-0.006000000052154064;1673300140.369701;8.804540243545489e-07;-0.4706280827522278;90.128173828125
17;1673300140.5702267;47.1306424;7.2406198999999996;-0.005000000353902578;1673300140.5731559;-0.02003667876124382;-0.3759497106075287;90.34498596191406
18;1673300140.782415;47.1306424;7.2406198999999996;-0.005000000353902578;1673300140.7853432;-0.14565569162368774;-0.3620762228965759;90.10118103027344
19;1673300140.976555;47.1306424;7.2406198999999996;-0.010000000707805157;1673300140.9806056;-0.35795605182647705;-0.5302285552024841;90.35594177246094
20;1673300141.174657;47.1306424;7.2406198999999996;-0.01600000075995922;1673300141.1766102;-0.12542486190795898;-0.4840180277824402;90.44995880126953
21;1673300141.371455;47.1306425;7.240619799999999;-0.020000001415610313;1673300141.3763359;-0.23109209537506104;-0.3901706039905548;90.32206726074219
22;1673300141.5544536;47.1306425;7.240619799999999;0.0010000000474974513;1673300141.5584574;-0.28871673345565796;-0.7513341903686523;90.35797119140625
23;1673300141.7435224;47.1306425;7.2406197;0.004000000189989805;1673300141.745477;-0.3133937418460846;-0.29799771308898926;90.30872344970703
24;1673300141.950547;47.1306425;7.2406197;0.0020000000949949026;1673300141.9534795;-0.1940908432006836;-0.29584404826164246;90.17547607421875
25;1673300142.1394243;47.1306425;7.2406197;-0.0020000000949949026;1673300142.143814;-0.31384727358818054;-0.5619669556617737;90.27015686035156
26;1673300142.3306208;47.1306425;7.2406197;-0.004000000189989805;1673300142.3325777;-0.2568082809448242;-0.32168832421302795;90.29376983642578
27;1673300142.5394208;47.1306425;7.240619799999999;-0.009000000543892384;1673300142.5425673;-0.29371604323387146;-0.44545817375183105;90.2891845703125
28;1673300142.7415862;47.1306425;7.240619799999999;-0.013000000268220901;1673300142.7445154;-0.23097848892211914;-0.36508864164352417;90.35726928710938
29;1673300142.9416397;47.1306425;7.2406198999999996;-0.01600000075995922;1673300142.944571;-0.34885358810424805;-0.08630950003862381;90.47689819335938
30;1673300143.1443765;47.130642599999995;7.2406198999999996;-0.017000000923871994;1673300143.1493635;-0.40919041633605957;-0.33467841148376465;90.94231414794922
31;1673300143.3438072;47.130642599999995;7.24062;-0.01900000125169754;1673300143.3467348;-0.5049086809158325;-0.14282065629959106;91.60205078125
32;1673300143.5325654;47.1306428;7.2406201;-0.01900000125169754;1673300143.534497;0.4413767158985138;0.07271430641412735;93.59122467041016
33;1673300143.7245138;47.1306429;7.2406203;-0.012000000104308128;1673300143.727449;2.2350800037384033;3.149258613586426;92.83529663085938
34;1673300143.923599;47.130643;7.2406206;0.00800000037997961;1673300143.9285698;7.334805011749268;8.898712158203125;92.177734375
35;1673300144.1244986;47.130643199999994;7.240620799999999;0.05100000277161598;1673300144.12844;8.74170207977295;7.255979537963867;91.9127197265625
36;1673300144.3269765;47.130643199999994;7.2406209;0.11000000685453415;1673300144.3295445;8.362842559814453;5.157449722290039;91.24504852294922
37;1673300144.534489;47.130643199999994;7.240620799999999;0.1810000091791153;1673300144.536441;8.750589370727539;9.719934463500977;90.89826202392578
38;1673300144.7474635;47.130643199999994;7.2406207;0.26200002431869507;1673300144.751433;8.576868057250977;6.840263843536377;90.32596588134766
39;1673300144.956566;47.1306431;7.2406204999999995;0.35500001907348633;1673300144.9595027;8.163799285888672;4.3908796310424805;89.47416687011719
40;1673300145.1480627;47.1306429;7.2406203;0.46400001645088196;1673300145.1519685;6.9815545082092285;8.416461944580078;88.40216064453125
41;1673300145.351125;47.130642599999995;7.2406201;0.5890000462532043;1673300145.3540146;7.088080406188965;6.3496904373168945;87.15946960449219
42;1673300145.5532758;47.1306425;7.240619799999999;0.7320000529289246;1673300145.5552294;7.115519046783447;2.3590307235717773;86.55840301513672
43;1673300145.7556264;47.1306425;7.2406196;0.8850000500679016;1673300145.7595296;7.169549942016602;6.681237697601318;86.86465454101562
44;1673300145.952016;47.1306425;7.2406193;1.0490000247955322;1673300145.9549444;7.607685565948486;7.426244735717773;87.04881286621094
45;1673300146.142753;47.1306425;7.240619199999999;1.2260000705718994;1673300146.1456978;7.405073165893555;3.6909725666046143;86.7191162109375
46;1673300146.3423045;47.1306425;7.240619199999999;1.415000081062317;1673300146.3452342;6.880128860473633;6.218428611755371;86.18824768066406
47;1673300146.5335965;47.1306423;7.240619199999999;1.6080000400543213;1673300146.5375018;6.667264938354492;7.82139253616333;87.24486541748047
48;1673300146.7392256;47.1306423;7.240619199999999;1.8050000667572021;1673300146.7421288;6.813470840454102;3.7825324535369873;86.33161163330078
49;1673300146.956477;47.1306423;7.240619199999999;2.005000114440918;1673300146.9584298;7.095499515533447;4.294776916503906;85.9677505493164
50;1673300147.148646;47.1306423;7.2406191;2.203000068664551;1673300147.1515741;7.721324443817139;8.516118049621582;86.20069885253906
51;1673300147.3551986;47.1306423;7.2406191;2.3970000743865967;1673300147.3581266;7.980395317077637;4.995099067687988;85.95840454101562
52;1673300147.549683;47.1306423;7.2406191;2.5930001735687256;1673300147.5516362;7.979244232177734;3.6974940299987793;85.67081451416016
53;1673300147.7430842;47.1306422;7.240619199999999;2.7940001487731934;1673300147.7460172;7.437840938568115;7.657156467437744;85.40924835205078
54;1673300147.9514062;47.130642099999996;7.2406193;2.994000196456909;1673300147.9543345;7.206368923187256;5.089492321014404;85.18893432617188
55;1673300148.1527836;47.1306422;7.2406193;3.195000171661377;1673300148.1615677;7.1313982009887695;2.3961050510406494;85.18487548828125
56;1673300148.366548;47.1306423;7.2406194;3.3990001678466797;1673300148.3694751;7.639101028442383;7.237292766571045;85.82454681396484
57;1673300148.5507786;47.1306424;7.2406194;3.5990002155303955;1673300148.553708;8.297029495239258;7.097121715545654;85.87629699707031
58;1673300148.7383149;47.130642599999995;7.2406194;3.7990002632141113;1673300148.7402813;8.196207046508789;3.896527051925659;85.6434326171875
59;1673300148.9396005;47.1306425;7.240619499999999;3.995000123977661;1673300148.9425254;8.168000221252441;6.9354705810546875;85.57085418701172
60;1673300149.1378734;47.1306424;7.240619499999999;4.194000244140625;1673300149.1408012;7.575084209442139;7.130252838134766;85.64617919921875
61;1673300149.3245509;47.1306425;7.240619499999999;4.394999980926514;1673300149.3294318;6.981385231018066;3.3117835521698;85.66067504882812
62;1673300149.5249395;47.1306425;7.240619499999999;4.5960001945495605;1673300149.5288286;6.969430923461914;5.690161228179932;85.83417510986328
63;1673300149.738093;47.1306425;7.240619499999999;4.799000263214111;1673300149.7410269;7.853168487548828;9.05754280090332;85.83519744873047
64;1673300149.964352;47.1306425;7.2406196;4.997000217437744;1673300149.9663053;8.229965209960938;4.508157253265381;85.2054672241211
65;1673300150.1739573;47.1306424;7.2406196;5.193000316619873;1673300150.176886;8.426502227783203;4.04392671585083;84.96391296386719
66;1673300150.3763435;47.1306423;7.2406197;5.39300012588501;1673300150.3792715;8.0689697265625;7.805942535400391;85.53681182861328
67;1673300150.5687468;47.1306422;7.2406197;5.5970001220703125;1673300150.5716853;7.584372043609619;5.375056743621826;85.82600402832031
68;1673300150.766189;47.1306423;7.2406197;5.800000190734863;1673300150.7681406;6.978616714477539;3.378835439682007;85.82640075683594
69;1673300150.9532661;47.1306424;7.2406196;6.003000259399414;1673300150.9552193;7.410023212432861;7.947941303253174;85.89004516601562
70;1673300151.152302;47.1306424;7.2406196;6.203000068664551;1673300151.1562064;8.128954887390137;6.719420909881592;85.39306640625
71;1673300151.3520408;47.1306424;7.2406196;6.403000354766846;1673300151.3559546;8.421971321105957;3.5228636264801025;84.77997589111328
72;1673300151.5574756;47.1306423;7.2406197;6.5970001220703125;1673300151.560403;8.312829971313477;6.677792072296143;85.18449401855469
73;1673300151.7798405;47.1306422;7.2406197;6.793000221252441;1673300151.7827713;7.594995021820068;6.781627655029297;85.59709930419922
74;1673300151.9793577;47.1306423;7.2406197;6.994000434875488;1673300151.9822867;6.972893238067627;2.849602460861206;85.8758316040039
75;1673300152.1992939;47.1306424;7.2406197;7.193000316619873;1673300152.2022057;7.172959327697754;6.749997615814209;86.27774810791016
76;1673300152.3971765;47.1306424;7.2406197;7.389000415802002;1673300152.4020457;8.047304153442383;8.788959503173828;86.15020751953125
77;1673300152.5825236;47.1306423;7.2406197;7.584000587463379;1673300152.5903306;8.142822265625;3.919285297393799;85.31640625
78;1673300152.7772017;47.1306423;7.240619799999999;7.78000020980835;1673300152.7801309;8.281579971313477;3.835073232650757;85.01124572753906
79;1673300152.966216;47.1306422;7.240619799999999;7.9810004234313965;1673300152.9681764;8.100258827209473;7.545767307281494;85.42491149902344
80;1673300153.1461058;47.1306422;7.240619799999999;8.182000160217285;1673300153.1500072;7.533625602722168;4.019192218780518;85.57289123535156
81;1673300153.3328416;47.1306423;7.240619799999999;8.386000633239746;1673300153.3357704;7.093517780303955;4.132357597351074;85.81621551513672
82;1673300153.5324554;47.1306424;7.240619799999999;8.59000015258789;1673300153.535382;7.172459602355957;8.227020263671875;85.97042846679688
83;1673300153.7319531;47.1306425;7.2406197;8.792000770568848;1673300153.7358592;7.862126350402832;6.607706069946289;85.54541778564453
84;1673300153.930676;47.1306425;7.240619799999999;8.986000061035156;1673300153.93353;8.3565092086792;3.3792903423309326;85.07650756835938
85;1673300154.1360376;47.1306424;7.240619799999999;9.184000015258789;1673300154.1419096;8.317008018493652;7.207589149475098;85.4285888671875
86;1673300154.346163;47.1306424;7.2406198999999996;9.38700008392334;1673300154.3490894;7.896323204040527;6.314958572387695;85.73723602294922
87;1673300154.5545285;47.1306425;7.24062;9.59000015258789;1673300154.557456;7.436941146850586;3.013479471206665;85.79299926757812
88;1673300154.7605512;47.130642699999996;7.2406201;9.794000625610352;1673300154.762493;7.509544849395752;6.940649032592773;85.84394836425781
89;1673300154.962078;47.130642699999996;7.2406201;9.995000839233398;1673300154.965981;7.926251411437988;8.237866401672363;85.60664367675781
90;1673300155.1578422;47.130642699999996;7.24062;10.201000213623047;1673300155.1608236;8.2112455368042;4.460648536682129;85.15229034423828
91;1673300155.3479466;47.130642599999995;7.2406198999999996;10.493000030517578;1673300155.351851;8.8084716796875;6.140012741088867;85.45527648925781
92;1673300155.543361;47.1306423;7.240619799999999;10.862000465393066;1673300155.5462894;9.156250953674316;9.79656982421875;86.03073120117188
93;1673300155.7935;47.1306419;7.2406196;11.253000259399414;1673300155.7964182;8.390788078308105;5.494126796722412;85.96145629882812
94;1673300155.9862223;47.1306417;7.2406193;11.653000831604004;1673300155.9901268;7.305087566375732;3.2845265865325928;85.642333984375
95;1673300156.172385;47.130641499999996;7.2406191;12.055000305175781;1673300156.175307;6.645450592041016;5.899465560913086;85.65025329589844
96;1673300156.3942149;47.130641399999995;7.240619;12.457000732421875;1673300156.3971255;6.615490436553955;5.215386390686035;85.73529815673828
97;1673300156.601381;47.130641499999996;7.240619;12.862000465393066;1673300156.60431;6.5766520500183105;2.0894408226013184;85.65890502929688
98;1673300156.791085;47.130641499999996;7.240619;13.268000602722168;1673300156.7940228;6.611752510070801;5.2450690269470215;85.68498229980469
99;1673300156.9689658;47.130641499999996;7.240619;13.675000190734863;1673300156.972852;6.901291847229004;6.504108905792236;85.87437438964844
100;1673300157.1821365;47.1306417;7.2406191;14.082000732421875;1673300157.185066;7.349375247955322;3.2410154342651367;85.74925231933594
101;1673300157.3689735;47.1306419;7.2406193;14.484001159667969;1673300157.371921;7.414848804473877;5.686212062835693;85.5853500366211
102;1673300157.569626;47.130641999999995;7.2406194;14.879000663757324;1673300157.5725515;7.603920936584473;8.314550399780273;85.7930679321289
103;1673300157.75304;47.130642099999996;7.240619499999999;15.266000747680664;1673300157.7559793;7.879604816436768;3.878791570663452;85.65353393554688
104;1673300157.959384;47.130642099999996;7.2406196;15.655000686645508;1673300157.96427;7.829904079437256;5.33143424987793;85.59488677978516
105;1673300158.1632054;47.130641999999995;7.2406197;16.04800033569336;1673300158.1680856;7.79854154586792;7.828042030334473;85.75060272216797
106;1673300158.3673642;47.130642099999996;7.2406197;16.44500160217285;1673300158.3780296;7.691452503204346;5.999950885772705;85.78512573242188
107;1673300158.5609229;47.130642099999996;7.2406197;16.839000701904297;1673300158.5658026;7.657596111297607;3.916001319885254;85.59706115722656
108;1673300158.7571726;47.1306422;7.2406197;17.23200035095215;1673300158.7610557;7.537909984588623;7.63037633895874;85.68524932861328
109;1673300158.9536927;47.1306422;7.2406197;17.621000289916992;1673300158.956603;7.4993815422058105;7.006110668182373;85.756103515625
110;1673300159.1522894;47.1306423;7.2406197;18.012001037597656;1673300159.1561675;7.681653022766113;3.5555059909820557;85.59457397460938
111;1673300159.3606274;47.1306422;7.2406197;18.405000686645508;1673300159.3635652;7.702658176422119;6.847471714019775;85.63218688964844
112;1673300159.5561557;47.1306422;7.2406197;18.801000595092773;1673300159.559083;7.811861038208008;7.030566215515137;85.91984558105469
113;1673300159.7557273;47.1306422;7.240619799999999;19.200000762939453;1673300159.7596314;7.806252479553223;3.8417258262634277;85.73517608642578
114;1673300159.956295;47.1306423;7.240619799999999;19.59800148010254;1673300159.961176;7.501004695892334;5.590151786804199;85.50395965576172
115;1673300160.1597583;47.1306423;7.240619799999999;19.9950008392334;1673300160.1626678;7.586524486541748;8.354578971862793;85.53077697753906
116;1673300160.3602557;47.1306423;7.240619799999999;20.38800048828125;1673300160.3651364;7.591418266296387;4.163152694702148;85.6365966796875
117;1673300160.5664551;47.1306423;7.240619799999999;20.779001235961914;1673300160.5703588;7.5240068435668945;4.7366204261779785;85.69023132324219
118;1673300160.7629478;47.1306422;7.240619799999999;21.177001953125;1673300160.7678275;7.829236030578613;7.988868236541748;85.72744750976562
119;1673300160.9507272;47.1306422;7.240619799999999;21.577001571655273;1673300160.9546385;7.937713146209717;5.281630516052246;85.71665954589844
120;1673300161.16564;47.1306423;7.2406197;21.977001190185547;1673300161.1705227;7.768239974975586;3.8685288429260254;85.7018814086914
121;1673300161.3672283;47.1306423;7.2406197;22.380001068115234;1673300161.370161;7.524698734283447;7.438464164733887;85.60493469238281
122;1673300161.5647526;47.1306424;7.2406197;22.7760009765625;1673300161.568641;7.405788421630859;6.911347389221191;85.57687377929688
123;1673300161.7592692;47.1306425;7.2406196;23.172000885009766;1673300161.7621813;7.401401519775391;3.756732225418091;85.706787109375
124;1673300161.9705734;47.1306425;7.2406196;23.567001342773438;1673300161.9725149;7.287893295288086;7.261711597442627;85.75981140136719
125;1673300162.185001;47.1306424;7.2406196;23.96700096130371;1673300162.1879244;7.560032844543457;7.208678722381592;85.71238708496094
126;1673300162.3871882;47.1306425;7.240619499999999;24.36600112915039;1673300162.3910933;7.6690263748168945;3.6880812644958496;85.63211059570312
127;1673300162.5814965;47.1306425;7.240619499999999;24.76500129699707;1673300162.5844474;7.628963947296143;6.002635478973389;85.58866882324219
128;1673300162.7585616;47.1306425;7.2406196;25.16200065612793;1673300162.762482;7.659642696380615;8.16651725769043;85.59281921386719
129;1673300162.9620726;47.1306425;7.2406196;25.553001403808594;1673300162.966105;7.54958438873291;4.081429481506348;85.68203735351562
130;1673300163.1596463;47.1306424;7.2406196;25.950000762939453;1673300163.1616018;7.3821635246276855;4.555836200714111;85.81080627441406
131;1673300163.388899;47.1306423;7.2406196;26.350000381469727;1673300163.3918254;7.622706890106201;8.07950496673584;85.70362854003906
132;1673300163.5742528;47.1306423;7.2406196;26.751001358032227;1673300163.5762053;7.821483135223389;4.71207332611084;85.47724914550781
133;1673300163.7708218;47.1306423;7.2406196;27.154001235961914;1673300163.774711;7.903408050537109;4.032855987548828;85.60706329345703
134;1673300163.9701848;47.1306424;7.2406196;27.553001403808594;1673300163.9731116;7.562939167022705;8.217493057250977;85.76513671875
135;1673300164.1697507;47.1306425;7.2406196;27.94700050354004;1673300164.173654;7.602393627166748;6.028245449066162;85.73368072509766
136;1673300164.3721702;47.1306425;7.2406196;28.343000411987305;1673300164.3751194;7.201026439666748;3.779046058654785;85.59976196289062
137;1673300164.5735617;47.1306425;7.2406196;28.737001419067383;1673300164.5764997;7.179486274719238;7.5131096839904785;85.77610778808594
138;1673300164.7760973;47.1306424;7.2406196;29.132001876831055;1673300164.7780697;7.5480756759643555;6.843512058258057;85.640625
139;1673300164.9957578;47.1306425;7.2406196;29.52800178527832;1673300164.997715;7.61941385269165;3.3570830821990967;85.54931640625
140;1673300165.2250073;47.1306425;7.2406196;29.924001693725586;1673300165.2279377;7.587830066680908;6.170552730560303;85.68976593017578
141;1673300165.4250238;47.1306425;7.2406196;30.32000160217285;1673300165.428928;7.619887351989746;8.214264869689941;85.88514709472656
142;1673300165.635355;47.1306425;7.2406196;30.71000099182129;1673300165.637307;7.615586280822754;3.822138547897339;85.62428283691406
143;1673300165.8446624;47.1306424;7.2406196;31.104001998901367;1673300165.8466165;7.399705410003662;5.349350452423096;85.5323486328125
144;1673300166.0584574;47.1306424;7.2406196;31.500001907348633;1673300166.0594337;7.142644882202148;8.092906951904297;85.76822662353516
145;1673300166.2243252;47.1306424;7.2406196;31.898000717163086;1673300166.2292056;7.293886184692383;4.8330793380737305;85.66035461425781
146;1673300166.3960867;47.1306425;7.2406196;32.297000885009766;1673300166.4009771;7.279889106750488;4.113037586212158;85.56195068359375
147;1673300166.5854135;47.130642599999995;7.2406197;32.694000244140625;1673300166.5893164;7.531952381134033;8.526949882507324;85.77272033691406
148;1673300166.7691343;47.130642699999996;7.2406197;33.08400344848633;1673300166.7730548;7.7060112953186035;6.397632598876953;85.79735565185547
149;1673300166.9607718;47.130642699999996;7.240619799999999;33.47800064086914;1673300166.9646652;7.815939426422119;3.577563762664795;85.46664428710938
150;1673300167.1668017;47.130642599999995;7.240619799999999;33.87000274658203;1673300167.1697261;7.596334457397461;7.582603931427002;85.47337341308594
151;1673300167.3680468;47.130642599999995;7.240619799999999;34.2650032043457;1673300167.37001;7.672823905944824;6.708698749542236;85.7784423828125
152;1673300167.5557475;47.130642699999996;7.240619799999999;34.66400146484375;1673300167.558678;7.564431667327881;3.9252071380615234;85.84307861328125
153;1673300167.749361;47.130642699999996;7.240619799999999;35.066001892089844;1673300167.752289;7.494123458862305;6.296306133270264;85.68875122070312
154;1673300167.9818952;47.130642699999996;7.240619799999999;35.46600341796875;1673300167.9867725;7.608961582183838;8.30364990234375;85.77256774902344
155;1673300168.1797051;47.130642699999996;7.240619799999999;35.85900115966797;1673300168.1836119;7.529443264007568;4.0336689949035645;85.5938949584961
156;1673300168.3542714;47.130642599999995;7.240619799999999;36.25699996948242;1673300168.3591585;7.572190761566162;4.873032093048096;85.58443450927734
157;1673300168.5418851;47.130642599999995;7.2406198999999996;36.65400314331055;1673300168.545791;7.601780891418457;8.054910659790039;85.65099334716797
158;1673300168.7404585;47.130642599999995;7.2406198999999996;37.05500030517578;1673300168.744354;7.552606582641602;5.447401523590088;85.71327209472656
159;1673300168.9428372;47.130642699999996;7.2406198999999996;37.46000289916992;1673300168.9467416;7.57567834854126;4.135396957397461;85.72076416015625
160;1673300169.148128;47.1306428;7.2406198999999996;37.8640022277832;1673300169.1510572;7.4304375648498535;7.843261241912842;85.61063385009766
161;1673300169.3397422;47.1306428;7.2406198999999996;38.26100158691406;1673300169.3426821;7.648290157318115;6.509765625;85.57225799560547
162;1673300169.538443;47.1306429;7.2406198999999996;38.65700149536133;1673300169.5419168;7.644815921783447;4.043724536895752;85.69345092773438
163;1673300169.7492726;47.1306428;7.2406198999999996;39.052001953125;1673300169.7551196;7.598143577575684;7.48795223236084;85.7781982421875
164;1673300169.9611094;47.1306428;7.2406198999999996;39.452003479003906;1673300169.965016;7.631941795349121;7.556497573852539;85.73703002929688
165;1673300170.168686;47.1306428;7.2406198999999996;39.85600280761719;1673300170.1725888;7.603269577026367;4.097451210021973;85.69454956054688
166;1673300170.366208;47.1306428;7.2406198999999996;40.26000213623047;1673300170.3701212;7.529455184936523;5.783712387084961;85.68318176269531
167;1673300170.572526;47.1306428;7.2406198999999996;40.66200256347656;1673300170.5744789;7.603444576263428;8.297388076782227;85.65299987792969
168;1673300170.7670362;47.130642699999996;7.24062;41.057003021240234;1673300170.7709694;7.767587184906006;4.24853515625;85.53247833251953
169;1673300170.970404;47.130642699999996;7.2406198999999996;41.45100021362305;1673300170.972357;7.484855651855469;4.970268249511719;85.67977142333984
170;1673300171.1649783;47.130642599999995;7.2406198999999996;41.85000228881836;1673300171.168878;7.620599746704102;8.120760917663574;85.75239562988281
171;1673300171.3546548;47.1306425;7.240619799999999;42.25100326538086;1673300171.3575852;7.739779472351074;5.264326572418213;85.61864471435547
172;1673300171.5608027;47.130642599999995;7.240619799999999;42.65400314331055;1673300171.5656574;7.714426517486572;3.855924129486084;85.63320922851562
173;1673300171.7901788;47.130642599999995;7.240619799999999;43.05800247192383;1673300171.7931087;7.378677845001221;8.165124893188477;85.75505828857422
174;1673300171.9740388;47.130642599999995;7.2406197;43.454002380371094;1673300171.9769893;7.594133377075195;6.148874282836914;85.72457885742188
175;1673300172.1745527;47.130642699999996;7.2406197;43.85100173950195;1673300172.1774814;7.375739097595215;3.6919753551483154;85.6179428100586
176;1673300172.377897;47.130642599999995;7.2406197;44.249000549316406;1673300172.3808255;7.307850360870361;7.100292205810547;85.73075866699219
177;1673300172.5770943;47.130642599999995;7.2406197;44.647003173828125;1673300172.5829518;7.259799003601074;7.158614635467529;85.72909545898438
178;1673300172.7857695;47.130642599999995;7.2406197;45.04600143432617;1673300172.789669;7.41263484954834;3.8365917205810547;85.62276458740234
179;1673300172.9717245;47.130642699999996;7.2406197;45.44400405883789;1673300172.9775603;7.323266983032227;6.261279582977295;85.74064636230469
180;1673300173.1628213;47.1306428;7.2406196;45.842002868652344;1673300173.1667373;7.557734489440918;8.478999137878418;85.80553436279297
181;1673300173.3622344;47.1306428;7.2406197;46.23400115966797;1673300173.366136;7.669289588928223;4.907637596130371;85.55760955810547
182;1673300173.5656059;47.130642699999996;7.2406197;46.62900161743164;1673300173.5695102;7.523569107055664;4.602538585662842;85.48593139648438
183;1673300173.7622428;47.130642599999995;7.2406197;47.02400207519531;1673300173.7651706;7.2301764488220215;8.331459045410156;85.67852783203125
184;1673300173.9526854;47.130642599999995;7.2406197;47.419002532958984;1673300173.9565895;7.1671528816223145;5.382013320922852;85.72433471679688
185;1673300174.1501245;47.130642699999996;7.2406197;47.816001892089844;1673300174.1530533;7.072318077087402;3.980612277984619;85.59232330322266
186;1673300174.3598537;47.1306428;7.2406197;48.19700241088867;1673300174.3657155;7.3291449546813965;8.114912986755371;85.6607894897461
187;1673300174.5650775;47.1306429;7.2406197;48.522003173828125;1673300174.568006;7.603699207305908;6.48844051361084;85.4888687133789
188;1673300174.7799692;47.130643;7.240619799999999;48.79900360107422;1673300174.781921;7.45347261428833;3.646315097808838;85.24586486816406
189;1673300174.9594414;47.130643;7.24062;49.03600311279297;1673300174.9633472;7.597393989562988;7.612669944763184;85.45690155029297
190;1673300175.164484;47.1306431;7.2406201;49.2400016784668;1673300175.167426;7.950632572174072;7.302329063415527;85.40383911132812
191;1673300175.3609555;47.130643199999994;7.2406201999999995;49.41200256347656;1673300175.3638976;12.744174003601074;7.299561023712158;85.2262954711914
192;1673300175.5681245;47.130643199999994;7.24062;49.52800369262695;1673300175.5710542;21.688627243041992;16.354291915893555;80.90972137451172
193;1673300175.7835968;47.130642699999996;7.2406193;49.582000732421875;1673300175.7876294;17.12175178527832;9.973301887512207;67.41615295410156
194;1673300175.992576;47.1306417;7.2406182;49.621002197265625;1673300175.9965096;13.4440279006958;1.9454960823059082;57.55723571777344
195;1673300176.1790607;47.1306407;7.240616999999999;49.65800094604492;1673300176.182974;16.779624938964844;3.611382484436035;48.97055435180664
196;1673300176.3725173;47.130639699999996;7.2406156;49.68700408935547;1673300176.3754337;12.766316413879395;2.551211357116699;40.88547134399414
197;1673300176.57562;47.1306386;7.2406142;49.717002868652344;1673300176.578165;9.985455513000488;0.6246835589408875;32.15614318847656
198;1673300176.7687716;47.1306375;7.2406128999999995;49.74100112915039;1673300176.771708;7.331809043884277;-2.437110662460327;22.942806243896484
199;1673300176.9665525;47.130636599999995;7.240612;49.76400375366211;1673300176.9695017;6.096583366394043;-6.722949504852295;13.627635955810547
200;1673300177.172428;47.130635899999994;7.2406112;49.781002044677734;1673300177.1743813;5.7628889083862305;-7.371145725250244;4.962320804595947
201;1673300177.3783607;47.130635399999996;7.2406109;49.801002502441406;1673300177.3842604;5.576428413391113;-5.470603942871094;-3.6435070037841797
202;1673300177.5705633;47.1306351;7.2406108;49.820003509521484;1673300177.5725152;3.9532389640808105;-4.4326934814453125;-12.524497032165527
203;1673300177.7606711;47.1306351;7.2406108;49.833003997802734;1673300177.7636008;0.9581215977668762;-5.285706996917725;-21.470335006713867
204;1673300177.9695203;47.1306351;7.2406109;49.840003967285156;1673300177.9724693;-0.34360986948013306;-8.38039779663086;-30.4559383392334
205;1673300178.1777425;47.1306352;7.2406109999999995;49.845001220703125;1673300178.1823618;-1.0630415678024292;-10.740340232849121;-39.89947509765625
206;1673300178.3740826;47.1306352;7.2406111;49.85300064086914;1673300178.3789587;-0.8910912275314331;-12.574078559875488;-48.879638671875
207;1673300178.5715036;47.1306351;7.2406111;49.858001708984375;1673300178.5744317;-2.076559066772461;-11.998941421508789;-53.34647750854492
208;1673300178.789931;47.1306352;7.2406111;49.8640022277832;1673300178.7938323;-1.7213475704193115;-11.082809448242188;-51.969093322753906
209;1673300178.9781003;47.130635399999996;7.2406109999999995;49.871002197265625;1673300178.981565;-1.867867350578308;-8.36809253692627;-48.82111740112305
210;1673300179.2083328;47.1306356;7.2406108;49.87700271606445;1673300179.2102823;-2.5681989192962646;-8.832643508911133;-46.76693344116211
211;1673300179.4014633;47.1306357;7.2406105;49.887001037597656;1673300179.40537;-2.6192643642425537;-10.20181941986084;-45.98089599609375
212;1673300179.6055093;47.1306358;7.2406102;49.89400100708008;1673300179.610389;-0.8383784294128418;-12.385844230651855;-46.217830657958984
213;1673300179.7902932;47.1306358;7.240609699999999;49.8910026550293;1673300179.7912705;1.381362795829773;-12.438868522644043;-46.52210998535156
214;1673300179.9774733;47.1306358;7.2406095;49.887001037597656;1673300179.9803987;2.3468596935272217;-11.325945854187012;-46.56026840209961
215;1673300180.1778982;47.1306358;7.2406093;49.887001037597656;1673300180.1818006;2.1483826637268066;-9.005054473876953;-46.19960021972656
216;1673300180.373364;47.1306358;7.2406092;49.88800048828125;1673300180.3753233;0.6398913860321045;-8.269550323486328;-45.819583892822266
217;1673300180.570796;47.1306358;7.2406089;49.8900032043457;1673300180.5727499;-14.672470092773438;-10.014266014099121;-44.4448356628418
218;1673300180.7726393;47.1306362;7.240607799999999;49.897003173828125;1673300180.7767406;-37.130531311035156;-7.161647319793701;-44.002140045166016
219;1673300180.9798086;47.130638;7.2406047;49.89600372314453;1673300180.9846718;-53.544593811035156;-6.1812310218811035;-46.41286087036133
220;1673300181.165642;47.130642099999996;7.240598599999999;49.85600280761719;1673300181.1690724;-49.89533996582031;-6.204488277435303;-47.536983489990234
221;1673300181.3606505;47.130648099999995;7.2405899;49.823001861572266;1673300181.365561;-46.75006866455078;-7.911885738372803;-47.00827407836914
222;1673300181.576885;47.1306557;7.2405789;49.81100082397461;1673300181.5807884;-47.45978927612305;-6.0440673828125;-47.435546875
223;1673300181.7816556;47.1306648;7.2405656;49.823001861572266;1673300181.784586;-53.801910400390625;-4.098476886749268;-47.6048583984375
224;1673300181.9643092;47.1306757;7.2405497;49.84700393676758;1673300181.9672782;-59.939796447753906;-3.3912529945373535;-49.36310958862305
225;1673300182.1678777;47.130688199999994;7.2405311;49.86100387573242;1673300182.1717904;-58.47304153442383;-3.621537208557129;-50.182525634765625
226;1673300182.381776;47.1307021;7.240510199999999;49.862003326416016;1673300182.3867722;-52.81344223022461;-4.745129108428955;-49.40878677368164
227;1673300182.6846569;47.130716899999996;7.2404877999999995;49.85100173950195;1673300182.685733;-53.825775146484375;-6.9988932609558105;-48.28242874145508
228;1673300182.8455453;47.1307323;7.2404638;49.84400177001953;1673300182.847903;-53.548789978027344;-6.716628074645996;-48.43111801147461
229;1673300183.0157208;47.130748399999995;7.2404386;49.833003997802734;1673300183.0186923;-51.379241943359375;-5.496840000152588;-48.675437927246094
230;1673300183.2088394;47.130764799999994;7.2404126;49.81100082397461;1673300183.2127447;-49.799156188964844;-5.242315292358398;-48.681209564208984
231;1673300183.3960469;47.1307816;7.240386099999999;49.78900146484375;1673300183.3989775;-47.660560607910156;-5.1219964027404785;-48.663177490234375
232;1673300183.5866642;47.1307986;7.2403593;49.77900314331055;1673300183.589594;-46.53546905517578;-7.599577903747559;-49.15559387207031
233;1673300183.7951517;47.130815399999996;7.2403322999999995;49.78000259399414;1673300183.8016095;-45.82561111450195;-9.238648414611816;-49.93939208984375
234;1673300183.9986482;47.1308319;7.2403052;49.797000885009766;1673300184.0166624;-22.51580810546875;-10.310789108276367;-52.12556838989258
235;1673300184.2356946;47.1308473;7.240279999999999;49.803001403808594;1673300184.2376485;24.511411666870117;-2.185119152069092;-51.149723052978516
236;1673300184.4174607;47.130860999999996;7.2402583;49.643001556396484;1673300184.4193978;26.923702239990234;2.266118288040161;-49.38795471191406
237;1673300184.5977724;47.1308729;7.2402409;49.345001220703125;1673300184.6006756;16.606739044189453;-1.9892914295196533;-48.326236724853516
238;1673300184.7914245;47.1308827;7.240228;49.08700180053711;1673300184.7944715;14.53214168548584;-2.2528622150421143;-48.2958869934082
239;1673300184.9899812;47.1308905;7.240219199999999;48.97300338745117;1673300184.9949474;13.560346603393555;-3.1408302783966064;-48.46367263793945
240;1673300185.1875818;47.130896299999996;7.240214;49.057003021240234;1673300185.1905103;42.5707893371582;-11.755380630493164;-48.839481353759766
241;1673300185.3835382;47.1308994;7.2402128;49.182003021240234;1673300185.385473;48.838069915771484;-10.682530403137207;-45.14257049560547
242;1673300185.5736697;47.1308994;7.240215399999999;49.297000885009766;1673300185.5765965;48.79991149902344;-11.146743774414062;-44.603702545166016
243;1673300185.7795682;47.1308967;7.240221099999999;49.40900421142578;1673300185.7825983;46.8972282409668;-15.906442642211914;-45.30730056762695
244;1673300185.9604924;47.1308916;7.2402288;49.51000213623047;1673300185.9637027;34.869869232177734;-16.698925018310547;-44.991180419921875
245;1673300186.159541;47.1308851;7.2402372999999995;49.582000732421875;1673300186.1624699;14.386096954345703;-16.021459579467773;-44.405845642089844
246;1673300186.3616178;47.1308784;7.240245;49.63500213623047;1673300186.3645463;-5.8641886711120605;-12.626103401184082;-45.41857147216797
247;1673300186.6016986;47.1308723;7.240251799999999;49.665000915527344;1673300186.6046426;-19.419391632080078;-9.810100555419922;-48.09686279296875
248;1673300186.8078604;47.1308674;7.240256899999999;49.67400360107422;1673300186.8107886;-25.432628631591797;-7.653254508972168;-49.222618103027344
249;1673300187.0119982;47.1308642;7.2402600999999995;49.65300369262695;1673300187.0169272;-31.86862564086914;-2.7613625526428223;-49.955650329589844
250;1673300187.206607;47.130862699999994;7.240260999999999;49.6140022277832;1673300187.2105124;-34.46760559082031;-6.116504669189453;-49.846763610839844
251;1673300187.4002364;47.1308626;7.240259699999999;49.566001892089844;1673300187.4021785;-31.22638702392578;-11.545159339904785;-48.59318161010742
252;1673300187.600449;47.1308637;7.240256199999999;49.54900360107422;1673300187.604358;-18.740835189819336;-15.315723419189453;-48.86077117919922
253;1673300187.8084464;47.130865299999996;7.2402517;49.5880012512207;1673300187.815289;-3.1127352714538574;-14.591911315917969;-48.134437561035156
254;1673300188.015867;47.1308667;7.2402473999999994;49.647003173828125;1673300188.0187907;8.714927673339844;-10.372360229492188;-47.521873474121094
255;1673300188.2142236;47.1308679;7.240244199999999;49.70500183105469;1673300188.2171378;16.552452087402344;-5.336421012878418;-48.00603485107422
256;1673300188.4097996;47.1308686;7.2402424;49.75700378417969;1673300188.4138615;19.040130615234375;-1.7392469644546509;-48.76755905151367
257;1673300188.6371121;47.1308692;7.2402413999999995;49.5880012512207;1673300188.6390865;48.278343200683594;12.170473098754883;-43.824546813964844
258;1673300188.8257852;47.1308697;7.240240399999999;49.04500198364258;1673300188.8277373;70.25592041015625;49.16911697387695;-17.890390396118164
259;1673300189.0723228;47.1308704;7.2402394999999995;48.11900329589844;1673300189.0833023;72.505615234375;123.64849090576172;42.66633224487305
260;1673300189.2496252;47.130871;7.2402386;46.83400344848633;1673300189.2515738;66.76516723632812;155.2002716064453;58.440284729003906
261;1673300189.4128385;47.1308716;7.2402378999999994;45.189002990722656;1673300189.4177365;72.14874267578125;161.94764709472656;49.32169723510742
262;1673300189.613253;47.1308722;7.2402374;43.185001373291016;1673300189.6161857;82.6847915649414;54.97337341308594;-70.8597183227539
263;1673300189.8104656;47.1308728;7.240236899999999;40.82500076293945;1673300189.8143802;45.84920120239258;11.458736419677734;-127.53638458251953
264;1673300190.0295897;47.130873199999996;7.2402362;38.08400344848633;1673300190.0545468;-4.222486972808838;15.884014129638672;-142.29104614257812
265;1673300190.2920825;47.1308736;7.2402358;34.935001373291016;1673300190.2930539;-47.84048080444336;24.831682205200195;-157.3981170654297
266;1673300190.4675734;47.1308741;7.2402358;31.431001663208008;1673300190.4705026;-68.32920837402344;30.11334991455078;-173.85813903808594
267;1673300190.6855767;47.1308748;7.2402359999999994;27.601001739501953;1673300190.687531;-59.11220932006836;3.6359097957611084;-163.25611877441406
268;1673300190.844058;47.1308758;7.2402364;23.429000854492188;1673300190.8479788;-18.664596557617188;-15.178165435791016;-166.12216186523438
269;1673300191.0172577;47.1308771;7.2402367;18.869001388549805;1673300191.020186;31.863664627075195;-30.26879119873047;176.04393005371094
270;1673300191.2324579;47.1308782;7.240236599999999;13.942000389099121;1673300191.2353823;60.71507263183594;-43.696292877197266;151.1003875732422
271;1673300191.4163597;47.1308789;7.2402365;8.693000793457031;1673300191.4192748;57.23471450805664;-16.146089553833008;161.39854431152344
272;1673300191.628294;47.130879199999995;7.2402365;3.1020002365112305;1673300191.6312554;14.715011596679688;11.11805248260498;167.07618713378906
273;1673300191.7975626;47.1308781;7.2402302999999995;0.22200001776218414;1673300191.8005016;6.424117565155029;8.229389190673828;161.3439178466797
274;1673300191.9840539;47.1308735;7.2402169999999995;0.27800002694129944;1673300191.9879582;6.330428123474121;9.825508117675781;154.39083862304688
275;1673300192.1858199;47.1308678;7.2402029;0.2850000262260437;1673300192.1897256;6.0723137855529785;5.584420204162598;154.74871826171875
276;1673300192.3843784;47.1308626;7.2401892;0.28300002217292786;1673300192.391215;6.074378490447998;8.665363311767578;155.0860137939453
277;1673300192.5836358;47.1308581;7.2401762;0.27400001883506775;1673300192.5933964;6.060086727142334;8.066213607788086;155.63418579101562
278;1673300192.7731328;47.130853599999995;7.2401618999999995;0.2680000066757202;1673300192.7760727;6.030759811401367;7.697160243988037;156.16552734375
279;1673300192.978222;47.130849;7.2401459;0.25699999928474426;1673300192.9840844;5.944976329803467;8.006111145019531;156.7557373046875
280;1673300193.1843328;47.1308443;7.240128599999999;0.23900000751018524;1673300193.1882281;5.908347129821777;8.299335479736328;157.2331085205078
281;1673300193.3945205;47.1308395;7.2401102999999996;0.2200000137090683;1673300193.397983;5.844913005828857;8.603466987609863;157.5606231689453
282;1673300193.5812426;47.130834799999995;7.2400911;0.19700001180171967;1673300193.584183;5.807650089263916;9.173901557922363;157.83351135253906
283;1673300193.7949944;47.1308301;7.2400709999999995;0.17000000178813934;1673300193.7994304;5.763140678405762;9.648110389709473;158.1397705078125
284;1673300193.9902027;47.1308255;7.2400500999999995;0.14300000667572021;1673300194.0000138;5.709204196929932;9.94752025604248;158.3689422607422
285;1673300194.2003314;47.130821;7.2400284;0.11000000685453415;1673300194.20455;5.657715320587158;10.163224220275879;158.6144256591797
286;1673300194.4001198;47.130816499999995;7.240005999999999;0.07900000363588333;1673300194.4030776;5.651795864105225;10.312541961669922;158.85684204101562
287;1673300194.603068;47.1308121;7.2399828;0.049000002443790436;1673300194.60521;5.60941743850708;10.296629905700684;159.0296173095703
288;1673300194.816278;47.1308078;7.2399588999999995;0.017000000923871994;1673300194.819206;5.595832347869873;10.224311828613281;159.14540100097656
289;1673300195.0341387;47.1308036;7.2399341999999995;-0.012000000104308128;1673300195.0383809;5.552018642425537;10.095006942749023;159.27423095703125
290;1673300195.2476225;47.130799499999995;7.239908799999999;-0.0430000014603138;1673300195.2505515;5.527657985687256;9.930839538574219;159.35633850097656
291;1673300195.4262803;47.1307954;7.239882499999999;-0.08300000429153442;1673300195.4282346;5.52579927444458;9.732803344726562;159.33851623535156
292;1673300195.6611269;47.1307914;7.2398557;-0.11600000411272049;1673300195.6641228;5.4760260581970215;9.799274444580078;159.26531982421875
293;1673300195.8432872;47.1307875;7.2398280999999995;-0.1469999998807907;1673300195.8466926;5.455419063568115;9.671486854553223;159.21298217773438
294;1673300196.031597;47.130783699999995;7.2397998999999995;-0.17600001394748688;1673300196.0346992;5.439999580383301;9.492499351501465;159.1968994140625
295;1673300196.1984448;47.1307799;7.2397709;-0.20400001108646393;1673300196.2023294;5.4709343910217285;9.295764923095703;159.16397094726562
296;1673300196.407274;47.1307763;7.2397412999999995;-0.23100000619888306;1673300196.4092567;5.4262542724609375;9.085342407226562;159.13633728027344
297;1673300196.6104875;47.1307727;7.2397111;-0.2550000250339508;1673300196.61399;5.46713924407959;8.940298080444336;159.09469604492188
298;1673300196.8263621;47.130769199999996;7.239679799999999;-0.2930000126361847;1673300196.82929;5.438615322113037;8.770668983459473;159.07252502441406
299;1673300197.0092037;47.1307657;7.239648;-0.328000009059906;1673300197.0111473;5.416122913360596;8.62149429321289;159.04595947265625
300;1673300197.2091086;47.130762399999995;7.2396156;-0.3530000150203705;1673300197.2110126;5.41701602935791;8.477485656738281;159.0023651123047
301;1673300197.4053936;47.130759;7.2395825;-0.3750000298023224;1673300197.4092982;5.422760486602783;8.317315101623535;158.9838104248047
302;1673300197.6031349;47.1307579;7.2395704;-0.39100003242492676;1673300197.6051624;5.432380676269531;8.208468437194824;158.92791748046875
303;;;;;1673300197.808028;5.378272533416748;8.081465721130371;158.89915466308594
304;;;;;1673300198.020194;5.373120307922363;7.9594902992248535;158.8574981689453
305;;;;;1673300198.2454753;5.376102447509766;7.836216926574707;158.8129425048828
306;;;;;1673300198.424209;5.378541469573975;7.804466724395752;158.75778198242188
307;;;;;1673300198.6082292;5.341055870056152;7.962269306182861;158.69692993164062
308;;;;;1673300198.789883;5.295802593231201;7.957961559295654;158.6241455078125
