;pos_time;latitude;longitude;altitude;alt_time;pitch;roll;yaw
0;1673302394.509077;47.1306424;7.240619799999999;-0.02200000174343586;1673302394.6551607;0.05066023766994476;-0.19420510530471802;90.11802673339844
1;1673302394.6929104;47.1306424;7.240619799999999;-0.027000000700354576;1673302394.8681955;0.12859800457954407;-0.2253115475177765;90.15974426269531
2;1673302394.9048247;47.1306424;7.240619799999999;-0.030000001192092896;1673302395.0657525;0.24580878019332886;-0.11380980908870697;90.29078674316406
3;1673302395.103403;47.1306424;7.2406198999999996;-0.03200000151991844;1673302395.262299;0.07399994879961014;-0.0645577609539032;90.11463928222656
4;1673302395.296202;47.1306424;7.2406198999999996;-0.03500000014901161;1673302395.442373;0.1753183752298355;-0.6126418709754944;90.11893463134766
5;1673302395.476848;47.1306424;7.2406198999999996;-0.036000002175569534;1673302395.6317885;0.020923016592860222;-0.25279974937438965;90.10722351074219
6;1673302395.667901;47.1306423;7.24062;-0.03400000184774399;1673302395.824376;-0.18434183299541473;-0.412750780582428;90.1669921875
7;1673302395.860529;47.1306423;7.24062;-0.032999999821186066;1673302396.0219622;-0.006920475512742996;-0.37631767988204956;90.19378662109375
8;1673302396.060033;47.1306423;7.24062;-0.03100000135600567;1673302396.2238195;0.024418272078037262;-0.40321701765060425;90.15760803222656
9;1673302396.2599452;47.1306423;7.2406198999999996;0.0;1673302396.44699;0.15687096118927002;-0.3063385784626007;90.1553726196289
10;1673302396.4831395;47.1306423;7.2406198999999996;-0.0010000000474974513;1673302396.659153;0.3561641573905945;-0.4956919252872467;90.22870635986328
11;1673302396.6933103;47.1306423;7.2406198999999996;0.0020000000949949026;1673302396.8506527;0.21416789293289185;-0.2658892869949341;90.0107650756836
12;1673302396.8859818;47.1306423;7.2406198999999996;0.006000000052154064;1673302397.0482538;0.028081921860575676;-0.4502125382423401;90.2236099243164
13;1673302397.0833893;47.1306424;7.2406198999999996;0.00800000037997961;1673302397.2502098;0.2007894068956375;-0.19499623775482178;90.07823944091797
14;1673302397.2922535;47.1306424;7.24062;0.004000000189989805;1673302397.4544125;0.287455677986145;-0.5075455904006958;90.12092590332031
15;1673302397.4902527;47.1306424;7.24062;0.0;1673302397.6534219;0.10691282153129578;0.02960900217294693;90.27400207519531
16;1673302397.6933515;47.1306424;7.2406201;-0.0010000000474974513;1673302397.8533936;0.09207594394683838;0.25739216804504395;90.0093765258789
17;1673302397.891392;47.1306425;7.2406201999999995;0.0;1673302398.0532856;-0.04498252272605896;-0.046387929469347;90.18597412109375
18;1673302398.0902493;47.1306425;7.2406201999999995;0.0;1673302398.250378;0.18156594038009644;-0.7304183840751648;90.3049087524414
19;1673302398.2861724;47.1306424;7.2406201999999995;0.003000000026077032;1673302398.4413433;0.2480507344007492;-0.10886180400848389;90.30052947998047
20;1673302398.4781644;47.1306424;7.2406201999999995;0.006000000052154064;1673302398.6441803;0.17586497962474823;0.1449383795261383;90.38683319091797
21;1673302398.679172;47.1306425;7.2406201999999995;0.005000000353902578;1673302398.8422787;0.09788239747285843;-0.08678735047578812;90.16853332519531
22;1673302398.8803265;47.1306424;7.2406201999999995;0.005000000353902578;1673302399.0438237;0.4007394015789032;-0.0011248475639149547;90.75150299072266
23;1673302399.0771253;47.1306424;7.2406201999999995;0.006000000052154064;1673302399.2362792;0.8870658874511719;-0.031128421425819397;90.87822723388672
24;1673302399.2771354;47.1306424;7.2406201;0.006000000052154064;1673302399.4593098;1.7367748022079468;-0.31722012162208557;90.45809936523438
25;1673302399.4963934;47.1306424;7.2406201;0.003000000026077032;1673302399.6661553;2.4524638652801514;-0.27267372608184814;90.51976013183594
26;1673302399.700312;47.1306424;7.24062;0.003000000026077032;1673302399.8615475;2.1880171298980713;0.09387685358524323;87.87142181396484
27;1673302399.9091713;47.1306424;7.240619799999999;0.0;1673302400.0542698;-4.399405002593994;-0.5120342969894409;84.3408432006836
28;1673302400.0923314;47.1306423;7.240619199999999;0.005000000353902578;1673302400.2748055;-9.147229194641113;0.3350880444049835;84.57804870605469
29;1673302400.3131075;47.1306423;7.2406185;0.027000000700354576;1673302400.4643762;-10.845697402954102;-0.6676386594772339;86.07698059082031
30;1673302400.5022788;47.1306423;7.240617899999999;0.06400000303983688;1673302400.6451995;-11.027379989624023;2.1912639141082764;86.7346420288086
31;1673302400.6791866;47.1306422;7.2406175;0.1210000067949295;1673302400.8370929;-12.397972106933594;2.260202169418335;86.91449737548828
32;1673302400.8705204;47.130642099999996;7.240617299999999;0.19200000166893005;1673302401.0253384;-12.01940631866455;-2.975818157196045;87.82476806640625
33;1673302401.0610218;47.1306419;7.2406174;0.27400001883506775;1673302401.2232413;-11.329452514648438;-0.8396355509757996;87.53258514404297
34;1673302401.260379;47.1306418;7.2406177;0.3700000047683716;1673302401.4226763;-10.546844482421875;1.642220377922058;87.06085968017578
35;1673302401.4588573;47.1306418;7.2406181;0.4780000150203705;1673302401.6259658;-9.16192626953125;-2.4162988662719727;88.01283264160156
36;1673302401.6632788;47.1306419;7.2406187;0.6020000576972961;1673302401.826841;-8.81511402130127;-2.8658695220947266;88.50566864013672
37;1673302401.8629873;47.130642099999996;7.240619199999999;0.7420000433921814;1673302402.0219576;-7.918293476104736;2.441777229309082;87.958251953125
38;1673302402.0580924;47.1306423;7.2406196;0.8940000534057617;1673302402.2184289;-7.8010334968566895;0.9214066863059998;88.56893157958984
39;1673302402.2566433;47.1306424;7.2406198999999996;1.0600000619888306;1673302402.4198794;-7.803060531616211;-3.013437271118164;89.28302001953125
40;1673302402.4579384;47.1306424;7.24062;1.2420001029968262;1673302402.6476388;-8.08359146118164;1.4394681453704834;88.67108154296875
41;1673302402.6847224;47.1306424;7.24062;1.4380000829696655;1673302402.8607492;-8.25688648223877;1.7421776056289673;87.830810546875
42;1673302402.9028773;47.1306424;7.24062;1.6320000886917114;1673302403.0634718;-8.52108383178711;-2.3234267234802246;88.66797637939453
43;1673302403.095721;47.1306425;7.2406198999999996;1.8240001201629639;1673302403.2823424;-9.168314933776855;-0.18392547965049744;88.62950897216797
44;1673302403.3161771;47.130642599999995;7.2406197;2.0199999809265137;1673302403.52177;-9.254890441894531;2.825793504714966;88.32023620605469
45;1673302403.5539722;47.130642599999995;7.2406196;2.2170000076293945;1673302403.7015755;-9.748903274536133;-1.9327248334884644;89.08543395996094
46;1673302403.7585008;47.1306425;7.240619499999999;2.4180002212524414;1673302403.9144983;-9.600934982299805;-2.2882843017578125;89.18386840820312
47;1673302403.94976;47.1306423;7.2406194;2.620000123977661;1673302404.1390831;-9.875810623168945;2.394336700439453;88.80714416503906
48;1673302404.1826417;47.1306423;7.2406194;2.821000099182129;1673302404.3300774;-9.593522071838379;-1.0457127094268799;89.6532211303711
49;1673302404.3613493;47.1306423;7.2406194;3.0200002193450928;1673302404.5100226;-9.477385520935059;-3.164198875427246;89.81787872314453
50;1673302404.543206;47.1306424;7.240619499999999;3.2210001945495605;1673302404.6836689;-9.473555564880371;2.5043909549713135;89.12229919433594
51;1673302404.7140021;47.1306425;7.2406197;3.427000045776367;1673302404.8592768;-9.370898246765137;0.6912328600883484;89.25579071044922
52;1673302404.8944883;47.1306425;7.240619799999999;3.636000156402588;1673302405.0509806;-9.213046073913574;-3.1510839462280273;89.66618347167969
53;1673302405.0860996;47.1306424;7.2406198999999996;3.8430001735687256;1673302405.2641861;-9.164749145507812;0.6431726813316345;89.06657409667969
54;1673302405.3025358;47.1306423;7.24062;4.049000263214111;1673302405.458778;-9.219122886657715;1.2599575519561768;89.16594696044922
55;1673302405.4940534;47.1306423;7.2406201;4.25600004196167;1673302405.657967;-8.952787399291992;-3.174712657928467;89.8311996459961
56;1673302405.6962547;47.1306424;7.2406201999999995;4.461000442504883;1673302405.8415976;-8.949945449829102;0.642034649848938;89.22016143798828
57;1673302405.8749266;47.1306424;7.2406203;4.668000221252441;1673302406.044838;-9.141632080078125;2.662169933319092;88.89289093017578
58;1673302406.086964;47.1306424;7.2406203;4.873000144958496;1673302406.243781;-8.978419303894043;-2.742097854614258;89.5992660522461
59;1673302406.286725;47.1306423;7.2406204;5.076000213623047;1673302406.4684522;-9.03862476348877;-1.8917967081069946;89.29647064208984
60;1673302406.5006924;47.130642099999996;7.2406204;5.276000022888184;1673302406.6619153;-9.037668228149414;2.4201645851135254;88.68243408203125
61;1673302406.6981862;47.130641999999995;7.2406204;5.4770002365112305;1673302406.8685417;-9.067291259765625;-1.845951795578003;89.46475982666016
62;1673302406.907958;47.130641999999995;7.2406204;5.678000450134277;1673302407.0757043;-9.314730644226074;-2.928511142730713;89.79400634765625
63;1673302407.1149707;47.130642099999996;7.2406203;5.88700008392334;1673302407.3115218;-9.315776824951172;2.608403444290161;88.76973724365234
64;1673302407.3478434;47.130642099999996;7.2406203;6.099000453948975;1673302407.5105913;-9.27105712890625;-0.13421329855918884;89.24451446533203
65;1673302407.5467033;47.130642099999996;7.2406203;6.312000274658203;1673302407.6936188;-9.243663787841797;-3.253474473953247;89.72814178466797
66;1673302407.7367778;47.130641999999995;7.2406203;6.522000312805176;1673302407.9003901;-9.47801685333252;1.3248885869979858;89.17284393310547
67;1673302407.9382951;47.130641999999995;7.2406203;6.734000205993652;1673302408.0961373;-9.438329696655273;0.6915043592453003;89.23876953125
68;1673302408.1332939;47.130641999999995;7.2406201999999995;6.941000461578369;1673302408.270619;-9.326311111450195;-3.020207166671753;89.73369598388672
69;1673302408.3038049;47.130642099999996;7.2406201999999995;7.14400053024292;1673302408.4678824;-9.525503158569336;1.4094781875610352;89.14105987548828
70;1673302408.5084498;47.1306423;7.2406201999999995;7.3460001945495605;1673302408.684947;-9.307259559631348;2.4142963886260986;89.01739501953125
71;1673302408.7255218;47.1306423;7.2406201999999995;7.547000408172607;1673302408.8931901;-9.477618217468262;-2.923625946044922;89.88243103027344
72;1673302408.9328527;47.1306422;7.2406201;7.75100040435791;1673302409.0866687;-9.453145980834961;-0.47021767497062683;89.36376190185547
73;1673302409.120395;47.130642099999996;7.2406201;7.956000328063965;1673302409.2792563;-9.544034957885742;2.232369899749756;88.87232208251953
74;1673302409.3159132;47.130642099999996;7.2406201;8.159000396728516;1673302409.475638;-9.499794960021973;-2.5134801864624023;89.5943832397461
75;1673302409.5133061;47.130642099999996;7.2406201;8.359000205993652;1673302409.682925;-9.470247268676758;-1.6741633415222168;89.43417358398438
76;1673302409.7236276;47.130642099999996;7.2406201999999995;8.563000679016113;1673302409.8681235;-9.39023494720459;2.8879261016845703;88.84781646728516
77;1673302409.9333756;47.130642099999996;7.2406201999999995;8.771000862121582;1673302410.0986025;-9.369709968566895;-1.7549302577972412;89.41946411132812
78;1673302410.1401608;47.130641999999995;7.2406203;8.97700023651123;1673302410.29526;-9.33322525024414;-2.903998374938965;89.5506820678711
79;1673302410.3319492;47.1306419;7.2406203;9.178000450134277;1673302410.5069103;-9.412154197692871;2.350956916809082;88.72347259521484
80;1673302410.5412588;47.1306419;7.2406204;9.37700080871582;1673302410.680725;-9.301538467407227;-0.45886483788490295;89.3281021118164
81;1673302410.7109962;47.130641999999995;7.2406204;9.580000877380371;1673302410.8898137;-9.432276725769043;-2.556694507598877;89.80873107910156
82;1673302410.9323869;47.130642099999996;7.2406204;9.781000137329102;1673302411.1262944;-9.563824653625488;2.013237476348877;88.98831176757812
83;1673302411.1631703;47.1306422;7.2406204;9.985000610351562;1673302411.31909;-9.345110893249512;1.0488243103027344;89.09624481201172
84;1673302411.3522835;47.1306422;7.2406204;10.196000099182129;1673302411.4856153;-9.799280166625977;-3.1795248985290527;89.50865936279297
85;1673302411.5154834;47.130641999999995;7.2406206;10.481000900268555;1673302411.6752198;-10.930306434631348;-0.7624338865280151;89.4467544555664
86;1673302411.7157836;47.130641999999995;7.2406209;10.836000442504883;1673302411.8784616;-9.660141944885254;2.1480166912078857;89.01155853271484
87;1673302411.917082;47.130641999999995;7.2406213;11.217000961303711;1673302412.0859659;-8.777557373046875;-1.7557668685913086;89.50885772705078
88;1673302412.1252518;47.130641999999995;7.2406216;11.608000755310059;1673302412.2823155;-8.036964416503906;-2.2508528232574463;89.62883758544922
89;1673302412.317257;47.1306422;7.2406219;12.005000114440918;1673302412.4871182;-7.822266101837158;2.664069652557373;88.92523193359375
90;1673302412.5247595;47.1306423;7.2406220999999995;12.402000427246094;1673302412.6834643;-7.648575305938721;0.4709365665912628;89.36477661132812
91;1673302412.720125;47.1306423;7.2406222;12.803000450134277;1673302412.8749397;-7.858555793762207;-2.744375467300415;89.80303955078125
92;1673302412.9081833;47.1306422;7.2406220999999995;13.205000877380371;1673302413.1096733;-8.015959739685059;0.6279470324516296;89.13732147216797
93;1673302413.1473033;47.130642099999996;7.240622;13.60400104522705;1673302413.288896;-8.407896041870117;1.2373682260513306;88.95301055908203
94;1673302413.321194;47.130642099999996;7.2406217999999996;14.000000953674316;1673302413.4750314;-9.011086463928223;-3.0058300495147705;89.62786865234375
95;1673302413.5131047;47.130642099999996;7.2406215;14.38900089263916;1673302413.6782327;-9.350502014160156;0.20249752700328827;89.29623413085938
96;1673302413.717821;47.1306422;7.2406213;14.77500057220459;1673302413.8777516;-9.484818458557129;2.578615665435791;88.90477752685547
97;1673302413.9109695;47.1306422;7.240621099999999;15.158000946044922;1673302414.0653133;-9.464949607849121;-1.870504379272461;89.53951263427734
98;1673302414.1023993;47.1306422;7.240621;15.543001174926758;1673302414.3019443;-9.553900718688965;-2.0817208290100098;89.48185729980469
99;1673302414.3367703;47.130642099999996;7.2406209;15.92500114440918;1673302414.4945712;-9.396090507507324;2.37209415435791;88.97895050048828
100;1673302414.5361178;47.130642099999996;7.2406209;16.30900001525879;1673302414.7009354;-9.487093925476074;-0.8057705163955688;89.52143096923828
101;1673302414.7494605;47.130642099999996;7.2406209;16.694000244140625;1673302414.8844733;-9.266280174255371;-2.8260750770568848;89.760009765625
102;1673302414.9187047;47.130642099999996;7.2406209;17.084001541137695;1673302415.0790272;-9.113154411315918;2.386720895767212;88.94459533691406
103;1673302415.1132708;47.1306422;7.240621;17.472000122070312;1673302415.271603;-8.831279754638672;0.9502010345458984;89.0130844116211
104;1673302415.3088148;47.1306423;7.240621;17.85900115966797;1673302415.4789383;-9.033674240112305;-2.90747332572937;89.66101837158203
105;1673302415.5160522;47.1306422;7.240621099999999;18.24700164794922;1673302415.6684694;-9.114015579223633;0.9836757779121399;88.98033142089844
106;1673302415.7036786;47.130642099999996;7.240621099999999;18.631999969482422;1673302415.8560889;-9.052641868591309;1.5395913124084473;89.07539367675781
107;1673302415.8922024;47.1306422;7.240621;19.019001007080078;1673302416.048743;-9.060256004333496;-2.8420374393463135;89.75629425048828
108;1673302416.0869634;47.1306422;7.240621;19.400001525878906;1673302416.243978;-9.166226387023926;0.33308613300323486;89.39997863769531
109;1673302416.2811394;47.1306423;7.2406209;19.783000946044922;1673302416.4464014;-9.15867805480957;2.517509937286377;89.00398254394531
110;1673302416.483636;47.1306423;7.2406209;20.174001693725586;1673302416.642011;-9.162830352783203;-2.3846659660339355;89.6299057006836
111;1673302416.683001;47.1306422;7.2406209;20.567001342773438;1673302416.8604236;-9.187151908874512;-1.4058729410171509;89.39665222167969
112;1673302416.899468;47.130642099999996;7.2406209;20.955001831054688;1673302417.066749;-9.129240036010742;2.126467227935791;88.80158996582031
113;1673302417.105791;47.130642099999996;7.240620799999999;21.336000442504883;1673302417.2681973;-9.081338882446289;-1.392686128616333;89.38227844238281
114;1673302417.304327;47.130642099999996;7.240620799999999;21.71700096130371;1673302417.4902387;-9.212839126586914;-2.596010684967041;89.616943359375
115;1673302417.5234315;47.1306422;7.2406207;22.108001708984375;1673302417.6837883;-9.36939525604248;2.6361358165740967;89.03194427490234
116;1673302417.7179875;47.1306423;7.2406207;22.499000549316406;1673302417.8837647;-9.31038761138916;0.5926116108894348;89.19351959228516
117;1673302417.9171042;47.1306423;7.2406206;22.885000228881836;1673302418.0676377;-9.289316177368164;-2.7826180458068848;89.80553436279297
118;1673302418.101835;47.1306422;7.2406206;23.27400016784668;1673302418.260195;-8.970141410827637;0.6070588827133179;89.1689453125
119;1673302418.295497;47.1306422;7.2406206;23.665000915527344;1673302418.4488344;-9.098971366882324;1.7825690507888794;89.06532287597656
120;1673302418.4841096;47.1306422;7.2406206;24.058000564575195;1673302418.6424596;-9.081028938293457;-2.5883629322052;89.57669830322266
121;1673302418.676601;47.1306423;7.2406204999999995;24.444000244140625;1673302418.84237;-9.545347213745117;-0.5053985118865967;89.46725463867188
122;1673302418.8794656;47.1306424;7.2406204;24.83500099182129;1673302419.0541189;-9.44852066040039;3.1265783309936523;88.81822967529297
123;1673302419.0983644;47.1306425;7.2406203;25.23000144958496;1673302419.267047;-9.467818260192871;-1.0660223960876465;89.49325561523438
124;1673302419.308177;47.1306425;7.2406201999999995;25.62200164794922;1673302419.4934611;-9.4298734664917;-1.9228240251541138;89.58988952636719
125;1673302419.5266554;47.1306425;7.2406201999999995;26.01300048828125;1673302419.6936758;-9.530789375305176;2.1041386127471924;89.11831665039062
126;1673302419.7304766;47.1306424;7.2406201999999995;26.407001495361328;1673302419.88749;-9.345548629760742;-0.024446142837405205;89.33352661132812
127;1673302419.9246528;47.1306424;7.2406201999999995;26.797000885009766;1673302420.0859988;-9.21239185333252;-2.750880241394043;89.76661682128906
128;1673302420.1260922;47.1306423;7.2406201999999995;27.190000534057617;1673302420.3430724;-9.285253524780273;1.0083895921707153;89.1094741821289
129;1673302420.406762;47.1306424;7.2406201999999995;27.58700180053711;1673302420.5567002;-9.23804759979248;1.959166407585144;89.02013397216797
130;1673302420.5898857;47.1306424;7.2406201999999995;27.985000610351562;1673302420.732151;-9.205395698547363;-2.9295055866241455;89.63796997070312
131;1673302420.7633927;47.1306424;7.2406201999999995;28.382001876831055;1673302420.9531932;-9.138311386108398;-0.11972503364086151;89.2310791015625
132;1673302420.9826357;47.1306424;7.2406201999999995;28.779001235961914;1673302421.1304429;-9.24226188659668;2.2374444007873535;88.81707000732422
133;1673302421.16543;47.1306424;7.2406201999999995;29.177001953125;1673302421.3336532;-9.112071990966797;-1.687111258506775;89.40608215332031
134;1673302421.3658612;47.1306425;7.2406201999999995;29.57000160217285;1673302421.5275438;-9.383309364318848;-0.782572329044342;89.60401153564453
135;1673302421.5573692;47.130642599999995;7.2406201999999995;29.968002319335938;1673302421.7059574;-9.25752067565918;3.58355450630188;88.96233367919922
136;1673302421.7431095;47.130642599999995;7.2406201999999995;30.3700008392334;1673302421.9071827;-9.466129302978516;0.11784087121486664;89.39672088623047
137;1673302421.9390724;47.1306425;7.2406201;30.76700210571289;1673302422.100095;-9.215707778930664;-2.4957094192504883;89.58985900878906
138;1673302422.151934;47.1306424;7.2406201999999995;31.16200065612793;1673302422.2961843;-9.180462837219238;2.089236259460449;88.9835205078125
139;1673302422.3387375;47.1306423;7.2406201999999995;31.555002212524414;1673302422.4934082;-9.25940990447998;0.7514119148254395;89.11880493164062
140;1673302422.5295775;47.1306422;7.2406201999999995;31.944002151489258;1673302422.6847253;-9.278129577636719;-3.1908822059631348;89.75761413574219
141;1673302422.7237794;47.1306422;7.2406201999999995;32.3380012512207;1673302422.884064;-9.544234275817871;0.9360406398773193;89.04267883300781
142;1673302422.9154434;47.1306422;7.2406201999999995;32.733001708984375;1673302423.0732741;-9.091404914855957;2.019259452819824;88.98221588134766
143;1673302423.1093867;47.1306423;7.2406203;33.12800216674805;1673302423.2751844;-9.210029602050781;-2.511789083480835;89.72074890136719
144;1673302423.313382;47.1306422;7.2406203;33.5260009765625;1673302423.4866655;-9.268600463867188;-0.45125818252563477;89.4828872680664
145;1673302423.5218465;47.1306422;7.2406203;33.92399978637695;1673302423.685865;-9.345015525817871;2.269218921661377;88.9520263671875
146;1673302423.7268877;47.1306422;7.2406203;34.327003479003906;1673302423.8804128;-9.202945709228516;-1.3288207054138184;89.50269317626953
147;1673302423.9225953;47.1306422;7.2406203;34.72200012207031;1673302424.0819478;-9.391165733337402;-1.8070731163024902;89.61328887939453
148;1673302424.1195843;47.1306423;7.2406203;35.117000579833984;1673302424.2862835;-9.182310104370117;2.8302435874938965;88.8837890625
149;1673302424.321602;47.1306424;7.2406203;35.512001037597656;1673302424.4918344;-9.376859664916992;1.2866463661193848;89.1073989868164
150;1673302424.532843;47.1306425;7.2406201999999995;35.90999984741211;1673302424.696362;-9.382146835327148;-2.5923242568969727;89.72667694091797
151;1673302424.735311;47.1306424;7.2406201999999995;36.30900192260742;1673302424.8957062;-9.3075590133667;1.0014891624450684;89.00048065185547
152;1673302424.9381084;47.1306423;7.2406201999999995;36.70800018310547;1673302425.1008456;-9.366384506225586;1.5640289783477783;88.97354888916016
153;1673302425.132128;47.1306423;7.2406201999999995;37.10000228881836;1673302425.3009942;-9.23517894744873;-3.044748544692993;89.71084594726562
154;1673302425.337286;47.1306423;7.2406201999999995;37.496002197265625;1673302425.5022213;-9.50777530670166;-0.3041381239891052;89.40543365478516
155;1673302425.536402;47.1306424;7.2406201999999995;37.8910026550293;1673302425.6848834;-9.27466106414795;2.9329137802124023;88.96511840820312
156;1673302425.723922;47.1306425;7.2406201999999995;38.288002014160156;1673302425.8804417;-9.320266723632812;-1.4930659532546997;89.52706146240234
157;1673302425.9165578;47.130642599999995;7.2406201999999995;38.68400192260742;1673302426.0847924;-9.340367317199707;-0.6452431082725525;89.47911834716797
158;1673302426.1228561;47.130642599999995;7.2406201999999995;39.08000183105469;1673302426.3649447;-9.234021186828613;3.2281992435455322;88.81476593017578
159;1673302426.3933077;47.130642699999996;7.2406201999999995;39.47500228881836;1673302426.5513878;-9.257658004760742;-0.7992661595344543;89.53132629394531
160;1673302426.586748;47.130642699999996;7.2406201999999995;39.86600112915039;1673302426.7130125;-9.430458068847656;-2.064634323120117;89.50148010253906
161;1673302426.7394164;47.130642699999996;7.2406201999999995;40.26100158691406;1673302426.897665;-9.463394165039062;3.279924154281616;88.88768768310547
162;1673302426.9309711;47.1306428;7.2406201999999995;40.65300369262695;1673302427.0801027;-9.34426498413086;1.6009111404418945;89.11201477050781
163;1673302427.121296;47.1306428;7.2406201999999995;41.04600143432617;1673302427.297015;-9.356063842773438;-2.307506561279297;89.85401916503906
164;1673302427.3284552;47.1306428;7.2406203;41.44000244140625;1673302427.468078;-9.362809181213379;0.9103191494941711;89.10305786132812
165;1673302427.505162;47.130642699999996;7.2406203;41.829002380371094;1673302427.6699038;-9.186239242553711;2.0868682861328125;88.97760009765625
166;1673302427.7104642;47.1306425;7.2406203;42.2130012512207;1673302427.8810928;-9.183446884155273;-2.7694385051727295;89.66838073730469
167;1673302427.9152484;47.1306425;7.2406203;42.60300064086914;1673302428.066953;-9.316160202026367;-0.36865803599357605;89.25780487060547
168;1673302428.1020892;47.1306425;7.2406203;42.996002197265625;1673302428.2685552;-9.212124824523926;3.13131046295166;88.87779998779297
169;1673302428.3077412;47.130642599999995;7.2406203;43.3900032043457;1673302428.4816265;-9.212332725524902;-1.3142646551132202;89.520751953125
170;1673302428.5228028;47.130642599999995;7.2406203;43.78600311279297;1673302428.6712177;-9.262879371643066;-1.214827060699463;89.55702209472656
171;1673302428.7114012;47.130642599999995;7.2406203;44.18300247192383;1673302428.869216;-9.281699180603027;2.9289495944976807;88.9528579711914
172;1673302428.9043627;47.1306425;7.2406201999999995;44.5780029296875;1673302429.0741653;-9.284852027893066;-0.7232515811920166;89.36730194091797
173;1673302429.1279967;47.1306425;7.2406201999999995;44.96800231933594;1673302429.2970734;-9.498223304748535;-2.4383957386016846;89.61355590820312
174;1673302429.327436;47.1306425;7.2406201999999995;45.36100387573242;1673302429.4814925;-9.302794456481934;2.413472890853882;88.94590759277344
175;1673302429.518598;47.1306425;7.2406201;45.75400161743164;1673302429.6853335;-9.32519245147705;1.7160054445266724;89.15231323242188
176;1673302429.7263541;47.130642599999995;7.2406201;46.14800262451172;1673302429.8846602;-9.278682708740234;-2.883228063583374;89.70346069335938
177;1673302429.9246774;47.1306425;7.2406201;46.538002014160156;1673302430.083984;-9.567939758300781;0.9335777163505554;89.1082763671875
178;1673302430.119229;47.1306425;7.2406201;46.92900085449219;1673302430.2806208;-9.273783683776855;2.2648398876190186;88.8459701538086
179;1673302430.317747;47.1306424;7.2406201;47.31700134277344;1673302430.4717274;-9.281329154968262;-2.5664937496185303;89.75411224365234
180;1673302430.5058875;47.1306423;7.2406201;47.711002349853516;1673302430.662271;-9.368558883666992;0.6667120456695557;89.16535949707031
181;1673302430.697447;47.1306424;7.2406201;48.10000228881836;1673302430.855851;-9.690398216247559;1.3144950866699219;89.20021057128906
182;1673302430.893104;47.1306425;7.24062;48.445003509521484;1673302431.0575457;-9.499700546264648;-1.467956781387329;89.5770263671875
183;1673302431.0927403;47.1306425;7.2406198999999996;48.743003845214844;1673302431.2687376;-9.862600326538086;-0.18001244962215424;89.41377258300781
184;1673302431.3059876;47.1306425;7.240619799999999;48.99400329589844;1673302431.4683604;-10.027484893798828;2.828244924545288;88.81905364990234
185;1673302431.5064218;47.130642599999995;7.240619499999999;49.19700241088867;1673302431.660794;-8.970839500427246;0.06723666191101074;89.54218292236328
186;1673302431.6995842;47.130642599999995;7.2406193;49.358001708984375;1673302431.8803744;2.7595431804656982;11.370044708251953;84.26004028320312
187;1673302431.9155104;47.1306425;7.2406188;49.46800231933594;1673302432.0723476;0.931432843208313;8.7028169631958;71.8328857421875
188;1673302432.1123621;47.130641999999995;7.240617599999999;49.52400207519531;1673302432.278392;-8.78955078125;5.912215232849121;60.20133972167969
189;1673302432.312063;47.1306411;7.2406162;49.57200241088867;1673302432.4839783;-1.5448510646820068;9.092537879943848;51.49784469604492
190;1673302432.529002;47.130640199999995;7.2406147;49.61000061035156;1673302432.7121475;-5.496988296508789;10.654130935668945;42.7219352722168
191;1673302432.757937;47.1306392;7.2406131;49.64400100708008;1673302432.9182587;-6.307261943817139;7.227512836456299;33.850250244140625
192;1673302432.960255;47.1306383;7.240611599999999;49.66800308227539;1673302433.118422;-6.065403461456299;7.220329284667969;25.381263732910156
193;1673302433.1533954;47.1306375;7.2406102;49.69400405883789;1673302433.3121462;-3.923327922821045;7.9745612144470215;17.059038162231445
194;1673302433.345104;47.1306368;7.2406089;49.72100067138672;1673302433.4942353;-1.4249154329299927;10.210236549377441;8.485154151916504
195;1673302433.537233;47.1306363;7.240607799999999;49.74500274658203;1673302433.7010832;0.33776554465293884;13.26334285736084;-0.263641357421875
196;1673302433.7382202;47.130635899999994;7.240606799999999;49.7650032043457;1673302433.9042165;0.8317044377326965;15.146780014038086;-9.189355850219727
197;1673302433.9344668;47.1306356;7.2406061;49.781002044677734;1673302434.0800211;1.2743313312530518;12.84194564819336;-17.83348846435547
198;1673302434.1151772;47.130635299999994;7.2406057;49.7910041809082;1673302434.2800229;3.6835877895355225;7.525884628295898;-26.348970413208008
199;1673302434.31627;47.130635;7.2406054;49.797000885009766;1673302434.4842474;7.639871597290039;7.304749488830566;-35.51172637939453
200;1673302434.5205011;47.1306349;7.2406052;49.80800247192383;1673302434.6989167;9.536044120788574;8.277273178100586;-45.265220642089844
201;1673302434.7350671;47.130634699999995;7.2406051;49.81900405883789;1673302434.8943367;8.850671768188477;9.223255157470703;-51.77968215942383
202;1673302434.9335182;47.1306346;7.2406051;49.827003479003906;1673302435.1004736;6.650627136230469;7.806923866271973;-51.43877029418945
203;1673302435.1366096;47.1306345;7.2406052;49.833003997802734;1673302435.2878006;4.553607940673828;6.028157711029053;-48.438377380371094
204;1673302435.3248894;47.1306343;7.2406052999999995;49.83500289916992;1673302435.4833553;4.282925605773926;4.939599990844727;-46.69428253173828
205;1673302435.5184865;47.130634199999996;7.2406052;49.83400344848633;1673302435.6818027;6.721114158630371;5.157943248748779;-46.175376892089844
206;1673302435.717917;47.130634099999995;7.240604899999999;49.840003967285156;1673302435.8705719;8.107468605041504;6.720525741577148;-46.2662353515625
207;1673302435.9138186;47.130634;7.2406045;49.84600067138672;1673302436.0770333;7.271028995513916;8.780705451965332;-46.54296875
208;1673302436.113274;47.130634;7.2406042;49.855003356933594;1673302436.2696896;5.176167011260986;9.064682960510254;-46.834434509277344
209;1673302436.306777;47.130634;7.2406039;49.86000061035156;1673302436.4697008;5.000988483428955;7.2328410148620605;-46.787410736083984
210;1673302436.50294;47.130634099999995;7.240603699999999;49.862003326416016;1673302436.6621778;7.3986687660217285;5.701511859893799;-46.691715240478516
211;1673302436.7109654;47.130634199999996;7.2406036;49.86300277709961;1673302436.873685;-9.677519798278809;5.789543151855469;-48.641326904296875
212;1673302436.9215996;47.1306343;7.2406032;49.85600280761719;1673302437.0722358;-40.092430114746094;9.109842300415039;-50.41379165649414
213;1673302437.1112742;47.130635299999994;7.2406013;49.840003967285156;1673302437.2607114;-43.89969253540039;5.745932579040527;-48.12036895751953
214;1673302437.3018067;47.130638;7.240596699999999;49.78400421142578;1673302437.4706082;-39.37922286987305;0.9778221249580383;-45.83951187133789
215;1673302437.5068924;47.1306423;7.240589;49.72500228881836;1673302437.6669161;-42.04743957519531;-2.7815425395965576;-44.513851165771484
216;1673302437.7028728;47.1306478;7.2405785;49.69000244140625;1673302437.8630662;-43.08580017089844;-1.4477165937423706;-44.69218444824219
217;1673302437.8981047;47.1306544;7.2405652;49.678001403808594;1673302438.0574818;-46.53914260864258;2.126699447631836;-44.63972854614258
218;1673302438.094151;47.1306623;7.2405496;49.69000244140625;1673302438.2528803;-54.39187240600586;6.020461082458496;-45.06946563720703
219;1673302438.2901757;47.130671899999996;7.2405311;49.73600387573242;1673302438.4647415;-59.61734390258789;8.82494831085205;-44.70796585083008
220;1673302438.5010111;47.1306837;7.240509899999999;49.790000915527344;1673302438.6647663;-60.12044143676758;9.662117958068848;-44.7189826965332
221;1673302438.7008762;47.1306978;7.2404866;49.827003479003906;1673302438.8660185;-58.751712799072266;9.886722564697266;-44.75095748901367
222;1673302438.9067733;47.130713799999995;7.240461499999999;49.8390007019043;1673302439.0682318;-55.87925338745117;7.008729457855225;-44.39196014404297
223;1673302439.1019337;47.1307312;7.2404351;49.8280029296875;1673302439.27424;-52.80149841308594;6.618844985961914;-44.27348709106445
224;1673302439.3068988;47.130749699999996;7.2404078;49.802001953125;1673302439.4548516;-50.93811798095703;5.352510452270508;-44.41563415527344
225;1673302439.4879894;47.1307688;7.2403799;49.76900100708008;1673302439.6581337;-48.78641891479492;4.974059581756592;-44.8314323425293
226;1673302439.696691;47.1307884;7.2403512999999995;49.73600387573242;1673302439.851645;-46.986236572265625;6.662525653839111;-44.491798400878906
227;1673302439.8897097;47.1308083;7.2403222;49.71200180053711;1673302440.0460517;-37.905941009521484;7.076661586761475;-43.136512756347656
228;1673302440.081184;47.1308284;7.2402931;49.71000289916992;1673302440.2477546;5.2600908279418945;9.132527351379395;-43.66007614135742
229;1673302440.2844791;47.130847499999994;7.2402655;49.71800231933594;1673302440.450708;35.76289367675781;9.070850372314453;-40.283267974853516
230;1673302440.4894578;47.1308645;7.240240999999999;49.6150016784668;1673302440.6521368;19.287378311157227;2.865791082382202;-42.94560241699219
231;1673302440.6882627;47.1308788;7.2402196;49.333003997802734;1673302440.8576922;15.691750526428223;1.3891500234603882;-46.20610809326172
232;1673302440.895992;47.1308904;7.2402014999999995;49.079002380371094;1673302441.0811803;13.409666061401367;2.160097599029541;-46.165069580078125
233;1673302441.119264;47.1308994;7.2401865;48.95500183105469;1673302441.282485;40.9877815246582;6.237233638763428;-46.37213897705078
234;1673302441.3144338;47.130905999999996;7.2401748999999995;49.0260009765625;1673302441.4823534;47.9385871887207;3.988461971282959;-49.086402893066406
235;1673302441.5212965;47.1309097;7.2401678;49.13300323486328;1673302441.6832662;48.5159797668457;4.3194098472595215;-48.6008186340332
236;1673302441.720271;47.1309107;7.2401651;49.242000579833984;1673302441.889115;50.52891159057617;7.028975009918213;-47.15902328491211
237;1673302441.9235673;47.1309093;7.240166299999999;49.34700393676758;1673302442.0731807;48.477256774902344;8.430196762084961;-47.04359817504883
238;1673302442.1272085;47.1309058;7.2401713999999995;49.44900131225586;1673302442.3765116;36.430694580078125;9.71652889251709;-47.204200744628906
239;1673302442.4053974;47.130900999999994;7.2401789999999995;49.53400421142578;1673302442.5739043;17.687074661254883;10.973420143127441;-47.27360153198242
240;1673302442.6027565;47.1308958;7.2401877;49.59300231933594;1673302442.7399848;-2.2963180541992188;11.476550102233887;-47.457462310791016
241;1673302442.771144;47.1308909;7.2401962;49.63300323486328;1673302442.9061928;-16.18014144897461;11.94376277923584;-47.97284698486328
242;1673302442.9335217;47.130887;7.240203299999999;49.65400314331055;1673302443.078673;-22.571290969848633;9.67056941986084;-45.72764587402344
243;1673302443.113406;47.130884599999995;7.2402083;49.663002014160156;1673302443.2820997;-20.139963150024414;4.84414005279541;-44.31081771850586
244;1673302443.320803;47.1308837;7.2402108;49.669002532958984;1673302443.4921653;-18.245365142822266;2.8108034133911133;-44.37166976928711
245;1673302443.5259373;47.1308838;7.2402112999999995;49.665000915527344;1673302443.698753;-12.350837707519531;4.24109411239624;-44.316322326660156
246;1673302443.7368178;47.1308848;7.2402102;49.677001953125;1673302443.9025729;-4.364223003387451;5.769393444061279;-44.780418395996094
247;1673302443.9396613;47.1308863;7.240208;49.704002380371094;1673302444.0876148;3.8844923973083496;7.472724437713623;-45.230499267578125
248;1673302444.123362;47.130888;7.2402055999999995;49.7390022277832;1673302444.288939;10.57708740234375;7.640069961547852;-45.71046829223633
249;1673302444.327558;47.130889599999996;7.240203299999999;49.7760009765625;1673302444.4903023;14.283243179321289;8.473297119140625;-46.01258087158203
250;1673302444.5281608;47.130890699999995;7.2402014999999995;49.80900192260742;1673302444.6826344;18.72460174560547;9.362627983093262;-45.34758377075195
251;1673302444.7193756;47.130891399999996;7.240200499999999;49.82100296020508;1673302444.8862946;18.096996307373047;24.58911895751953;-43.86528778076172
252;1673302444.9425309;47.1308921;7.2401997;49.548004150390625;1673302445.1338038;14.222786903381348;34.78596496582031;-44.220237731933594
253;1673302445.1690505;47.1308928;7.2401987;48.915000915527344;1673302445.3274746;7.510356903076172;37.34657287597656;-47.166053771972656
254;1673302445.363698;47.1308934;7.2401976999999995;47.90800094604492;1673302445.5201058;-1.9967668056488037;30.82379913330078;-51.850982666015625
255;1673302445.553268;47.130894;7.2401965;46.525001525878906;1673302445.7206497;-13.454304695129395;14.828510284423828;-55.56044387817383
256;1673302445.760665;47.1308945;7.2401952;44.75800323486328;1673302445.9112782;-23.52223014831543;-8.382858276367188;-55.653865814208984
257;1673302445.9464147;47.1308947;7.2401937;42.59000015258789;1673302446.108811;-27.014741897583008;-30.963226318359375;-54.108314514160156
258;1673302446.1478515;47.130894999999995;7.2401925;40.03900146484375;1673302446.2981625;-23.153955459594727;-40.47988510131836;-57.07298278808594
259;1673302446.3351157;47.1308954;7.2401914;37.117000579833984;1673302446.5422673;-13.134225845336914;-31.65334129333496;-65.0978775024414
260;1673302446.603978;47.1308959;7.2401906;33.827003479003906;1673302446.7452;1.2097803354263306;-9.22375202178955;-71.61962127685547
261;1673302446.7735038;47.1308965;7.240189999999999;30.158000946044922;1673302446.905422;12.632226943969727;15.682694435119629;-72.6508560180664
262;1673302446.9386094;47.1308973;7.2401892;26.09400177001953;1673302447.0935533;13.382225036621094;27.917367935180664;-74.0494384765625
263;1673302447.127284;47.1308979;7.240188099999999;21.652000427246094;1673302447.2901306;3.194575548171997;18.474044799804688;-79.85189819335938
264;1673302447.3278553;47.130898099999996;7.2401867;16.828001022338867;1673302447.495866;-12.616133689880371;-4.897760391235352;-83.38362121582031
265;1673302447.5400674;47.1308983;7.2401851;11.620000839233398;1673302447.7142336;-21.424039840698242;-24.321048736572266;-83.27021789550781
266;1673302447.7474163;47.130898599999995;7.2401838;6.025000095367432;1673302447.899526;-16.35192108154297;-20.854232788085938;-88.10493469238281
267;1673302447.9470453;47.130899199999995;7.2401827999999995;0.0690000057220459;1673302448.1192157;-2.8938887119293213;-6.116078853607178;-92.84334564208984
268;1673302448.1572807;47.130888399999996;7.2401732999999995;0.16100001335144043;1673302448.304547;-4.278268337249756;-15.252948760986328;-97.21570587158203
269;1673302448.3348887;47.1308765;7.240161;0.08700000494718552;1673302448.4859297;-4.517328262329102;-10.091728210449219;-97.02059936523438
270;1673302448.5206385;47.1308639;7.240148199999999;0.029000001028180122;1673302448.6774065;-4.456748008728027;-10.035466194152832;-96.78532409667969
271;1673302448.715036;47.130852399999995;7.2401366;-0.010000000707805157;1673302448.8954961;-4.220024108886719;-9.57903003692627;-96.51262664794922
272;1673302448.9373584;47.1308414;7.2401257999999995;-0.036000002175569534;1673302449.0893934;-4.141988277435303;-9.32151985168457;-96.39400482177734
273;1673302449.1255572;47.1308289;7.2401139;-0.06200000271201134;1673302449.3030834;-4.07169771194458;-9.16702938079834;-96.31024932861328
274;1673302449.3448782;47.130815299999995;7.2401013;-0.09000000357627869;1673302449.4938414;-4.006511688232422;-8.937204360961914;-96.24823760986328
275;1673302449.5324554;47.1308009;7.2400883;-0.11800000816583633;1673302449.6833448;-3.892691135406494;-8.773629188537598;-96.19696807861328
276;1673302449.7170753;47.1307858;7.2400747999999995;-0.15200001001358032;1673302449.877747;-3.8944544792175293;-8.701505661010742;-96.11304473876953
277;1673302449.9163482;47.1307701;7.240061;-0.20200000703334808;1673302450.0884066;-3.843339204788208;-8.594269752502441;-96.06729125976562
278;1673302450.138565;47.130753999999996;7.240047;-0.24000000953674316;1673302450.3014648;-3.811542510986328;-8.469832420349121;-96.00529479980469
279;1673302450.3446598;47.130737499999995;7.2400328;-0.27000001072883606;1673302450.5103135;-3.772104501724243;-8.372715950012207;-95.95539093017578
280;1673302450.554121;47.1307206;7.240018399999999;-0.2970000207424164;1673302450.7346056;-3.778620481491089;-8.2908935546875;-95.92999267578125
281;1673302450.7677011;47.1307033;7.240003799999999;-0.320000022649765;1673302450.9256544;-3.7411274909973145;-8.195030212402344;-95.8574447631836
282;1673302450.9615831;47.1306855;7.239988899999999;-0.3450000286102295;1673302451.1188724;-3.7185473442077637;-8.119325637817383;-95.81515502929688
283;1673302451.1515722;47.1306673;7.2399738;-0.38600000739097595;1673302451.315463;-3.6632907390594482;-8.025436401367188;-95.78547668457031
284;1673302451.3546004;47.130648799999996;7.239958499999999;-0.41600000858306885;1673302451.5246415;-3.6231889724731445;-7.95021915435791;-95.73909759521484
285;1673302451.5635786;47.130629899999995;7.2399431;-0.4400000274181366;1673302451.7176175;-3.547257661819458;-7.8673810958862305;-95.71670532226562
286;1673302451.750951;47.1306108;7.239927499999999;-0.4580000340938568;1673302451.90041;-3.5772244930267334;-7.7903947830200195;-95.6791763305664
287;1673302451.933742;47.1305913;7.2399118;-0.4740000367164612;1673302452.0834582;-3.5210676193237305;-7.702505588531494;-95.62613677978516
288;1673302452.1155164;47.130571599999996;7.239895799999999;-0.4880000352859497;1673302452.2695785;-3.4921584129333496;-7.620310306549072;-95.60429382324219
289;1673302452.3074586;47.130551399999995;7.2398796999999995;-0.503000020980835;1673302452.469571;-3.494683265686035;-7.578788757324219;-95.58191680908203
290;1673302452.5085852;47.1305306;7.239863199999999;-0.5360000133514404;1673302452.674732;-3.481745719909668;-7.502775192260742;-95.57817077636719
291;1673302452.7145824;47.1305097;7.2398466;-0.5540000200271606;1673302452.873568;-3.5799849033355713;-7.458318710327148;-95.54529571533203
292;1673302452.9115055;47.1304885;7.2398299999999995;-0.562000036239624;1673302453.078827;-3.5769524574279785;-7.351598739624023;-95.51887512207031
293;1673302453.1135368;47.1304671;7.2398131;-0.5680000185966492;1673302453.2707205;-3.5052013397216797;-7.255073547363281;-95.48536682128906
294;1673302453.3075104;47.1304453;7.2397960999999995;-0.5720000267028809;1673302453.4812381;-3.5158796310424805;-7.1665730476379395;-95.45882415771484
295;1673302453.518368;47.130423099999994;7.239778899999999;-0.5790000557899475;1673302453.6865294;-3.4804937839508057;-7.1085357666015625;-95.43291473388672
296;1673302453.7265708;47.1304057;7.2397655;-0.5990000367164612;1673302453.885619;-3.4774668216705322;-7.028306484222412;-95.41615295410156
297;;;;;1673302454.0895238;-3.4298923015594482;-6.966133117675781;-95.37386322021484
298;;;;;1673302454.301474;-3.4773027896881104;-6.882589340209961;-95.32865905761719
299;;;;;1673302454.5174747;-3.417130470275879;-6.805413246154785;-95.32218933105469
300;;;;;1673302454.7176151;-3.367786169052124;-6.746947765350342;-95.30319213867188
301;;;;;1673302454.912558;-3.339709997177124;-6.6947455406188965;-95.27393341064453
302;;;;;1673302455.1046276;-3.3623814582824707;-6.653289794921875;-95.24748992919922
