;pos_time;latitude;longitude;altitude;alt_time;pitch;roll;yaw
0;1673302895.0473802;47.1306425;7.240619799999999;-0.020000001415610313;1673302895.1563165;0.125920832157135;-0.6590092182159424;90.17343139648438
1;1673302895.2551458;47.1306425;7.240619799999999;-0.020000001415610313;1673302895.35495;0.23090608417987823;0.45764997601509094;90.03095245361328
2;1673302895.4521937;47.1306425;7.2406198999999996;-0.020000001415610313;1673302895.5573442;0.23395030200481415;0.19782859086990356;90.18890380859375
3;1673302895.653471;47.1306425;7.2406198999999996;-0.020000001415610313;1673302895.757302;0.20129135251045227;-0.010368017479777336;90.287109375
4;1673302895.8613465;47.1306424;7.2406198999999996;-0.01900000125169754;1673302895.9709451;-0.06188563257455826;0.15509487688541412;90.07581329345703
5;1673302896.0613673;47.1306424;7.2406198999999996;-0.018000001087784767;1673302896.1727195;-0.1271221786737442;0.11464805155992508;89.9697494506836
6;1673302896.2813241;47.1306424;7.24062;-0.018000001087784767;1673302896.3826172;-0.06824496388435364;0.11233124881982803;89.98853302001953
7;1673302896.462767;47.1306424;7.2406198999999996;-0.020000001415610313;1673302896.5612261;-0.08214137703180313;-0.10494726151227951;90.06050872802734
8;1673302896.6596887;47.1306423;7.2406198999999996;-0.02200000174343586;1673302896.776168;0.05481809750199318;0.2533397972583771;89.85269927978516
9;1673302896.8713086;47.1306423;7.240619799999999;-0.0010000000474974513;1673302896.9712722;0.28237083554267883;0.07450594753026962;89.85623168945312
10;1673302897.0593128;47.1306423;7.2406197;-0.005000000353902578;1673302897.1701386;0.09493472427129745;0.15620262920856476;90.03263092041016
11;1673302897.2683778;47.1306423;7.2406196;-0.010000000707805157;1673302897.382205;0.13046307861804962;0.022644633427262306;90.0643310546875
12;1673302897.4785001;47.1306423;7.2406196;-0.013000000268220901;1673302897.574104;0.2634334862232208;0.08510062843561172;90.18547058105469
13;1673302897.6686454;47.1306422;7.2406196;-0.013000000268220901;1673302897.7773938;-0.09509561955928802;0.05322336405515671;89.90502166748047
14;1673302897.8675182;47.1306422;7.2406196;-0.010000000707805157;1673302897.959423;0.30574819445610046;-0.007737806998193264;90.0710678100586
15;1673302898.0532596;47.1306422;7.240619499999999;-0.009000000543892384;1673302898.1537445;0.40623775124549866;0.011653381399810314;89.99578094482422
16;1673302898.2432938;47.1306422;7.2406194;-0.007000000216066837;1673302898.3563473;0.2477002888917923;0.02909105457365513;89.9498519897461
17;1673302898.4512553;47.1306423;7.2406193;0.0020000000949949026;1673302898.555177;0.26543736457824707;-0.014812531881034374;90.04808044433594
18;1673302898.66028;47.1306423;7.2406193;0.005000000353902578;1673302898.7662818;0.319532573223114;-0.0021778636146336794;90.11717987060547
19;1673302898.860281;47.1306423;7.240619199999999;0.003000000026077032;1673302898.9875157;0.506644070148468;-0.4400276243686676;90.30216217041016
20;1673302899.0843217;47.1306422;7.240619199999999;0.0010000000474974513;1673302899.197759;1.1149649620056152;-0.3235033452510834;90.4658203125
21;1673302899.293245;47.1306422;7.240619199999999;0.0010000000474974513;1673302899.419315;1.5008983612060547;0.26537811756134033;90.15681457519531
22;1673302899.508567;47.1306423;7.240619199999999;0.005000000353902578;1673302899.5894892;2.762695074081421;0.010694097727537155;89.96028137207031
23;1673302899.6841688;47.1306423;7.240619199999999;0.012000000104308128;1673302899.7712417;4.107003688812256;-0.1960020661354065;89.29377746582031
24;1673302899.8871691;47.1306423;7.2406191;0.014000000432133675;1673302899.9874344;0.12029337882995605;-0.6450497508049011;85.21915435791016
25;1673302900.0834765;47.1306423;7.2406182999999995;0.010000000707805157;1673302900.1871898;-1.1099666357040405;-0.05186938866972923;90.79058074951172
26;1673302900.285239;47.1306423;7.2406163;0.020000001415610313;1673302900.3894796;-5.835820198059082;-0.20263166725635529;87.41535186767578
27;1673302900.4983974;47.1306422;7.240613499999999;0.03700000047683716;1673302900.5942483;-13.289177894592285;0.05116603523492813;86.9857177734375
28;1673302900.6881597;47.130642099999996;7.2406098;0.05000000074505806;1673302900.7872229;-17.003692626953125;-0.4812864363193512;87.97518157958984
29;1673302900.8823307;47.130641999999995;7.2406055;0.06000000238418579;1673302900.9844716;-16.62833595275879;0.9481791853904724;88.08032989501953
30;1673302901.077195;47.1306419;7.240600499999999;0.07800000160932541;1673302901.1743;-17.43263816833496;1.0063176155090332;88.3615493774414
31;1673302901.2895272;47.1306417;7.240595099999999;0.10200000554323196;1673302901.386528;-18.89658546447754;-0.6012899875640869;89.07913970947266
32;1673302901.4874876;47.130641499999996;7.240589399999999;0.13300000131130219;1673302901.5984187;-20.60923957824707;-0.09948171675205231;89.13700866699219
33;1673302901.6952412;47.130641399999995;7.2405835;0.16900001466274261;1673302901.7903836;-22.50065040588379;0.4326217472553253;89.12166595458984
34;1673302901.8834236;47.1306411;7.2405776;0.2070000171661377;1673302901.9771333;-24.528095245361328;-0.6216028332710266;89.44507598876953
35;1673302902.0703945;47.130640899999996;7.2405719;0.2460000067949295;1673302902.1608644;-26.55097007751465;-1.1656835079193115;89.6540756225586
36;1673302902.2623515;47.1306407;7.240566599999999;0.2800000011920929;1673302902.3694654;-28.684812545776367;-0.41173672676086426;89.48326110839844
37;1673302902.472386;47.1306405;7.240561899999999;0.30900001525878906;1673302902.5950575;-30.817258834838867;-0.7563084959983826;89.5561752319336
38;1673302902.690259;47.130640299999996;7.2405577999999995;0.33400002121925354;1673302902.7806666;-32.930599212646484;-1.4735264778137207;89.80909729003906
39;1673302902.867659;47.130640199999995;7.2405545;0.3580000102519989;1673302902.961335;-35.1499137878418;-0.945917010307312;89.62369537353516
40;1673302903.056511;47.130640199999995;7.2405522;0.3850000202655792;1673302903.1603885;-37.400535583496094;-0.6921588778495789;89.45074462890625
41;1673302903.253091;47.130640199999995;7.240551;0.41100001335144043;1673302903.3884456;-39.50053787231445;-1.326520562171936;89.71965026855469
42;1673302903.4822023;47.130640199999995;7.2405509;0.43300002813339233;1673302903.5775898;-41.725887298583984;-1.1852636337280273;89.69217681884766
43;1673302903.6651657;47.130640299999996;7.2405520999999995;0.4520000219345093;1673302903.7673576;-43.895816802978516;-0.8925437331199646;89.5508041381836
44;1673302903.8532643;47.1306404;7.240554899999999;0.4690000116825104;1673302903.9704893;-46.08015441894531;-1.3240976333618164;89.65884399414062
45;1673302904.0894723;47.1306406;7.2405591;0.4880000352859497;1673302904.1924837;-47.97877502441406;-1.0111390352249146;89.56607818603516
46;1673302904.2828033;47.130640899999996;7.2405648;0.5090000033378601;1673302904.3735654;-44.35908126831055;-0.6650338172912598;89.31979370117188
47;1673302904.458516;47.1306411;7.2405718;0.5230000019073486;1673302904.5595675;-39.67654800415039;-0.5583210587501526;89.27816009521484
48;1673302904.6614945;47.130641399999995;7.2405795;0.5320000052452087;1673302904.7573469;-33.99016189575195;-0.3666912019252777;89.37760162353516
49;1673302904.8602428;47.1306416;7.2405873;0.5590000152587891;1673302904.964301;-29.587749481201172;-0.14381220936775208;89.26432037353516
50;1673302905.0464108;47.1306418;7.240594499999999;0.612000048160553;1673302905.1561644;-25.082002639770508;-0.47702133655548096;89.49712371826172
51;1673302905.2775342;47.1306419;7.2406009;0.6640000343322754;1673302905.394443;-21.160188674926758;-0.3472142815589905;89.40562438964844
52;1673302905.5093877;47.130642099999996;7.2406061;0.718000054359436;1673302905.5953815;-19.727678298950195;0.33000311255455017;89.22560119628906
53;1673302905.6863668;47.1306422;7.2406101;0.781000018119812;1673302905.7824318;-19.655118942260742;-0.26815065741539;89.48103332519531
54;1673302905.9047198;47.1306422;7.2406128;0.8490000367164612;1673302906.0412264;-20.852956771850586;-1.5210050344467163;89.93968963623047
55;1673302906.1198657;47.1306422;7.240614399999999;0.9230000376701355;1673302906.214258;-21.853723526000977;0.6466912031173706;89.17623901367188
56;1673302906.298465;47.1306422;7.2406152;1.0110000371932983;1673302906.3941665;-23.565547943115234;0.5171101093292236;89.22576904296875
57;1673302906.4827547;47.1306423;7.240615399999999;1.1090000867843628;1673302906.5876026;-26.0102596282959;-2.529407024383545;90.30314636230469
58;1673302906.6779556;47.1306423;7.2406152;1.218000054359436;1673302906.7793512;-27.662494659423828;1.3415510654449463;89.22986602783203
59;1673302906.8783612;47.1306423;7.240615;1.3370000123977661;1673302906.9762871;-28.744159698486328;0.48458534479141235;89.29673767089844
60;1673302907.0833075;47.1306423;7.2406149;1.465000033378601;1673302907.1702428;-29.2633113861084;-2.621532440185547;90.34098815917969
61;1673302907.2633293;47.1306422;7.240615;1.6050000190734863;1673302907.3651707;-29.483705520629883;-0.4774433672428131;94.84178924560547
62;1673302907.504732;47.130642099999996;7.2406152;1.75600004196167;1673302907.5863414;-28.73675537109375;-1.0816185474395752;94.44583892822266
63;1673302907.6674657;47.1306422;7.240615699999999;1.9160001277923584;1673302907.7588208;-28.723085403442383;-2.8813118934631348;95.52057647705078
64;1673302907.8554099;47.1306423;7.2406162;2.0930001735687256;1673302907.993676;-27.78815269470215;0.31105345487594604;94.58299255371094
65;1673302908.0847101;47.1306423;7.2406166999999995;2.2800002098083496;1673302908.1774364;-27.7268009185791;0.3814479410648346;94.47175598144531
66;1673302908.2747502;47.1306423;7.240617299999999;2.4730000495910645;1673302908.3711307;-27.586257934570312;-2.305752754211426;95.43494415283203
67;1673302908.4556446;47.1306423;7.2406178;2.6680002212524414;1673302908.5559504;-27.397396087646484;0.33991655707359314;94.19087982177734
68;1673302908.6472535;47.1306423;7.2406182999999995;2.8620002269744873;1673302908.7494957;-26.873899459838867;1.314536690711975;93.77006530761719
69;1673302908.8487325;47.1306423;7.2406188;3.055000066757202;1673302908.9606612;-26.89557647705078;-2.000818967819214;94.74401092529297
70;1673302909.064894;47.1306422;7.2406191;3.247000217437744;1673302909.1701841;-26.747831344604492;-0.07927990704774857;94.18202209472656
71;1673302909.2784019;47.1306422;7.2406193;3.438000202178955;1673302909.3687851;-26.768360137939453;1.2950063943862915;93.7103271484375
72;1673302909.4738028;47.1306422;7.240619499999999;3.627000093460083;1673302909.5741403;-26.707942962646484;-2.4085769653320312;94.7240219116211
73;1673302909.6762142;47.130642099999996;7.2406196;3.819000244140625;1673302909.7734232;-26.757429122924805;-0.6968024373054504;94.14281463623047
74;1673302909.8550143;47.130642099999996;7.2406197;4.011000156402588;1673302909.960366;-26.99564552307129;1.271202564239502;93.54295349121094
75;1673302910.0653362;47.130642099999996;7.2406197;4.203999996185303;1673302910.1777852;-27.065383911132812;-2.042506694793701;94.6763687133789
76;1673302910.2853744;47.130642099999996;7.2406197;4.398000240325928;1673302910.40782;-27.335493087768555;-1.801134705543518;94.55247497558594
77;1673302910.5109656;47.130641999999995;7.2406197;4.5960001945495605;1673302910.614974;-27.249223709106445;1.1337027549743652;93.59815216064453
78;1673302910.703512;47.130641999999995;7.2406197;4.7910003662109375;1673302910.7880688;-27.416465759277344;-1.6984962224960327;94.43415832519531
79;1673302910.8769932;47.130641999999995;7.2406197;4.986000061035156;1673302910.984516;-27.176122665405273;-2.145967721939087;94.7385482788086
80;1673302911.093361;47.130642099999996;7.240619799999999;5.178000450134277;1673302911.1886325;-27.488319396972656;1.4210851192474365;93.67378997802734
81;1673302911.282512;47.1306422;7.240619799999999;5.372000217437744;1673302911.3833177;-27.340164184570312;-0.7583034038543701;94.34432220458984
82;1673302911.494204;47.1306422;7.240619799999999;5.566000461578369;1673302911.5983803;-27.5156307220459;-2.0745222568511963;94.85759735107422
83;1673302911.702496;47.1306422;7.240619799999999;5.759000301361084;1673302911.7997167;-27.45211410522461;0.9827172160148621;93.76361846923828
84;1673302911.8807406;47.1306422;7.240619799999999;5.953000068664551;1673302911.9791408;-27.50356101989746;0.014415300451219082;93.9738540649414
85;1673302912.0640814;47.1306422;7.2406198999999996;6.148000240325928;1673302912.1602752;-27.301551818847656;-2.5794053077697754;94.85221862792969
86;1673302912.251631;47.1306422;7.2406198999999996;6.343000411987305;1673302912.3552744;-27.53001594543457;0.3951193392276764;93.92559814453125
87;1673302912.4638164;47.1306423;7.24062;6.538000106811523;1673302912.5632417;-27.121036529541016;0.7202754616737366;93.88013458251953
88;1673302912.6634853;47.1306423;7.2406201;6.7330002784729;1673302912.7704465;-27.295034408569336;-2.5345866680145264;95.00325775146484
89;1673302912.8725517;47.1306423;7.2406201;6.929000377655029;1673302912.9907615;-27.18046760559082;-0.04126765951514244;94.10848999023438
90;1673302913.0826247;47.1306423;7.2406201999999995;7.119000434875488;1673302913.181827;-27.359792709350586;0.8290352821350098;93.75796508789062
91;1673302913.2852173;47.1306423;7.2406201999999995;7.308000564575195;1673302913.381949;-26.977859497070312;-2.7237913608551025;94.87586212158203
92;1673302913.4639812;47.1306423;7.2406203;7.499000549316406;1673302913.563276;-27.175079345703125;-0.37311726808547974;94.22299194335938
93;1673302913.658707;47.1306423;7.2406203;7.693000316619873;1673302913.7667928;-27.067909240722656;1.2212581634521484;93.67916870117188
94;1673302913.8562334;47.1306424;7.2406204;7.889000415802002;1673302913.9553666;-27.304513931274414;-2.014652729034424;94.7673568725586
95;1673302914.0544932;47.1306424;7.2406204;8.085000038146973;1673302914.1633954;-26.95188331604004;-0.837750256061554;94.42115783691406
96;1673302914.2686212;47.1306423;7.2406204;8.282000541687012;1673302914.364061;-27.3873233795166;1.3489290475845337;93.603759765625
97;1673302914.4638546;47.1306423;7.2406204;8.47800064086914;1673302914.5632088;-27.165889739990234;-2.1087613105773926;94.75516510009766
98;1673302914.659122;47.1306423;7.2406204;8.67300033569336;1673302914.766162;-27.393030166625977;-1.1889430284500122;94.48689270019531
99;1673302914.8633358;47.1306423;7.2406204;8.869000434875488;1673302914.966375;-27.304462432861328;1.2949377298355103;93.73702239990234
100;1673302915.0705466;47.1306423;7.2406204;9.068000793457031;1673302915.1803877;-27.22199058532715;-1.7043155431747437;94.58507537841797
101;1673302915.2738032;47.1306423;7.2406204999999995;9.268000602722168;1673302915.379887;-27.201194763183594;-1.6588666439056396;94.63343048095703
102;1673302915.483028;47.1306423;7.2406204999999995;9.468000411987305;1673302915.5871155;-27.286819458007812;1.1944196224212646;93.66288757324219
103;1673302915.685289;47.1306422;7.2406204999999995;9.667000770568848;1673302915.7883728;-27.122840881347656;-1.6765429973602295;94.46318817138672
104;1673302915.877888;47.1306422;7.2406206;9.866000175476074;1673302915.977078;-27.211668014526367;-1.8989856243133545;94.62128448486328
105;1673302916.074286;47.1306422;7.2406207;10.067000389099121;1673302916.1714475;-26.828289031982422;1.5053797960281372;93.71869659423828
106;1673302916.2669516;47.1306422;7.240620799999999;10.292000770568848;1673302916.3723817;-29.231863021850586;-1.0572620630264282;94.34890747070312
107;1673302916.474102;47.1306422;7.2406212;10.597000122070312;1673302916.582274;-33.34518814086914;-2.196214199066162;94.86048889160156
108;1673302916.6828363;47.1306422;7.2406223999999995;10.972000122070312;1673302916.7891264;-28.723487854003906;0.6800796985626221;93.7029037475586
109;1673302916.897044;47.1306422;7.2406239;11.36400032043457;1673302917.0362568;-25.973453521728516;-0.8528885841369629;94.23851776123047
110;1673302917.144163;47.1306422;7.2406254;11.768000602722168;1673302917.2816246;-23.100990295410156;-1.3138500452041626;94.68537902832031
111;1673302917.4002388;47.1306422;7.240626499999999;12.180000305175781;1673302917.5296206;-21.67779541015625;1.2435903549194336;93.85435485839844
112;1673302917.5918453;47.1306423;7.2406272;12.594000816345215;1673302917.6685874;-21.31972312927246;-0.21264605224132538;94.2313003540039
113;1673302917.7502325;47.1306423;7.2406273;13.008000373840332;1673302917.857108;-21.76997947692871;-1.9154326915740967;94.79129791259766
114;1673302917.9377332;47.1306422;7.2406269;13.425000190734863;1673302918.028215;-23.04878807067871;0.7338313460350037;93.89766693115234
115;1673302918.1158676;47.1306422;7.2406261;13.839000701904297;1673302918.2079713;-24.26978874206543;-0.20030686259269714;94.08903503417969
116;1673302918.2870288;47.1306422;7.2406251;14.256000518798828;1673302918.3847857;-25.49722671508789;-2.632124423980713;94.84027862548828
117;1673302918.4835908;47.1306422;7.2406241;14.672000885009766;1673302918.584186;-26.546239852905273;0.7768438458442688;93.99718475341797
118;1673302918.6820037;47.1306422;7.240623299999999;15.089000701904297;1673302918.7820306;-27.264848709106445;-0.034595709294080734;93.98291015625
119;1673302918.875796;47.130642099999996;7.2406225;15.509000778198242;1673302918.9762392;-27.72081756591797;-2.8488247394561768;94.90264892578125
120;1673302919.0675826;47.130642099999996;7.2406220999999995;15.927000999450684;1673302919.1765697;-27.701560974121094;-0.19425395131111145;94.03423309326172
121;1673302919.2771559;47.130642099999996;7.2406217999999996;16.34200096130371;1673302919.3813586;-27.704652786254883;0.016790881752967834;93.93936920166016
122;1673302919.4780333;47.130642099999996;7.2406216;16.75;1673302919.5784597;-27.393278121948242;-2.0648820400238037;94.65922546386719
123;1673302919.6717207;47.1306422;7.2406216;17.159000396728516;1673302919.7739072;-27.048629760742188;-0.20587337017059326;94.23831176757812
124;1673302919.8693511;47.1306423;7.2406216;17.569000244140625;1673302919.9685833;-26.638731002807617;0.9980074167251587;93.7859115600586
125;1673302920.0668662;47.1306423;7.240621699999999;17.975000381469727;1673302920.1771321;-26.518253326416016;-1.914162278175354;94.7499008178711
126;1673302920.2761207;47.1306422;7.2406217999999996;18.37900161743164;1673302920.3809364;-26.17168426513672;-0.603010892868042;94.35298919677734
127;1673302920.476313;47.1306422;7.2406217999999996;18.779001235961914;1673302920.5826573;-26.049619674682617;1.0964199304580688;93.78533935546875
128;1673302920.679953;47.1306423;7.2406217999999996;19.176000595092773;1673302920.7820868;-26.10572052001953;-1.6420183181762695;94.63009643554688
129;1673302920.8734396;47.1306423;7.2406217999999996;19.577001571655273;1673302920.9758453;-26.365581512451172;-0.8007742166519165;94.45361328125
130;1673302921.0818498;47.1306423;7.2406217999999996;19.983001708984375;1673302921.2072148;-26.115114212036133;1.5936884880065918;93.64502716064453
131;1673302921.30319;47.1306424;7.240621699999999;20.389001846313477;1673302921.4025204;-26.284107208251953;-1.2814319133758545;94.54776763916016
132;1673302921.503744;47.1306423;7.240621699999999;20.793001174926758;1673302921.6108105;-26.212554931640625;-1.2580264806747437;94.60023498535156
133;1673302921.7217493;47.1306423;7.2406216;21.198001861572266;1673302921.8276284;-26.43915557861328;1.3590337038040161;93.7483901977539
134;1673302921.9279287;47.1306423;7.2406215;21.60700035095215;1673302922.0194619;-26.485849380493164;-0.8702878952026367;94.46784210205078
135;1673302922.1282015;47.1306423;7.240621399999999;22.010000228881836;1673302922.2185497;-26.524904251098633;-1.6042382717132568;94.83183288574219
136;1673302922.31653;47.1306423;7.2406213;22.413002014160156;1673302922.4100409;-26.593982696533203;0.9419771432876587;93.89490509033203
137;1673302922.5042095;47.1306422;7.2406212;22.816001892089844;1673302922.6209836;-26.663463592529297;-0.2844949960708618;94.08943939208984
138;1673302922.7104104;47.130642099999996;7.2406212;23.216001510620117;1673302922.8063822;-26.394880294799805;-2.380349636077881;94.78070068359375
139;1673302922.9231052;47.130641999999995;7.240621099999999;23.61600112915039;1673302923.012769;-26.670236587524414;0.4055217206478119;93.94402313232422
140;1673302923.096782;47.130641999999995;7.240621099999999;24.01500129699707;1673302923.1892376;-26.417482376098633;-0.03362467139959335;94.0124282836914
141;1673302923.2845938;47.130641999999995;7.240621;24.411001205444336;1673302923.3769603;-26.898479461669922;-2.0583817958831787;94.74742889404297
142;1673302923.4690468;47.130642099999996;7.240621;24.80500030517578;1673302923.5701005;-26.367074966430664;0.3489101231098175;93.9941177368164
143;1673302923.66372;47.130642099999996;7.240621;25.205001831054688;1673302923.7751448;-26.728839874267578;0.7053410410881042;93.83796691894531
144;1673302923.880309;47.130642099999996;7.240621;25.606000900268555;1673302923.984448;-26.42974090576172;-2.0012850761413574;94.74333190917969
145;1673302924.0766475;47.130641999999995;7.240621;26.00800132751465;1673302924.1792426;-26.695878982543945;-0.78022700548172;94.43677520751953
146;1673302924.2754335;47.130641999999995;7.240621;26.41200065612793;1673302924.3772306;-26.51199722290039;1.1989023685455322;93.70694732666016
147;1673302924.4759731;47.130642099999996;7.240621;26.815000534057617;1673302924.5725973;-26.394149780273438;-1.6027847528457642;94.5300521850586
148;1673302924.680793;47.130642099999996;7.2406209;27.21200180053711;1673302924.7835507;-26.631406784057617;-0.8279748558998108;94.4107894897461
149;1673302924.8808348;47.130642099999996;7.2406209;27.61100196838379;1673302924.9763029;-26.495128631591797;1.1483234167099;93.74359893798828
150;1673302925.065448;47.130642099999996;7.2406209;28.011001586914062;1673302925.165542;-26.68059539794922;-1.763871431350708;94.6101303100586
151;1673302925.2741628;47.130641999999995;7.2406209;28.41200065612793;1673302925.384608;-26.436443328857422;-1.5412338972091675;94.59490203857422
152;1673302925.494678;47.130641999999995;7.2406209;28.817001342773438;1673302925.5936286;-26.606586456298828;1.1820576190948486;93.72624969482422
153;1673302925.68397;47.130642099999996;7.2406209;29.222002029418945;1673302925.7891648;-26.565099716186523;-1.172958254814148;94.42202758789062
154;1673302925.8880906;47.130642099999996;7.240620799999999;29.621002197265625;1673302925.994559;-26.845144271850586;-1.848294973373413;94.62500762939453
155;1673302926.090892;47.1306422;7.240620799999999;30.022001266479492;1673302926.1862528;-26.626649856567383;1.3136478662490845;93.71664428710938
156;1673302926.2807655;47.1306423;7.2406207;30.428001403808594;1673302926.3820758;-26.80978775024414;-0.435090571641922;94.1758041381836
157;1673302926.4852417;47.1306423;7.2406207;30.834001541137695;1673302926.5942953;-26.492618560791016;-1.762359619140625;94.78392028808594
158;1673302926.692032;47.1306423;7.2406207;31.238000869750977;1673302926.7901702;-26.774839401245117;1.083045482635498;93.94213104248047
159;1673302926.8926594;47.1306423;7.2406207;31.64200210571289;1673302927.012648;-26.56123161315918;0.2529485523700714;94.04608154296875
160;1673302927.109537;47.1306424;7.2406207;32.04600143432617;1673302927.2222307;-26.62293815612793;-1.973000407218933;94.82646179199219
161;1673302927.3641376;47.1306424;7.2406206;32.44300079345703;1673302927.4501224;-26.766687393188477;0.39542317390441895;94.08766174316406
162;1673302927.5336566;47.1306424;7.2406206;32.8380012512207;1673302927.6360278;-26.758411407470703;0.7014031410217285;93.92034912109375
163;1673302927.7205248;47.1306423;7.2406206;33.23500061035156;1673302927.8177524;-26.613496780395508;-2.078730344772339;94.853515625
164;1673302927.9161105;47.1306423;7.2406206;33.63600158691406;1673302928.0088701;-26.936607360839844;0.1323256641626358;94.1368408203125
165;1673302928.1012044;47.1306424;7.2406206;34.03499984741211;1673302928.1956012;-26.640722274780273;1.2138947248458862;93.79662322998047
166;1673302928.2900388;47.1306425;7.2406206;34.43400192260742;1673302928.3957543;-26.770977020263672;-1.3802117109298706;94.6718978881836
167;1673302928.5100143;47.1306425;7.2406206;34.83000183105469;1673302928.6094446;-26.634601593017578;-0.644303023815155;94.4620132446289
168;1673302928.7047129;47.1306425;7.2406206;35.229000091552734;1673302928.8117847;-26.676292419433594;1.5184129476547241;93.75640106201172
169;1673302928.9133656;47.1306425;7.2406206;35.630001068115234;1673302929.0244133;-26.57798194885254;-1.1088693141937256;94.4999008178711
170;1673302929.1262712;47.1306425;7.2406206;36.03499984741211;1673302929.2343557;-26.650697708129883;-1.1858134269714355;94.69593048095703
171;1673302929.3549542;47.1306425;7.2406206;36.44000244140625;1673302929.4826326;-26.533632278442383;1.5919277667999268;93.81917572021484
172;1673302929.5869877;47.1306425;7.2406206;36.845001220703125;1673302929.6720552;-26.55223846435547;-0.5950264930725098;94.39752197265625
173;1673302929.753256;47.1306425;7.2406206;37.25100326538086;1673302929.8339112;-26.650922775268555;-1.5134234428405762;94.6787338256836
174;1673302929.910162;47.1306425;7.2406204999999995;37.64900207519531;1673302930.0093365;-26.48417854309082;1.08376944065094;93.80048370361328
175;1673302930.099821;47.1306424;7.2406204;38.04600143432617;1673302930.2030563;-26.984113693237305;-0.30960702896118164;94.18456268310547
176;1673302930.2934012;47.1306423;7.2406204;38.44700241088867;1673302930.388683;-26.60333251953125;-2.189410924911499;94.747314453125
177;1673302930.4887877;47.1306423;7.2406203;38.84700012207031;1673302930.6010907;-27.058116912841797;0.708398163318634;93.92628479003906
178;1673302930.6961582;47.1306423;7.2406203;39.24700164794922;1673302930.7913823;-26.71030616760254;0.33393383026123047;94.05142211914062
179;1673302930.9262164;47.1306424;7.2406203;39.647003173828125;1673302931.0302954;-26.953960418701172;-1.86316978931427;94.8454360961914
180;1673302931.122872;47.1306424;7.2406203;40.0420036315918;1673302931.2173936;-26.572425842285156;0.6196032166481018;94.07763671875
181;1673302931.3119168;47.1306424;7.2406203;40.439002990722656;1673302931.410667;-26.995574951171875;0.7398838400840759;93.96315002441406
182;1673302931.5170405;47.1306424;7.2406203;40.84400177001953;1673302931.6230488;-26.70836639404297;-1.9019593000411987;94.8135986328125
183;1673302931.7168157;47.1306424;7.2406203;41.249000549316406;1673302931.8292232;-26.88650131225586;0.29390329122543335;94.22565460205078
184;1673302931.927589;47.1306425;7.2406204;41.65300369262695;1673302932.0274003;-26.690420150756836;1.4357874393463135;93.77597045898438
185;1673302932.125442;47.130642599999995;7.2406204;42.05600357055664;1673302932.2144911;-26.716249465942383;-1.5010207891464233;94.73490142822266
186;1673302932.317611;47.130642599999995;7.2406204;42.457000732421875;1673302932.4092238;-26.7615909576416;-0.09428264200687408;94.37229919433594
187;1673302932.502587;47.130642599999995;7.2406203;42.85300064086914;1673302932.6067502;-26.683124542236328;1.6202588081359863;93.59003448486328
188;1673302932.6952405;47.1306425;7.2406203;43.249000549316406;1673302932.794416;-26.664403915405273;-1.3537471294403076;94.6303939819336
189;1673302932.9188292;47.1306425;7.2406203;43.64900207519531;1673302933.0118654;-26.712604522705078;-0.7355870008468628;94.5151596069336
190;1673302933.1014304;47.1306425;7.2406203;44.04900360107422;1673302933.1997752;-26.727237701416016;1.708519697189331;93.7362060546875
191;1673302933.2971299;47.1306425;7.2406203;44.45000076293945;1673302933.3959491;-26.804582595825195;-1.0479671955108643;94.5469970703125
192;1673302933.4982316;47.1306425;7.2406203;44.85200119018555;1673302933.5932918;-26.767133712768555;-0.9622523784637451;94.59613800048828
193;1673302933.6925147;47.1306425;7.2406203;45.249000549316406;1673302933.80253;-26.759891510009766;1.469461441040039;93.75162506103516
194;1673302933.921299;47.1306424;7.2406203;45.64900207519531;1673302934.0277622;-26.647096633911133;-0.20925281941890717;94.08724975585938
195;1673302934.1175551;47.1306424;7.2406203;46.05000305175781;1673302934.2090757;-26.897390365600586;-1.4818085432052612;94.62824249267578
196;1673302934.3169966;47.1306425;7.2406203;46.45000076293945;1673302934.4325287;-26.718151092529297;1.1723575592041016;93.95191955566406
197;1673302934.5258656;47.130642599999995;7.2406201999999995;46.85100173950195;1673302934.6281972;-26.837377548217773;1.0243754386901855;94.0267333984375
198;1673302934.7201498;47.130642599999995;7.2406201999999995;47.25200271606445;1673302934.822313;-26.88231086730957;-1.4085475206375122;94.74392700195312
199;1673302934.9098547;47.130642599999995;7.2406201999999995;47.65300369262695;1673302935.0023296;-26.706846237182617;0.28512513637542725;94.21662902832031
200;1673302935.0974624;47.130642599999995;7.2406201;48.048004150390625;1673302935.1918666;-27.445974349975586;1.453406810760498;93.91759490966797
201;1673302935.294098;47.1306425;7.24062;48.40500259399414;1673302935.3940206;-27.06186294555664;-1.4646011590957642;94.6969985961914
202;1673302935.489569;47.1306425;7.240619799999999;48.71200180053711;1673302935.5879009;-27.400733947753906;-0.00028272895724512637;94.21501922607422
203;1673302935.6755953;47.1306425;7.2406194;48.96600341796875;1673302935.7764797;-27.913715362548828;1.2263147830963135;93.93667602539062
204;1673302935.8695269;47.1306425;7.240618899999999;49.177001953125;1673302935.9874935;-28.43362808227539;-0.8761671781539917;94.55924987792969
205;1673302936.0831935;47.1306425;7.2406184;49.35300064086914;1673302936.1823413;-23.016822814941406;0.8351254463195801;94.04338836669922
206;1673302936.2853642;47.1306424;7.240617599999999;49.47300338745117;1673302936.3885846;-18.743343353271484;17.301929473876953;84.44493865966797
207;1673302936.490819;47.1306419;7.2406162;49.538002014160156;1673302936.5914652;-25.595457077026367;10.20910930633545;73.4843978881836
208;1673302936.6932275;47.130641;7.2406144999999995;49.60200119018555;1673302936.8011816;-21.72681999206543;16.44051170349121;61.6905517578125
209;1673302936.8940835;47.130640199999995;7.2406128999999995;49.65500259399414;1673302937.001136;-19.16374397277832;19.973604202270508;53.467323303222656
210;1673302937.1070292;47.1306393;7.2406112;49.702003479003906;1673302937.2131886;-18.64365577697754;20.078655242919922;44.29005432128906
211;1673302937.3189843;47.130638499999996;7.2406096;49.74400329589844;1673302937.43223;-15.94975471496582;21.08698081970215;35.059364318847656
212;1673302937.5260642;47.130637799999995;7.240608099999999;49.77700424194336;1673302937.621239;-12.279566764831543;24.255958557128906;25.64851951599121
213;1673302937.7033513;47.130637199999995;7.2406067;49.801002502441406;1673302937.8036015;-7.508539199829102;27.911344528198242;16.632022857666016
214;1673302937.9068835;47.1306367;7.2406055;49.82100296020508;1673302938.0065608;-2.897202253341675;30.613319396972656;7.627441883087158
215;1673302938.1065142;47.1306363;7.2406044;49.842002868652344;1673302938.2026446;2.091963052749634;32.048675537109375;-1.6569404602050781
216;1673302938.2955844;47.1306361;7.240603699999999;49.858001708984375;1673302938.3943012;7.251187801361084;31.2175350189209;-10.866639137268066
217;1673302938.4902234;47.130635999999996;7.2406032;49.87000274658203;1673302938.594069;13.008528709411621;28.785789489746094;-19.763225555419922
218;1673302938.692182;47.130635899999994;7.240602999999999;49.880001068115234;1673302938.7891314;18.26397705078125;24.957399368286133;-28.739395141601562
219;1673302938.89311;47.130635899999994;7.240602999999999;49.88200378417969;1673302939.0060754;21.65976333618164;20.7171688079834;-37.772037506103516
220;1673302939.1481633;47.130635899999994;7.2406032;49.88600158691406;1673302939.2949584;23.90069007873535;16.68334197998047;-46.69071578979492
221;1673302939.3723137;47.130635999999996;7.2406033999999995;49.89400100708008;1673302939.4784548;24.91737174987793;13.63660717010498;-53.55664825439453
222;1673302939.6024888;47.130635999999996;7.2406035;49.90400314331055;1673302939.7085402;25.039112091064453;14.211628913879395;-51.893310546875
223;1673302939.8069422;47.130635999999996;7.2406036;49.91100311279297;1673302939.8938155;24.556476593017578;15.888924598693848;-48.56724548339844
224;1673302939.959761;47.130635899999994;7.240603699999999;49.915000915527344;1673302940.0374172;24.13176727294922;15.748839378356934;-47.21139907836914
225;1673302940.1162813;47.1306357;7.2406036;49.9170036315918;1673302940.2086866;23.7871150970459;15.44090747833252;-46.687164306640625
226;1673302940.3120291;47.130635299999994;7.2406036;49.9160041809082;1673302940.4091313;22.653953552246094;15.716252326965332;-46.23105239868164
227;1673302940.5010166;47.130634799999996;7.2406035;49.919002532958984;1673302940.6057003;21.54218101501465;17.530885696411133;-46.01595687866211
228;1673302940.7124553;47.1306344;7.2406033;49.928001403808594;1673302940.8136172;21.027130126953125;18.93151092529297;-46.31062698364258
229;1673302940.909802;47.130634099999995;7.240602999999999;49.94000244140625;1673302941.0061207;21.016752243041992;20.085678100585938;-46.67326354980469
230;1673302941.0988586;47.1306339;7.240602699999999;49.954002380371094;1673302941.2339237;19.76340103149414;20.970626831054688;-47.04008483886719
231;1673302941.3392932;47.1306338;7.240602399999999;49.96000289916992;1673302941.4656181;-5.985049724578857;21.92975425720215;-50.18510055541992
232;1673302941.551556;47.1306345;7.240601099999999;49.961002349853516;1673302941.682373;-36.26465606689453;13.348617553710938;-49.34771728515625
233;1673302941.7835977;47.1306367;7.2405968;49.965003967285156;1673302941.863895;-48.16262435913086;7.046058177947998;-45.02553939819336
234;1673302941.9397216;47.1306407;7.2405881999999995;49.93800354003906;1673302942.0370393;-42.542171478271484;3.539285182952881;-44.270545959472656
235;1673302942.1452978;47.130646399999996;7.240575;49.9010009765625;1673302942.2325394;-46.10308074951172;8.114999771118164;-43.33973693847656
236;1673302942.3173742;47.130653599999995;7.2405577999999995;49.88300323486328;1673302942.4133785;-51.8199462890625;14.608172416687012;-43.025543212890625
237;1673302942.5011828;47.130662799999996;7.2405371;49.88200378417969;1673302942.59754;-54.245121002197266;19.93307876586914;-43.28221130371094
238;1673302942.6853683;47.1306744;7.2405136;49.887001037597656;1673302942.7853603;-54.21208953857422;20.670408248901367;-41.94739532470703
239;1673302942.8923056;47.1306885;7.240488099999999;49.89200210571289;1673302942.9923272;-53.57511901855469;20.02530288696289;-40.274845123291016
240;1673302943.1082752;47.1307049;7.2404611;49.9010009765625;1673302943.2054274;-53.29265213012695;23.151010513305664;-41.597625732421875
241;1673302943.3082304;47.1307231;7.2404328;49.90400314331055;1673302943.4364035;-54.968841552734375;23.647794723510742;-42.87697982788086
242;1673302943.5297997;47.130742999999995;7.2404037;49.88600158691406;1673302943.6293173;-50.1182975769043;20.47486686706543;-42.39196014404297
243;1673302943.736358;47.130764199999994;7.240374;49.845001220703125;1673302943.879311;-44.22745132446289;17.630556106567383;-43.00611114501953
244;1673302943.971259;47.130786;7.2403439;49.7920036315918;1673302944.0622623;-42.85834884643555;16.592546463012695;-44.31198501586914
245;1673302944.1374927;47.130808099999996;7.2403135999999995;49.74400329589844;1673302944.235294;-43.48164749145508;19.23393440246582;-44.5728645324707
246;1673302944.3223388;47.1308303;7.2402828999999995;49.71600341796875;1673302944.4231381;-21.892396926879883;24.513790130615234;-40.03596115112305
247;1673302944.5097234;47.1308526;7.2402529;49.717002868652344;1673302944.6160614;24.437042236328125;24.75361442565918;-37.988372802734375
248;1673302944.7188582;47.130873099999995;7.2402251;49.66800308227539;1673302944.8241677;19.754737854003906;9.763763427734375;-43.11335754394531
249;1673302944.9210396;47.130891;7.2402;49.548004150390625;1673302945.0279126;23.3568058013916;7.4374260902404785;-48.070640563964844
250;1673302945.128884;47.1309057;7.2401773;49.47100067138672;1673302945.2288587;25.691959381103516;7.92150354385376;-48.346012115478516
251;1673302945.3288815;47.1309176;7.240157099999999;49.423004150390625;1673302945.4309654;34.89141082763672;10.727394104003906;-48.29010772705078
252;1673302945.5299253;47.130926699999996;7.2401396;49.423004150390625;1673302945.6367457;41.13431930541992;12.459833145141602;-48.447418212890625
253;1673302945.7229686;47.1309331;7.2401256;49.45600128173828;1673302945.8267817;47.55343246459961;15.313254356384277;-48.00117111206055
254;1673302945.935121;47.1309373;7.2401152;49.50400161743164;1673302946.0271301;50.10017013549805;17.440208435058594;-47.62786865234375
255;1673302946.1299467;47.130939299999994;7.2401086;49.553001403808594;1673302946.2319615;50.75481033325195;19.13821029663086;-47.05326461791992
256;1673302946.3268223;47.1309395;7.240105799999999;49.60400390625;1673302946.4300048;51.69435119628906;20.451942443847656;-47.47669982910156
257;1673302946.5201051;47.1309383;7.240106699999999;49.65800094604492;1673302946.621863;52.28888702392578;23.43158721923828;-47.68077850341797
258;1673302946.7299747;47.130935799999996;7.240111199999999;49.72500228881836;1673302946.8140152;47.96738815307617;27.12151527404785;-47.55647659301758
259;1673302946.9152987;47.1309328;7.2401184;49.781002044677734;1673302947.0232077;36.33387756347656;26.00250816345215;-47.99589538574219
260;1673302947.1193993;47.1309298;7.2401271;49.81300354003906;1673302947.2224736;23.401100158691406;24.388216018676758;-47.08274841308594
261;1673302947.31572;47.1309271;7.240136;49.8280029296875;1673302947.4130995;11.544447898864746;22.001075744628906;-45.589073181152344
262;1673302947.5073624;47.1309249;7.2401439;49.83100128173828;1673302947.6024437;3.3287668228149414;19.259050369262695;-44.152252197265625
263;1673302947.7070224;47.130923499999994;7.2401501999999995;49.82600402832031;1673302947.8052013;-0.24007926881313324;17.335830688476562;-43.531227111816406
264;1673302947.903339;47.1309228;7.2401545;49.820003509521484;1673302947.9965901;0.06829506903886795;16.282325744628906;-43.41286849975586
265;1673302948.0879095;47.130922899999995;7.2401567;49.81800079345703;1673302948.1959028;3.731595516204834;16.184812545776367;-43.42409133911133
266;1673302948.2909656;47.130923499999994;7.2401572;49.820003509521484;1673302948.3894;8.563567161560059;16.299108505249023;-44.46650695800781
267;1673302948.5019035;47.1309245;7.2401566;49.83000183105469;1673302948.6163692;13.697854042053223;17.19278335571289;-45.646697998046875
268;1673302948.702373;47.1309255;7.2401553;49.845001220703125;1673302948.8026364;19.17889404296875;17.666818618774414;-46.044281005859375
269;1673302948.8966165;47.1309263;7.2401537;49.858001708984375;1673302949.0123754;23.43752098083496;17.343496322631836;-46.0456657409668
270;1673302949.1004462;47.130927;7.2401520999999995;49.87000274658203;1673302949.2073803;17.72716522216797;25.096220016479492;-45.415435791015625
271;1673302949.3007605;47.1309275;7.2401504;49.7130012512207;1673302949.4036639;-2.450084686279297;32.82121658325195;-49.17888641357422
272;1673302949.500463;47.130927899999996;7.2401482999999995;49.19300079345703;1673302949.5994403;-28.649093627929688;32.946380615234375;-59.02336883544922
273;1673302949.6937187;47.1309283;7.2401459;48.30500411987305;1673302949.807556;-57.865135192871094;27.951860427856445;-74.81595611572266
274;1673302949.912856;47.1309286;7.2401434;47.04100036621094;1673302950.0199149;-82.87689971923828;34.55443572998047;-109.54661560058594
275;1673302950.1572063;47.1309286;7.2401408;45.406002044677734;1673302950.2753322;-82.08644104003906;145.575439453125;108.1280746459961
276;1673302950.3641396;47.1309287;7.2401383;43.41200256347656;1673302950.455513;-84.44112396240234;84.29707336425781;140.76150512695312
277;1673302950.5461538;47.1309288;7.2401357;41.066001892089844;1673302950.638446;-62.816768646240234;-12.941638946533203;-143.4459991455078
278;1673302950.7268295;47.130928999999995;7.240132999999999;38.35900115966797;1673302950.8240876;-20.41316795349121;-13.990934371948242;-151.54513549804688
279;1673302950.9281156;47.130929599999995;7.24013;35.27300262451172;1673302951.0114777;25.979711532592773;-3.3782331943511963;-155.6518096923828
280;1673302951.1082716;47.1309301;7.2401266;31.796001434326172;1673302951.2124918;53.71601104736328;25.845733642578125;-145.96791076660156
281;1673302951.312975;47.1309304;7.240122899999999;27.95600128173828;1673302951.4134483;51.08952331542969;48.088951110839844;-146.8618927001953
282;1673302951.506448;47.1309305;7.2401189;23.7760009765625;1673302951.6050708;26.150304794311523;43.40524673461914;-176.87802124023438
283;1673302951.705221;47.130930199999995;7.2401151;19.244001388549805;1673302951.8084395;-14.049545288085938;36.997005462646484;151.60968017578125
284;1673302951.9046798;47.1309299;7.2401117;14.330000877380371;1673302951.9934206;-45.38840103149414;27.795425415039062;131.70794677734375
285;1673302952.082902;47.1309301;7.2401082;9.0600004196167;1673302952.1955903;-44.37044143676758;1.2994883060455322;133.44711303710938
286;1673302952.3103626;47.1309306;7.2401041;3.4610002040863037;1673302952.4191308;-3.765254259109497;-16.796127319335938;129.84825134277344
287;1673302952.5167272;47.1309281;7.2400972999999995;0.35600000619888306;1673302952.6204057;2.513270854949951;9.751580238342285;125.02555084228516
288;1673302952.708239;47.1309215;7.2400892;0.6550000309944153;1673302952.8046021;2.117074728012085;3.976869821548462;121.9799575805664
289;1673302952.905007;47.130915699999996;7.240082699999999;0.8140000104904175;1673302953.0114691;2.3942673206329346;8.339994430541992;121.6565933227539
290;1673302953.1439958;47.1309101;7.2400762;0.9140000343322754;1673302953.2643518;2.4529781341552734;5.335055828094482;121.4448013305664
291;1673302953.3573754;47.130904199999996;7.2400693;1.0220000743865967;1673302953.4553;2.485261917114258;6.3818864822387695;121.11202239990234
292;1673302953.5463579;47.1308989;7.2400626;1.1220000982284546;1673302953.6407971;2.56915020942688;6.044826030731201;120.74910736083984
293;1673302953.7378707;47.1308946;7.240056999999999;1.184000015258789;1673302953.8299165;2.5669190883636475;5.978106498718262;120.32933807373047
294;1673302953.9239662;47.1308911;7.2400522;1.2340000867843628;1673302954.0231383;2.542726516723633;6.1248860359191895;120.08721923828125
295;1673302954.109189;47.1308887;7.2400484;1.2750000953674316;1673302954.2124608;2.5047483444213867;6.164450645446777;119.8916015625
296;1673302954.3107657;47.1308873;7.2400457;1.308000087738037;1673302954.4164534;2.468041181564331;6.021177768707275;119.89254760742188
297;1673302954.5120823;47.1308851;7.2400419;1.3660000562667847;1673302954.6065183;2.4562036991119385;6.134945869445801;119.68720245361328
298;1673302954.7036939;47.130883999999995;7.240039299999999;1.4260001182556152;1673302954.8057656;2.415342330932617;6.064993381500244;119.72285461425781
299;1673302954.8973467;47.130884599999995;7.2400389;1.474000096321106;1673302955.0050201;2.3615903854370117;5.814714431762695;119.76194763183594
300;1673302955.1113293;47.1308863;7.240039899999999;1.5140000581741333;1673302955.2119253;2.273942232131958;5.588240623474121;119.77222442626953
301;1673302955.29936;47.1308887;7.240041499999999;1.5480000972747803;1673302955.4128737;2.2199110984802246;5.397450923919678;119.80255126953125
302;1673302955.5205703;47.130891299999995;7.2400436;1.5790001153945923;1673302955.6311188;2.1823806762695312;5.166470050811768;119.81383514404297
303;1673302955.7284167;47.130894;7.240045899999999;1.6060000658035278;1673302955.8306522;2.1351187229156494;4.971652984619141;119.82845306396484
304;1673302955.9268007;47.1308952;7.2400461;1.6450001001358032;1673302956.0280406;2.119274854660034;4.852917671203613;119.69459533691406
305;1673302956.1487796;47.1308965;7.2400465;1.6810001134872437;1673302956.2500796;2.018660306930542;4.602410793304443;119.70433044433594
306;1673302956.3426135;47.1308988;7.240048499999999;1.7020000219345093;1673302956.429145;1.97257661819458;4.230964660644531;119.7756118774414
307;1673302956.5113716;47.1309016;7.2400511;1.7140001058578491;1673302956.6106567;1.9199752807617188;3.9577085971832275;119.92452239990234
308;1673302956.7021585;47.1309043;7.2400538;1.718000054359436;1673302956.8052192;1.8892035484313965;3.5207700729370117;120.09989166259766
309;1673302956.9092789;47.130907;7.2400566;1.7120001316070557;1673302957.0221236;1.8425012826919556;3.1988351345062256;120.30976104736328
310;1673302957.120616;47.130908299999994;7.240056999999999;1.7160000801086426;1673302957.2274187;1.8959152698516846;3.1229441165924072;120.39511108398438
311;1673302957.3302934;47.1309097;7.2400576999999995;1.7160000801086426;1673302957.4392936;1.857030987739563;2.8732829093933105;120.57889556884766
312;1673302957.5404687;47.1309131;7.2400641;1.7140001058578491;1673302957.6417997;1.6265156269073486;2.3572165966033936;120.84857940673828
313;1673302957.7371373;47.1309173;7.2400728999999995;1.7070001363754272;1673302957.835459;1.5693053007125854;2.05708909034729;121.00467681884766
314;1673302957.93382;47.1309208;7.2400806;1.6910001039505005;1673302958.0336297;1.5237737894058228;1.8289610147476196;121.1353759765625
315;1673302958.1237392;47.1309234;7.2400863;1.6630001068115234;1673302958.2178814;1.4883675575256348;1.647761583328247;121.22381591796875
316;1673302958.3256295;47.1309252;7.2400904;1.6250001192092896;1673302958.4337687;1.4774560928344727;1.4716017246246338;121.30076599121094
317;1673302958.5299654;47.1309262;7.2400924;1.5880000591278076;1673302958.6351886;1.4680355787277222;1.3713778257369995;121.32412719726562
318;1673302958.7323754;47.1309269;7.2400936;1.5480000972747803;1673302958.8366427;1.4885048866271973;1.2277867794036865;121.39974975585938
319;1673302958.9348233;47.1309275;7.240094699999999;1.5000001192092896;1673302959.0330317;1.4497575759887695;1.112687587738037;121.43728637695312
320;1673302959.1282623;47.130928;7.2400956999999995;1.4490001201629639;1673302959.2190516;1.3294836282730103;0.6299436092376709;121.49593353271484
321;1673302959.3045025;47.130928399999995;7.2400964;1.4200000762939453;1673302959.4037323;1.3436274528503418;0.48283565044403076;121.5395736694336
322;1673302959.5040727;47.1309287;7.240096899999999;-0.012000000104308128;1673302959.6051362;1.3763800859451294;0.3391421139240265;121.59327697753906
323;1673302959.6974227;47.1309288;7.2400968;-0.05000000074505806;;;;
