;pos_time;latitude;longitude;altitude;alt_time;pitch;roll;yaw
0;1673300887.513189;47.1306423;7.2406201999999995;-0.017000000923871994;1673300887.5083096;-0.052202124148607254;-0.6217288374900818;90.23991394042969
1;1673300887.7196488;47.1306423;7.2406201999999995;-0.015000000596046448;1673300887.7147791;-0.09217889606952667;-0.3015892803668976;90.22139739990234
2;1673300887.9291253;47.1306423;7.2406201999999995;-0.014000000432133675;1673300887.9252212;0.18275463581085205;-0.3736385405063629;90.26547241210938
3;1673300888.1825943;47.1306423;7.2406201999999995;-0.010000000707805157;1673300888.1777132;0.15789376199245453;-0.3213420510292053;90.25140380859375
4;1673300888.3931134;47.1306424;7.2406201;-0.00800000037997961;1673300888.3881972;0.07626332342624664;-0.2912308871746063;90.1244125366211
5;1673300888.5721612;47.1306424;7.24062;-0.009000000543892384;1673300888.5663009;0.06909991800785065;-0.3765864670276642;90.25676727294922
6;1673300888.7560742;47.1306424;7.2406198999999996;-0.01100000087171793;1673300888.752188;-0.09406760334968567;-0.20396029949188232;90.1346206665039
7;1673300888.9616733;47.1306424;7.2406198999999996;-0.012000000104308128;1673300888.9577699;-0.13322865962982178;-0.5174439549446106;90.27140808105469
8;1673300889.1346216;47.1306424;7.2406198999999996;-0.01600000075995922;1673300889.128766;-0.11485955119132996;-0.2530697286128998;90.20989990234375
9;1673300889.318836;47.1306424;7.2406198999999996;-0.017000000923871994;1673300889.3129814;0.09654804319143295;-0.28767555952072144;90.17772674560547
10;1673300889.5105689;47.1306424;7.2406198999999996;-0.014000000432133675;1673300889.5076609;-0.1089131236076355;-0.2511691749095917;90.26056671142578
11;1673300889.730641;47.1306424;7.2406198999999996;-0.01100000087171793;1673300889.7257612;-0.19864782691001892;-0.28348708152770996;90.30009460449219
12;1673300889.9464316;47.1306424;7.2406198999999996;-0.007000000216066837;1673300889.9425254;-0.17906789481639862;-0.19626539945602417;90.16297912597656
13;1673300890.153631;47.1306424;7.2406198999999996;-0.006000000052154064;1673300890.1456864;-0.1855601668357849;-0.3185068964958191;90.16846466064453
14;1673300890.3238776;47.1306424;7.2406198999999996;0.0010000000474974513;1673300890.3209684;-0.2010893076658249;-0.7307684421539307;90.25846862792969
15;1673300890.522864;47.1306425;7.240619799999999;0.003000000026077032;1673300890.5189607;-0.1565479040145874;-0.48368290066719055;90.18629455566406
16;1673300890.730155;47.1306425;7.240619799999999;0.004000000189989805;1673300890.7262523;0.07316209375858307;-0.5538851022720337;90.29341125488281
17;1673300890.9283888;47.1306425;7.2406198999999996;0.009000000543892384;1673300890.924497;-0.020611587911844254;-0.509734034538269;90.1198501586914
18;1673300891.1376297;47.1306425;7.2406198999999996;0.014000000432133675;1673300891.1337066;-0.12641257047653198;-0.6955553889274597;90.25584411621094
19;1673300891.3427947;47.1306424;7.24062;0.015000000596046448;1673300891.3377156;0.03753333166241646;-0.6535418629646301;90.1350326538086
20;1673300891.567511;47.1306424;7.2406201;0.012000000104308128;1673300891.563847;0.024476461112499237;-0.7399575114250183;90.20413208007812
21;1673300891.7598517;47.1306425;7.2406201;0.009000000543892384;1673300891.753778;0.115146204829216;-0.2563634514808655;89.98313903808594
22;1673300891.950921;47.1306425;7.2406201;-0.0020000000949949026;1673300891.945199;0.09068574011325836;-0.7298716902732849;90.12232208251953
23;1673300892.1499138;47.1306425;7.2406201;-0.005000000353902578;1673300892.1449182;0.16526927053928375;-0.5744331479072571;90.28288269042969
24;1673300892.3368256;47.1306425;7.2406201;-0.007000000216066837;1673300892.3319452;0.2011614739894867;-0.023793376982212067;89.85676574707031
25;1673300892.5219383;47.1306425;7.2406201;-0.007000000216066837;1673300892.5166907;-0.08137961477041245;-0.6012032628059387;89.96341705322266
26;1673300892.7186046;47.1306424;7.24062;-0.010000000707805157;1673300892.7136443;0.32905253767967224;-0.17017905414104462;89.84839630126953
27;1673300892.9388146;47.1306424;7.24062;-0.010000000707805157;1673300892.9329014;0.123477503657341;-0.2106418013572693;89.83882904052734
28;1673300893.1487226;47.1306425;7.24062;-0.012000000104308128;1673300893.1432254;0.105791836977005;-0.2596054673194885;89.690185546875
29;1673300893.340853;47.1306425;7.24062;-0.01100000087171793;1673300893.337702;0.13523420691490173;-0.15870638191699982;89.57559967041016
30;1673300893.5388536;47.1306425;7.24062;-0.00800000037997961;1673300893.5358317;0.43098488450050354;-0.1748802810907364;89.3860855102539
31;1673300893.7267528;47.130642599999995;7.2406198999999996;-0.00800000037997961;1673300893.7218735;0.4632589519023895;0.01594419777393341;87.36151885986328
32;1673300893.9278953;47.1306428;7.2406196;-0.00800000037997961;1673300893.9239483;-0.8922985792160034;2.2134850025177;84.48704528808594
33;1673300894.1678116;47.130643;7.240619199999999;0.004000000189989805;1673300894.16388;-4.252519607543945;5.9368391036987305;85.83524322509766
34;1673300894.3647535;47.130643199999994;7.240618899999999;0.036000002175569534;1673300894.3618252;-8.223784446716309;5.562848091125488;86.98490905761719
35;1673300894.5640821;47.1306434;7.2406187;0.08500000089406967;1673300894.5601761;-7.545156002044678;7.510984420776367;87.26161193847656
36;1673300894.756671;47.1306434;7.2406187;0.14800000190734863;1673300894.7527676;-7.271758079528809;10.805027961730957;87.04542541503906
37;1673300894.9529386;47.1306434;7.2406188;0.2240000069141388;1673300894.9490378;-7.017819881439209;5.996417999267578;87.6417007446289
38;1673300895.1462379;47.1306434;7.240618899999999;0.31200000643730164;1673300895.1423383;-7.061614990234375;6.436616897583008;87.60177612304688
39;1673300895.3471432;47.130643199999994;7.2406191;0.4150000214576721;1673300895.3422623;-6.897791385650635;10.580973625183105;86.99291229248047
40;1673300895.5445466;47.130643;7.2406193;0.5330000519752502;1673300895.5416193;-6.656885147094727;6.001626491546631;87.58859252929688
41;1673300895.746376;47.130642699999996;7.240619499999999;0.6600000262260437;1673300895.7422042;-6.225337028503418;4.026096820831299;87.98023223876953
42;1673300895.9483902;47.1306425;7.2406196;0.8050000667572021;1673300895.9435108;-6.027702331542969;8.290823936462402;87.41259002685547
43;1673300896.1525369;47.1306424;7.2406197;0.9700000286102295;1673300896.1486173;-5.837886810302734;6.618992805480957;87.50476837158203
44;1673300896.3463235;47.1306424;7.240619799999999;1.1460000276565552;1673300896.3433964;-5.83284330368042;3.4691410064697266;88.16867065429688
45;1673300896.5594778;47.1306424;7.240619799999999;1.3330000638961792;1673300896.555595;-6.075897693634033;8.135824203491211;87.88282775878906
46;1673300896.7645328;47.1306424;7.240619799999999;1.53000009059906;1673300896.7604928;-5.983911991119385;7.788651943206787;88.22161865234375
47;1673300896.9758766;47.1306424;7.240619799999999;1.7310000658035278;1673300896.9700363;-6.541144371032715;4.014857769012451;88.76272583007812
48;1673300897.166513;47.1306423;7.240619799999999;1.9290001392364502;1673300897.1635897;-6.498323440551758;6.985959529876709;88.25626373291016
49;1673300897.3594382;47.1306423;7.240619799999999;2.13100004196167;1673300897.3545184;-6.397535800933838;8.451251029968262;87.78677368164062
50;1673300897.5587127;47.1306425;7.240619799999999;2.330000162124634;1673300897.5528595;-6.233303546905518;4.1160993576049805;88.24808502197266
51;1673300897.744338;47.130642599999995;7.240619799999999;2.5260000228881836;1673300897.7394595;-6.25878381729126;6.577762603759766;88.09138488769531
52;1673300897.9518018;47.130642599999995;7.240619799999999;2.7250001430511475;1673300897.947901;-6.061553955078125;10.020511627197266;87.4625244140625
53;1673300898.1793494;47.1306425;7.2406198999999996;2.9260001182556152;1673300898.175454;-6.406602382659912;4.865177631378174;87.80010986328125
54;1673300898.3963273;47.1306424;7.2406198999999996;3.122000217437744;1673300898.3924232;-6.696925640106201;5.405496597290039;87.71946716308594
55;1673300898.5665832;47.1306423;7.24062;3.32200026512146;1673300898.563663;-6.370703220367432;8.5717191696167;87.35095977783203
56;1673300898.7582393;47.1306424;7.24062;3.5280001163482666;1673300898.754328;-6.458540916442871;5.389357566833496;87.8167724609375
57;1673300898.9421232;47.1306425;7.2406201;3.7320001125335693;1673300898.9382114;-6.5837082862854;5.316049575805664;87.87808990478516
58;1673300899.1491485;47.1306425;7.2406201;3.933000087738037;1673300899.142315;-6.361946105957031;9.704631805419922;87.3095474243164
59;1673300899.4259572;47.1306424;7.2406201;4.13100004196167;1673300899.4230285;-6.078736782073975;6.343886375427246;87.56851959228516
60;1673300899.5896993;47.1306425;7.2406201;4.328999996185303;1673300899.586775;-6.215763568878174;4.430034637451172;87.84137725830078
61;1673300899.7890882;47.1306425;7.2406201;4.528000354766846;1673300899.7851806;-6.436339378356934;8.621315956115723;87.32392120361328
62;1673300899.9811103;47.1306425;7.2406201;4.734000205993652;1673300899.9772067;-6.353227615356445;8.547148704528809;87.33135223388672
63;1673300900.2144413;47.130642699999996;7.24062;4.940000057220459;1673300900.2115226;-6.504831790924072;4.549343585968018;87.89302062988281
64;1673300900.408881;47.130642699999996;7.24062;5.146000385284424;1673300900.4049737;-6.633173942565918;7.895568370819092;87.56781005859375
65;1673300900.6211698;47.130642599999995;7.24062;5.353000164031982;1673300900.6172674;-6.476503849029541;9.508946418762207;87.26753997802734
66;1673300900.7937725;47.1306425;7.24062;5.559000492095947;1673300900.7908452;-6.50474739074707;4.6518120765686035;87.73257446289062
67;1673300900.9792717;47.1306424;7.24062;5.761000156402588;1673300900.9753904;-6.741105079650879;5.874340534210205;87.63074493408203
68;1673300901.157633;47.1306423;7.24062;5.966000080108643;1673300901.15277;-6.440186500549316;9.373659133911133;87.34124755859375
69;1673300901.3563328;47.1306424;7.24062;6.173000335693359;1673300901.35243;-6.667001724243164;5.032957553863525;87.82855987548828
70;1673300901.5361514;47.1306425;7.24062;6.379000186920166;1673300901.5312898;-6.766795635223389;5.515458106994629;87.87336730957031
71;1673300901.7461343;47.1306425;7.24062;6.582000255584717;1673300901.7422814;-6.6502814292907715;9.77611255645752;87.35440063476562
72;1673300901.9571147;47.1306424;7.24062;6.7870001792907715;1673300901.9531977;-6.75875997543335;6.184689521789551;87.65741729736328
73;1673300902.2017808;47.1306425;7.24062;6.98900032043457;1673300902.1969001;-6.797521591186523;4.927167892456055;88.03585052490234
74;1673300902.3702285;47.1306425;7.24062;7.189000129699707;1673300902.3653462;-6.620573043823242;9.2904052734375;87.42777252197266
75;1673300902.5606687;47.130642599999995;7.24062;7.390000343322754;1673300902.5567465;-6.338123321533203;7.725535869598389;87.53857421875
76;1673300902.7564611;47.130642599999995;7.2406201;7.588000297546387;1673300902.75158;-6.366680145263672;4.615906238555908;87.9161148071289
77;1673300902.9327579;47.130642599999995;7.2406201999999995;7.7870001792907715;1673300902.928839;-6.63465690612793;8.047345161437988;87.52056121826172
78;1673300903.1269321;47.1306425;7.2406201999999995;7.984000205993652;1673300903.1220539;-6.382390022277832;8.265135765075684;87.29559326171875
79;1673300903.3357956;47.1306424;7.2406201999999995;8.181000709533691;1673300903.3299234;-6.705434799194336;4.057642459869385;87.71788787841797
80;1673300903.5351775;47.1306424;7.2406201999999995;8.379000663757324;1673300903.530294;-6.631242275238037;7.489040851593018;87.43546295166016
81;1673300903.7199464;47.1306424;7.2406201999999995;8.580000877380371;1673300903.7160318;-6.341079235076904;9.597952842712402;87.1818618774414
82;1673300903.9407864;47.1306424;7.2406201999999995;8.780000686645508;1673300903.9359012;-6.440584659576416;4.483822345733643;87.79976654052734
83;1673300904.1255255;47.1306424;7.2406203;8.97800064086914;1673300904.1225955;-6.530370235443115;5.988926887512207;87.61239624023438
84;1673300904.336545;47.1306424;7.2406203;9.17400074005127;1673300904.3297138;-6.495119094848633;9.723134994506836;87.267333984375
85;1673300904.5406394;47.1306423;7.2406203;9.374000549316406;1673300904.5377104;-6.484264373779297;4.9950995445251465;87.80998992919922
86;1673300904.7252357;47.1306424;7.2406204;9.571000099182129;1673300904.7213323;-6.538841724395752;5.675682067871094;87.84786987304688
87;1673300904.9145083;47.1306425;7.2406204;9.771000862121582;1673300904.909628;-6.465208053588867;9.780803680419922;87.35981750488281
88;1673300905.1312494;47.130642599999995;7.2406204999999995;9.976000785827637;1673300905.1271586;-6.248711109161377;5.611258506774902;87.88430786132812
89;1673300905.3538527;47.130642599999995;7.2406204999999995;10.183000564575195;1673300905.3509245;-6.497710704803467;5.306954860687256;88.11262512207031
90;1673300905.555824;47.1306425;7.2406206;10.46500015258789;1673300905.5519218;-6.739291191101074;8.852710723876953;87.67697143554688
91;1673300905.7565188;47.1306423;7.240620799999999;10.824000358581543;1673300905.7545564;-7.281076908111572;9.058401107788086;87.50577545166016
92;1673300905.9575057;47.130641999999995;7.240621;11.206000328063965;1673300905.9554014;-6.569668292999268;4.427967548370361;87.95158386230469
93;1673300906.1586785;47.1306418;7.2406212;11.598000526428223;1673300906.1528249;-6.048246383666992;6.6385345458984375;87.40082550048828
94;1673300906.3419845;47.1306417;7.240621399999999;11.994000434875488;1673300906.3371065;-5.689401626586914;8.028013229370117;87.22041320800781
95;1673300906.5250187;47.1306417;7.2406215;12.394001007080078;1673300906.52014;-5.416580677032471;3.611854314804077;87.96556091308594
96;1673300906.7362876;47.1306417;7.2406215;12.793000221252441;1673300906.7333457;-5.562826156616211;5.428783416748047;87.857666015625
97;1673300906.939239;47.1306417;7.240621399999999;13.195000648498535;1673300906.9333832;-5.449942111968994;8.36926555633545;87.38776397705078
98;1673300907.1394067;47.1306417;7.240621399999999;13.597001075744629;1673300907.135503;-5.676463603973389;4.573813438415527;87.54502868652344
99;1673300907.3198054;47.1306418;7.2406212;13.995000839233398;1673300907.3159006;-5.852009296417236;5.067054748535156;87.69734954833984
100;1673300907.5130737;47.130641999999995;7.240621099999999;14.387001037597656;1673300907.509606;-6.109384059906006;9.286720275878906;87.35376739501953
101;1673300907.747548;47.1306422;7.2406209;14.780000686645508;1673300907.7446213;-6.422570705413818;6.3665547370910645;87.79104614257812
102;1673300907.9421337;47.1306424;7.240620799999999;15.170001029968262;1673300907.9382253;-6.6662116050720215;5.30810022354126;87.96021270751953
103;1673300908.1456094;47.1306424;7.2406207;15.556000709533691;1673300908.1417046;-6.490788459777832;9.8438720703125;87.26166534423828
104;1673300908.341555;47.1306423;7.2406206;15.943000793457031;1673300908.3386269;-6.320677757263184;7.312589645385742;87.43183135986328
105;1673300908.5562253;47.1306423;7.2406206;16.329999923706055;1673300908.5523205;-6.752344608306885;4.538131237030029;87.95755004882812
106;1673300908.8096075;47.1306423;7.2406204999999995;16.71500015258789;1673300908.8057036;-6.597294330596924;8.407885551452637;87.44796752929688
107;1673300908.992175;47.1306423;7.2406204999999995;17.104000091552734;1673300908.9882326;-6.291893005371094;8.097729682922363;87.24161529541016
108;1673300909.1852539;47.1306423;7.2406206;17.498001098632812;1673300909.1794045;-6.273125648498535;4.6589508056640625;87.78435516357422
109;1673300909.369492;47.1306423;7.2406206;17.895000457763672;1673300909.364598;-6.430972576141357;7.656832218170166;87.63919830322266
110;1673300909.5405114;47.1306422;7.2406206;18.29400062561035;1673300909.5366175;-6.013101577758789;8.860899925231934;87.3104476928711
111;1673300909.7225466;47.1306422;7.2406207;18.690000534057617;1673300909.7176645;-6.177516937255859;4.231286525726318;87.87890625
112;1673300909.9259198;47.1306422;7.2406206;19.082000732421875;1673300909.9230042;-6.3080644607543945;5.860363960266113;87.6826171875
113;1673300910.1377404;47.1306423;7.2406206;19.472000122070312;1673300910.132856;-6.162065505981445;9.47431755065918;87.2174301147461
114;1673300910.352405;47.1306425;7.2406206;19.865001678466797;1673300910.3475382;-5.985468864440918;5.377889156341553;87.72039031982422
115;1673300910.5553482;47.1306425;7.2406204999999995;20.255001068115234;1673300910.551443;-6.259051322937012;5.7202067375183105;87.8413314819336
116;1673300910.7809114;47.1306424;7.2406204999999995;20.6460018157959;1673300910.7701716;-6.1691813468933105;9.6558256149292;87.47698974609375
117;1673300910.9790435;47.1306424;7.2406204999999995;21.03900146484375;1673300910.9761136;-6.056889057159424;6.379345893859863;87.55726623535156
118;1673300911.173756;47.1306424;7.2406204;21.43000030517578;1673300911.169853;-6.337078094482422;4.608976364135742;87.70204162597656
119;1673300911.3569431;47.1306424;7.2406204;21.819000244140625;1673300911.3520727;-6.368143081665039;9.210230827331543;87.37019348144531
120;1673300911.5439382;47.1306425;7.2406203;22.21200180053711;1673300911.5400343;-6.257419586181641;7.3964338302612305;87.61770629882812
121;1673300911.7446046;47.1306425;7.2406201999999995;22.60700035095215;1673300911.7407029;-6.792044639587402;4.442952632904053;87.88184356689453
122;1673300911.9437258;47.1306424;7.2406201;23.00400161743164;1673300911.9398234;-6.684090614318848;8.563685417175293;87.31851196289062
123;1673300912.1442645;47.1306424;7.24062;23.402000427246094;1673300912.1403692;-6.316757678985596;8.116793632507324;87.30498504638672
124;1673300912.3790138;47.1306424;7.24062;23.80000114440918;1673300912.3770616;-6.508082389831543;4.150190830230713;87.87686157226562
125;1673300912.5844343;47.1306424;7.24062;24.194000244140625;1673300912.5795486;-6.616934299468994;7.2934112548828125;87.60403442382812
126;1673300912.7749145;47.1306425;7.24062;24.589000701904297;1673300912.7729797;-6.145846366882324;9.489346504211426;87.44223022460938
127;1673300912.955869;47.130642599999995;7.24062;24.98900032043457;1673300912.9529402;-6.3381242752075195;5.027069091796875;87.9332275390625
128;1673300913.152839;47.130642599999995;7.2406201;25.38800048828125;1673300913.147962;-6.560943126678467;6.359630584716797;87.64274597167969
129;1673300913.3719294;47.1306425;7.2406201;25.78900146484375;1673300913.3680413;-6.218223571777344;9.810872077941895;87.2249755859375
130;1673300913.5912962;47.1306425;7.2406201;26.192001342773438;1673300913.5864062;-6.2023515701293945;5.781005859375;87.69379425048828
131;1673300913.770979;47.1306425;7.2406201;26.593000411987305;1673300913.7690248;-6.33069372177124;5.514325141906738;87.9380111694336
132;1673300913.941783;47.1306425;7.2406201;26.992000579833984;1673300913.9388545;-6.023852348327637;9.576762199401855;87.29267120361328
133;1673300914.1322587;47.130642599999995;7.2406201;27.398000717163086;1673300914.1264012;-6.0771894454956055;6.886780261993408;87.54035949707031
134;1673300914.3267622;47.130642599999995;7.24062;27.802001953125;1673300914.3223252;-6.462987422943115;5.174057483673096;87.84979248046875
135;1673300914.5193665;47.1306425;7.24062;28.198001861572266;1673300914.513494;-6.448305130004883;9.495412826538086;87.44419860839844
136;1673300914.7440054;47.1306424;7.2406198999999996;28.59400177001953;1673300914.7391238;-6.406648635864258;7.124856472015381;87.54891967773438
137;1673300914.937568;47.1306424;7.2406198999999996;28.990001678466797;1673300914.9327023;-6.543647289276123;4.317959785461426;87.8503189086914
138;1673300915.1467674;47.1306424;7.2406198999999996;29.384000778198242;1673300915.1418793;-6.5825514793396;8.474565505981445;87.2846908569336
139;1673300915.3488915;47.1306424;7.2406198999999996;29.777002334594727;1673300915.3448164;-6.368928909301758;8.465611457824707;87.29019165039062
140;1673300915.5490947;47.1306424;7.2406198999999996;30.172000885009766;1673300915.5432272;-6.26741886138916;4.620259761810303;87.89964294433594
141;1673300915.7573764;47.1306423;7.2406198999999996;30.565000534057617;1673300915.7532837;-6.421489715576172;7.616326332092285;87.64904022216797
142;1673300916.014574;47.1306422;7.24062;30.96200180053711;1673300916.0096898;-5.899443626403809;8.891188621520996;87.51568603515625
143;1673300916.194022;47.1306422;7.24062;31.363000869750977;1673300916.1891432;-6.438298225402832;4.3507914543151855;87.72325134277344
144;1673300916.3810368;47.1306422;7.24062;31.764001846313477;1673300916.377133;-6.5006561279296875;6.466426849365234;87.60851287841797
145;1673300916.5846188;47.1306422;7.24062;32.16400146484375;1673300916.5797212;-6.343047142028809;9.544021606445312;87.26505279541016
146;1673300916.7927094;47.1306423;7.24062;32.56800079345703;1673300916.7888064;-6.257785320281982;5.553306579589844;87.7294921875
147;1673300916.9859133;47.1306424;7.24062;32.970001220703125;1673300916.9810336;-6.596835136413574;5.623659610748291;87.80241394042969
148;1673300917.1948216;47.1306423;7.2406198999999996;33.374000549316406;1673300917.1899266;-6.328004360198975;9.4722318649292;87.26265716552734
149;1673300917.3798199;47.1306422;7.2406198999999996;33.78200149536133;1673300917.3759172;-6.173452377319336;7.1068034172058105;87.41570281982422
150;1673300917.55602;47.1306422;7.2406198999999996;34.18600082397461;1673300917.5521183;-6.286710262298584;4.216259479522705;87.85871124267578
151;1673300917.7993746;47.1306423;7.2406198999999996;34.586002349853516;1673300917.7954712;-6.343251705169678;8.28305435180664;87.4070816040039
152;1673300917.9688528;47.1306423;7.2406198999999996;34.98200225830078;1673300917.9649484;-6.2988667488098145;8.710721015930176;87.61080932617188
153;1673300918.156552;47.1306424;7.2406198999999996;35.380001068115234;1673300918.1516743;-6.520735740661621;4.6497650146484375;87.9764404296875
154;1673300918.3500152;47.1306424;7.2406198999999996;35.77799987792969;1673300918.3470874;-6.823381423950195;7.366833209991455;87.43659210205078
155;1673300918.5262744;47.1306424;7.2406198999999996;36.176002502441406;1673300918.5233476;-6.380615234375;9.149679183959961;87.19828796386719
156;1673300918.7445984;47.1306425;7.2406198999999996;36.58000183105469;1673300918.7406983;-6.421886920928955;5.538885116577148;87.701416015625
157;1673300918.964827;47.1306425;7.2406198999999996;36.98200225830078;1673300918.9609227;-6.588579177856445;6.836052417755127;87.83970642089844
158;1673300919.160328;47.130642599999995;7.2406198999999996;37.38100051879883;1673300919.1564236;-6.322216033935547;9.894140243530273;87.49726867675781
159;1673300919.3489566;47.130642699999996;7.2406198999999996;37.78700256347656;1673300919.3440788;-6.535491466522217;5.832038879394531;87.67718505859375
160;1673300919.5618153;47.130642699999996;7.2406198999999996;38.19000244140625;1673300919.5581954;-6.62516450881958;5.799929141998291;87.71968841552734
161;1673300919.7400146;47.130642599999995;7.2406198999999996;38.5890007019043;1673300919.7361324;-6.558413028717041;9.907946586608887;87.29985809326172
162;1673300919.9271345;47.130642599999995;7.24062;38.98500061035156;1673300919.921278;-6.344400405883789;6.580617427825928;87.61196899414062
163;1673300920.1444666;47.130642599999995;7.24062;39.37900161743164;1673300920.1395733;-6.355595111846924;4.751927852630615;87.81620788574219
164;1673300920.348556;47.130642599999995;7.2406201;39.76900100708008;1673300920.3427007;-6.23866605758667;9.24330997467041;87.23685455322266
165;1673300920.558813;47.130642699999996;7.2406201;40.159000396728516;1673300920.5558162;-5.8491010665893555;8.934350967407227;87.36322021484375
166;1673300920.75839;47.130642699999996;7.2406201999999995;40.55600357055664;1673300920.7554605;-6.278793811798096;4.712254047393799;87.86447143554688
167;1673300920.9479365;47.130642599999995;7.2406201999999995;40.95500183105469;1673300920.9421012;-6.278881549835205;8.163434028625488;87.5804214477539
168;1673300921.1484478;47.1306425;7.2406201;41.355003356933594;1673300921.1425853;-6.286409378051758;8.638269424438477;87.43346405029297
169;1673300921.3479533;47.1306425;7.2406201;41.755001068115234;1673300921.3430731;-6.507258415222168;4.455783843994141;87.94369506835938
170;1673300921.5650344;47.1306425;7.24062;42.15400314331055;1673300921.5601547;-6.527927398681641;6.858484745025635;87.56909942626953
171;1673300921.7626286;47.130642599999995;7.24062;42.54900360107422;1673300921.75775;-6.314799785614014;9.470049858093262;87.08750915527344
172;1673300921.9589708;47.130642699999996;7.24062;42.94900131225586;1673300921.9540946;-6.397542953491211;5.788128852844238;87.62113952636719
173;1673300922.1385777;47.130642699999996;7.24062;43.34700393676758;1673300922.1360884;-6.582240581512451;5.667520999908447;87.9778060913086
174;1673300922.345788;47.130642599999995;7.24062;43.743003845214844;1673300922.3418837;-6.150574684143066;9.566118240356445;87.35295104980469
175;1673300922.5366826;47.1306425;7.24062;44.13900375366211;1673300922.5317917;-6.190275192260742;6.084696292877197;87.64611053466797
176;1673300922.7318828;47.1306425;7.24062;44.535003662109375;1673300922.726986;-6.487241268157959;5.05717134475708;87.68012237548828
177;1673300922.9512448;47.1306425;7.24062;44.93100357055664;1673300922.9463663;-6.349221706390381;9.570073127746582;87.28963470458984
178;1673300923.1385992;47.130642599999995;7.2406198999999996;45.323001861572266;1673300923.1356966;-6.404117107391357;7.117856502532959;87.71685028076172
179;1673300923.3548944;47.130642599999995;7.2406198999999996;45.71800231933594;1673300923.35099;-6.6843109130859375;4.721332550048828;87.96149444580078
180;1673300923.6161437;47.1306425;7.2406198999999996;46.11600112915039;1673300923.6130698;-6.606174468994141;9.036598205566406;87.23789978027344
181;1673300923.7955508;47.1306424;7.2406198999999996;46.5160026550293;1673300923.7926297;-6.340963840484619;7.698736190795898;87.29085540771484
182;1673300924.004878;47.1306425;7.2406198999999996;46.9170036315918;1673300924.000965;-6.418045997619629;4.508838653564453;87.94068145751953
183;1673300924.2187839;47.1306425;7.2406198999999996;47.31300354003906;1673300924.2148805;-6.462263584136963;8.053951263427734;87.595458984375
184;1673300924.3938248;47.130642599999995;7.2406198999999996;47.704002380371094;1673300924.3908935;-6.265936374664307;9.032280921936035;87.59710693359375
185;1673300924.5936947;47.130642699999996;7.2406198999999996;48.0890007019043;1673300924.590755;-6.669960975646973;6.022933006286621;87.73027038574219
186;1673300924.7763653;47.130642699999996;7.240619799999999;48.42900085449219;1673300924.7734387;-6.729123115539551;8.178489685058594;87.50215148925781
187;1673300924.9628031;47.130642599999995;7.240619799999999;48.720001220703125;1673300924.958899;-6.269762992858887;9.300455093383789;87.38026428222656
188;1673300925.149611;47.130642699999996;7.2406197;48.965003967285156;1673300925.144732;-6.687980651855469;5.123856067657471;87.86273956298828
189;1673300925.341686;47.1306428;7.2406196;49.169002532958984;1673300925.3368163;-6.868433952331543;7.391469955444336;87.70449829101562
190;1673300925.5367022;47.1306428;7.2406194;49.34100341796875;1673300925.5327995;-4.154641628265381;11.233774185180664;87.2502212524414
191;1673300925.7447495;47.130642699999996;7.240619;49.458003997802734;1673300925.741285;7.462490081787109;19.941734313964844;82.82960510253906
192;1673300925.9451816;47.130642099999996;7.2406178;49.52300262451172;1673300925.9417171;1.4793224334716797;12.083809852600098;69.30431365966797
193;1673300926.154859;47.1306413;7.2406165;49.56900405883789;1673300926.1507418;0.16236554086208344;7.479511737823486;58.45772933959961
194;1673300926.347738;47.130640299999996;7.2406152;49.608001708984375;1673300926.3438406;4.496891498565674;8.328694343566895;49.83610534667969
195;1673300926.5488012;47.1306393;7.240613799999999;49.63800048828125;1673300926.545883;2.8131182193756104;8.778396606445312;40.99966049194336
196;1673300926.7548442;47.130638399999995;7.240612499999999;49.66200256347656;1673300926.7528932;3.270258665084839;10.347803115844727;32.174049377441406
197;1673300926.9686794;47.1306375;7.2406112;49.68400192260742;1673300926.9638095;2.4795963764190674;12.907083511352539;23.28257942199707
198;1673300927.1798606;47.1306369;7.240609999999999;49.707000732421875;1673300927.1759577;2.5090200901031494;13.307120323181152;14.890955924987793
199;1673300927.367771;47.1306363;7.2406090999999995;49.733001708984375;1673300927.3628812;3.4999423027038574;10.633665084838867;6.088968753814697
200;1673300927.5617898;47.130635899999994;7.2406086;49.75800323486328;1673300927.5586927;6.22265625;6.078137397766113;-2.133110761642456
201;1673300927.7652059;47.1306357;7.240608399999999;49.77900314331055;1673300927.7608812;8.456619262695312;5.911644458770752;-9.778635025024414
202;1673300927.988757;47.1306357;7.2406083;49.79500198364258;1673300927.9858296;8.215132713317871;6.5394368171691895;-18.58710479736328
203;1673300928.1718466;47.1306358;7.2406082;49.80900192260742;1673300928.1678336;7.791565418243408;5.6691389083862305;-28.85114097595215
204;1673300928.375715;47.130635899999994;7.2406082;49.81900405883789;1673300928.371813;6.978590965270996;1.8662492036819458;-38.2120246887207
205;1673300928.574053;47.130635999999996;7.240608099999999;49.832000732421875;1673300928.5701537;7.845492839813232;-2.3659188747406006;-46.353450775146484
206;1673300928.7523043;47.1306362;7.240608;49.84300231933594;1673300928.747407;9.08881664276123;-5.348437309265137;-51.70985794067383
207;1673300928.9450903;47.1306365;7.2406077;49.85400390625;1673300928.942161;10.791019439697266;-3.2405567169189453;-52.09532165527344
208;1673300929.1593947;47.1306367;7.2406071;49.862003326416016;1673300929.1554904;11.320043563842773;-1.231215238571167;-50.03882598876953
209;1673300929.3752158;47.1306369;7.240606499999999;49.86600112915039;1673300929.3703358;10.587477684020996;1.3236721754074097;-47.81647872924805
210;1673300929.5775728;47.1306368;7.240605899999999;49.86900329589844;1673300929.5726936;9.988100051879883;0.30999261140823364;-46.0499382019043
211;1673300929.7745311;47.130636599999995;7.2406055;49.87300109863281;1673300929.7696512;11.07183837890625;-1.4258393049240112;-45.216129302978516
212;1673300929.9706979;47.1306364;7.2406052;49.87900161743164;1673300929.965864;12.144176483154297;-2.95613956451416;-45.62529373168945
213;1673300930.1643505;47.1306362;7.2406049999999995;49.88600158691406;1673300930.1594696;12.703055381774902;-0.4221979081630707;-46.091651916503906
214;1673300930.354553;47.1306361;7.240604899999999;49.8910026550293;1673300930.3496735;11.89499282836914;1.3791894912719727;-46.08800506591797
215;1673300930.5571337;47.130635899999994;7.2406047;49.893001556396484;1673300930.5542133;10.408024787902832;3.1169636249542236;-45.71250534057617
216;1673300930.7593336;47.130635899999994;7.240604299999999;49.89200210571289;1673300930.7534766;-10.525354385375977;2.5754611492156982;-46.52986145019531
217;1673300930.9628973;47.1306365;7.240602999999999;49.87200164794922;1673300930.9589791;-40.93858337402344;-1.0206187963485718;-47.61249923706055
218;1673300931.179069;47.1306388;7.240599199999999;49.81100082397461;1673300931.172034;-40.776580810546875;-0.922019362449646;-47.33277893066406
219;1673300931.3590136;47.1306429;7.2405927;49.73600387573242;1673300931.3547668;-32.37458419799805;-2.966409921646118;-46.27541732788086
220;1673300931.5508296;47.130648199999996;7.240583999999999;49.665000915527344;1673300931.5469236;-28.277029037475586;-1.8737128973007202;-46.3936767578125
221;1673300931.7478611;47.1306545;7.2405734;49.612003326416016;1673300931.7438736;-29.802045822143555;0.7256644368171692;-46.28316879272461
222;1673300931.9468896;47.130661599999996;7.2405611;49.583003997802734;1673300931.9418788;-34.69224166870117;0.824105441570282;-45.69618606567383
223;1673300932.1375842;47.1306696;7.2405472;49.583003997802734;1673300932.1326692;-40.20355224609375;-1.7056080102920532;-45.11989974975586
224;1673300932.3296394;47.1306787;7.2405314;49.617000579833984;1673300932.3256533;-45.009429931640625;-2.45729398727417;-45.040462493896484
225;1673300932.5428064;47.1306893;7.240513399999999;49.67900085449219;1673300932.537908;-51.007606506347656;0.23954737186431885;-46.20515441894531
226;1673300932.7477398;47.130701699999996;7.2404927;49.75400161743164;1673300932.7427883;-57.657188415527344;3.956249713897705;-47.27229690551758
227;1673300932.9466858;47.1307161;7.2404692;49.827003479003906;1673300932.941799;-59.581199645996094;2.6558477878570557;-47.08232116699219
228;1673300933.1557097;47.1307323;7.240443399999999;49.88500213623047;1673300933.1518037;-57.140872955322266;3.6157846450805664;-46.79454040527344
229;1673300933.368964;47.13075;7.2404158;49.928001403808594;1673300933.3647163;-56.1679573059082;3.5489916801452637;-46.73019027709961
230;1673300933.5698724;47.1307688;7.2403870999999995;49.954002380371094;1673300933.5646682;-53.96274185180664;2.108149290084839;-46.31321716308594
231;1673300933.7698135;47.1307884;7.2403574;49.9640007019043;1673300933.7649326;-45.7262077331543;2.2459826469421387;-46.3872184753418
232;1673300933.970133;47.130808099999996;7.240327799999999;49.95500183105469;1673300933.9642844;-13.840596199035645;0.7949270606040955;-46.161991119384766
233;1673300934.17152;47.1308264;7.2403002999999995;49.923004150390625;1673300934.1682298;27.776094436645508;2.357114315032959;-47.0922966003418
234;1673300934.3734155;47.1308425;7.240276199999999;49.737003326416016;1673300934.3672068;23.101600646972656;1.6121361255645752;-45.417015075683594
235;1673300934.5713089;47.1308559;7.240256199999999;49.531002044677734;1673300934.568179;17.20603370666504;-0.749076783657074;-46.45518493652344
236;1673300934.7676237;47.1308668;7.2402399;49.44000244140625;1673300934.7637157;17.892780303955078;-0.45651060342788696;-46.893646240234375
237;1673300934.9625118;47.1308751;7.240227699999999;49.51700210571289;1673300934.9579735;50.626502990722656;-1.4774945974349976;-48.6944580078125
238;1673300935.1531703;47.13088;7.2402206;49.6150016784668;1673300935.147224;48.8023567199707;-1.318069338798523;-47.618473052978516
239;1673300935.347323;47.130882;7.240218;49.720001220703125;1673300935.344395;50.59626388549805;-0.8070688843727112;-46.43215560913086
240;1673300935.5455043;47.130881599999995;7.2402188999999995;49.816001892089844;1673300935.5415983;46.739315032958984;-0.3351159989833832;-46.30295944213867
241;1673300935.741411;47.1308793;7.2402223;49.88900375366211;1673300935.7367828;37.70186996459961;-0.1479930430650711;-46.37129592895508
242;1673300935.9480796;47.130876;7.240227399999999;49.93100357055664;1673300935.943201;30.149450302124023;-0.12473608553409576;-46.62575912475586
243;1673300936.1379316;47.1308722;7.240233;49.957000732421875;1673300936.1340292;15.148421287536621;0.7339617013931274;-46.64435958862305
244;1673300936.338101;47.1308684;7.240238499999999;49.965003967285156;1673300936.3322446;3.3761494159698486;1.3700804710388184;-46.63259506225586
245;1673300936.5429978;47.1308654;7.2402431;49.96900177001953;1673300936.5390944;-9.960409164428711;3.2255895137786865;-46.88362121582031
246;1673300936.7350416;47.1308632;7.2402463;49.96000289916992;1673300936.7305224;-12.265093803405762;-3.0627264976501465;-47.05815505981445
247;1673300936.9439201;47.1308619;7.240247999999999;49.94400405883789;1673300936.9380836;-9.651484489440918;-1.3592607975006104;-46.3019905090332
248;1673300937.1648195;47.1308617;7.2402482;49.92500305175781;1673300937.1609304;-6.156665325164795;1.4186716079711914;-46.11460876464844
249;1673300937.3689694;47.130862199999996;7.2402472;49.91200256347656;1673300937.3640969;-1.374773621559143;3.3937716484069824;-45.72795867919922
250;1673300937.5741122;47.1308632;7.2402456;49.9160041809082;1673300937.570209;2.6332919597625732;1.6431339979171753;-46.19023895263672
251;1673300937.7600348;47.1308642;7.240243899999999;49.939002990722656;1673300937.7571077;6.8010735511779785;3.3357913494110107;-46.770774841308594
252;1673300937.9591272;47.130865299999996;7.2402424;49.96900177001953;1673300937.9561996;11.54770565032959;0.48901820182800293;-46.94194793701172
253;1673300938.1671293;47.1308662;7.2402413;49.996002197265625;1673300938.1622605;14.883585929870605;-2.2855701446533203;-46.66777420043945
254;1673300938.366586;47.1308669;7.2402406;50.01900100708008;1673300938.3617053;17.084016799926758;-1.4943327903747559;-45.83956527709961
255;1673300938.574838;47.1308674;7.2402403;50.03600311279297;1673300938.5689616;15.131132125854492;5.641792297363281;-45.50238800048828
256;1673300938.769264;47.1308678;7.240240099999999;49.80800247192383;1673300938.7634268;24.956912994384766;28.056713104248047;-41.951515197753906
257;1673300938.9854348;47.130868199999995;7.2402397;49.21200180053711;1673300938.9815314;28.624780654907227;49.267154693603516;-38.58317947387695
258;1673300939.1724188;47.1308686;7.2402393;48.249000549316406;1673300939.1685133;27.33609390258789;63.06368637084961;-40.6298828125
259;1673300939.377714;47.1308691;7.2402387;46.92100143432617;1673300939.3738093;22.685298919677734;65.3504409790039;-50.999534606933594
260;1673300939.5818503;47.1308696;7.2402378999999994;45.22800064086914;1673300939.577934;13.782047271728516;55.490047454833984;-67.9342041015625
261;1673300939.7727787;47.1308699;7.240237;43.15800094604492;1673300939.7659473;-3.6114814281463623;35.83027648925781;-86.86408233642578
262;1673300939.9811983;47.130870099999996;7.2402359999999994;40.69600296020508;1673300939.9772916;-27.34652328491211;10.192913055419922;-99.59225463867188
263;1673300940.1812987;47.1308703;7.240235299999999;37.85000228881836;1673300940.1725051;-43.59403610229492;-17.032697677612305;-101.74656677246094
264;1673300940.3773904;47.130870699999996;7.2402349;34.638999938964844;1673300940.3729367;-43.784061431884766;-32.68648147583008;-105.8765640258789
265;1673300940.5653691;47.130871299999995;7.2402345;31.07600212097168;1673300940.5614648;-27.273216247558594;-24.370498657226562;-121.12521362304688
266;1673300940.7540748;47.1308723;7.2402342;27.134000778198242;1673300940.7501903;4.494943141937256;-5.258162498474121;-133.66412353515625
267;1673300940.9574225;47.1308733;7.2402337;22.796001434326172;1673300940.9535098;34.99321365356445;18.128755569458008;-135.1123809814453
268;1673300941.169455;47.130874;7.240233;18.08700180053711;1673300941.1557622;43.3127555847168;31.8771915435791;-136.97015380859375
269;1673300941.3658848;47.130874299999995;7.2402321999999995;13.029000282287598;1673300941.3610103;26.284175872802734;22.205032348632812;-153.9158935546875
270;1673300941.561221;47.130874299999995;7.2402315999999995;7.6060004234313965;1673300941.5553648;-10.328691482543945;6.206031322479248;-167.87083435058594
271;1673300941.7925243;47.1308745;7.2402311;1.7940000295639038;1673300941.7894773;-37.835391998291016;-7.960391998291016;-172.60606384277344
272;1673300941.9855866;47.1308699;7.2402438;0.1080000028014183;1673300941.9816763;3.2566745281219482;-12.03773021697998;167.13739013671875
273;1673300942.1991746;47.130857899999995;7.240262899999999;0.07000000029802322;1673300942.1952755;21.717182159423828;-14.908842086791992;162.0765838623047
274;1673300942.403703;47.1308442;7.2402823;0.04400000348687172;1673300942.3997982;23.665613174438477;-14.946365356445312;161.58946228027344
275;1673300942.60372;47.1308302;7.2403017;-0.0010000000474974513;1673300942.5988357;13.473633766174316;-13.606255531311035;164.6299591064453
276;1673300942.7896783;47.1308161;7.2403211;-0.09200000762939453;1673300942.7857618;-15.682929992675781;-13.363362312316895;172.3267364501953
277;1673300942.975326;47.1308024;7.240342399999999;-0.10700000822544098;1673300942.9704375;-7.331959247589111;-9.607544898986816;170.3155975341797
278;1673300943.2178748;47.1307876;7.2403653;-0.164000004529953;1673300943.2149587;-10.522296905517578;-9.01903247833252;171.42071533203125
279;1673300943.4049795;47.1307724;7.2403894;-0.21700000762939453;1673300943.4001017;-10.61710262298584;-7.943932056427002;171.80650329589844
280;1673300943.5964127;47.1307567;7.240414599999999;-0.26600000262260437;1673300943.592509;-10.583213806152344;-7.703466892242432;171.99636840820312
281;1673300943.7875836;47.130740499999995;7.240441;-0.33000001311302185;1673300943.7844791;-10.508293151855469;-7.8604230880737305;172.16802978515625
282;1673300943.9925406;47.1307237;7.2404686;-0.4190000295639038;1673300943.988408;-10.509055137634277;-8.078667640686035;172.3726348876953
283;1673300944.198421;47.130706599999996;7.2404969999999995;-0.48900002241134644;1673300944.1935406;-10.429778099060059;-8.292598724365234;172.5561981201172
284;1673300944.4165525;47.1306892;7.2405263;-0.5509999990463257;1673300944.4114065;-10.334391593933105;-8.61376953125;172.7201690673828
285;1673300944.5994613;47.1306714;7.2405564;-0.6110000014305115;1673300944.5965335;-10.272422790527344;-8.852787017822266;172.8517303466797
286;1673300944.8059502;47.1306532;7.2405876;-0.6680000424385071;1673300944.802042;-10.21402359008789;-9.077641487121582;172.99508666992188
287;1673300944.994787;47.1306346;7.2406197;-0.7360000610351562;1673300944.9906309;-10.216036796569824;-9.207247734069824;173.1394805908203
288;1673300945.1916611;47.130615399999996;7.240653;-0.8280000686645508;1673300945.1867294;-10.172859191894531;-9.361343383789062;173.2762451171875
289;1673300945.404915;47.1305961;7.2406869;-0.8960000276565552;1673300945.40045;-10.071101188659668;-9.629176139831543;173.40191650390625
290;1673300945.61258;47.1305765;7.240721499999999;-0.9490000605583191;1673300945.6089578;-10.009413719177246;-9.8493070602417;173.5534210205078
291;1673300945.8143916;47.1305567;7.2407566999999995;-0.9930000305175781;1673300945.8104453;-9.94622802734375;-10.032909393310547;173.6853790283203
292;1673300946.0476081;47.1305365;7.2407927999999995;-1.037000060081482;1673300946.0437036;-9.883984565734863;-10.27490520477295;173.7819061279297
293;1673300946.2216797;47.130516;7.2408297;-1.0770000219345093;1673300946.2176497;-9.787782669067383;-10.451276779174805;173.92662048339844
294;1673300946.415385;47.130494999999996;7.2408677;-1.1340000629425049;1673300946.408865;-9.709543228149414;-10.661355972290039;174.0382537841797
295;1673300946.6030645;47.1304733;7.240907;-1.2200000286102295;1673300946.5974624;-9.712790489196777;-10.901033401489258;174.20175170898438
296;1673300946.7934985;47.1304516;7.2409465;-1.2720000743865967;1673300946.7874486;-9.661751747131348;-11.037822723388672;174.3267059326172
297;1673300946.9883487;47.130429799999995;7.2409865;-1.3010001182556152;1673300946.9854202;-9.61392879486084;-11.172263145446777;174.47451782226562
298;1673300947.2004068;47.1304077;7.241027099999999;-1.318000078201294;1673300947.1935441;-9.606466293334961;-11.294273376464844;174.57371520996094
299;1673300947.3988984;47.1303853;7.241068599999999;-1.3300000429153442;1673300947.3940213;-9.522957801818848;-11.398329734802246;174.67930603027344
300;1673300947.5865989;47.1303717;7.2410938;-1.3530000448226929;1673300947.5817125;-9.446956634521484;-11.552040100097656;174.79315185546875
301;;;;;1673300947.8025646;-9.413475036621094;-11.685365676879883;174.90382385253906
302;;;;;1673300947.9933994;-9.35009765625;-11.77292251586914;174.9976806640625
303;;;;;1673300948.196566;-9.314443588256836;-11.900577545166016;175.11233520507812
304;;;;;1673300948.391415;-9.242905616760254;-11.968305587768555;175.19830322265625
305;;;;;1673300948.583472;-9.1773681640625;-12.127405166625977;175.28713989257812
306;;;;;1673300948.7766614;-9.176212310791016;-12.379212379455566;175.37786865234375
307;;;;;1673300948.9615085;-9.120889663696289;-12.504796981811523;175.49107360839844
308;;;;;1673300949.162483;-9.074182510375977;-12.678359985351562;175.64231872558594
