;pos_time;latitude;longitude;altitude;alt_time;pitch;roll;yaw
0;1673299849.3653798;47.1306425;7.2406196;-0.006000000052154064;1673299849.5230753;0.08927328139543533;-0.49540436267852783;89.73065948486328
1;1673299849.5646417;47.1306425;7.240619499999999;-0.004000000189989805;1673299849.7262132;0.22713464498519897;-0.7942150831222534;89.78905487060547
2;1673299849.7716863;47.1306425;7.240619499999999;-0.004000000189989805;1673299849.9236667;0.2593148946762085;-0.37470778822898865;89.6060562133789
3;1673299849.962362;47.1306425;7.240619499999999;-0.004000000189989805;1673299850.134669;0.26459604501724243;-0.4723242521286011;89.8091812133789
4;1673299850.1731749;47.130642599999995;7.2406196;-0.0010000000474974513;1673299850.3528342;0.3567229211330414;-0.515167772769928;89.63809204101562
5;1673299850.3880982;47.130642599999995;7.2406196;0.0;1673299850.5628743;0.2328493595123291;-0.16800644993782043;89.61618041992188
6;1673299850.6167421;47.130642599999995;7.2406197;0.0;1673299850.7996824;0.2614736258983612;-0.2752731442451477;89.61367797851562
7;1673299850.83093;47.130642599999995;7.2406197;-0.0010000000474974513;1673299850.9983296;0.04823534935712814;-0.14551278948783875;89.54552459716797
8;1673299851.030876;47.1306425;7.240619799999999;-0.0010000000474974513;1673299851.161256;-0.09468650817871094;-0.33426371216773987;89.68229675292969
9;1673299851.1963909;47.1306425;7.2406198999999996;0.0010000000474974513;1673299851.349542;0.1328822374343872;0.02926260605454445;89.54531860351562
10;1673299851.3872263;47.1306425;7.2406198999999996;0.003000000026077032;1673299851.5578156;0.113062784075737;-0.2012641727924347;89.52935791015625
11;1673299851.6310508;47.1306425;7.2406198999999996;0.003000000026077032;1673299851.7687397;0.21354688704013824;-0.16530923545360565;89.686767578125
12;1673299851.802199;47.1306424;7.2406198999999996;0.0;1673299851.9726605;0.07787971943616867;-0.15844698250293732;89.56945037841797
13;1673299852.0208375;47.1306424;7.2406198999999996;0.0;1673299852.2171805;-0.03945331647992134;-0.15309159457683563;89.5271224975586
14;1673299852.2659347;47.1306423;7.2406198999999996;0.0;1673299852.5017982;0.015471524558961391;-0.5744503140449524;89.70116424560547
15;1673299852.523175;47.1306423;7.24062;0.0;1673299852.6678426;0.021200265735387802;-0.3030712604522705;89.56631469726562
16;1673299852.7174706;47.1306423;7.24062;-0.0010000000474974513;1673299852.8400364;0.17265407741069794;-0.03306421637535095;89.4367446899414
17;1673299852.8659275;47.1306423;7.24062;0.0;1673299852.9940405;0.11851060390472412;-0.4474719166755676;89.46692657470703
18;1673299853.028629;47.1306423;7.2406198999999996;-0.0010000000474974513;1673299853.17509;0.016286058351397514;-0.240179643034935;89.59424591064453
19;1673299853.2149167;47.1306423;7.2406198999999996;-0.0020000000949949026;1673299853.3692682;0.20862461626529694;-0.28864753246307373;89.55573272705078
20;1673299853.4041564;47.1306423;7.2406198999999996;-0.007000000216066837;1673299853.546019;0.3109419047832489;-0.2542685270309448;89.51058197021484
21;1673299853.5770812;47.1306423;7.2406198999999996;-0.00800000037997961;1673299853.7519681;0.167944997549057;0.003745381021872163;89.40177917480469
22;1673299853.7869782;47.1306423;7.2406198999999996;-0.00800000037997961;1673299853.9508986;0.1230323538184166;-0.24422457814216614;89.37540435791016
23;1673299853.9968915;47.1306423;7.24062;-0.0020000000949949026;1673299854.196812;0.13710832595825195;-0.2745898962020874;89.15139770507812
24;1673299854.2318802;47.1306423;7.24062;0.0020000000949949026;1673299854.385021;0.45237940549850464;-0.06367383897304535;89.40568542480469
25;1673299854.4198477;47.1306423;7.24062;0.005000000353902578;1673299854.5819106;0.40664857625961304;0.1418202668428421;89.34618377685547
26;1673299854.6149611;47.1306424;7.24062;0.005000000353902578;1673299854.7680564;0.6161555647850037;-0.26572245359420776;89.49589538574219
27;1673299854.8067167;47.1306424;7.2406198999999996;0.005000000353902578;1673299854.9649544;1.1280860900878906;-0.042767565697431564;89.7428970336914
28;1673299855.0008423;47.1306425;7.2406198999999996;0.009000000543892384;1673299855.1794662;0.7141599059104919;3.237297296524048;89.8448715209961
29;1673299855.2169867;47.1306424;7.240619799999999;0.02800000086426735;1673299855.4148853;-0.4681549072265625;-2.2897448539733887;90.30265808105469
30;1673299855.4469938;47.1306424;7.2406197;0.0690000057220459;1673299855.5878968;0.4896169602870941;-1.1537322998046875;90.19239807128906
31;1673299855.6207967;47.1306425;7.2406196;0.12600000202655792;1673299855.785795;0.48641493916511536;2.734571695327759;90.3433609008789
32;1673299855.8200169;47.1306424;7.240619499999999;0.19500000774860382;1673299855.9598057;0.47194209694862366;-1.7946470975875854;90.52684020996094
33;1673299855.9911447;47.1306423;7.2406194;0.27900001406669617;1673299856.151285;0.12969301640987396;-2.258387327194214;90.57939910888672
34;1673299856.1844764;47.1306423;7.2406193;0.3800000250339508;1673299856.3513954;-0.569544792175293;2.174319267272949;90.0784683227539
35;1673299856.3914206;47.1306423;7.2406193;0.49400001764297485;1673299856.5517204;-0.7805079817771912;-1.212242841720581;90.47063446044922
36;1673299856.6128047;47.1306424;7.2406194;0.6240000128746033;1673299856.78624;-0.1310928910970688;-2.2009658813476562;90.5508041381836
37;1673299856.820956;47.1306425;7.2406194;0.7660000324249268;1673299856.9942973;0.883795976638794;2.78719162940979;90.52696990966797
38;1673299857.0272963;47.130642599999995;7.2406196;0.9200000166893005;1673299857.1740499;1.0436257123947144;0.6065934300422668;90.77803039550781
39;1673299857.2179458;47.130642599999995;7.2406196;1.0880000591278076;1673299857.3698494;1.060577154159546;-3.076803207397461;90.8172607421875
40;1673299857.4049957;47.1306425;7.2406197;1.2700001001358032;1673299857.555466;0.6856340765953064;1.3316844701766968;90.46809387207031
41;1673299857.587675;47.1306425;7.240619799999999;1.4580000638961792;1673299857.7378733;0.0472116582095623;1.1477141380310059;91.3689193725586
42;1673299857.7750852;47.1306425;7.240619799999999;1.6500000953674316;1673299857.9359057;0.2522469460964203;-2.883185625076294;91.49870300292969
43;1673299857.971105;47.1306425;7.240619799999999;1.840000033378601;1673299858.1383822;0.5464468598365784;1.1238694190979004;91.09762573242188
44;1673299858.1823597;47.1306425;7.240619799999999;2.0270001888275146;1673299858.395217;0.8521820306777954;1.8837460279464722;91.19666290283203
45;1673299858.4287817;47.1306424;7.240619799999999;2.2180001735687256;1673299858.582596;0.7604191899299622;-3.734323024749756;91.23866271972656
46;1673299858.61643;47.1306423;7.2406197;2.4120001792907715;1673299858.7729247;0.5955789685249329;-1.0324629545211792;90.88935852050781
47;1673299858.8188965;47.1306422;7.2406197;2.6050000190734863;1673299858.9660823;0.46524930000305176;2.2055881023406982;90.69924926757812
48;1673299858.9995072;47.1306423;7.2406197;2.802000045776367;1673299859.154494;0.030170651152729988;-1.4352132081985474;91.10545349121094
49;1673299859.1955643;47.1306424;7.2406197;2.997000217437744;1673299859.3454099;-0.1581445038318634;-1.0268276929855347;91.04887390136719
50;1673299859.3787005;47.1306425;7.2406197;3.190000057220459;1673299859.5399418;0.09852135926485062;2.994872808456421;90.55998229980469
51;1673299859.5731976;47.130642599999995;7.240619799999999;3.388000249862671;1673299859.732693;0.5733716487884521;-1.2101857662200928;90.8818130493164
52;1673299859.7698412;47.1306424;7.240619799999999;3.5860002040863037;1673299859.9453018;1.3550243377685547;-2.684934377670288;90.89874267578125
53;1673299859.98727;47.1306423;7.2406198999999996;3.7840001583099365;1673299860.1592438;1.1798187494277954;2.42777156829834;90.9393539428711
54;1673299860.1905541;47.1306423;7.2406198999999996;3.9870002269744873;1673299860.3379364;0.6900804042816162;0.015524784103035927;91.03264617919922
55;1673299860.3750336;47.1306424;7.2406198999999996;4.185000419616699;1673299860.5362315;0.3066716194152832;-2.912217378616333;91.07553100585938
56;1673299860.569944;47.1306423;7.2406198999999996;4.386000156402588;1673299860.733221;0.17299480736255646;1.4416450262069702;90.69710540771484
57;1673299860.7733371;47.1306422;7.2406198999999996;4.584000110626221;1673299860.933798;0.2097361534833908;0.6457362174987793;90.73402404785156
58;1673299860.9661205;47.130642099999996;7.2406198999999996;4.7829999923706055;1673299861.1333165;0.7154108285903931;-3.900536298751831;91.28736114501953
59;1673299861.1776946;47.130641999999995;7.240619799999999;4.9830002784729;1673299861.332662;1.2721887826919556;-0.02656893990933895;90.89096069335938
60;1673299861.3736534;47.130641999999995;7.240619799999999;5.187000274658203;1673299861.5573146;0.9096153974533081;1.5788644552230835;90.88642120361328
61;1673299861.5920832;47.1306422;7.240619799999999;5.389000415802002;1673299861.7549248;0.3113553524017334;-2.467773199081421;91.24722290039062
62;1673299861.7891579;47.1306423;7.2406197;5.592000484466553;1673299861.9357834;0.03011726401746273;-0.23855896294116974;90.87428283691406
63;1673299861.9729664;47.1306424;7.2406196;5.7960004806518555;1673299862.1321573;-0.12051983922719955;2.798089027404785;90.74142456054688
64;1673299862.1719394;47.1306424;7.2406196;6.002000331878662;1673299862.350374;-0.0027397593948990107;-2.157104253768921;90.96434783935547
65;1673299862.3984663;47.1306423;7.2406196;6.211000442504883;1673299862.5359576;0.6252554655075073;-1.629881501197815;90.99890899658203
66;1673299862.567383;47.1306423;7.240619499999999;6.418000221252441;1673299862.7357814;0.8251899480819702;2.928147077560425;90.96951293945312
67;1673299862.7769217;47.1306424;7.240619499999999;6.62600040435791;1673299862.943759;0.49559855461120605;-0.9416543245315552;90.9957046508789
68;1673299862.977085;47.1306424;7.2406194;6.832000255584717;1673299863.1487143;0.3523186147212982;-2.247757911682129;90.82129669189453
69;1673299863.1878052;47.1306423;7.2406194;7.038000106811523;1673299863.3597314;0.01141143124550581;1.8386439085006714;90.55830383300781
70;1673299863.4007244;47.1306422;7.2406194;7.237000465393066;1673299863.5513194;-0.3159032166004181;-0.13551969826221466;90.89189147949219
71;1673299863.5844836;47.130642099999996;7.2406194;7.436000347137451;1673299863.7429926;-0.16971325874328613;-3.3013510704040527;91.2127456665039
72;1673299863.7810543;47.130642099999996;7.2406194;7.635000228881836;1673299863.9559069;-0.02298881486058235;1.4375903606414795;90.80862426757812
73;1673299864.015829;47.130642099999996;7.2406194;7.835000514984131;1673299864.2147799;0.47636762261390686;0.919914186000824;90.72825622558594
74;1673299864.2799501;47.1306422;7.2406194;8.03700065612793;1673299864.4236453;0.6948958039283752;-3.0574934482574463;90.9947509765625
75;1673299864.4525948;47.1306422;7.2406194;8.23900032043457;1673299864.598319;0.6941474676132202;0.1722065955400467;90.89277648925781
76;1673299864.635034;47.1306422;7.2406194;8.438000679016113;1673299864.8030891;0.3694019615650177;1.7250391244888306;90.77980041503906
77;1673299864.8348713;47.1306422;7.2406194;8.643000602722168;1673299864.9740694;-0.3880899250507355;-2.668750762939453;91.27244567871094
78;1673299865.0062873;47.130642099999996;7.240619499999999;8.848000526428223;1673299865.1589427;-0.38141417503356934;-0.9081611037254333;91.15489196777344
79;1673299865.1950545;47.130642099999996;7.240619499999999;9.051000595092773;1673299865.3445802;0.16245636343955994;2.3496005535125732;90.71588897705078
80;1673299865.3787353;47.1306422;7.240619499999999;9.255000114440918;1673299865.542973;0.1950284093618393;-2.1736299991607666;90.82765197753906
81;1673299865.5831547;47.1306423;7.2406196;9.455000877380371;1673299865.745176;0.840947687625885;-1.568124532699585;90.82561492919922
82;1673299865.785221;47.1306423;7.2406196;9.656000137329102;1673299865.9465933;0.6457319259643555;2.510305404663086;90.84870147705078
83;1673299865.9818895;47.1306422;7.2406196;9.856000900268555;1673299866.145371;0.37841781973838806;-1.7666701078414917;91.08654022216797
84;1673299866.1873872;47.130642099999996;7.2406196;10.054000854492188;1673299866.3530307;-0.31487029790878296;-2.4042916297912598;90.96768951416016
85;1673299866.3872101;47.130642099999996;7.240619499999999;10.27400016784668;1673299866.57009;-0.6778677701950073;0.988714337348938;90.66018676757812
86;1673299866.633141;47.1306422;7.2406196;10.584000587463379;1673299866.7905188;-0.24405348300933838;0.6297332644462585;90.6687240600586
87;1673299866.8266714;47.1306423;7.2406196;10.946000099182129;1673299866.9697363;0.07726781815290451;-2.939882755279541;91.06632232666016
88;1673299867.0116956;47.1306423;7.2406196;11.329000473022461;1673299867.1584353;0.5544192790985107;0.6843469738960266;90.91728973388672
89;1673299867.191637;47.1306424;7.2406196;11.725000381469727;1673299867.3537107;0.4677687883377075;2.020488739013672;90.8861312866211
90;1673299867.3920658;47.1306423;7.2406196;12.125000953674316;1673299867.556036;0.335365891456604;-2.838580846786499;90.99232482910156
91;1673299867.6030502;47.1306423;7.2406197;12.52500057220459;1673299867.7625823;0.09694197028875351;-0.4401000738143921;90.84930419921875
92;1673299867.8006313;47.1306423;7.2406197;12.930000305175781;1673299867.964779;-0.13952189683914185;2.423635482788086;90.70904541015625
93;1673299867.999927;47.1306424;7.240619799999999;13.336000442504883;1673299868.1574197;-0.0979602187871933;-1.656851053237915;91.05196380615234
94;1673299868.1966927;47.1306425;7.240619799999999;13.747000694274902;1673299868.358326;0.12731380760669708;-1.5123915672302246;91.15972137451172
95;1673299868.3955717;47.1306424;7.240619799999999;14.154000282287598;1673299868.5735552;0.4168519079685211;2.4143779277801514;90.83760833740234
96;1673299868.607714;47.1306424;7.240619799999999;14.559000968933105;1673299868.7776008;0.7019195556640625;-0.6987020373344421;90.85692596435547
97;1673299868.8157403;47.1306423;7.240619799999999;14.9660005569458;1673299868.9683542;0.5723518133163452;-2.9999423027038574;90.86729431152344
98;1673299869.018221;47.1306423;7.240619799999999;15.375000953674316;1673299869.1735969;0.4191787838935852;1.4588582515716553;90.73092651367188
99;1673299869.2077658;47.1306423;7.240619799999999;15.783000946044922;1673299869.383544;0.20172251760959625;1.026294231414795;90.91536712646484
100;1673299869.436639;47.1306424;7.2406198999999996;16.196001052856445;1673299869.596037;0.24593012034893036;-2.7029712200164795;91.09735870361328
101;1673299869.6332312;47.1306424;7.2406198999999996;16.60700035095215;1673299869.7842126;0.08321084082126617;0.48512786626815796;90.88862609863281
102;1673299869.8184035;47.1306425;7.2406198999999996;17.016000747680664;1673299869.9703493;0.21985192596912384;2.268828868865967;90.8233413696289
103;1673299870.0035334;47.1306424;7.24062;17.4320011138916;1673299870.1551418;0.4413127899169922;-2.3389081954956055;91.0555419921875
104;1673299870.1903112;47.1306424;7.24062;17.849000930786133;1673299870.3540297;0.7018011808395386;-1.585635781288147;90.90991973876953
105;1673299870.383309;47.1306423;7.2406201;18.267000198364258;1673299870.5397196;0.9391460418701172;2.3364272117614746;90.84774780273438
106;1673299870.575832;47.1306424;7.2406201999999995;18.683000564575195;1673299870.7478776;0.809727668762207;-0.7699151039123535;91.00443267822266
107;1673299870.7878883;47.1306425;7.2406201999999995;19.097000122070312;1673299870.9481094;0.6000658869743347;-1.8657230138778687;90.88323974609375
108;1673299870.9871306;47.1306425;7.2406201999999995;19.50200080871582;1673299871.149344;0.19769679009914398;2.1829376220703125;90.6812515258789
109;1673299871.1894999;47.1306424;7.2406201999999995;19.904001235961914;1673299871.3813462;0.003216645447537303;-0.5222029089927673;90.95367431640625
110;1673299871.415598;47.1306424;7.2406201999999995;20.312000274658203;1673299871.5982063;-0.04956924915313721;-2.97896409034729;91.21733856201172
111;1673299871.6319327;47.1306423;7.2406201999999995;20.722000122070312;1673299871.7652466;0.351452499628067;1.5290987491607666;90.8370361328125
112;1673299871.799405;47.1306424;7.2406201999999995;21.130001068115234;1673299871.9675295;0.5287859439849854;0.7168773412704468;90.83344268798828
113;1673299871.996949;47.1306425;7.2406201999999995;21.532001495361328;1673299872.1424632;0.7156976461410522;-2.859313488006592;90.970458984375
114;1673299872.1805089;47.1306425;7.2406201999999995;21.9320011138916;1673299872.3465912;0.5235409140586853;0.9056613445281982;90.77909088134766
115;1673299872.3896973;47.1306425;7.2406201999999995;22.328001022338867;1673299872.5351126;0.40516117215156555;1.7978057861328125;90.85353088378906
116;1673299872.5672657;47.1306425;7.2406201;22.727001190185547;1673299872.737643;0.06938160955905914;-2.6286795139312744;91.18326568603516
117;1673299872.771803;47.1306425;7.2406201;23.125001907348633;1673299872.9332962;-0.15858568251132965;-0.25362324714660645;91.05020141601562
118;1673299872.9713912;47.130642599999995;7.24062;23.523000717163086;1673299873.1460607;-0.07528822869062424;2.4142446517944336;90.6411361694336
119;1673299873.1841085;47.130642699999996;7.24062;23.92500114440918;1673299873.346229;0.040665559470653534;-1.0870007276535034;90.86664581298828
120;1673299873.3852687;47.130642699999996;7.24062;24.325000762939453;1673299873.541713;0.42058759927749634;-1.456262469291687;91.07129669189453
121;1673299873.5836818;47.130642699999996;7.24062;24.72300148010254;1673299873.7560022;0.5512307286262512;2.115368604660034;90.80074310302734
122;1673299873.7950604;47.130642599999995;7.2406198999999996;25.119001388549805;1673299873.9629726;0.40154433250427246;-0.8300654292106628;90.8483657836914
123;1673299874.0008335;47.130642599999995;7.240619799999999;25.523000717163086;1673299874.157404;0.391103059053421;-2.6169233322143555;91.0105209350586
124;1673299874.19063;47.1306425;7.2406197;25.931001663208008;1673299874.3519852;-0.06413580477237701;1.9115136861801147;90.79151916503906
125;1673299874.3862457;47.130642599999995;7.2406196;26.338001251220703;1673299874.5640364;-0.34753113985061646;0.5286961793899536;90.91850280761719
126;1673299874.6032772;47.130642699999996;7.240619499999999;26.74100112915039;1673299874.766517;-0.3976898789405823;-2.7876627445220947;91.1185302734375
127;1673299874.8006742;47.130642699999996;7.240619499999999;27.13800048828125;1673299874.981621;-0.05226711928844452;1.4227699041366577;90.92587280273438
128;1673299875.0110478;47.130642699999996;7.240619499999999;27.534000396728516;1673299875.1465623;0.18938355147838593;1.4213835000991821;90.78270721435547
129;1673299875.1816993;47.130642699999996;7.240619499999999;27.935001373291016;1673299875.352081;0.5482168197631836;-2.780912160873413;90.95292663574219
130;1673299875.3862338;47.130642699999996;7.240619499999999;28.34200096130371;1673299875.5494301;0.3480199873447418;0.49933215975761414;90.88121795654297
131;1673299875.5876043;47.1306428;7.240619499999999;28.74700164794922;1673299875.7480624;0.3691618740558624;2.6168718338012695;90.83271026611328
132;1673299875.786127;47.1306429;7.240619499999999;29.149002075195312;1673299875.9456327;0.0037161563523113728;-1.8111252784729004;91.01670837402344
133;1673299875.9837263;47.1306429;7.240619499999999;29.548002243041992;1673299876.1622512;0.06782577931880951;-0.2674159109592438;90.89265441894531
134;1673299876.2061663;47.1306428;7.240619499999999;29.94900131225586;1673299876.3644586;-0.04019512981176376;2.530165910720825;90.73613739013672
135;1673299876.3956795;47.130642699999996;7.240619499999999;30.34600067138672;1673299876.5688555;0.2887933552265167;-1.8228929042816162;90.95809173583984
136;1673299876.6177082;47.130642599999995;7.2406196;30.750001907348633;1673299876.7770953;0.5321967601776123;-1.879580020904541;91.06532287597656
137;1673299876.8153064;47.130642599999995;7.2406196;31.152002334594727;1673299876.992222;0.8097845315933228;2.3635854721069336;90.77313995361328
138;1673299877.0254993;47.130642599999995;7.2406197;31.552001953125;1673299877.2105546;0.6889356970787048;-0.26316195726394653;90.96788024902344
139;1673299877.2452521;47.130642599999995;7.2406197;31.952001571655273;1673299877.3946245;0.33466610312461853;-2.4297070503234863;90.96702575683594
140;1673299877.4299982;47.130642599999995;7.2406197;32.34800338745117;1673299877.5854383;0.34209907054901123;1.3945063352584839;90.72386932373047
141;1673299877.6215403;47.1306425;7.2406197;32.7400016784668;1673299877.7731159;-0.07239299267530441;0.38352906703948975;90.97334289550781
142;1673299877.8112595;47.1306424;7.240619799999999;33.134002685546875;1673299877.9721515;0.15371283888816833;-3.1169044971466064;91.20352935791016
143;1673299878.017195;47.1306424;7.240619799999999;33.531002044677734;1673299878.194877;0.09067650884389877;0.9995532035827637;90.81938934326172
144;1673299878.2231903;47.1306425;7.240619799999999;33.92399978637695;1673299878.355984;0.32551324367523193;2.1204733848571777;90.73542022705078
145;1673299878.386239;47.130642599999995;7.2406198999999996;34.32200241088867;1673299878.5415795;0.43002060055732727;-2.0009677410125732;91.01189422607422
146;1673299878.573103;47.130642699999996;7.2406198999999996;34.72300338745117;1673299878.7321854;0.6194360256195068;-0.2125086933374405;90.85135650634766
147;1673299878.7673697;47.130642699999996;7.2406198999999996;35.124000549316406;1673299878.9430196;0.46950802206993103;2.5463919639587402;90.75846099853516
148;1673299878.976203;47.130642599999995;7.2406198999999996;35.520999908447266;1673299879.147285;0.0034735777880996466;-2.017155408859253;91.03507995605469
149;1673299879.195509;47.1306425;7.2406198999999996;35.922000885009766;1673299879.3864782;-0.11747020483016968;-1.4447978734970093;91.0342025756836
150;1673299879.4215975;47.1306425;7.2406198999999996;36.32500076293945;1673299879.5983632;-0.22936880588531494;2.39495587348938;90.67221069335938
151;1673299879.6438117;47.130642599999995;7.2406198999999996;36.72500228881836;1673299879.776387;0.018438441678881645;-0.47746267914772034;90.8130111694336
152;1673299879.8056965;47.130642699999996;7.24062;37.12700271606445;1673299879.9447567;0.12945044040679932;-2.18493914604187;91.1455307006836
153;1673299879.9750347;47.130642699999996;7.24062;37.53000259399414;1673299880.1384604;0.38758260011672974;1.8294891119003296;90.94988250732422
154;1673299880.1751206;47.130642699999996;7.2406198999999996;37.93000030517578;1673299880.3367898;0.3840608298778534;0.16509613394737244;90.88302612304688
155;1673299880.372475;47.130642699999996;7.2406198999999996;38.336002349853516;1673299880.531241;0.3419496715068817;-2.8417277336120605;91.02442932128906
156;1673299880.5659404;47.130642699999996;7.240619799999999;38.74100112915039;1673299880.7246492;0.12854762375354767;1.54911208152771;90.84358978271484
157;1673299880.7607403;47.1306428;7.240619799999999;39.14500045776367;1673299880.9186742;0.10193725675344467;1.6585355997085571;90.78303527832031
158;1673299880.9592466;47.1306429;7.240619799999999;39.54600143432617;1673299881.1350555;-0.18393944203853607;-2.2511088848114014;91.12735748291016
159;1673299881.1810958;47.1306429;7.2406198999999996;39.94200134277344;1673299881.341992;0.04188469424843788;0.9907719492912292;90.92861938476562
160;1673299881.3786533;47.1306429;7.2406198999999996;40.34100341796875;1673299881.535407;0.15733087062835693;1.7721097469329834;90.67678833007812
161;1673299881.5761027;47.1306428;7.2406198999999996;40.736000061035156;1673299881.7466035;0.4291781783103943;-2.534649610519409;90.91649627685547
162;1673299881.7876148;47.130642699999996;7.2406198999999996;41.13300323486328;1673299881.9468753;0.7159886360168457;-0.6650037169456482;90.85994720458984
163;1673299881.9868777;47.1306428;7.2406198999999996;41.52900314331055;1673299882.1493437;0.6991156339645386;2.7135798931121826;90.87548065185547
164;1673299882.1876762;47.1306429;7.2406198999999996;41.927001953125;1673299882.3650908;0.38156700134277344;-1.2266466617584229;91.07510375976562
165;1673299882.4073753;47.1306429;7.2406198999999996;42.3280029296875;1673299882.5544584;0.10002827644348145;-1.3128741979599;90.81256866455078
166;1673299882.592522;47.1306429;7.240619799999999;42.724002838134766;1673299882.7616522;0.05660957098007202;2.431021213531494;90.59292602539062
167;1673299882.8075361;47.1306428;7.240619799999999;43.11600112915039;1673299882.9599845;-0.022172927856445312;-1.1609737873077393;90.97845458984375
168;1673299882.9951246;47.130642699999996;7.2406198999999996;43.51100158691406;1673299883.1578584;0.20900754630565643;-2.4289166927337646;91.003173828125
169;1673299883.205923;47.130642699999996;7.2406198999999996;43.910003662109375;1673299883.3744712;0.3476148843765259;2.975048542022705;90.78751373291016
170;1673299883.4183905;47.1306428;7.2406198999999996;44.30900192260742;1673299883.5981276;0.5355159640312195;-0.003216198878362775;90.85916900634766
171;1673299883.6342921;47.1306428;7.2406198999999996;44.708003997802734;1673299883.7821822;0.7418767213821411;-2.6423115730285645;91.01952362060547
172;1673299883.8163414;47.1306428;7.2406198999999996;45.11000061035156;1673299884.0009644;0.40821757912635803;1.7075070142745972;90.95995330810547
173;1673299884.0305433;47.1306428;7.2406198999999996;45.5160026550293;1673299884.1827343;0.004535512067377567;0.9203987717628479;90.95526885986328
174;1673299884.2143002;47.1306428;7.2406198999999996;45.919002532958984;1673299884.3645024;-0.0793384313583374;-2.75062894821167;91.15630340576172
175;1673299884.3976855;47.1306428;7.2406198999999996;46.323001861572266;1673299884.5437484;0.01819354109466076;1.1332085132598877;90.87246704101562
176;1673299884.5755727;47.1306429;7.2406198999999996;46.72800064086914;1673299884.740596;0.12634898722171783;1.9460798501968384;90.77851867675781
177;1673299884.7826862;47.1306429;7.2406198999999996;47.13100051879883;1673299884.9636028;0.14253424108028412;-2.4689435958862305;91.04537963867188
178;1673299885.0006907;47.130643;7.2406198999999996;47.53200149536133;1673299885.1843915;0.4845902621746063;0.06364258378744125;90.9664306640625
179;1673299885.2265806;47.1306429;7.2406198999999996;47.932003021240234;1673299885.3695934;0.15178489685058594;2.3313183784484863;90.81065368652344
180;1673299885.4008265;47.1306429;7.240619799999999;48.294002532958984;1673299885.558246;0.04248367249965668;-2.2548837661743164;90.87390899658203
181;1673299885.5945685;47.1306428;7.240619799999999;48.60700225830078;1673299885.753955;-0.08844231814146042;-0.4222603738307953;90.8818588256836
182;1673299885.7910843;47.1306429;7.240619799999999;48.87200164794922;1673299885.9349172;-0.0282906424254179;2.762124538421631;90.6628189086914
183;1673299885.9696124;47.130643;7.2406197;49.095001220703125;1673299886.1292439;-0.07135313749313354;-1.511220097541809;91.00602722167969
184;1673299886.1649294;47.130643;7.2406197;49.27800369262695;1673299886.3353074;8.991485595703125;5.07278299331665;89.93202209472656
185;1673299886.3975546;47.1306429;7.240619499999999;49.42400360107422;1673299886.5452616;13.017516136169434;11.597468376159668;79.6534652709961
186;1673299886.582893;47.1306424;7.2406185999999995;49.5160026550293;1673299886.7598562;0.1875743418931961;1.476327657699585;67.31562042236328
187;1673299886.798898;47.130641399999995;7.240617299999999;49.56100082397461;1673299886.9528065;5.400592803955078;3.5327134132385254;57.75077438354492
188;1673299886.988506;47.1306404;7.2406160999999996;49.59700393676758;1673299887.1763928;3.3380684852600098;3.221052885055542;49.01896667480469
189;1673299887.2174132;47.1306393;7.2406147;49.62800216674805;1673299887.3848956;1.4436142444610596;1.102228045463562;39.94368362426758
190;1673299887.4164567;47.1306382;7.240613499999999;49.65800094604492;1673299887.5845294;-1.584665298461914;-2.1018261909484863;31.062162399291992
191;1673299887.6173103;47.1306371;7.2406124;49.68600082397461;1673299887.7714956;-3.539597749710083;-3.3804242610931396;22.45261573791504
192;1673299887.8035088;47.1306363;7.2406114;49.708003997802734;1673299887.9595444;-3.0830321311950684;-1.7551686763763428;13.668484687805176
193;1673299887.9963107;47.1306357;7.240610599999999;49.72500228881836;1673299888.1476297;-1.5012093782424927;0.8865947723388672;4.369842052459717
194;1673299888.1823835;47.130635399999996;7.2406098;49.74400329589844;1673299888.3394198;-0.5534473061561584;2.399984121322632;-4.684811592102051
195;1673299888.3725824;47.130635299999994;7.2406092;49.76700210571289;1673299888.5353332;-0.6714617609977722;0.7399992942810059;-12.449554443359375
196;1673299888.5903745;47.130635299999994;7.2406087999999995;49.78700256347656;1673299888.743268;-1.2422667741775513;-0.6007760763168335;-20.088815689086914
197;1673299888.7807045;47.130635299999994;7.2406083;49.803001403808594;1673299888.932325;0.6297248601913452;0.008218507282435894;-27.8067684173584
198;1673299888.9684787;47.130635399999996;7.240607799999999;49.81900405883789;1673299889.1323771;2.8022024631500244;-3.6671805381774902;-35.802215576171875
199;1673299889.1712348;47.130635399999996;7.2406074;49.829002380371094;1673299889.3376698;4.17812967300415;-1.7367608547210693;-44.935176849365234
200;1673299889.3719206;47.130635299999994;7.2406071;49.83700180053711;1673299889.5346775;2.5823404788970947;4.576779842376709;-50.8074836730957
201;1673299889.5748672;47.130635;7.2406071;49.84600067138672;1673299889.744068;-1.0539244413375854;2.39770245552063;-51.34572219848633
202;1673299889.7802093;47.130634799999996;7.2406073;49.85200119018555;1673299889.9389246;-2.759552478790283;-3.141808271408081;-49.75390625
203;1673299889.973088;47.130634699999995;7.2406073;49.855003356933594;1673299890.1236963;-1.308374047279358;-0.5875340104103088;-48.375179290771484
204;1673299890.1588597;47.1306346;7.2406071;49.85600280761719;1673299890.326085;1.4872993230819702;-1.5749485492706299;-46.78675079345703
205;1673299890.3622298;47.1306346;7.2406068999999995;49.85400390625;1673299890.5263548;2.6121692657470703;-4.005891799926758;-46.2148551940918
206;1673299890.5636263;47.1306345;7.240606799999999;49.85100173950195;1673299890.7294228;1.7045953273773193;1.3233580589294434;-46.17750549316406
207;1673299890.7666776;47.1306343;7.2406066;49.85300064086914;1673299890.9339094;-0.9235263466835022;5.675135612487793;-46.70814514160156
208;1673299890.9719725;47.130634099999995;7.2406066;49.85900115966797;1673299891.133196;-2.298624277114868;-2.6784560680389404;-46.471981048583984
209;1673299891.172269;47.130634;7.2406066;49.8640022277832;1673299891.3276086;-1.8276270627975464;-1.6890966892242432;-46.01904296875
210;1673299891.3627906;47.130634;7.2406064;49.86900329589844;1673299891.5389326;-26.279022216796875;-0.6308492422103882;-46.62738037109375
211;1673299891.5813131;47.1306343;7.2406058;49.875003814697266;1673299891.748597;-47.73286819458008;0.7581091523170471;-47.55595016479492
212;1673299891.785711;47.130635899999994;7.2406032;49.8650016784668;1673299891.9494402;-44.87693405151367;1.555561900138855;-47.513912200927734
213;1673299891.983766;47.1306394;7.2405979;49.820003509521484;1673299892.1298437;-41.30699920654297;-0.7647225856781006;-46.229331970214844
214;1673299892.1656091;47.1306444;7.2405903;49.77900314331055;1673299892.3257372;-46.0903205871582;-3.0002121925354004;-44.919212341308594
215;1673299892.363589;47.130650599999996;7.2405802999999995;49.76400375366211;1673299892.5318244;-48.738162994384766;-1.5608781576156616;-45.68124771118164
216;1673299892.567625;47.1306581;7.2405681;49.768001556396484;1673299892.7274895;-53.36524200439453;-0.36032867431640625;-46.402801513671875
217;1673299892.7701788;47.130666999999995;7.2405534;49.79600143432617;1673299892.9327278;-59.181087493896484;1.5038501024246216;-47.26563262939453
218;1673299892.9732125;47.1306778;7.240535899999999;49.840003967285156;1673299893.1433969;-59.66409683227539;1.3345112800598145;-47.28501510620117
219;1673299893.1775346;47.1306905;7.240515599999999;49.87300109863281;1673299893.3616276;-57.36249542236328;1.1195688247680664;-47.04256057739258
220;1673299893.401553;47.130704699999995;7.240493099999999;49.88900375366211;1673299893.563457;-54.43565368652344;0.1703595519065857;-46.69416046142578
221;1673299893.6058934;47.13072;7.240469;49.89200210571289;1673299893.7608101;-53.79258346557617;0.607178807258606;-46.70247268676758
222;1673299893.7975092;47.1307361;7.2404436;49.88600158691406;1673299893.9606879;-50.46254348754883;0.7833690047264099;-46.57976150512695
223;1673299893.9986227;47.1307529;7.2404174;49.871002197265625;1673299894.191578;-49.115055084228516;0.47154760360717773;-46.55359649658203
224;1673299894.2326992;47.1307701;7.2403906;49.85000228881836;1673299894.39956;-48.788597106933594;0.49232470989227295;-46.50755310058594
225;1673299894.4416335;47.1307876;7.2403634;49.83000183105469;1673299894.603275;-47.79275131225586;-0.4599272608757019;-46.13566207885742
226;1673299894.6424477;47.1308052;7.2403362;49.81900405883789;1673299894.7964041;-33.39212417602539;-0.5282493233680725;-46.809268951416016
227;1673299894.8325346;47.1308228;7.240308799999999;49.83100128173828;1673299894.9949222;11.779967308044434;2.323489189147949;-47.462772369384766
228;1673299895.0276577;47.1308393;7.2402833;49.83400344848633;1673299895.1913815;33.1434211730957;5.646820545196533;-44.16262435913086
229;1673299895.2486646;47.1308538;7.240260999999999;49.68700408935547;1673299895.410681;18.750869750976562;0.36478912830352783;-46.22493362426758
230;1673299895.4506307;47.130865899999996;7.2402427;49.406002044677734;1673299895.6005712;16.221643447875977;-0.6417590379714966;-47.16743469238281
231;1673299895.6325161;47.1308754;7.2402283;49.1670036315918;1673299895.7796755;15.88708209991455;-0.13188454508781433;-46.96651077270508
232;1673299895.8148658;47.130882299999996;7.2402177;49.08000183105469;1673299895.963678;40.05442810058594;-0.7022050023078918;-47.2825813293457
233;1673299896.0027766;47.1308869;7.2402108;49.19900131225586;1673299896.1967127;47.567230224609375;-0.4686056971549988;-46.232704162597656
234;1673299896.227471;47.1308887;7.240208399999999;49.33700180053711;1673299896.3798747;47.268165588378906;-0.4078512191772461;-46.50019836425781
235;1673299896.4116757;47.130887699999995;7.2402101;49.474002838134766;1673299896.5678182;42.168800354003906;-0.9680547118186951;-46.94709777832031
236;1673299896.6087406;47.1308845;7.2402149;49.590003967285156;1673299896.781914;27.885801315307617;-0.7520496845245361;-46.90943145751953
237;1673299896.8157125;47.13088;7.2402218;49.6670036315918;1673299896.970898;15.097304344177246;-0.38524121046066284;-46.86322021484375
238;1673299897.0035677;47.1308747;7.240229599999999;49.72100067138672;1673299897.2077677;1.5705180168151855;-0.3220879137516022;-46.993896484375
239;1673299897.2634773;47.130869499999996;7.240237199999999;49.74800109863281;1673299897.4508429;-12.280678749084473;3.0642929077148438;-46.88343811035156
240;1673299897.4801254;47.1308649;7.240243899999999;49.76100158691406;1673299897.6543992;-23.4113826751709;3.4713735580444336;-46.920101165771484
241;1673299897.6934705;47.1308614;7.2402492;49.75300216674805;1673299897.8313203;-27.242525100708008;0.9769881963729858;-46.068634033203125
242;1673299897.8714137;47.130859099999995;7.2402526;49.72200393676758;1673299898.0313;-29.97494888305664;-4.536283016204834;-45.07606887817383
243;1673299898.0752816;47.1308581;7.2402542;49.660003662109375;1673299898.2229123;-20.846342086791992;-1.817089319229126;-44.9924430847168
244;1673299898.2580035;47.1308583;7.2402539;49.58700180053711;1673299898.4069614;-17.194826126098633;-0.9646553993225098;-44.91950988769531
245;1673299898.4476466;47.1308595;7.2402522;49.53400421142578;1673299898.587857;-11.396103858947754;0.9388279914855957;-45.119598388671875
246;1673299898.6215808;47.1308612;7.2402497;49.50200271606445;1673299898.7693355;-0.9605071544647217;4.4394402503967285;-45.54612731933594
247;1673299898.8025272;47.1308632;7.2402469;49.49100112915039;1673299898.9569316;8.854583740234375;2.669400215148926;-45.42618942260742
248;1673299898.9911232;47.130865;7.2402447;49.499000549316406;1673299899.1665754;16.651979446411133;-4.401751518249512;-46.17979431152344
249;1673299899.201743;47.1308663;7.2402432999999995;49.51400375366211;1673299899.4310055;10.416550636291504;3.2757339477539062;-47.30209732055664
250;1673299899.4616086;47.1308669;7.2402427;49.4530029296875;1673299899.6683998;-7.454823970794678;22.241132736206055;-52.17586898803711
251;1673299899.6939225;47.1308673;7.2402422;49.035003662109375;1673299899.8469272;-21.84148597717285;41.218528747558594;-61.621585845947266
252;1673299899.8771827;47.130867699999996;7.2402416999999994;48.22600173950195;1673299900.050073;-30.46360206604004;55.91288375854492;-72.28279113769531
253;1673299900.0769713;47.130868;7.2402412;47.053001403808594;1673299900.2124603;-34.12643051147461;59.86179733276367;-78.67353820800781
254;1673299900.267795;47.1308681;7.240240699999999;45.5160026550293;1673299900.449528;-33.151729583740234;47.49143981933594;-76.42436218261719
255;1673299900.4807944;47.1308681;7.2402402;43.61600112915039;1673299900.6283736;-23.640850067138672;20.584850311279297;-68.32160186767578
256;1673299900.6605737;47.130868;7.2402397999999994;41.349002838134766;1673299900.805365;-3.517544746398926;-10.814046859741211;-64.8581314086914
257;1673299900.8366425;47.130867699999996;7.2402394999999995;38.691001892089844;1673299901.0004675;17.358312606811523;-36.24560546875;-71.03471374511719
258;1673299901.0332644;47.130867599999995;7.2402393;35.62600326538086;1673299901.179577;28.98702049255371;-45.36412811279297;-78.07698822021484
259;1673299901.2168496;47.130867699999996;7.240239;32.20199966430664;1673299901.3926342;28.759716033935547;-28.421873092651367;-74.84728240966797
260;1673299901.4270177;47.1308681;7.2402387;28.423002243041992;1673299901.579916;12.501641273498535;4.803722381591797;-68.66014099121094
261;1673299901.6123755;47.130868799999995;7.240238199999999;24.26700210571289;1673299901.772463;-10.878432273864746;31.90135955810547;-72.66802215576172
262;1673299901.8027766;47.1308693;7.2402375999999995;19.72300148010254;1673299901.9837606;-25.362548828125;37.030662536621094;-78.01521301269531
263;1673299902.0413966;47.130869499999996;7.240237;14.816000938415527;1673299902.1986308;-23.10622215270996;11.954042434692383;-72.20087432861328
264;1673299902.2337997;47.1308693;7.240236599999999;9.553000450134277;1673299902.371226;-1.1652140617370605;-20.3488712310791;-69.11507415771484
265;1673299902.402457;47.130868899999996;7.2402365;3.8960001468658447;1673299902.5519922;-1.3672387599945068;-7.905915260314941;-70.68490600585938
266;1673299902.5861871;47.1308668;7.240237199999999;0.13300000131130219;1673299902.7427485;-3.2786471843719482;-8.694478988647461;-68.23348236083984
267;1673299902.7769094;47.1308568;7.240240999999999;0.12200000882148743;1673299902.9394088;3.236745834350586;-10.173304557800293;-70.09491729736328
268;1673299902.98529;47.1308456;7.2402454999999994;0.06100000441074371;1673299903.159628;2.8071155548095703;-9.569345474243164;-70.62261962890625
269;1673299903.1948738;47.1308347;7.240249599999999;0.039000000804662704;1673299903.3524914;2.8069560527801514;-9.853739738464355;-70.74085235595703
270;1673299903.3876839;47.1308243;7.2402532;0.018000001087784767;1673299903.5473135;2.800084352493286;-9.931873321533203;-70.87215423583984
271;1673299903.5844634;47.130812899999995;7.240257;-0.020000001415610313;1673299903.743077;2.7705440521240234;-9.798893928527832;-70.99935913085938
272;1673299903.778214;47.130800799999996;7.240260699999999;-0.06800000369548798;1673299903.9352086;2.7539772987365723;-9.68567180633545;-71.04753112792969
273;1673299903.9703605;47.1307882;7.2402646;-0.09700000286102295;1673299904.1319816;2.7692103385925293;-9.533163070678711;-71.12158966064453
274;1673299904.169078;47.1307751;7.2402685;-0.12700000405311584;1673299904.3292477;2.779684066772461;-9.358050346374512;-71.13027954101562
275;1673299904.3663168;47.1307616;7.2402725;-0.1550000011920929;1673299904.5250058;2.7232296466827393;-9.171915054321289;-71.16954803466797
276;1673299904.561692;47.1307477;7.2402764;-0.1810000091791153;1673299904.7200232;2.763885974884033;-8.992558479309082;-71.19828796386719
277;1673299904.754832;47.1307334;7.2402804;-0.20800000429153442;1673299904.9230993;2.7265968322753906;-8.79245376586914;-71.23670196533203
278;1673299904.9620469;47.130718599999994;7.240284399999999;-0.25;1673299905.1461973;2.6838088035583496;-8.638559341430664;-71.26657104492188
279;1673299905.1860964;47.1307036;7.240288499999999;-0.28200000524520874;1673299905.3683813;2.7000527381896973;-8.427279472351074;-71.26673889160156
280;1673299905.4091997;47.130688199999994;7.2402925;-0.3070000112056732;1673299905.589109;2.710789203643799;-8.239470481872559;-71.29439544677734
281;1673299905.6272068;47.130672499999996;7.2402966;-0.328000009059906;1673299905.7865632;2.7048072814941406;-8.055769920349121;-71.29598999023438
282;1673299905.823033;47.130656599999995;7.2403007;-0.3440000116825104;1673299905.9902232;2.6489391326904297;-7.857160568237305;-71.28665924072266
283;1673299906.0239494;47.130640299999996;7.2403048;-0.3630000054836273;1673299906.2185621;2.577531576156616;-7.6424970626831055;-71.25528717041016
284;1673299906.2502878;47.1306235;7.240309;-0.39500001072883606;1673299906.4081745;2.513052225112915;-7.447648048400879;-71.25445556640625
285;1673299906.4510045;47.1306066;7.2403132;-0.4150000214576721;1673299906.6232378;2.490633010864258;-7.281660079956055;-71.27154541015625
286;1673299906.655187;47.1305894;7.2403173999999995;-0.4320000112056732;1673299906.8362074;2.5279321670532227;-7.100152492523193;-71.25613403320312
287;1673299906.8654857;47.1305719;7.2403217;-0.4440000355243683;1673299907.0140874;2.5065062046051025;-6.952822208404541;-71.26887512207031
288;1673299907.0471716;47.1305543;7.2403261;-0.4540000259876251;1673299907.2306774;2.5086770057678223;-6.816522121429443;-71.2775650024414
289;1673299907.2919374;47.130536299999996;7.2403303999999995;-0.4610000252723694;1673299907.425159;2.4675092697143555;-6.681459903717041;-71.279296875
290;1673299907.4763744;47.130518099999996;7.2403349;-0.46700000762939453;1673299907.6410975;2.494080066680908;-6.551254749298096;-71.30062103271484
291;1673299907.685205;47.1304994;7.2403393;-0.4870000183582306;1673299907.8440561;2.458597421646118;-6.420987129211426;-71.29084014892578
292;1673299907.886158;47.1304806;7.2403439;-0.49400001764297485;1673299908.034334;2.444101095199585;-6.297971725463867;-71.3132095336914
293;1673299908.0700293;47.1304616;7.240348399999999;-0.49500003457069397;1673299908.2307246;2.424461841583252;-6.162354469299316;-71.30995178222656
294;1673299908.261751;47.130444499999996;7.240352499999999;-0.49500003457069397;1673299908.425898;2.3985135555267334;-6.039968967437744;-71.30288696289062
295;;;;;1673299908.6610808;2.3828043937683105;-5.942089557647705;-71.3086166381836
296;;;;;1673299908.8670998;2.343810796737671;-5.841427326202393;-71.31029510498047
297;;;;;1673299909.0539002;2.3319175243377686;-5.727141857147217;-71.31990051269531
298;;;;;1673299909.2310119;2.227780818939209;-5.606377124786377;-71.32699584960938
299;;;;;1673299909.4447162;2.1623785495758057;-5.623491287231445;-71.28276824951172
300;;;;;1673299909.6061425;2.185715913772583;-5.608938217163086;-71.27061462402344
301;;;;;1673299909.775125;2.1388423442840576;-5.566587448120117;-71.23304748535156
302;;;;;1673299909.9520645;2.1110782623291016;-5.512589454650879;-71.2423095703125
