;pos_time;latitude;longitude;altitude;alt_time;pitch;roll;yaw
0;1673302725.7269673;47.1306424;7.240619799999999;-0.006000000052154064;1673302725.859827;0.14436984062194824;-0.20958776772022247;90.10993957519531
1;1673302725.9529295;47.1306424;7.2406198999999996;-0.0020000000949949026;1673302726.0809178;0.019561834633350372;-0.21399164199829102;90.07740783691406
2;1673302726.1801128;47.1306424;7.240619799999999;-0.0010000000474974513;1673302726.2813852;0.23136679828166962;0.03606511279940605;90.10462188720703
3;1673302726.3579457;47.1306424;7.240619799999999;-0.0010000000474974513;1673302726.493773;0.12932665646076202;-0.5267269611358643;90.1366195678711
4;1673302726.5710666;47.1306424;7.2406198999999996;-0.0020000000949949026;1673302726.6977782;0.17202362418174744;-0.2839982509613037;90.06403350830078
5;1673302726.7738693;47.1306424;7.24062;-0.0020000000949949026;1673302726.8857248;0.0467451773583889;-0.28914210200309753;90.0843276977539
6;1673302726.9589543;47.1306424;7.24062;0.0;1673302727.0817978;0.18997982144355774;-0.4465681314468384;90.17143249511719
7;1673302727.161965;47.1306424;7.2406201;-0.003000000026077032;1673302727.2838423;0.032514538615942;-0.20872186124324799;90.02359771728516
8;1673302727.366076;47.1306424;7.24062;-0.006000000052154064;1673302727.4769275;-0.05125817283987999;-0.5521522760391235;90.2442626953125
9;1673302727.5519397;47.1306424;7.24062;-0.0010000000474974513;1673302727.6708548;-0.11739268153905869;-0.23556245863437653;90.17481994628906
10;1673302727.7527566;47.1306424;7.24062;0.0;1673302727.8779838;-0.11978653073310852;-0.3420187532901764;90.10880279541016
11;1673302727.990063;47.1306424;7.2406201;-0.0010000000474974513;1673302728.1057363;-0.08626490831375122;-0.2754102349281311;90.06480407714844
12;1673302728.1743493;47.1306424;7.2406201;-0.004000000189989805;1673302728.2899652;-0.13113653659820557;-0.38753369450569153;89.9840087890625
13;1673302728.3738565;47.1306424;7.24062;-0.006000000052154064;1673302728.486735;0.0041296095587313175;-0.4197594225406647;90.18806457519531
14;1673302728.5678747;47.1306424;7.24062;-0.006000000052154064;1673302728.6739078;0.4293056130409241;0.1918211430311203;90.1634750366211
15;1673302728.7521904;47.1306424;7.2406201;-0.0020000000949949026;1673302728.8770218;0.2535771429538727;-0.20548537373542786;90.11579895019531
16;1673302728.9526484;47.1306424;7.2406201;-0.0020000000949949026;1673302729.071963;0.21179647743701935;-0.2656186521053314;89.88716125488281
17;1673302729.150166;47.1306425;7.24062;0.0;1673302729.2658653;0.2975206673145294;-0.08661294728517532;89.76799774169922
18;1673302729.3400378;47.1306425;7.2406198999999996;0.0020000000949949026;1673302729.4532368;0.4265865385532379;0.11222021281719208;89.89680480957031
19;1673302729.5325186;47.1306425;7.2406198999999996;0.0010000000474974513;1673302729.6619341;0.2181236892938614;0.10413140803575516;89.938720703125
20;1673302729.7428992;47.1306425;7.240619799999999;-0.003000000026077032;1673302729.8700063;0.156600683927536;0.15784746408462524;89.95317077636719
21;1673302729.9410396;47.1306425;7.240619799999999;-0.007000000216066837;1673302730.0608828;0.24682001769542694;-0.22150826454162598;90.12479400634766
22;1673302730.1324263;47.1306425;7.2406198999999996;-0.009000000543892384;1673302730.2555463;0.2869779169559479;-0.007280499208718538;89.98725891113281
23;1673302730.336725;47.1306424;7.2406198999999996;-0.006000000052154064;1673302730.4599977;0.4002031683921814;-0.3692326545715332;89.97249603271484
24;1673302730.5319808;47.1306424;7.240619799999999;0.0;1673302730.6570883;2.4252874851226807;-0.19326665997505188;89.99591827392578
25;1673302730.7323484;47.1306424;7.240619799999999;0.0010000000474974513;1673302730.853878;3.0159895420074463;0.04053675755858421;88.79254913330078
26;1673302730.9528244;47.1306424;7.2406196;-0.007000000216066837;1673302731.0747879;-3.734149694442749;-0.008999096229672432;85.54631805419922
27;1673302731.154027;47.1306424;7.2406185999999995;0.004000000189989805;1673302731.2698915;-9.63046932220459;1.6330410242080688;86.84620666503906
28;1673302731.348922;47.1306423;7.2406171;0.02200000174343586;1673302731.4648454;-14.55001449584961;-0.5497949123382568;87.8092269897461
29;1673302731.5382638;47.1306422;7.2406152;0.04400000348687172;1673302731.6724536;-14.796632766723633;-2.007270097732544;88.71683502197266
30;1673302731.7499893;47.130641999999995;7.2406131;0.08400000631809235;1673302731.8714163;-16.069049835205078;2.272383689880371;88.17020416259766
31;1673302731.945848;47.1306419;7.2406109;0.14000000059604645;1673302732.066873;-18.030271530151367;0.32812201976776123;88.80690002441406
32;1673302732.1439586;47.1306417;7.240609;0.20500001311302185;1673302732.2638917;-19.859477996826172;-3.72175931930542;90.14286804199219
33;1673302732.3418949;47.1306416;7.2406071;0.28200000524520874;1673302732.465747;-21.944028854370117;-0.010937845334410667;89.7220458984375
34;1673302732.5433102;47.1306417;7.2406057;0.36900001764297485;1673302732.6602857;-23.969112396240234;1.0122442245483398;89.59037780761719
35;1673302732.7409642;47.1306419;7.2406047;0.46400001645088196;1673302732.8618865;-26.00929832458496;-3.8178231716156006;90.94715118408203
36;1673302732.9418483;47.130641999999995;7.2406044;0.5690000057220459;1673302733.061899;-28.07124137878418;-1.250115990638733;90.81526947021484
37;1673302733.1378236;47.130641999999995;7.2406049999999995;0.6790000200271606;1673302733.25491;-26.789104461669922;1.0544121265411377;90.40467834472656
38;1673302733.327866;47.1306422;7.2406064;0.7950000166893005;1673302733.4439437;-24.564231872558594;-3.3142099380493164;91.54508209228516
39;1673302733.519895;47.1306423;7.240608399999999;0.9120000600814819;1673302733.6429045;-21.67070770263672;-2.0458269119262695;91.4949722290039
40;1673302733.7238479;47.1306424;7.240610599999999;1.0350000858306885;1673302733.847771;-19.25459861755371;2.1515650749206543;90.53109741210938
41;1673302733.93504;47.130642699999996;7.2406128999999995;1.1710000038146973;1673302734.0609286;-16.772205352783203;-1.5689970254898071;91.73973846435547
42;1673302734.1484673;47.1306428;7.240615;1.319000005722046;1673302734.2693834;-15.268851280212402;-1.9112061262130737;92.0528335571289
43;1673302734.3422053;47.1306428;7.2406166;1.477000117301941;1673302734.4508092;-14.584848403930664;2.097357988357544;90.91182708740234
44;1673302734.5296028;47.1306428;7.2406178;1.6440000534057617;1673302734.646398;-14.58259105682373;-0.8039659857749939;84.61601257324219
45;1673302734.7269876;47.130642699999996;7.2406185999999995;1.8200000524520874;1673302734.8466933;-15.260152816772461;-3.6339170932769775;86.75524139404297
46;1673302734.92454;47.130642599999995;7.240618899999999;2.009999990463257;1673302735.0737815;-16.227365493774414;1.2661445140838623;86.28167724609375
47;1673302735.1518843;47.130642599999995;7.240618899999999;2.2090001106262207;1673302735.2695704;-16.809587478637695;-0.6011872887611389;87.40251159667969
48;1673302735.343761;47.130642599999995;7.2406188;2.4130001068115234;1673302735.4611697;-17.887022018432617;-3.5292463302612305;88.61123657226562
49;1673302735.535536;47.130642599999995;7.2406185999999995;2.617000102996826;1673302735.6520598;-18.45001792907715;0.6520455479621887;87.91807556152344
50;1673302735.7248526;47.130642599999995;7.2406184;2.822000026702881;1673302735.843605;-19.31169891357422;-0.007643612567335367;87.95965576171875
51;1673302735.9165387;47.130642599999995;7.2406182;3.0260002613067627;1673302736.0408008;-19.710561752319336;-3.343636989593506;89.1096420288086
52;1673302736.1156917;47.130642699999996;7.2406181;3.2260000705718994;1673302736.2316628;-19.667890548706055;1.0552804470062256;88.04093170166016
53;1673302736.3110309;47.1306428;7.2406182;3.42900013923645;1673302736.434687;-19.6708984375;2.2797579765319824;87.98198699951172
54;1673302736.5100203;47.1306428;7.2406182999999995;3.638000249862671;1673302736.6386445;-19.500560760498047;-2.6131751537323;88.84609985351562
55;1673302736.7211938;47.130642699999996;7.2406185999999995;3.8410000801086426;1673302736.8499112;-18.938234329223633;-0.21780522167682648;88.17373657226562
56;1673302736.9237006;47.1306424;7.240619;4.0410003662109375;1673302737.0444565;-18.38389778137207;1.1940653324127197;87.53825378417969
57;1673302737.121998;47.1306422;7.2406194;4.24500036239624;1673302737.2496994;-17.958106994628906;-3.30629301071167;88.80091857910156
58;1673302737.326977;47.1306422;7.240619799999999;4.445000171661377;1673302737.4519506;-17.93270492553711;-1.0793509483337402;88.32058715820312
59;1673302737.5237436;47.130642099999996;7.24062;4.646000385284424;1673302737.6446278;-17.80816078186035;2.3510255813598633;87.53594207763672
60;1673302737.722344;47.1306422;7.2406201;4.845000267028809;1673302737.8458936;-17.902536392211914;-2.118647575378418;88.47420501708984
61;1673302737.9303854;47.130641999999995;7.2406203;5.0420002937316895;1673302738.0463982;-17.79643440246582;-2.099358320236206;88.64350128173828
62;1673302738.128921;47.1306419;7.2406204;5.240000247955322;1673302738.2582047;-18.16400146484375;1.4341682195663452;87.51911163330078
63;1673302738.3394907;47.1306418;7.2406204;5.439000129699707;1673302738.453404;-18.104572296142578;-1.818864107131958;88.33062744140625
64;1673302738.5273862;47.1306419;7.2406204;5.636000156402588;1673302738.6452339;-18.260339736938477;-2.2341015338897705;88.74111938476562
65;1673302738.719566;47.130641999999995;7.2406203;5.832000255584717;1673302738.852148;-18.42813491821289;2.8603522777557373;87.60619354248047
66;1673302738.932021;47.1306422;7.2406203;6.027000427246094;1673302739.0536602;-18.359722137451172;0.2589951157569885;88.09815979003906
67;1673302739.1274083;47.1306422;7.2406201999999995;6.228000164031982;1673302739.2432563;-18.610177993774414;-2.639660596847534;88.89702606201172
68;1673302739.3190422;47.130642099999996;7.2406201999999995;6.431000232696533;1673302739.4566305;-18.546995162963867;2.1642677783966064;87.42530822753906
69;1673302739.5429046;47.1306419;7.2406201999999995;6.639000415802002;1673302739.6660447;-18.44125747680664;-0.1687590628862381;87.88546752929688
70;1673302739.73929;47.1306419;7.2406201999999995;6.844000339508057;1673302739.8575745;-18.676538467407227;-2.8983163833618164;88.6940689086914
71;1673302739.928193;47.130641999999995;7.2406201999999995;7.043000221252441;1673302740.0455234;-18.658050537109375;1.5731042623519897;87.75048828125
72;1673302740.11758;47.130642099999996;7.2406201;7.240000247955322;1673302740.245179;-18.585268020629883;1.3570890426635742;87.5509262084961
73;1673302740.3303437;47.130642099999996;7.2406201;7.436000347137451;1673302740.4577417;-18.618635177612305;-2.6084067821502686;88.6026611328125
74;1673302740.536116;47.130642099999996;7.2406201;7.635000228881836;1673302740.6721828;-18.657798767089844;0.9124748110771179;87.65735626220703
75;1673302740.759048;47.1306419;7.2406201999999995;7.833000183105469;1673302740.889809;-18.552642822265625;1.559975028038025;87.3354263305664
76;1673302740.9721968;47.1306419;7.2406201999999995;8.030000686645508;1673302741.0957353;-18.534696578979492;-2.717515707015991;88.3987045288086
77;1673302741.173008;47.1306419;7.2406203;8.225000381469727;1673302741.292901;-18.285995483398438;-0.054886870086193085;87.91275024414062
78;1673302741.3809068;47.130641999999995;7.2406203;8.420000076293945;1673302741.4984832;-18.69191551208496;2.1478593349456787;87.39906311035156
79;1673302741.5868819;47.130641999999995;7.2406203;8.616000175476074;1673302741.695963;-18.31324577331543;-2.559300661087036;88.53140258789062
80;1673302741.765821;47.130641999999995;7.2406204;8.815999984741211;1673302741.8720229;-18.626861572265625;-1.0160678625106812;88.16458892822266
81;1673302741.9465668;47.1306419;7.2406204;9.015000343322754;1673302742.068778;-18.354347229003906;2.1355843544006348;87.27593994140625
82;1673302742.1435843;47.1306419;7.2406204;9.213000297546387;1673302742.2564003;-18.57255744934082;-2.1859774589538574;88.40769958496094
83;1673302742.3381479;47.130641999999995;7.2406204;9.410000801086426;1673302742.4617484;-18.62310028076172;-1.994478702545166;88.43444061279297
84;1673302742.5446596;47.130642099999996;7.2406204;9.605000495910645;1673302742.6544843;-18.673791885375977;2.6430389881134033;87.57012176513672
85;1673302742.737599;47.1306422;7.2406203;9.797000885009766;1673302742.861955;-18.611284255981445;-0.5398776531219482;88.22537994384766
86;1673302742.938737;47.1306422;7.2406204;9.995000839233398;1673302743.069146;-18.68172264099121;-2.294285774230957;88.74667358398438
87;1673302743.1448667;47.1306422;7.2406204999999995;10.202000617980957;1673302743.2597299;-19.482393264770508;1.4322664737701416;87.8590316772461
88;1673302743.3326783;47.130642099999996;7.240620799999999;10.470000267028809;1673302743.4624295;-23.39447593688965;0.6935696005821228;87.7754898071289
89;1673302743.5376742;47.1306423;7.2406215;10.820000648498535;1673302743.6650233;-20.004718780517578;-3.1788179874420166;88.72590637207031
90;1673302743.747595;47.1306424;7.2406225;11.195000648498535;1673302743.868335;-17.99962615966797;1.021389126777649;88.07704162597656
91;1673302743.9538584;47.1306425;7.2406235;11.581000328063965;1673302744.0686207;-15.84631633758545;2.344078779220581;87.64664459228516
92;1673302744.1465106;47.130642599999995;7.2406244;11.976000785827637;1673302744.2719202;-14.603694915771484;-1.8787124156951904;88.64791107177734
93;1673302744.3486328;47.130642599999995;7.240625;12.375000953674316;1673302744.4678872;-13.97220516204834;0.4424280822277069;88.14128112792969
94;1673302744.5467334;47.1306425;7.240625199999999;12.771000862121582;1673302744.6698618;-14.332592964172363;2.370844841003418;87.37124633789062
95;1673302744.7501357;47.1306425;7.240625;13.157000541687012;1673302744.8864715;-14.967108726501465;-2.406857967376709;88.6897964477539
96;1673302744.9639719;47.1306424;7.2406245;13.532000541687012;1673302745.1223817;-15.95858383178711;-0.7464025020599365;88.28564453125
97;1673302745.2017107;47.1306424;7.2406238;13.895000457763672;1673302745.3294778;-17.250499725341797;2.5710418224334717;87.68408203125
98;1673302745.3937054;47.1306425;7.240622999999999;14.254000663757324;1673302745.4959512;-18.227006912231445;-1.8252629041671753;88.55475616455078
99;1673302745.573334;47.1306424;7.2406223;14.612000465393066;1673302745.703235;-19.144001007080078;-1.1402652263641357;88.28424835205078
100;1673302745.777605;47.1306422;7.240621699999999;14.971000671386719;1673302745.915595;-19.439218521118164;2.1127285957336426;87.46959686279297
101;1673302745.9922209;47.1306422;7.2406213;15.334000587463379;1673302746.114975;-19.523000717163086;-1.5429356098175049;88.56000518798828
102;1673302746.175532;47.1306422;7.240621099999999;15.697000503540039;1673302746.27872;-19.380544662475586;-1.9210375547409058;88.72994232177734
103;1673302746.347659;47.1306422;7.240621099999999;16.062000274658203;1673302746.4624355;-19.07020378112793;2.3960158824920654;87.53202056884766
104;1673302746.535449;47.1306422;7.2406212;16.42500114440918;1673302746.6610518;-18.734405517578125;-0.1339832842350006;87.98394012451172
105;1673302746.7445536;47.1306422;7.240621399999999;16.796001434326172;1673302746.8631923;-18.135602951049805;-2.871474504470825;88.90612030029297
106;1673302746.9390678;47.130642099999996;7.2406216;17.17300033569336;1673302747.0803194;-17.811405181884766;1.6424766778945923;87.89311981201172
107;1673302747.1531336;47.130642099999996;7.2406219;17.552000045776367;1673302747.2719285;-17.489805221557617;0.8119311928749084;87.92650604248047
108;1673302747.3459592;47.1306423;7.240622;17.929000854492188;1673302747.4718108;-17.327884674072266;-2.622703790664673;88.8359603881836
109;1673302747.5608814;47.1306423;7.2406220999999995;18.304000854492188;1673302747.684561;-17.293899536132812;1.730768084526062;87.80842590332031
110;1673302747.757606;47.1306423;7.240622;18.674001693725586;1673302747.885512;-17.61794662475586;1.755125880241394;87.67912292480469
111;1673302747.9587572;47.1306424;7.240622;19.04800033569336;1673302748.0856328;-17.53586769104004;-2.3372981548309326;88.61235809326172
112;1673302748.195992;47.1306424;7.2406219;19.422000885009766;1673302748.3080163;-17.683658599853516;0.11362320184707642;88.06208801269531
113;1673302748.3844466;47.1306423;7.2406219;19.799001693725586;1673302748.5064743;-17.68960189819336;2.5822112560272217;87.41990661621094
114;1673302748.5829809;47.1306425;7.2406217999999996;20.176000595092773;1673302748.6934865;-17.937902450561523;-1.360482096672058;88.5263442993164
115;1673302748.760474;47.130642599999995;7.240621699999999;20.556001663208008;1673302748.8831425;-17.868852615356445;-0.4489213228225708;88.36389923095703
116;1673302748.960644;47.130642599999995;7.2406216;20.935001373291016;1673302749.0745788;-17.98175621032715;2.8801777362823486;87.51785278320312
117;1673302749.1473439;47.130642599999995;7.2406215;21.3070011138916;1673302749.2767296;-18.384523391723633;-1.2070585489273071;88.32099914550781
118;1673302749.3536904;47.1306425;7.240621399999999;21.678001403808594;1673302749.4859967;-18.241260528564453;-1.674126386642456;88.47701263427734
119;1673302749.5672395;47.1306424;7.2406213;22.056001663208008;1673302749.6835537;-17.934701919555664;2.5165212154388428;87.39614868164062
120;1673302749.7602835;47.1306425;7.2406213;22.433000564575195;1673302749.8813765;-18.196556091308594;-0.417387992143631;88.09806060791016
121;1673302749.9547148;47.130642599999995;7.2406213;22.81300163269043;1673302750.0776424;-18.02971649169922;-1.8892816305160522;88.73995208740234
122;1673302750.1499333;47.130642599999995;7.2406213;23.19700050354004;1673302750.2726204;-18.141855239868164;2.6818768978118896;87.60106658935547
123;1673302750.3451982;47.130642599999995;7.2406212;23.576000213623047;1673302750.4654033;-17.97542953491211;0.36826667189598083;87.99365997314453
124;1673302750.5455885;47.130642599999995;7.240621099999999;23.955001831054688;1673302750.6849012;-18.084619522094727;-2.4277117252349854;88.65877532958984
125;1673302750.758671;47.1306425;7.240621099999999;24.33500099182129;1673302750.8920982;-18.077152252197266;1.6481249332427979;87.75064849853516
126;1673302750.9639199;47.130642599999995;7.240621099999999;24.720001220703125;1673302751.1047492;-17.957536697387695;1.5973680019378662;87.64486694335938
127;1673302751.200704;47.130642699999996;7.240621;25.102001190185547;1673302751.3114529;-17.995813369750977;-1.8279913663864136;88.62213134765625
128;1673302751.421442;47.130642699999996;7.240621;25.487001419067383;1673302751.5370252;-18.019824981689453;1.370818853378296;87.98758697509766
129;1673302751.612803;47.130642699999996;7.240621;25.874000549316406;1673302751.718997;-17.92535972595215;2.39764666557312;87.57532501220703
130;1673302751.795309;47.130642599999995;7.240621;26.257001876831055;1673302751.9125097;-18.20026397705078;-2.0060606002807617;88.42878723144531
131;1673302751.9920022;47.1306425;7.2406209;26.648000717163086;1673302752.1795247;-17.99678611755371;-0.0684456154704094;88.03621673583984
132;1673302752.2488608;47.1306424;7.2406209;27.043001174926758;1673302752.3739533;-18.106082916259766;2.794440746307373;87.37593841552734
133;1673302752.464849;47.1306425;7.240620799999999;27.435001373291016;1673302752.5989754;-18.07220458984375;-1.513174295425415;88.47554016113281
134;1673302752.6541884;47.130642599999995;7.240620799999999;27.82900047302246;1673302752.7803423;-18.030624389648438;-0.4432480037212372;88.36339569091797
135;1673302752.840776;47.130642599999995;7.2406207;28.222002029418945;1673302752.9449654;-18.11733055114746;3.1744837760925293;87.5556869506836
136;1673302753.016761;47.130642599999995;7.2406207;28.60700225830078;1673302753.1268156;-18.202266693115234;-0.7183766961097717;88.27507019042969
137;1673302753.1972945;47.1306425;7.2406207;28.996002197265625;1673302753.30768;-18.09600067138672;-1.673539638519287;88.58531951904297
138;1673302753.377996;47.1306424;7.2406206;29.386001586914062;1673302753.5039675;-18.159147262573242;2.383021116256714;87.52265930175781
139;1673302753.5840056;47.1306424;7.2406206;29.7760009765625;1673302753.692255;-18.184085845947266;0.2384871393442154;88.07662200927734
140;1673302753.7635705;47.1306425;7.2406206;30.167001724243164;1673302753.886282;-18.121231079101562;-1.7546261548995972;88.55818939208984
141;1673302753.9798949;47.1306425;7.2406206;30.559001922607422;1673302754.1003044;-18.11081886291504;2.74301815032959;87.59600067138672
142;1673302754.1682198;47.1306425;7.2406206;30.94900131225586;1673302754.2905362;-18.175273895263672;1.1959104537963867;87.75895690917969
143;1673302754.373792;47.1306425;7.2406204999999995;31.3330020904541;1673302754.5047657;-18.2065372467041;-2.4756572246551514;88.66597747802734
144;1673302754.5841475;47.1306424;7.2406204999999995;31.72100067138672;1673302754.7054117;-18.25482177734375;1.6052749156951904;87.76356506347656
145;1673302754.7846093;47.1306424;7.2406204999999995;32.11300277709961;1673302754.8915813;-18.259634017944336;1.8764840364456177;87.59656524658203
146;1673302754.9604642;47.130642599999995;7.2406204999999995;32.50600051879883;1673302755.086926;-18.45327377319336;-2.0132527351379395;88.73382568359375
147;1673302755.1706269;47.130642599999995;7.2406204999999995;32.90400314331055;1673302755.292956;-18.09893226623535;1.422670602798462;88.02568817138672
148;1673302755.3681417;47.130642599999995;7.2406204999999995;33.301002502441406;1673302755.4883544;-18.217519760131836;2.398549795150757;87.65713500976562
149;1673302755.5632515;47.130642599999995;7.2406204999999995;33.689002990722656;1673302755.6792693;-18.349550247192383;-2.569793462753296;88.59172058105469
150;1673302755.7621028;47.1306425;7.2406206;34.08400344848633;1673302755.8904836;-18.169145584106445;0.47636425495147705;87.9652328491211
151;1673302755.9672532;47.1306425;7.2406206;34.48200225830078;1673302756.0968964;-18.158205032348633;2.9602816104888916;87.53977966308594
152;1673302756.1708183;47.130642699999996;7.2406206;34.88100051879883;1673302756.3310518;-18.09534454345703;-1.3157739639282227;88.53397369384766
153;1673302756.4052331;47.1306428;7.2406206;35.284000396728516;1673302756.5284216;-18.03052520751953;0.6054065823554993;88.16449737548828
154;1673302756.6121087;47.1306428;7.2406207;35.68600082397461;1673302756.718838;-18.09056854248047;3.257599115371704;87.47673797607422
155;1673302756.798118;47.1306428;7.2406207;36.0890007019043;1673302756.9164786;-18.115947723388672;-1.0147854089736938;88.5081787109375
156;1673302756.9908197;47.1306428;7.2406206;36.48200225830078;1673302757.1172793;-18.19451904296875;-0.7535877227783203;88.39965057373047
157;1673302757.1909835;47.1306428;7.2406206;36.880001068115234;1673302757.3108335;-18.447147369384766;3.0966105461120605;87.56065368652344
158;1673302757.384132;47.1306428;7.2406206;37.27900314331055;1673302757.5047834;-18.104106903076172;0.2864192724227905;88.17670440673828
159;1673302757.5785058;47.1306429;7.2406206;37.678001403808594;1673302757.6971414;-18.28493309020996;-1.4283232688903809;88.61518096923828
160;1673302757.7731984;47.1306429;7.2406206;38.0780029296875;1673302757.889954;-18.21695899963379;2.7947850227355957;87.48263549804688
161;1673302757.9698315;47.1306428;7.2406206;38.48100280761719;1673302758.0969436;-18.13961410522461;0.8634403347969055;87.90480041503906
162;1673302758.1863668;47.1306428;7.2406206;38.875;1673302758.300062;-18.26963233947754;-2.149975538253784;88.83534240722656
163;1673302758.373217;47.130642699999996;7.2406206;39.27000045776367;1673302758.4922307;-18.138004302978516;2.315843343734741;87.74063873291016
164;1673302758.5709846;47.130642699999996;7.2406206;39.669002532958984;1673302758.693685;-18.276493072509766;1.823663592338562;87.66134643554688
165;1673302758.773441;47.1306428;7.2406206;40.073001861572266;1673302758.9098725;-18.29779624938965;-1.6415047645568848;88.58766174316406
166;1673302758.9828665;47.130642699999996;7.2406206;40.47700119018555;1673302759.1054883;-17.918575286865234;2.1306989192962646;87.61744689941406
167;1673302759.1872926;47.130642699999996;7.2406206;40.88200378417969;1673302759.3040483;-18.04891586303711;2.492349624633789;87.4188003540039
168;1673302759.3807147;47.130642699999996;7.2406206;41.28700256347656;1673302759.498383;-18.162229537963867;-1.9934170246124268;88.47718048095703
169;1673302759.578175;47.130642599999995;7.2406206;41.682003021240234;1673302759.6968415;-17.9635066986084;1.2245993614196777;87.7840576171875
170;1673302759.774593;47.130642599999995;7.2406206;42.082000732421875;1673302759.90611;-18.168710708618164;3.2304298877716064;87.30613708496094
171;1673302759.9946647;47.130642699999996;7.2406204999999995;42.48500061035156;1673302760.1613023;-18.292184829711914;-1.218204379081726;88.43806457519531
172;1673302760.220131;47.130642699999996;7.2406204;42.887001037597656;1673302760.335999;-18.264812469482422;0.6068407297134399;87.98192596435547
173;1673302760.4101772;47.130642699999996;7.2406204;43.29100036621094;1673302760.5284364;-18.145751953125;3.2632219791412354;87.39881896972656
174;1673302760.6026924;47.130642599999995;7.2406203;43.69700241088867;1673302760.71474;-18.42671012878418;-1.3188295364379883;88.43025970458984
175;1673302760.786561;47.130642599999995;7.2406203;44.092002868652344;1673302760.9032679;-18.13465690612793;-0.4898132085800171;88.31236267089844
176;1673302760.9760373;47.1306425;7.2406203;44.4900016784668;1673302761.0861678;-18.351842880249023;3.2432687282562256;87.4378890991211
177;1673302761.1580093;47.130642599999995;7.2406203;44.8900032043457;1673302761.2727659;-18.196992874145508;-0.551487386226654;88.34477996826172
178;1673302761.353482;47.130642699999996;7.2406203;45.2920036315918;1673302761.4887865;-18.472402572631836;-0.8842146396636963;88.59281158447266
179;1673302761.565474;47.130642699999996;7.2406201999999995;45.69600296020508;1673302761.6881099;-18.254716873168945;3.3320910930633545;87.52381134033203
180;1673302761.7806966;47.130642699999996;7.2406201999999995;46.099002838134766;1673302761.893307;-18.303239822387695;0.4382399618625641;88.19436645507812
181;1673302761.9651573;47.130642699999996;7.2406201999999995;46.499000549316406;1673302762.081854;-18.237714767456055;-1.2290037870407104;88.6662826538086
182;1673302762.158535;47.1306428;7.2406201999999995;46.8910026550293;1673302762.2863302;-18.43780517578125;3.6057701110839844;87.59151458740234
183;1673302762.3639398;47.1306428;7.2406201;47.2920036315918;1673302762.482118;-18.385700225830078;1.72652268409729;87.91606140136719
184;1673302762.5629451;47.1306429;7.2406201;47.698001861572266;1673302762.6996706;-18.496129989624023;-1.2133954763412476;88.64739227294922
185;1673302762.7887;47.1306428;7.2406201;48.099002838134766;1673302762.9227433;-18.980430603027344;3.1182096004486084;87.74467468261719
186;1673302762.9985032;47.130642699999996;7.24062;48.45900344848633;1673302763.111868;-18.40701675415039;1.333835482597351;87.60999298095703
187;1673302763.193064;47.130642599999995;7.2406198999999996;48.76400375366211;1673302763.3129232;-18.404773712158203;-1.4486157894134521;88.6784439086914
188;1673302763.3816488;47.130642599999995;7.2406196;49.01000213623047;1673302763.5022788;-18.501386642456055;2.556293249130249;87.67982482910156
189;1673302763.5840826;47.130642599999995;7.2406193;49.21600341796875;1673302763.7065282;-18.845565795898438;2.6529693603515625;87.58494567871094
190;1673302763.7862968;47.130642599999995;7.240618899999999;49.3910026550293;1673302763.9139159;-9.801682472229004;5.285500526428223;86.47124481201172
191;1673302763.984867;47.1306424;7.2406181;49.50400161743164;1673302764.1076713;-7.418750286102295;15.962115287780762;75.1395034790039
192;1673302764.1889307;47.1306417;7.2406166;49.57200241088867;1673302764.3054123;-18.257898330688477;5.255626201629639;63.14400863647461
193;1673302764.3858027;47.1306407;7.2406149;49.6400032043457;1673302764.5260746;-12.407501220703125;13.049239158630371;53.19944381713867
194;1673302764.6100752;47.1306398;7.240613199999999;49.69400405883789;1673302764.757172;-11.881345748901367;17.282268524169922;44.19749069213867
195;1673302764.861227;47.130638999999995;7.2406115;49.73200225830078;1673302765.0031126;-11.61219596862793;18.229873657226562;34.9091796875
196;1673302765.0609527;47.1306382;7.2406099;49.76700210571289;1673302765.1728768;-10.00539493560791;18.521394729614258;26.04583168029785
197;1673302765.2600496;47.1306374;7.2406085;49.80000305175781;1673302765.377029;-7.805783271789551;18.266571044921875;17.151636123657227
198;1673302765.4620397;47.1306368;7.2406073;49.833003997802734;1673302765.5709922;-4.0502424240112305;19.045738220214844;8.102540969848633
199;1673302765.644029;47.1306363;7.2406064;49.85900115966797;1673302765.7529633;0.20989780128002167;20.787954330444336;-0.7704824805259705
200;1673302765.8362944;47.130635999999996;7.2406058;49.880001068115234;1673302765.9518561;3.859861373901367;22.744169235229492;-9.909767150878906
201;1673302766.02773;47.1306357;7.2406054;49.8910026550293;1673302766.1860902;5.993561744689941;22.2551212310791;-19.154396057128906
202;1673302766.260988;47.1306356;7.2406049999999995;49.906002044677734;1673302766.360083;8.953657150268555;19.51816749572754;-28.119972229003906
203;1673302766.4291058;47.1306356;7.2406047;49.92500305175781;1673302766.5381045;12.184409141540527;15.625357627868652;-37.059024810791016
204;1673302766.612863;47.1306356;7.2406045;49.94000244140625;1673302766.7388906;16.298452377319336;12.215099334716797;-45.854103088378906
205;1673302766.8164492;47.1306358;7.2406042;49.95100402832031;1673302766.9304216;18.198974609375;10.191166877746582;-52.88690185546875
206;1673302767.012513;47.130635899999994;7.240603999999999;49.96000289916992;1673302767.1463418;16.373037338256836;11.928318977355957;-52.6989631652832
207;1673302767.209792;47.130635899999994;7.2406038;49.96900177001953;1673302767.3213847;15.96402645111084;12.359809875488281;-49.85860824584961
208;1673302767.3906808;47.1306356;7.240603699999999;49.96900177001953;1673302767.5076194;15.693536758422852;13.222954750061035;-48.1997184753418
209;1673302767.5814023;47.130635299999994;7.2406036;49.970001220703125;1673302767.7070262;16.785995483398438;12.575608253479004;-47.57774353027344
210;1673302767.7848103;47.130635;7.2406035;49.97500228881836;1673302767.904195;16.72614288330078;11.920642852783203;-46.94076156616211
211;1673302767.9800096;47.130634699999995;7.2406033999999995;49.98200225830078;1673302768.099067;14.959623336791992;13.027152061462402;-46.45198059082031
212;1673302768.1778872;47.1306345;7.2406033;49.99400329589844;1673302768.2979066;12.995858192443848;13.22115421295166;-45.9617805480957
213;1673302768.3711622;47.1306343;7.2406033;50.00600051879883;1673302768.4908638;12.468070983886719;14.443774223327637;-46.255462646484375
214;1673302768.5716436;47.130634099999995;7.2406033999999995;50.005001068115234;1673302768.6923761;12.406820297241211;15.58548641204834;-46.50505065917969
215;1673302768.7696984;47.130634;7.2406033;50.00600051879883;1673302768.8916738;7.379762649536133;15.089441299438477;-47.53351593017578
216;1673302768.964712;47.130634;7.2406029;50.01000213623047;1673302769.095485;-21.404972076416016;14.790746688842773;-50.18384552001953
217;1673302769.171701;47.1306346;7.2406013;50.01900100708008;1673302769.2993274;-45.521549224853516;9.924600601196289;-48.832061767578125
218;1673302769.3785946;47.1306368;7.2405968;50.00100326538086;1673302769.5353615;-42.510948181152344;1.4641166925430298;-45.05510711669922
219;1673302769.6352162;47.130640799999995;7.2405887;49.94900131225586;1673302769.744213;-39.58518600463867;0.14148445427417755;-44.511409759521484
220;1673302769.8124452;47.1306462;7.240577;49.900001525878906;1673302769.926409;-46.00288009643555;5.0312418937683105;-44.95134353637695
221;1673302769.9983394;47.1306532;7.240561899999999;49.88200378417969;1673302770.1114633;-53.032161712646484;9.15418815612793;-44.44858169555664
222;1673302770.1944335;47.130662;7.2405436;49.893001556396484;1673302770.3035057;-54.11422348022461;13.690855979919434;-44.771995544433594
223;1673302770.3782382;47.1306728;7.240522299999999;49.90900421142578;1673302770.4926794;-54.449398040771484;15.420425415039062;-44.08811569213867
224;1673302770.5603113;47.1306856;7.2404988999999995;49.926002502441406;1673302770.6806242;-55.82208251953125;14.58486557006836;-42.159271240234375
225;1673302770.7633677;47.1307006;7.240473799999999;49.941001892089844;1673302770.8882859;-57.27790069580078;15.949551582336426;-42.16893768310547
226;1673302770.974482;47.1307177;7.2404474;49.945003509521484;1673302771.1183398;-57.064537048339844;14.838146209716797;-42.90802001953125
227;1673302771.1903753;47.130736399999996;7.2404201;49.93100357055664;1673302771.3183284;-53.70634460449219;12.613693237304688;-42.783512115478516
228;1673302771.3924706;47.1307565;7.2403916;49.89500427246094;1673302771.5103023;-48.59745788574219;11.198263168334961;-43.47190475463867
229;1673302771.5792742;47.1307772;7.2403623999999995;49.84800338745117;1673302771.6978636;-45.84484100341797;10.233433723449707;-44.32878875732422
230;1673302771.7765405;47.130798299999995;7.2403325999999995;49.803001403808594;1673302771.898549;-45.29130935668945;11.013544082641602;-44.50745391845703
231;1673302771.9758723;47.1308195;7.240302499999999;49.77300262451172;1673302772.097035;-39.6456413269043;15.146323204040527;-42.381229400634766
232;1673302772.1799617;47.130840899999995;7.2402722;49.77400207519531;1673302772.29663;4.1282548904418945;16.24158477783203;-40.36690139770508
233;1673302772.3771293;47.1308613;7.2402435999999994;49.78700256347656;1673302772.4948497;32.21692657470703;13.798747062683105;-39.73983383178711
234;1673302772.567863;47.1308791;7.240217899999999;49.677001953125;1673302772.7041726;18.12700080871582;4.609044075012207;-44.098670959472656
235;1673302772.779405;47.1308943;7.240195;49.46900177001953;1673302772.9049761;15.507231712341309;2.850689649581909;-47.07957458496094
236;1673302773.0059264;47.130906599999996;7.2401747;49.3280029296875;1673302773.1298923;24.740360260009766;6.932936668395996;-47.574100494384766
237;1673302773.2058966;47.130916299999996;7.240157;49.30900192260742;1673302773.354342;29.553386688232422;8.921736717224121;-47.87141799926758
238;1673302773.425788;47.130923599999996;7.240142199999999;49.333003997802734;1673302773.535803;40.560462951660156;11.130550384521484;-48.25818634033203
239;1673302773.6270096;47.130928499999996;7.240130799999999;49.39800262451172;1673302773.7429228;48.164764404296875;12.046794891357422;-48.7612419128418
240;1673302773.8160732;47.130930899999996;7.2401234;49.48200225830078;1673302773.929727;51.93970489501953;14.678751945495605;-48.76291275024414
241;1673302773.9991448;47.1309313;7.2401202;49.55800247192383;1673302774.116698;52.692596435546875;17.318735122680664;-47.277137756347656
242;1673302774.192954;47.1309299;7.240121299999999;49.625003814697266;1673302774.3246922;52.161865234375;19.079692840576172;-47.81657791137695
243;1673302774.3967545;47.1309271;7.2401265;49.69700241088867;1673302774.508902;44.1244010925293;19.75631332397461;-48.511207580566406
244;1673302774.5780208;47.1309234;7.2401345;49.759002685546875;1673302774.6957448;30.988174438476562;19.939987182617188;-48.10507583618164
245;1673302774.776941;47.130919399999996;7.240144;49.79600143432617;1673302774.914229;14.32042121887207;19.79842185974121;-46.6263427734375
246;1673302774.9930387;47.130915699999996;7.2401535;49.81500244140625;1673302775.1116805;0.6434569954872131;16.814231872558594;-45.31476974487305
247;1673302775.194436;47.130912699999996;7.2401615999999995;49.827003479003906;1673302775.3406506;-7.06423282623291;13.57464599609375;-45.62154769897461
248;1673302775.4053478;47.1309106;7.240167899999999;49.83100128173828;1673302775.5220757;-10.141148567199707;10.64146900177002;-46.29266357421875
249;1673302775.60084;47.1309093;7.2401721;49.827003479003906;1673302775.725453;-8.095441818237305;12.819567680358887;-45.735801696777344
250;1673302775.8053083;47.130908899999994;7.240174199999999;49.82400131225586;1673302775.9280677;-5.188288688659668;7.844808101654053;-43.79811477661133
251;1673302776.0157223;47.1309094;7.2401744;49.82600402832031;1673302776.1330032;0.46313926577568054;8.674057006835938;-42.945709228515625
252;1673302776.2117472;47.1309104;7.2401732;49.8380012512207;1673302776.3319168;6.561060428619385;10.580602645874023;-43.91087341308594
253;1673302776.4012735;47.130911499999996;7.2401710999999995;49.85900115966797;1673302776.5199034;12.029486656188965;11.370262145996094;-44.8791618347168
254;1673302776.6063452;47.130912599999995;7.2401689;49.88100051879883;1673302776.7214139;15.581171989440918;12.78485107421875;-45.704139709472656
255;1673302776.7956345;47.130913299999996;7.2401668;49.89900207519531;1673302776.912497;7.126272678375244;25.619112014770508;-47.67625045776367
256;1673302776.992073;47.130914;7.240164699999999;49.708003997802734;1673302777.116595;-13.502857208251953;37.97346115112305;-55.74222183227539
257;1673302777.191343;47.1309146;7.2401624;49.15800094604492;1673302777.3135288;-34.55442810058594;46.83686065673828;-70.97574615478516
258;1673302777.3904023;47.1309152;7.2401598;48.24100112915039;1673302777.513008;-52.76451873779297;54.55423355102539;-94.79964447021484
259;1673302777.5963776;47.130915599999994;7.2401572;46.954002380371094;1673302777.718231;-64.98941802978516;59.69492721557617;-124.2901611328125
260;1673302777.7998357;47.130916;7.2401544;45.28900146484375;1673302777.9168987;-70.07003021240234;46.129730224609375;-141.21014404296875
261;1673302777.988762;47.130916199999994;7.2401519;43.262001037597656;1673302778.1121514;-63.99760437011719;3.804119825363159;-131.93414306640625
262;1673302778.1870182;47.1309166;7.2401496;40.86900329589844;1673302778.3304338;-40.34587860107422;-26.505077362060547;-131.31752014160156
263;1673302778.404853;47.1309172;7.2401474;38.10700225830078;1673302778.516708;-7.234744071960449;-32.99101257324219;-146.55027770996094
264;1673302778.5982049;47.130918099999995;7.240145;34.96900177001953;1673302778.71326;24.924036026000977;-25.586341857910156;-160.712158203125
265;1673302778.7958481;47.1309191;7.2401421;31.455001831054688;1673302778.9185855;44.084815979003906;1.732102632522583;-162.29043579101562
266;1673302779.0121217;47.1309198;7.2401387999999995;27.56100082397461;1673302779.1386669;38.06108856201172;34.04962158203125;-162.32208251953125
267;1673302779.208362;47.1309202;7.2401352999999995;23.315000534057617;1673302779.3304806;14.563478469848633;45.86760330200195;178.308837890625
268;1673302779.4066591;47.1309203;7.2401322;18.714000701904297;1673302779.5184681;-15.315030097961426;40.50112533569336;154.2878875732422
269;1673302779.5913262;47.130920499999995;7.2401294;13.759000778198242;1673302779.715088;-37.38874053955078;15.363835334777832;144.65963745117188
270;1673302779.810584;47.130921199999996;7.2401268;8.440000534057617;1673302779.9412513;-29.49435043334961;-18.93910789489746;146.2411651611328
271;1673302780.0205445;47.1309222;7.2401237;2.764000177383423;1673302780.1321785;-0.12289055436849594;-13.736010551452637;137.44520568847656
272;1673302780.2136328;47.1309252;7.240126399999999;0.28200000524520874;1673302780.3287833;-0.5741924047470093;-16.4937744140625;137.12986755371094
273;1673302780.3981643;47.1309305;7.240137;0.34300002455711365;1673302780.5305076;0.6988741755485535;-15.197712898254395;137.6937255859375
274;1673302780.6111925;47.1309367;7.2401491;0.3530000150203705;1673302780.7437518;0.8796732425689697;-13.202203750610352;137.9598388671875
275;1673302780.806493;47.1309432;7.2401611;0.34700000286102295;1673302780.9096794;1.0343507528305054;-15.066287994384766;138.20140075683594
276;1673302780.9832644;47.130949699999995;7.2401727;0.3290000259876251;1673302781.1158252;1.1811752319335938;-13.794747352600098;138.41860961914062
277;1673302781.188197;47.1309562;7.240183399999999;0.3020000159740448;1673302781.3020186;1.3164784908294678;-13.629765510559082;138.6333465576172
278;1673302781.3871045;47.1309622;7.2401928;0.26900002360343933;1673302781.5239437;1.3288884162902832;-13.004837989807129;138.77789306640625
279;1673302781.6122408;47.1309695;7.2402041;0.22800001502037048;1673302781.7269964;1.4133495092391968;-12.894947052001953;139.011962890625
280;1673302781.8037853;47.130978299999995;7.240218;0.18300001323223114;1673302781.9359844;1.5063023567199707;-12.531270980834961;139.2278594970703
281;1673302782.0126529;47.1309883;7.2402336;0.13600000739097595;1673302782.1322696;1.5612443685531616;-12.221492767333984;139.44593811035156
282;1673302782.2041252;47.1309993;7.240250499999999;0.08800000697374344;1673302782.3288417;1.6248047351837158;-11.883522987365723;139.62803649902344
283;1673302782.4117248;47.131011099999995;7.2402685;0.03500000014901161;1673302782.5418162;1.735611081123352;-11.619247436523438;139.8275909423828
284;1673302782.6086876;47.1310236;7.240287299999999;-0.02200000174343586;1673302782.748766;1.7838798761367798;-11.489594459533691;140.03074645996094
285;1673302782.8218806;47.1310368;7.240306899999999;-0.0820000022649765;1673302782.9375813;1.8645704984664917;-11.265913963317871;140.23101806640625
286;1673302783.0097198;47.1310508;7.2403276;-0.17000000178813934;1673302783.1287608;1.8906816244125366;-11.224775314331055;140.41848754882812
287;1673302783.2015808;47.1310654;7.240348699999999;-0.24900001287460327;1673302783.319771;1.9845473766326904;-11.046116828918457;140.60166931152344
288;1673302783.3977811;47.1310806;7.2403702999999995;-0.3190000057220459;1673302783.5087142;2.018317222595215;-10.960575103759766;140.7634735107422
289;1673302783.5866427;47.1310964;7.2403926;-0.38700002431869507;1673302783.7077491;2.1078102588653564;-10.910552024841309;140.9493408203125
290;1673302783.7854836;47.1311128;7.2404152999999996;-0.4520000219345093;1673302783.9126318;2.122563600540161;-10.914819717407227;141.0909423828125
291;1673302783.9956312;47.131129699999995;7.2404385;-0.5170000195503235;1673302784.130602;2.1712148189544678;-10.915231704711914;141.27590942382812
292;1673302784.227609;47.1311475;7.240463;-0.6170000433921814;1673302784.35568;2.249816656112671;-10.982542991638184;141.44259643554688
293;1673302784.4255219;47.1311658;7.2404877;-0.6990000605583191;1673302784.5484457;2.270176649093628;-10.971078872680664;141.56419372558594
294;1673302784.6327145;47.131184399999995;7.2405127;-0.76500004529953;1673302784.7547088;2.2788660526275635;-10.991188049316406;141.71095275878906
295;1673302784.8275695;47.1312036;7.240538;-0.8220000267028809;1673302784.9433537;2.307790517807007;-11.027155876159668;141.83132934570312
296;1673302785.0235023;47.1312232;7.2405637;-0.8720000386238098;1673302785.1425693;2.3337371349334717;-11.064105033874512;141.9611358642578
297;1673302785.2145782;47.131243399999995;7.2405899;-0.9180000424385071;1673302785.3395877;2.346801519393921;-11.101761817932129;142.07379150390625
298;1673302785.4169421;47.131263999999994;7.2406165;-0.9580000638961792;1673302785.5386336;2.4169187545776367;-11.131199836730957;142.19125366210938
299;1673302785.6115665;47.1312858;7.2406448999999995;-1.0410000085830688;1673302785.7225025;2.3934519290924072;-11.218042373657227;142.30789184570312
300;1673302785.8029468;47.131307799999995;7.2406733;-1.1010000705718994;1673302785.923548;2.3438146114349365;-11.336511611938477;142.3865509033203
301;1673302786.0068076;47.1313302;7.2407018;-1.1380000114440918;1673302786.1268032;2.343104600906372;-11.01285171508789;142.40675354003906
302;1673302786.2055514;47.131353;7.2407306;-1.1630001068115234;1673302786.3296945;2.3028547763824463;-10.823189735412598;142.38677978515625
303;1673302786.3988;47.131361399999996;7.2407414;-1.1790000200271606;1673302786.5415268;2.2258167266845703;-10.737232208251953;142.3544158935547
304;;;;;1673302786.7247477;2.2227907180786133;-10.855950355529785;142.33580017089844
305;;;;;1673302786.9086385;2.1963460445404053;-11.515726089477539;142.31610107421875
306;;;;;1673302787.1226437;2.198951005935669;-11.73210620880127;142.2906036376953
307;;;;;1673302787.3348734;2.2031970024108887;-11.951947212219238;142.28846740722656
