;pos_time;latitude;longitude;altitude;alt_time;pitch;roll;yaw
0;1673446011.7182417;47.1306425;7.24062;-0.018000001087784767;1673446011.8825953;-0.02080843783915043;-0.6329526305198669;90.02236938476562
1;1673446011.9187028;47.1306425;7.24062;-0.015000000596046448;1673446012.0811346;0.046776074916124344;-0.638329267501831;90.10636901855469
2;1673446012.1163104;47.1306425;7.2406198999999996;-0.012000000104308128;1673446012.285467;0.08948540687561035;-0.38495126366615295;90.20365142822266
3;1673446012.3235552;47.1306424;7.2406198999999996;-0.014000000432133675;1673446012.48973;0.18681351840496063;0.014924409799277782;90.21315002441406
4;1673446012.5219374;47.1306425;7.2406198999999996;-0.01600000075995922;1673446012.6743667;0.4249367415904999;-0.08681867271661758;90.06306457519531
5;1673446012.7085257;47.1306425;7.240619799999999;-0.017000000923871994;1673446012.8785841;0.5275678038597107;-0.0035527825821191072;90.15139770507812
6;1673446012.9195766;47.1306424;7.2406198999999996;-0.01600000075995922;1673446013.0954998;0.5042697787284851;-0.062071543186903;90.04367065429688
7;1673446013.1249664;47.1306424;7.2406198999999996;-0.01900000125169754;1673446013.2938447;0.18530318140983582;-0.05099116265773773;90.02999114990234
8;1673446013.3510523;47.1306424;7.2406198999999996;-0.02200000174343586;1673446013.506289;0.3404737114906311;-0.11881433427333832;89.9350814819336
9;1673446013.5404422;47.1306424;7.24062;-0.02500000037252903;1673446013.697993;0.09277857840061188;-0.07700226455926895;90.13255310058594
10;1673446013.7360594;47.1306424;7.24062;-0.026000000536441803;1673446013.894733;0.19472108781337738;-0.207792267203331;89.9519271850586
11;1673446013.9330044;47.1306424;7.2406201;-0.02200000174343586;1673446014.0910165;-0.09389059245586395;-0.024498960003256798;89.96111297607422
12;1673446014.1290674;47.1306424;7.2406201;-0.01900000125169754;1673446014.3089447;0.04947930946946144;-0.2566326856613159;90.16656494140625
13;1673446014.359385;47.1306424;7.2406201;-0.020000001415610313;1673446014.5146923;0.14152240753173828;-0.44018298387527466;90.01847839355469
14;1673446014.5507329;47.1306424;7.2406201;0.0;1673446014.6988125;-0.11486800760030746;-1.3880892992019653;89.93844604492188
15;1673446014.733133;47.1306424;7.2406201;0.003000000026077032;1673446014.8922668;-0.16840596497058868;-0.9919195175170898;89.90705871582031
16;1673446014.9371946;47.1306424;7.2406201;0.0020000000949949026;1673446015.1043963;0.12492480874061584;-0.9489480257034302;89.87024688720703
17;1673446015.1346512;47.1306424;7.2406201;0.0020000000949949026;1673446015.292227;-0.03081543743610382;-0.9201974868774414;89.91849517822266
18;1673446015.3293104;47.1306425;7.2406201;0.007000000216066837;1673446015.5042195;-0.17090094089508057;-1.044340968132019;90.04862213134766
19;1673446015.5342953;47.1306425;7.2406201;0.014000000432133675;1673446015.6832578;-0.15466804802417755;-1.6142818927764893;89.97314453125
20;1673446015.7202392;47.1306425;7.2406201;0.015000000596046448;1673446015.8914418;-0.3289182484149933;-1.6619596481323242;90.06070709228516
21;1673446015.936459;47.1306425;7.2406201;0.015000000596046448;1673446016.0900085;-0.29626980423927307;-1.2403520345687866;90.20592498779297
22;1673446016.1261573;47.1306425;7.2406201;-0.0010000000474974513;1673446016.290315;-0.43533575534820557;-1.499120831489563;90.33078002929688
23;1673446016.322434;47.1306425;7.2406201;0.003000000026077032;1673446016.4842956;-0.6243689060211182;-0.5634382963180542;90.57998657226562
24;1673446016.5203013;47.1306425;7.2406201999999995;0.006000000052154064;1673446016.684274;-0.742591917514801;-1.1012262105941772;90.63130187988281
25;1673446016.7193866;47.1306425;7.2406201;0.005000000353902578;1673446016.887205;-0.6978704929351807;-0.8119387626647949;90.84901428222656
26;1673446016.9202893;47.130642599999995;7.2406201;0.003000000026077032;1673446017.0982616;-0.6864112615585327;-1.1710830926895142;91.72486114501953
27;1673446017.1374202;47.130642699999996;7.2406201;0.004000000189989805;1673446017.302333;-0.621137261390686;-0.9131292104721069;93.18354797363281
28;1673446017.3353317;47.1306429;7.24062;0.006000000052154064;1673446017.51138;-0.05111192539334297;-0.3666389584541321;99.40013122558594
29;1673446017.549276;47.130643199999994;7.2406201999999995;0.007000000216066837;1673446017.7070959;-0.11258196085691452;0.7383072972297668;110.09757232666016
30;1673446017.743591;47.130643899999995;7.2406209;0.01600000075995922;1673446017.9062843;0.5837876796722412;2.267181158065796;112.46514892578125
31;1673446017.948331;47.130645;7.2406225;0.021000001579523087;1673446018.1055064;2.172667980194092;4.3725056648254395;103.2429428100586
32;1673446018.141225;47.1306466;7.240624899999999;0.03200000151991844;1673446018.3024125;5.624660015106201;7.602339267730713;98.18281555175781
33;1673446018.3364344;47.1306485;7.240628;0.04400000348687172;1673446018.4991496;9.547394752502441;11.775301933288574;97.68901062011719
34;1673446018.5372653;47.1306508;7.2406317;0.0650000050663948;1673446018.7103295;10.669637680053711;13.670048713684082;98.39879608154297
35;1673446018.7540045;47.1306533;7.2406358;0.10000000149011612;1673446018.9231603;11.506047248840332;15.266054153442383;99.04525756835938
36;1673446018.963727;47.1306558;7.2406402;0.14900000393390656;1673446019.1305282;12.419683456420898;16.672561645507812;99.51846313476562
37;1673446019.1642606;47.130658499999996;7.2406448;0.21300001442432404;1673446019.3500273;13.615180969238281;17.668872833251953;99.83781433105469
38;1673446019.3842535;47.1306612;7.2406494;0.28700000047683716;1673446019.5094283;14.882800102233887;19.108659744262695;100.05814361572266
39;1673446019.5484598;47.1306637;7.2406539;0.36100003123283386;1673446019.6946945;16.237091064453125;20.564146041870117;100.2909164428711
40;1673446019.7327507;47.1306661;7.2406583;0.42100003361701965;1673446019.899837;17.752229690551758;21.9406681060791;100.32493591308594
41;1673446019.9370081;47.130668299999996;7.240662299999999;0.47600001096725464;1673446020.0942435;19.255603790283203;23.30467414855957;100.35489654541016
42;1673446020.1393025;47.1306703;7.2406657999999995;0.5210000276565552;1673446020.3102894;20.9040584564209;24.730009078979492;100.27603912353516
43;1673446020.347391;47.130672;7.240668899999999;0.5570000410079956;1673446020.5105798;22.559913635253906;26.008922576904297;100.14250946044922
44;1673446020.5505888;47.1306733;7.2406713;0.5950000286102295;1673446020.7334592;24.3353271484375;27.575565338134766;99.90450286865234
45;1673446020.7681658;47.130674299999995;7.2406730999999995;0.6260000467300415;1673446020.9377682;26.1680965423584;28.864398956298828;99.48912048339844
46;1673446020.9797363;47.1306748;7.2406739;0.6540000438690186;1673446021.1326845;28.18546485900879;30.00539779663086;99.14984893798828
47;1673446021.1665306;47.1306748;7.2406739;0.6820000410079956;1673446021.313482;30.20604133605957;31.34613800048828;98.75602722167969
48;1673446021.3419034;47.1306742;7.240672999999999;0.7070000171661377;1673446021.4885366;32.307926177978516;32.5423698425293;98.08403015136719
49;1673446021.5265996;47.130672999999994;7.240671;0.7270000576972961;1673446021.6932023;34.83295440673828;33.50542449951172;97.2845687866211
50;1673446021.7283957;47.130671199999995;7.2406678;0.7480000257492065;1673446021.9031403;36.62633514404297;33.92394256591797;96.3174819946289
51;1673446021.9382777;47.1306687;7.240663499999999;0.7660000324249268;1673446022.0948417;34.00825881958008;30.648300170898438;94.43913269042969
52;1673446022.1398623;47.1306655;7.2406581999999995;0.7760000228881836;1673446022.2980716;30.433712005615234;26.792020797729492;92.9632797241211
53;1673446022.3349218;47.130662;7.2406523;0.7800000309944153;1673446022.5074606;25.9742374420166;22.596830368041992;91.97852325439453
54;1673446022.5464897;47.1306583;7.2406463;0.7880000472068787;1673446022.718843;22.13079261779785;19.929750442504883;91.9552993774414
55;1673446022.7569106;47.130654799999995;7.2406405;0.8520000576972961;1673446022.92294;18.359046936035156;16.065441131591797;91.57941436767578
56;1673446022.9562266;47.1306516;7.2406353;0.9260000586509705;1673446023.1466982;15.267131805419922;14.680663108825684;91.81617736816406
57;1673446023.183363;47.130649;7.240631;1.00600004196167;1673446023.3244534;13.88083267211914;13.896363258361816;91.84268951416016
58;1673446023.3601725;47.130646999999996;7.2406277;1.097000002861023;1673446023.523472;13.693137168884277;11.99561882019043;91.38167572021484
59;1673446023.5674295;47.130645799999996;7.240625499999999;1.1970000267028809;1673446023.7194476;14.685426712036133;15.201153755187988;91.8553466796875
60;1673446023.7586777;47.130645;7.2406241;1.3040000200271606;1673446023.9209175;16.318750381469727;16.874250411987305;91.97537994384766
61;1673446023.958981;47.1306447;7.2406234;1.4200000762939453;1673446024.1125572;18.037769317626953;16.272621154785156;91.62007904052734
62;1673446024.152668;47.130644499999995;7.2406231;1.5490000247955322;1673446024.3282962;19.571203231811523;19.742355346679688;91.82581329345703
63;1673446024.3630748;47.130644499999995;7.2406231;1.6850000619888306;1673446024.51887;20.68962287902832;20.900609970092773;91.95332336425781
64;1673446024.5588953;47.130644499999995;7.2406231;1.8360000848770142;1673446024.7181792;21.574752807617188;19.466184616088867;91.59166717529297
65;1673446024.7523525;47.130644499999995;7.2406231;2.001000165939331;1673446024.90193;21.908369064331055;21.41190528869629;91.84557342529297
66;1673446024.9409692;47.1306444;7.2406229;2.1780002117156982;1673446025.1075356;21.690969467163086;21.32082176208496;91.82998657226562
67;1673446025.1456268;47.1306442;7.240622699999999;2.372000217437744;1673446025.3105576;21.687870025634766;19.02433204650879;91.35980987548828
68;1673446025.3566585;47.130644;7.2406223;2.568000078201294;1673446025.5161328;21.396472930908203;20.432031631469727;91.73662567138672
69;1673446025.5551965;47.1306436;7.2406219;2.764000177383423;1673446025.712331;20.770658493041992;19.876707077026367;91.66632080078125
70;1673446025.7474673;47.1306434;7.2406215;2.9590001106262207;1673446025.9075694;20.279813766479492;17.993022918701172;91.25861358642578
71;1673446025.9446373;47.1306431;7.240621;3.1490001678466797;1673446026.1028824;20.09014129638672;19.33917236328125;91.6839370727539
72;1673446026.1382246;47.1306429;7.2406207;3.3430001735687256;1673446026.2848527;19.667932510375977;19.873014450073242;91.83258819580078
73;1673446026.3190162;47.1306428;7.2406204;3.5380001068115234;1673446026.49285;19.676740646362305;17.496034622192383;91.47029113769531
74;1673446026.5309143;47.130642599999995;7.2406201999999995;3.7350001335144043;1673446026.7032356;19.74092674255371;18.89854621887207;91.73522186279297
75;1673446026.7443655;47.1306425;7.2406201;3.92900013923645;1673446026.9142907;19.81285858154297;19.67780876159668;91.92818450927734
76;1673446026.9584725;47.1306425;7.2406201;4.125;1673446027.1250463;20.06072425842285;17.690773010253906;91.44026947021484
77;1673446027.1611545;47.1306425;7.2406201;4.324000358581543;1673446027.326438;20.221860885620117;19.359291076660156;91.59578704833984
78;1673446027.3625517;47.130642599999995;7.2406201999999995;4.522000312805176;1673446027.534723;20.45073127746582;20.230518341064453;91.77840423583984
79;1673446027.5734031;47.130642699999996;7.2406203;4.7220001220703125;1673446027.7164552;20.62404441833496;18.164737701416016;91.42802429199219
80;1673446027.747704;47.130642599999995;7.2406204;4.924000263214111;1673446027.8984494;20.713911056518555;19.302080154418945;91.56761169433594
81;1673446027.9336848;47.130642599999995;7.2406204;5.124000072479248;1673446028.0948968;20.64430046081543;20.420536041259766;91.77722930908203
82;1673446028.1388178;47.130642699999996;7.2406204;5.327000141143799;1673446028.2863483;20.501174926757812;18.278833389282227;91.27171325683594
83;1673446028.3243978;47.1306428;7.2406204;5.53000020980835;1673446028.4926305;20.683650970458984;19.302730560302734;91.49671173095703
84;1673446028.5385034;47.1306428;7.2406204;5.7310004234313965;1673446028.7223847;20.500389099121094;20.705547332763672;91.90223693847656
85;1673446028.7616487;47.1306428;7.2406204;5.931000232696533;1673446029.0022242;20.298362731933594;18.816612243652344;91.49390411376953
86;1673446029.0276814;47.1306428;7.2406204;6.130000114440918;1673446029.1813042;20.531360626220703;18.83602523803711;91.53092956542969
87;1673446029.2214816;47.1306428;7.2406204;6.329000473022461;1673446029.3749301;20.514759063720703;20.801368713378906;91.9916763305664
88;1673446029.4071455;47.1306429;7.2406204;6.526000499725342;1673446029.5475307;20.519166946411133;18.666715621948242;91.47813415527344
89;1673446029.5773845;47.1306429;7.2406204999999995;6.724000453948975;1673446029.7422493;20.613784790039062;19.036500930786133;91.45062255859375
90;1673446029.7805247;47.130643;7.2406204999999995;6.918000221252441;1673446029.9493814;20.46940040588379;20.690160751342773;91.8426742553711
91;1673446029.9889443;47.130643;7.2406204;7.113000392913818;1673446030.1510193;20.468544006347656;18.600746154785156;91.40274810791016
92;1673446030.1805692;47.130643;7.2406204;7.312000274658203;1673446030.3276536;20.55809211730957;18.99750328063965;91.46797943115234
93;1673446030.3637984;47.130643;7.2406204999999995;7.51300048828125;1673446030.5618873;20.555681228637695;20.714696884155273;91.8661117553711
94;1673446030.6260805;47.130643;7.2406204999999995;7.713000297546387;1673446030.8019397;20.391843795776367;19.1359806060791;91.56480407714844
95;1673446030.8409774;47.130643;7.2406204999999995;7.9110002517700195;1673446030.97048;20.566518783569336;19.012451171875;91.50022888183594
96;1673446031.0224087;47.1306431;7.2406204999999995;8.110000610351562;1673446031.1755817;20.55845069885254;20.8685302734375;91.82575988769531
97;1673446031.2087862;47.1306431;7.2406204999999995;8.305000305175781;1673446031.3946593;20.373273849487305;19.301298141479492;91.56858825683594
98;1673446031.4385788;47.130643;7.2406204999999995;8.5;1673446031.5981715;20.48411750793457;18.65540885925293;91.51265716552734
99;1673446031.6286104;47.130643;7.2406204999999995;8.697999954223633;1673446031.759544;20.55017852783203;20.9022274017334;91.88290405273438
100;1673446031.791381;47.130643;7.2406204999999995;8.90000057220459;1673446031.940333;20.53860092163086;19.40947914123535;91.60639953613281
101;1673446031.9697974;47.130643;7.2406204999999995;9.104000091552734;1673446032.110666;20.579633712768555;18.734167098999023;91.45995330810547
102;1673446032.1467984;47.130643;7.2406204999999995;9.307000160217285;1673446032.3148828;20.474218368530273;20.705514907836914;91.93807220458984
103;1673446032.35029;47.130643;7.2406204999999995;9.511000633239746;1673446032.5063584;20.438203811645508;19.18178939819336;91.58500671386719
104;1673446032.5454018;47.1306429;7.2406204;9.711000442504883;1673446032.7341383;20.551979064941406;18.566667556762695;91.42252349853516
105;1673446032.7654076;47.1306429;7.2406204;9.91200065612793;1673446032.992506;20.515708923339844;20.680397033691406;91.80026245117188
106;1673446033.0286174;47.1306429;7.2406204;10.11500072479248;1673446033.1781275;19.591920852661133;17.900632858276367;91.45873260498047
107;1673446033.211373;47.1306429;7.2406201999999995;10.38700008392334;1673446033.3547552;20.565750122070312;19.705795288085938;91.75836181640625
108;1673446033.3885856;47.130642699999996;7.2406198999999996;10.76300048828125;1673446033.533797;20.595495223999023;21.25581932067871;91.78679656982422
109;1673446033.5708811;47.1306424;7.2406196;11.157000541687012;1673446033.73113;19.287418365478516;18.73773193359375;91.58098602294922
110;1673446033.7701817;47.130642099999996;7.240619199999999;11.557000160217285;1673446033.9423976;18.946308135986328;17.08672523498535;91.45152282714844
111;1673446033.9783354;47.1306418;7.2406188;11.960000991821289;1673446034.1313977;18.655078887939453;18.429441452026367;91.71288299560547
112;1673446034.1775007;47.1306417;7.2406185999999995;12.368000984191895;1673446034.3623466;18.582120895385742;18.19634437561035;91.74401092529297
113;1673446034.40632;47.1306417;7.2406185;12.780000686645508;1673446034.5740762;18.677400588989258;16.988265991210938;91.55978393554688
114;1673446034.6126835;47.1306417;7.2406185999999995;13.194000244140625;1673446034.7606163;18.94925308227539;18.803569793701172;91.81851959228516
115;1673446034.7982368;47.1306418;7.2406187;13.611001014709473;1673446034.9625;19.17633819580078;18.988630294799805;91.76429748535156
116;1673446034.9967027;47.1306419;7.2406188;14.027000427246094;1673446035.1407676;19.54047966003418;17.763734817504883;91.4764404296875
117;1673446035.1759121;47.130641999999995;7.240619;14.434000968933105;1673446035.3325343;19.773386001586914;19.50034523010254;91.72845458984375
118;1673446035.368651;47.1306422;7.240619199999999;14.843000411987305;1673446035.5220485;19.895950317382812;20.331424713134766;91.81185150146484
119;1673446035.5679383;47.1306424;7.2406193;15.25100040435791;1673446035.7344909;19.934364318847656;18.425121307373047;91.4177017211914
120;1673446035.771644;47.1306424;7.2406194;15.655000686645508;1673446035.9333894;20.08162498474121;19.29532814025879;91.59066009521484
121;1673446035.9675612;47.1306425;7.240619499999999;16.0570011138916;1673446036.1044846;19.836816787719727;20.168785095214844;91.83654022216797
122;1673446036.1416073;47.1306425;7.240619499999999;16.461999893188477;1673446036.3236365;19.645177841186523;18.300933837890625;91.4860610961914
123;1673446036.3597312;47.1306425;7.240619499999999;16.863000869750977;1673446036.5503054;19.80472183227539;19.10110855102539;91.64400482177734
124;1673446036.6042686;47.1306425;7.2406194;17.256999969482422;1673446036.7663548;19.575000762939453;20.073780059814453;91.80363464355469
125;1673446036.8034754;47.1306425;7.2406194;17.6510009765625;1673446036.959449;19.560747146606445;18.27948760986328;91.46516418457031
126;1673446036.9951322;47.1306425;7.2406194;18.047000885009766;1673446037.146081;19.743488311767578;18.766782760620117;91.54376220703125
127;1673446037.1812117;47.1306425;7.240619499999999;18.442001342773438;1673446037.3465815;19.737442016601562;19.934680938720703;91.7695083618164
128;1673446037.3807502;47.1306425;7.240619499999999;18.83500099182129;1673446037.5304308;19.678062438964844;18.317699432373047;91.47013092041016
129;1673446037.5665877;47.1306425;7.2406196;19.23000144958496;1673446037.7197242;19.78936767578125;18.53763771057129;91.49585723876953
130;1673446037.7549043;47.1306425;7.2406196;19.62200164794922;1673446037.9233375;19.797351837158203;20.164213180541992;91.89264678955078
131;1673446037.965348;47.1306425;7.2406196;20.0210018157959;1673446038.1140525;19.632375717163086;18.678491592407227;91.5621337890625
132;1673446038.1492224;47.1306425;7.2406196;20.420000076293945;1673446038.3210237;19.81264305114746;18.256332397460938;91.41079711914062
133;1673446038.354198;47.1306425;7.2406197;20.817001342773438;1673446038.5106637;19.67926025390625;20.05681037902832;91.80918884277344
134;1673446038.5517607;47.1306425;7.2406197;21.216001510620117;1673446038.721913;19.710906982421875;18.826148986816406;91.51432800292969
135;1673446038.760036;47.130642599999995;7.2406197;21.612001419067383;1673446038.9174852;19.844982147216797;18.690980911254883;91.42513275146484
136;1673446038.9604297;47.130642599999995;7.240619799999999;22.01300048828125;1673446039.1284275;19.7667293548584;20.307960510253906;91.79460144042969
137;1673446039.1586835;47.130642599999995;7.240619799999999;22.402000427246094;1673446039.3286533;19.691631317138672;18.792882919311523;91.56639862060547
138;1673446039.363881;47.1306425;7.240619799999999;22.793001174926758;1673446039.5229564;19.87066650390625;18.20307159423828;91.46551513671875
139;1673446039.5688295;47.1306425;7.240619799999999;23.18600082397461;1673446039.727037;19.721630096435547;20.331867218017578;91.875244140625
140;1673446039.7631497;47.1306425;7.240619799999999;23.57900047302246;1673446039.9256043;19.737064361572266;18.740205764770508;91.53743743896484
141;1673446039.9597638;47.130642599999995;7.240619799999999;23.97300148010254;1673446040.1436749;19.696075439453125;18.463462829589844;91.46527862548828
142;1673446040.1847496;47.130642599999995;7.240619799999999;24.36600112915039;1673446040.347629;19.819250106811523;20.038860321044922;91.81405639648438
143;1673446040.3798556;47.1306425;7.240619799999999;24.757001876831055;1673446040.5779595;19.587488174438477;19.127180099487305;91.64202880859375
144;1673446040.6112201;47.1306425;7.240619799999999;25.15300178527832;1673446040.7803876;19.661521911621094;18.149072647094727;91.42759704589844
145;1673446040.808758;47.1306425;7.240619799999999;25.551000595092773;1673446040.9596524;19.666501998901367;20.143468856811523;91.77888488769531
146;1673446041.0071325;47.1306425;7.2406198999999996;25.948001861572266;1673446041.1707685;19.609176635742188;19.075891494750977;91.57879638671875
147;1673446041.2084382;47.1306425;7.2406198999999996;26.347002029418945;1673446041.3622608;19.726242065429688;18.28736686706543;91.47062683105469
148;1673446041.3989346;47.1306425;7.2406198999999996;26.746002197265625;1673446041.560827;19.713756561279297;20.115808486938477;91.86199951171875
149;1673446041.5987206;47.1306425;7.2406198999999996;27.14200210571289;1673446041.7505574;19.63167953491211;18.80647087097168;91.62918090820312
150;1673446041.8067336;47.1306425;7.24062;27.533000946044922;1673446041.9683843;19.698915481567383;17.973669052124023;91.38152313232422
151;1673446042.0032058;47.1306424;7.24062;27.928001403808594;1673446042.176289;19.897966384887695;19.833139419555664;91.7581787109375
152;1673446042.211502;47.1306425;7.24062;28.32900047302246;1673446042.3547366;19.699417114257812;19.046215057373047;91.63158416748047
153;1673446042.386982;47.1306425;7.24062;28.731000900268555;1673446042.5526173;19.682504653930664;18.23178482055664;91.52835083007812
154;1673446042.589811;47.1306425;7.24062;29.137001037597656;1673446042.7544203;19.75403594970703;20.008583068847656;91.84536743164062
155;1673446042.79054;47.130642599999995;7.24062;29.540000915527344;1673446042.9380987;19.50803565979004;19.051837921142578;91.63215637207031
156;1673446042.9742122;47.1306425;7.24062;29.935001373291016;1673446043.14351;19.74993324279785;18.021419525146484;91.38047790527344
157;1673446043.1787448;47.130642599999995;7.24062;30.336002349853516;1673446043.347424;19.70779800415039;20.31454849243164;91.7706527709961
158;1673446043.3806155;47.130642699999996;7.24062;30.73600196838379;1673446043.5265646;19.673778533935547;19.346479415893555;91.62973022460938
159;1673446043.5539653;47.130642699999996;7.24062;31.137001037597656;1673446043.6985526;19.705533981323242;18.398887634277344;91.4256591796875
160;1673446043.7346637;47.130642699999996;7.24062;31.538002014160156;1673446043.9029152;19.681537628173828;20.086910247802734;91.77273559570312
161;1673446043.9351227;47.1306428;7.24062;31.93800163269043;1673446044.0909572;19.54877281188965;19.640399932861328;91.70169830322266
162;1673446044.1285822;47.1306428;7.2406201;32.33700180053711;1673446044.2987297;19.633346557617188;18.3351993560791;91.46711730957031
163;1673446044.3377702;47.1306428;7.2406201;32.72800064086914;1673446044.5180302;19.777942657470703;20.21880340576172;91.78657531738281
164;1673446044.5612798;47.1306428;7.2406201;33.125;1673446044.7182548;19.711889266967773;19.617856979370117;91.6701431274414
165;1673446044.751501;47.1306428;7.2406201;33.520999908447266;1673446044.9234607;19.752811431884766;18.247623443603516;91.42790222167969
166;1673446044.9636776;47.1306428;7.2406201999999995;33.919002532958984;1673446045.1182883;19.8818416595459;19.93130111694336;91.81298065185547
167;1673446045.1514792;47.130642699999996;7.2406201999999995;34.31800079345703;1673446045.318312;19.7174072265625;19.591819763183594;91.74748992919922
168;1673446045.3622322;47.130642699999996;7.2406201999999995;34.71500015258789;1673446045.524257;19.726661682128906;18.061368942260742;91.45746612548828
169;1673446045.565247;47.130642699999996;7.2406201999999995;35.105003356933594;1673446045.7254431;19.76585578918457;19.706077575683594;91.62158966064453
170;1673446045.779313;47.130642699999996;7.2406201999999995;35.50100326538086;1673446045.9312434;19.746858596801758;19.837257385253906;91.74356842041016
171;1673446045.969638;47.130642699999996;7.2406201;35.9010009765625;1673446046.1227274;19.65571403503418;18.24650001525879;91.42484283447266
172;1673446046.176568;47.130642699999996;7.2406201;36.301002502441406;1673446046.3419838;19.693140029907227;19.702869415283203;91.70108032226562
173;1673446046.37517;47.130642699999996;7.24062;36.702003479003906;1673446046.541278;19.42879867553711;20.112525939941406;91.78128051757812
174;1673446046.5793412;47.130642699999996;7.24062;37.10200119018555;1673446046.7418044;19.561452865600586;18.187519073486328;91.4133529663086
175;1673446046.7798686;47.130642699999996;7.2406198999999996;37.50200271606445;1673446046.9265532;19.622730255126953;19.594951629638672;91.65028381347656
176;1673446046.9666016;47.130642699999996;7.2406198999999996;37.8910026550293;1673446047.1308389;19.55666732788086;19.82419204711914;91.72177124023438
177;1673446047.1640255;47.130642599999995;7.2406198999999996;38.28300094604492;1673446047.3107235;19.497907638549805;18.1669921875;91.44693756103516
178;1673446047.3468347;47.130642599999995;7.2406198999999996;38.67500305175781;1673446047.5121129;19.64747428894043;19.162538528442383;91.60757446289062
179;1673446047.5453465;47.130642599999995;7.2406198999999996;39.06800079345703;1673446047.7203197;19.472158432006836;20.1859073638916;91.85259246826172
180;1673446047.7574584;47.130642599999995;7.2406198999999996;39.4630012512207;1673446047.920532;19.5288028717041;18.29633140563965;91.48726654052734
181;1673446047.954507;47.130642599999995;7.2406198999999996;39.858001708984375;1673446048.116887;19.522132873535156;18.995433807373047;91.50018310546875
182;1673446048.152186;47.130642599999995;7.240619799999999;40.24800109863281;1673446048.3145204;19.532278060913086;20.105865478515625;91.78092193603516
183;1673446048.3516066;47.130642599999995;7.240619799999999;40.64600372314453;1673446048.5272322;19.410985946655273;18.1717586517334;91.42967987060547
184;1673446048.5701678;47.1306425;7.240619799999999;41.044002532958984;1673446048.7324886;19.58145523071289;19.18900489807129;91.61769104003906
185;1673446048.7706048;47.1306425;7.2406198999999996;41.44200134277344;1673446048.934851;19.511442184448242;20.10481071472168;91.80986022949219
186;1673446048.972956;47.130642599999995;7.2406198999999996;41.8390007019043;1673446049.1361053;19.496776580810547;18.41010856628418;91.43083953857422
187;1673446049.1800249;47.130642599999995;7.2406198999999996;42.23400115966797;1673446049.3510787;19.59173011779785;19.23223304748535;91.58491516113281
188;1673446049.3853877;47.130642599999995;7.2406198999999996;42.62700271606445;1673446049.540975;19.590679168701172;20.21855926513672;91.78372955322266
189;1673446049.575169;47.130642599999995;7.2406198999999996;43.0150032043457;1673446049.7354593;19.470731735229492;18.41402816772461;91.45350646972656
190;1673446049.7686434;47.1306425;7.2406198999999996;43.41100311279297;1673446049.9191744;19.62761116027832;18.781423568725586;91.52693939208984
191;1673446049.9632492;47.1306425;7.2406198999999996;43.8120002746582;1673446050.1301079;19.52155303955078;20.200511932373047;91.91336059570312
192;1673446050.1633108;47.1306425;7.2406198999999996;44.215003967285156;1673446050.331093;19.434972763061523;18.53325653076172;91.49931335449219
193;1673446050.3682747;47.130642599999995;7.2406198999999996;44.61600112915039;1673446050.5252836;19.59479522705078;18.97321128845215;91.5927505493164
194;1673446050.570291;47.130642599999995;7.2406198999999996;45.01700210571289;1673446050.7429464;19.594585418701172;20.028907775878906;91.75298309326172
195;1673446050.7771049;47.130642599999995;7.2406198999999996;45.40700149536133;1673446050.9306073;19.435239791870117;18.54535484313965;91.53026580810547
196;1673446050.962817;47.1306425;7.2406198999999996;45.80000305175781;1673446051.1338167;19.5980167388916;18.617589950561523;91.53942108154297
197;1673446051.1650455;47.1306425;7.24062;46.19600296020508;1673446051.3195262;19.57889747619629;20.534828186035156;91.94413757324219
198;1673446051.3556745;47.130642599999995;7.24062;46.59600067138672;1673446051.538546;19.53034210205078;18.709089279174805;91.54761505126953
199;1673446051.579539;47.130642599999995;7.24062;46.992000579833984;1673446051.737837;19.6683349609375;18.853862762451172;91.44441986083984
200;1673446051.7807796;47.130642699999996;7.24062;47.3900032043457;1673446051.9352968;19.626056671142578;20.47690773010254;91.82567596435547
201;1673446051.9694557;47.130642699999996;7.24062;47.790000915527344;1673446052.131587;19.5363712310791;18.81639289855957;91.48201751708984
202;1673446052.1678398;47.130642699999996;7.2406201;48.16800308227539;1673446052.3269548;19.82565689086914;19.42850685119629;91.698486328125
203;1673446052.3651114;47.130642699999996;7.2406201999999995;48.50200271606445;1673446052.5137415;19.873149871826172;20.642839431762695;91.90921783447266
204;1673446052.5508735;47.1306429;7.2406204;48.78600311279297;1673446052.7152379;20.212270736694336;19.393369674682617;91.57617950439453
205;1673446052.7552922;47.130643;7.2406207;49.027000427246094;1673446052.914523;20.768526077270508;19.82241439819336;91.66930389404297
206;1673446052.9538734;47.130643199999994;7.240621;49.22600173950195;1673446053.1141236;24.167768478393555;23.70381736755371;91.99056243896484
207;1673446053.152216;47.130643299999996;7.2406213;49.39500045776367;1673446053.3214927;28.623937606811523;18.680307388305664;85.67523956298828
208;1673446053.3595562;47.1306435;7.2406212;49.499000549316406;1673446053.5284693;20.017131805419922;18.14942741394043;73.50141906738281
209;1673446053.5622756;47.1306436;7.2406213;49.51700210571289;1673446053.7430449;35.657081604003906;13.250710487365723;63.422176361083984
210;1673446053.7781348;47.1306434;7.2406216;49.540000915527344;1673446053.9459574;40.824920654296875;4.916107654571533;53.85177993774414
211;1673446053.983451;47.130642699999996;7.2406212;49.57500076293945;1673446054.1339808;27.94060707092285;2.650256633758545;45.892120361328125
212;1673446054.1741645;47.1306416;7.2406201;49.63100051879883;1673446054.3340013;31.630823135375977;-3.9404139518737793;36.083255767822266
213;1673446054.367428;47.1306405;7.2406191;49.676002502441406;1673446054.5231445;29.183757781982422;-8.482837677001953;27.325166702270508
214;1673446054.5591974;47.1306395;7.2406181;49.717002868652344;1673446054.723235;25.177936553955078;-13.92428207397461;17.863479614257812
215;1673446054.7592082;47.130638499999996;7.240616999999999;49.74400329589844;1673446054.9222758;22.48462677001953;-17.971603393554688;8.690041542053223
216;1673446054.9601324;47.1306377;7.2406160999999996;49.77000045776367;1673446055.1089833;18.943775177001953;-21.334373474121094;-0.5456704497337341
217;1673446055.1560166;47.130637;7.2406153;49.79600143432617;1673446055.317176;15.122620582580566;-23.43755531311035;-9.913854598999023
218;1673446055.3521252;47.130636599999995;7.2406146;49.823001861572266;1673446055.5157986;10.803766250610352;-24.793487548828125;-19.264102935791016
219;1673446055.5578737;47.1306363;7.240614099999999;49.849002838134766;1673446055.7161186;6.394210338592529;-25.632783889770508;-28.557979583740234
220;1673446055.7551644;47.1306361;7.2406137;49.87200164794922;1673446056.003309;1.8746860027313232;-26.02602195739746;-37.93281936645508
221;1673446056.0360544;47.1306361;7.2406134;49.887001037597656;1673446056.1791685;-2.1741130352020264;-27.137996673583984;-47.040584564208984
222;1673446056.2128968;47.1306363;7.240613199999999;49.91200256347656;1673446056.3654966;-5.306443691253662;-29.1378116607666;-52.678348541259766
223;1673446056.3986855;47.1306365;7.240613199999999;49.935001373291016;1673446056.5545466;-4.298245429992676;-30.32546043395996;-49.98202896118164
224;1673446056.5857656;47.1306367;7.240613199999999;49.95500183105469;1673446056.7488706;-2.411912441253662;-30.343616485595703;-46.80815505981445
225;1673446056.781114;47.1306369;7.240613199999999;49.967002868652344;1673446056.9227653;-1.5961397886276245;-29.791231155395508;-45.61760711669922
226;1673446056.9540026;47.130637;7.240613;49.97700119018555;1673446057.1301792;-1.1793212890625;-28.936464309692383;-45.397674560546875
227;1673446057.1665344;47.1306371;7.2406127;49.98400115966797;1673446057.3379493;-0.2292550504207611;-28.41523551940918;-45.20521926879883
228;1673446057.3750422;47.1306371;7.2406123;49.97900390625;1673446057.5321887;0.6202445030212402;-29.369626998901367;-45.17723083496094
229;1673446057.5723705;47.1306371;7.240612;49.987003326416016;1673446057.7419438;1.1259138584136963;-30.987825393676758;-45.105865478515625
230;1673446057.7780569;47.1306371;7.2406118;49.996002197265625;1673446057.9500291;1.0130748748779297;-31.053415298461914;-44.93178176879883
231;1673446057.988838;47.1306369;7.240611599999999;50.00200271606445;1673446058.1574194;0.17069093883037567;-30.109039306640625;-44.88991165161133
232;1673446058.187706;47.1306367;7.2406115;50.00400161743164;1673446058.3430579;-11.259057998657227;-27.839815139770508;-45.368961334228516
233;1673446058.3791704;47.1306365;7.240611299999999;50.005001068115234;1673446058.5329688;-33.46852111816406;-22.102867126464844;-46.66465759277344
234;1673446058.5742009;47.1306369;7.2406101;50.00200271606445;1673446058.7339451;-47.38153839111328;-16.388751983642578;-47.915138244628906
235;1673446058.7809687;47.1306388;7.2406071;50.00600051879883;1673446058.939165;-55.97989273071289;-12.389542579650879;-48.641265869140625
236;1673446058.9758844;47.130643;7.2406014999999995;50.01000213623047;1673446059.1392877;-55.068267822265625;-13.993976593017578;-48.40080261230469
237;1673446059.1779895;47.130649899999995;7.240592899999999;50.000003814697266;1673446059.3430665;-54.62028121948242;-12.627270698547363;-50.96968078613281
238;1673446059.3829744;47.130659099999995;7.240581799999999;49.99100112915039;1673446059.5408041;-53.47224426269531;-11.525494575500488;-52.38529586791992
239;1673446059.5931451;47.130670099999996;7.2405686;49.97700119018555;1673446059.7471924;-52.59171676635742;-14.645695686340332;-51.67564010620117
240;1673446059.7858531;47.1306825;7.240553599999999;49.94900131225586;1673446060.0060484;-51.0079231262207;-15.525823593139648;-51.27828598022461
241;1673446060.0382519;47.1306959;7.240537;49.90700149536133;1673446060.1740491;-47.778419494628906;-17.00169563293457;-50.595394134521484
242;1673446060.2219691;47.130710099999995;7.240519099999999;49.87000274658203;1673446060.3651357;-47.44540023803711;-18.587234497070312;-49.80167770385742
243;1673446060.4032402;47.130724699999995;7.2405003;49.83700180053711;1673446060.569818;-44.432159423828125;-20.638507843017578;-49.74036407470703
244;1673446060.6049879;47.1307396;7.2404807;49.81500244140625;1673446060.7552915;-45.33599853515625;-19.680164337158203;-50.23217010498047
245;1673446060.7874994;47.1307547;7.240460499999999;49.794002532958984;1673446060.9395878;-43.25485610961914;-18.66630744934082;-50.43060302734375
246;1673446060.9757047;47.130769699999995;7.2404398;49.77800369262695;1673446061.143083;-43.498294830322266;-19.58775520324707;-49.89967727661133
247;1673446061.1850493;47.1307848;7.2404189;49.759002685546875;1673446061.3384933;-43.53767395019531;-21.001806259155273;-51.406150817871094
248;1673446061.3717928;47.1307998;7.2403977;49.755001068115234;1673446061.5340788;-44.134605407714844;-25.15851402282715;-53.24737548828125
249;1673446061.5710292;47.1308146;7.2403759;49.76300048828125;1673446061.7472277;-42.868953704833984;-29.196847915649414;-53.42102813720703
250;1673446061.7872133;47.130828799999996;7.2403536;49.772003173828125;1673446061.97835;-36.282501220703125;-34.171173095703125;-54.415992736816406
251;1673446062.0102923;47.130842099999995;7.2403309;49.77700424194336;1673446062.1673942;-4.552460193634033;-37.942604064941406;-60.486061096191406
252;1673446062.241066;47.130854;7.240308799999999;49.75100326538086;1673446062.4011037;14.19725513458252;-17.19647216796875;-62.16954040527344
253;1673446062.43914;47.1308643;7.240289499999999;49.66100311279297;1673446062.57719;12.746387481689453;-4.844571590423584;-50.62785720825195
254;1673446062.607963;47.130873199999996;7.2402748;49.540000915527344;1673446062.7661173;25.836179733276367;-6.1129469871521;-45.35765075683594
255;1673446062.805973;47.1308813;7.2402649;49.49800109863281;1673446062.9630013;35.382843017578125;-8.366326332092285;-46.09831237792969
256;1673446063.0173573;47.1308881;7.240259699999999;49.50700378417969;1673446063.1740892;41.503787994384766;-12.284829139709473;-46.40156936645508
257;1673446063.2061713;47.130893199999996;7.2402592;49.551002502441406;1673446063.4297452;43.13043212890625;-16.304933547973633;-45.836429595947266
258;1673446063.4551935;47.130896199999995;7.2402628;49.60100173950195;1673446063.6018026;43.897117614746094;-23.728282928466797;-45.91986846923828
259;1673446063.6365685;47.1308971;7.2402695999999995;49.65900421142578;1673446063.795462;42.25373458862305;-33.36513900756836;-44.51649856567383
260;1673446063.8293386;47.1308953;7.2402789;49.72900390625;1673446063.9842403;31.731319427490234;-38.41346740722656;-44.81528091430664
261;1673446064.0541956;47.1308915;7.2402888999999995;49.78300094604492;1673446064.2106738;8.869455337524414;-42.699363708496094;-45.18991470336914
262;1673446064.2469559;47.1308864;7.2402983999999995;49.820003509521484;1673446064.3832028;-7.331667900085449;-40.53838348388672;-48.90860366821289
263;1673446064.414994;47.1308807;7.2403061;49.84700393676758;1673446064.5509849;-10.210504531860352;-31.81357765197754;-50.531620025634766
264;1673446064.5792909;47.1308752;7.240311999999999;49.862003326416016;1673446064.7259502;-17.616138458251953;-26.722951889038086;-50.88069152832031
265;1673446064.760117;47.1308704;7.240316399999999;49.87300109863281;1673446064.9175227;-19.97726821899414;-21.908313751220703;-51.03789138793945
266;1673446064.9585333;47.1308666;7.2403194;49.88300323486328;1673446065.1313815;-18.83426284790039;-19.841001510620117;-50.85364532470703
267;1673446065.1715093;47.1308643;7.2403211;49.887001037597656;1673446065.3305123;-15.247228622436523;-21.218120574951172;-50.622474670410156
268;1673446065.3676326;47.130863;7.2403222;49.8900032043457;1673446065.5347838;-10.540793418884277;-24.058521270751953;-50.458396911621094
269;1673446065.5718703;47.1308626;7.2403227999999995;49.8910026550293;1673446065.7624083;0.16332370042800903;-36.64977264404297;-51.20491409301758
270;1673446065.800551;47.1308625;7.2403230999999995;49.90200424194336;1673446065.96598;-5.871321678161621;-28.489343643188477;-49.36643981933594
271;1673446066.0003324;47.130862199999996;7.2403230999999995;49.906002044677734;1673446066.1788986;-0.6429630517959595;-26.225765228271484;-50.45771408081055
272;1673446066.2214868;47.1308619;7.2403230999999995;49.900001525878906;1673446066.3750029;1.7386035919189453;-13.363926887512207;-50.586856842041016
273;1673446066.4101768;47.1308619;7.2403233;49.63500213623047;1673446066.5562716;5.367247581481934;14.888387680053711;-50.30742263793945
274;1673446066.5936291;47.130862099999995;7.240323699999999;49.00200271606445;1673446066.7888937;9.101690292358398;53.981468200683594;-47.97695541381836
275;1673446066.8191926;47.1308623;7.240324299999999;47.97900390625;1673446066.9827695;10.31235122680664;90.2462387084961;-44.25323486328125
276;1673446067.0184734;47.1308625;7.2403248;46.57500076293945;1673446067.2151318;10.510129928588867;110.64339447021484;-42.406490325927734
277;1673446067.2522717;47.130862799999996;7.240325299999999;44.810001373291016;1673446067.4059813;11.860189437866211;107.79447937011719;-43.76388168334961
278;1673446067.438722;47.1308632;7.240325899999999;42.69000244140625;1673446067.573036;12.534038543701172;79.7193832397461;-49.387474060058594
279;1673446067.6013494;47.1308636;7.2403267;40.22500228881836;1673446067.756089;8.174086570739746;30.773046493530273;-55.779258728027344
280;1673446067.7854888;47.1308639;7.2403273;37.38600158691406;1673446067.9726765;1.1831120252609253;-19.838258743286133;-58.279598236083984
281;1673446068.015245;47.1308642;7.2403279;34.150001525878906;1673446068.170726;-3.6140308380126953;-46.972686767578125;-58.024837493896484
282;1673446068.2039273;47.1308648;7.2403289;30.543001174926758;1673446068.3570805;-4.342243194580078;-37.4854621887207;-60.41511535644531
283;1673446068.3912818;47.1308657;7.2403303999999995;26.588001251220703;1673446068.5421748;1.3153001070022583;5.172844886779785;-65.74368286132812
284;1673446068.5815241;47.1308669;7.2403322999999995;22.259000778198242;1673446068.7463887;12.087422370910645;53.60371017456055;-64.50473022460938
285;1673446068.7795737;47.1308681;7.2403341;17.536001205444336;1673446068.9449165;18.07359504699707;71.91734313964844;-61.227752685546875
286;1673446068.9831953;47.1308691;7.2403357999999995;12.461000442504883;1673446069.1512554;18.259550094604492;45.25495147705078;-67.13936614990234
287;1673446069.187435;47.1308698;7.240337299999999;7.073000431060791;1673446069.345993;7.228482723236084;-7.986036777496338;-74.86286163330078
288;1673446069.383081;47.1308703;7.2403385;1.3140000104904175;1673446069.5425467;-8.09831428527832;7.9709696769714355;-76.37816619873047
289;1673446069.5786526;47.1308716;7.2403371;0.25200000405311584;1673446069.7447805;-2.1740241050720215;5.162113666534424;-65.20833587646484
290;1673446069.7926157;47.1308715;7.2403369;0.27800002694129944;1673446069.9548292;1.408690094947815;8.108423233032227;-65.98023223876953
291;1673446069.992172;47.1308712;7.240337299999999;0.30400002002716064;1673446070.1568573;1.866831660270691;7.426757335662842;-66.1161117553711
292;1673446070.1929576;47.130871299999995;7.2403381;0.3410000205039978;1673446070.3493457;1.964807152748108;7.39835786819458;-66.2966079711914
293;1673446070.390333;47.1308715;7.2403387;0.3890000283718109;1673446070.5555522;2.0377578735351562;7.402785778045654;-66.4404296875
294;1673446070.596558;47.1308718;7.2403394;0.41700002551078796;1673446070.7823927;2.141030788421631;7.37800931930542;-66.59039306640625
295;1673446070.8185081;47.1308721;7.2403401;0.43300002813339233;1673446071.014047;2.1049392223358154;7.4889373779296875;-66.72509765625
296;1673446071.0565658;47.1308724;7.240340799999999;0.445000022649765;1673446071.1988277;2.106743335723877;7.381425380706787;-66.80597686767578
297;1673446071.232553;47.1308727;7.240341399999999;0.45000001788139343;1673446071.4088433;2.0911130905151367;7.3935394287109375;-66.8672103881836
298;1673446071.4743187;47.130873;7.2403417999999995;0.4540000259876251;1673446071.631233;2.124660015106201;7.4635138511657715;-66.91043853759766
299;1673446071.6645758;47.1308736;7.2403426;0.46800002455711365;1673446071.82329;2.090815782546997;7.425744533538818;-66.98216247558594
300;1673446071.8595567;47.1308739;7.240342999999999;0.47300001978874207;1673446072.0026588;2.0609841346740723;7.2723565101623535;-67.02330780029297
301;1673446072.0310924;47.130874;7.2403432;0.4710000157356262;1673446072.1898038;1.9789804220199585;7.146446228027344;-67.05428314208984
302;1673446072.2230425;47.1308741;7.240343299999999;0.46700000762939453;1673446072.3734612;1.929427981376648;6.8752617835998535;-67.0740966796875
303;1673446072.4076746;47.1308741;7.2403433999999995;0.46300002932548523;1673446072.560301;1.8422609567642212;6.625207901000977;-67.08224487304688
304;1673446072.5973883;47.1308741;7.2403433999999995;0.4570000171661377;1673446072.7737846;1.8684593439102173;6.433933734893799;-67.08909606933594
305;1673446072.8157425;47.1308742;7.2403435;0.45100003480911255;1673446072.9898293;1.8854589462280273;6.375913619995117;-67.08938598632812
306;1673446073.049042;47.1308748;7.240344299999999;0.4520000219345093;1673446073.230901;1.8183108568191528;6.200186252593994;-67.12447357177734
307;1673446073.2641442;47.1308751;7.2403447;0.45000001788139343;1673446073.4075527;1.7994029521942139;5.973575115203857;-67.15855407714844
308;1673446073.4393501;47.1308752;7.2403448;0.44200003147125244;1673446073.5970507;1.7140804529190063;5.759330749511719;-67.20465850830078
309;1673446073.635949;47.1308751;7.2403447;0.4350000321865082;1673446073.7945595;1.7290115356445312;5.556375503540039;-67.22599029541016
310;1673446073.8314304;47.130874999999996;7.240344599999999;0.42600002884864807;1673446074.0014346;1.6876294612884521;5.337713718414307;-67.25127410888672
311;1673446074.0400696;47.130874899999995;7.2403445;0.41700002551078796;1673446074.2207432;1.6952662467956543;5.277223110198975;-67.26631164550781
312;1673446074.2520156;47.1308754;7.240345199999999;0.4090000092983246;1673446074.400269;1.630442500114441;5.048617362976074;-67.28871154785156
313;1673446074.4340074;47.130875499999995;7.2403452999999995;0.4010000228881836;1673446074.5900035;1.5936083793640137;4.819656848907471;-67.30745697021484
314;1673446074.6286256;47.1308754;7.240345199999999;0.39500001072883606;1673446074.8087032;1.539750576019287;4.608354568481445;-67.35192108154297
315;1673446074.8425827;47.1308752;7.240345;0.3880000114440918;1673446074.985913;1.4659359455108643;4.43112325668335;-67.38209533691406
316;1673446075.0323296;47.130874899999995;7.2403447;0.3800000250339508;1673446075.1939037;1.4506572484970093;4.235477447509766;-67.40231323242188
317;1673446075.2316003;47.1308747;7.2403444;0.3660000264644623;1673446075.4060516;1.4269825220108032;4.053030014038086;-67.42720031738281
318;1673446075.434905;47.1308745;7.2403442;0.3530000150203705;1673446075.5773103;1.3737683296203613;3.9718546867370605;-67.4634780883789
319;1673446075.6104941;47.130874899999995;7.2403447;0.33900001645088196;1673446075.7582405;1.3822808265686035;3.7769651412963867;-67.44971466064453
320;1673446075.8002086;47.130874899999995;7.2403448;0.3240000009536743;1673446076.005259;1.3118126392364502;3.6338157653808594;-67.4630126953125
321;1673446076.0389686;47.1308747;7.240344599999999;0.30800002813339233;1673446076.1859646;1.2595411539077759;3.1312670707702637;-67.46765899658203
322;1673446076.220215;47.1308745;7.240344299999999;0.29100000858306885;1673446076.3658106;1.1516799926757812;2.447051525115967;-67.47728729248047
323;1673446076.4029036;47.130874299999995;7.2403441;0.2800000011920929;;;;
