;pos_time;latitude;longitude;altitude;alt_time;pitch;roll;yaw
0;1673302143.29;47.1306423;7.240619799999999;-0.009000000543892384;1673302143.323183;0.08221607655286789;-0.3934174180030823;90.31944274902344
1;1673302143.4965646;47.1306423;7.240619799999999;-0.007000000216066837;1673302143.5346951;0.15604326128959656;-0.2701335549354553;90.08087921142578
2;1673302143.6970692;47.1306423;7.2406197;-0.00800000037997961;1673302143.730296;-0.10487589985132217;-0.41479963064193726;90.20877075195312
3;1673302143.8932183;47.1306423;7.2406197;-0.00800000037997961;1673302143.9332345;-0.11731921881437302;-0.2762731909751892;90.11470031738281
4;1673302144.1071153;47.1306423;7.2406197;-0.006000000052154064;1673302144.1394994;-0.019297031685709953;-0.4373297393321991;90.26590728759766
5;1673302144.3104908;47.1306423;7.240619799999999;-0.0020000000949949026;1673302144.348554;0.05267411470413208;-0.3546658754348755;90.16145324707031
6;1673302144.5168648;47.1306423;7.240619799999999;-0.004000000189989805;1673302144.5520325;0.03563142940402031;-0.4054536521434784;90.05858612060547
7;1673302144.7234392;47.1306423;7.240619799999999;-0.006000000052154064;1673302144.7596989;-0.006056643091142178;-0.31519824266433716;90.09188842773438
8;1673302144.9183195;47.1306423;7.2406198999999996;-0.005000000353902578;1673302144.9515085;0.11632070690393448;-0.3130684196949005;90.12537384033203
9;1673302145.119563;47.1306423;7.2406198999999996;0.0;1673302145.1507776;0.2706829905509949;-1.5797665119171143;90.18436431884766
10;1673302145.3149967;47.1306423;7.2406198999999996;-0.003000000026077032;1673302145.3502922;-0.144998237490654;-1.222629427909851;90.11070251464844
11;1673302145.5085254;47.1306424;7.2406198999999996;-0.004000000189989805;1673302145.5437293;-0.16304796934127808;-1.26239013671875;90.0281753540039
12;1673302145.717779;47.1306424;7.2406198999999996;-0.004000000189989805;1673302145.755009;0.20227976143360138;-1.1932677030563354;89.88558197021484
13;1673302145.9094625;47.1306424;7.240619799999999;-0.005000000353902578;1673302145.9453883;0.36658114194869995;-1.2987698316574097;90.1173095703125
14;1673302146.1000936;47.1306424;7.240619799999999;-0.010000000707805157;1673302146.1342812;-0.058504316955804825;-1.34624183177948;90.01069641113281
15;1673302146.3075924;47.1306424;7.240619799999999;-0.015000000596046448;1673302146.3486469;0.2509705424308777;-1.7082444429397583;89.85873413085938
16;1673302146.5115454;47.1306424;7.2406198999999996;-0.01900000125169754;1673302146.5454066;0.19147542119026184;-1.7081241607666016;89.5606918334961
17;1673302146.7114632;47.1306424;7.2406198999999996;0.0020000000949949026;1673302146.7464113;-0.0022755200043320656;-0.9583383202552795;89.6320571899414
18;1673302146.9211476;47.1306425;7.2406198999999996;0.009000000543892384;1673302146.953329;0.4405549466609955;-1.3780415058135986;89.24630737304688
19;1673302147.1391737;47.1306425;7.24062;0.013000000268220901;1673302147.1704278;0.028267215937376022;-0.7054356336593628;88.95720672607422
20;1673302147.3344915;47.130642599999995;7.24062;0.013000000268220901;1673302147.3623233;0.6485200524330139;-0.873567521572113;88.89867401123047
21;1673302147.5223708;47.130642599999995;7.2406198999999996;0.017000000923871994;1673302147.554465;1.412111520767212;-1.4308478832244873;87.96382904052734
22;1673302147.7475255;47.130642599999995;7.2406198999999996;0.02200000174343586;1673302147.7831056;2.0664210319519043;-0.9956790804862976;87.30977630615234
23;1673302147.9314692;47.130642699999996;7.2406198999999996;0.023000001907348633;1673302147.9613578;2.0568437576293945;-0.8798881769180298;85.86284637451172
24;1673302148.1153705;47.130643;7.2406197;0.01900000125169754;1673302148.1495063;0.14548617601394653;0.032709866762161255;76.2848892211914
25;1673302148.3484662;47.1306437;7.2406188;0.01100000087171793;1673302148.3876178;-0.6326659917831421;-0.6960985064506531;68.026123046875
26;1673302148.552551;47.1306449;7.2406172;0.0010000000474974513;1673302148.5894947;-0.44940704107284546;-1.2821322679519653;71.11377716064453
27;1673302148.7614176;47.1306468;7.2406144999999995;0.003000000026077032;1673302148.7909179;-1.5135974884033203;5.301455020904541;75.76891326904297
28;1673302148.9465768;47.1306491;7.2406109;0.017000000923871994;1673302148.9762664;-4.555319786071777;9.217041969299316;79.11791229248047
29;1673302149.1441867;47.130651799999995;7.2406066;0.03200000151991844;1673302149.181461;-8.078493118286133;11.173011779785156;79.85606384277344
30;1673302149.3385653;47.1306547;7.2406017;0.05000000074505806;1673302149.3676114;-9.269524574279785;14.297642707824707;79.8257064819336
31;1673302149.5164511;47.130657799999994;7.2405966;0.07000000029802322;1673302149.5533924;-10.575676918029785;15.304089546203613;80.13729095458984
32;1673302149.7140384;47.130660999999996;7.240591299999999;0.09400000423192978;1673302149.745449;-12.264143943786621;15.942767143249512;80.40261840820312
33;1673302149.9109995;47.1306641;7.2405859999999995;0.12400000542402267;1673302149.9451602;-13.697800636291504;18.002103805541992;80.45234680175781
34;1673302150.1292956;47.1306671;7.240580899999999;0.15800000727176666;1673302150.1644614;-15.117871284484863;19.556028366088867;80.63314819335938
35;1673302150.3392975;47.1306699;7.240576;0.19200000166893005;1673302150.373582;-16.774599075317383;20.522361755371094;80.86201477050781
36;1673302150.545545;47.130672499999996;7.2405715;0.22500000894069672;1673302150.5728757;-18.397993087768555;22.072484970092773;81.0110092163086
37;1673302150.711926;47.1306748;7.2405675;0.26200002431869507;1673302150.7452931;-20.038068771362305;23.617137908935547;81.24898529052734
38;1673302150.9202027;47.130676799999996;7.2405642;0.30100002884864807;1673302150.9534483;-21.7951717376709;24.940021514892578;81.5257568359375
39;1673302151.1140645;47.1306784;7.2405615;0.3450000286102295;1673302151.14919;-23.635211944580078;26.061281204223633;81.9210205078125
40;1673302151.3199117;47.1306795;7.2405596;0.39100003242492676;1673302151.3560238;-25.514286041259766;27.598709106445312;82.27428436279297
41;1673302151.5251553;47.1306801;7.2405586;0.43800002336502075;1673302151.5624168;-27.482839584350586;28.92168617248535;82.77289581298828
42;1673302151.7313912;47.1306801;7.2405586;0.48500001430511475;1673302151.770596;-29.564485549926758;29.931093215942383;83.32378387451172
43;1673302151.9264102;47.1306795;7.2405596999999995;0.5360000133514404;1673302151.964516;-31.724735260009766;31.141443252563477;83.95576477050781
44;1673302152.1533258;47.1306783;7.2405618;0.5879999995231628;1673302152.1855447;-34.142051696777344;32.24799346923828;84.69396209716797
45;1673302152.3397586;47.1306764;7.2405650999999995;0.6470000147819519;1673302152.375911;-36.55781936645508;33.093353271484375;85.63679504394531
46;1673302152.5185962;47.130673599999994;7.2405696;0.7150000333786011;1673302152.551778;-38.826698303222656;33.214298248291016;86.91472625732422
47;1673302152.740314;47.130670099999996;7.2405754;0.7830000519752502;1673302152.7706816;-35.76719665527344;29.7683162689209;89.11601257324219
48;1673302152.9349198;47.1306662;7.2405819;0.8420000672340393;1673302152.9701035;-31.64641571044922;25.649003982543945;90.71449279785156
49;1673302153.12158;47.130662;7.2405886;0.8940000534057617;1673302153.154752;-26.882596969604492;21.537567138671875;91.95559692382812
50;1673302153.316122;47.130658;7.2405952;0.9430000185966492;1673302153.350284;-21.797040939331055;17.859827041625977;92.39432525634766
51;1673302153.511572;47.130654299999996;7.240601099999999;0.987000048160553;1673302153.5476851;-17.227867126464844;14.924649238586426;92.34603881835938
52;1673302153.709016;47.130651199999996;7.2406061;1.0290000438690186;1673302153.7412248;-14.3414945602417;13.304841995239258;91.98490142822266
53;1673302153.9131606;47.130648799999996;7.240609999999999;1.0670000314712524;1673302153.9514875;-13.402674674987793;13.12318229675293;91.40715026855469
54;1673302154.1126068;47.1306471;7.2406127;1.1110000610351562;1673302154.1443772;-13.742594718933105;13.565385818481445;90.96786499023438
55;1673302154.3099146;47.130646;7.2406143;1.159000039100647;1673302154.34714;-15.105234146118164;14.292901039123535;90.65895080566406
56;1673302154.5199294;47.1306454;7.240615099999999;1.2160000801086426;1673302154.556045;-17.09355926513672;16.5185546875;90.07144165039062
57;1673302154.7337937;47.130645;7.240615399999999;1.283000111579895;1673302154.7719219;-18.51290512084961;19.278078079223633;89.28631591796875
58;1673302154.9332113;47.1306449;7.240615399999999;1.3680000305175781;1673302154.974205;-19.866878509521484;17.316505432128906;89.93091583251953
59;1673302155.1547265;47.1306449;7.240615399999999;1.4660000801086426;1673302155.1869721;-21.055145263671875;17.957931518554688;90.0063705444336
60;1673302155.3373585;47.1306449;7.2406153;1.5720000267028809;1673302155.372559;-21.50611686706543;22.01198387145996;91.76861572265625
61;1673302155.5269747;47.1306448;7.240615399999999;1.690000057220459;1673302155.56209;-22.31404685974121;18.60768699645996;92.1898193359375
62;1673302155.7441673;47.1306447;7.2406156;1.8190001249313354;1673302155.7754;-22.598093032836914;18.393465042114258;92.66516876220703
63;1673302155.9285874;47.130644499999995;7.240615999999999;1.9580000638961792;1673302155.9686165;-22.009586334228516;21.482967376708984;92.06735229492188
64;1673302156.1475132;47.1306443;7.2406166;2.1070001125335693;1673302156.1739357;-21.35734748840332;19.730302810668945;92.40148162841797
65;1673302156.3539276;47.1306442;7.2406172;2.2680001258850098;1673302156.392038;-21.19109344482422;18.44114112854004;92.92899322509766
66;1673302156.557167;47.130643899999995;7.2406178;2.443000078201294;1673302156.5913548;-20.477880477905273;21.068342208862305;92.00847625732422
67;1673302156.7568047;47.1306436;7.2406184;2.626000165939331;1673302156.7900796;-19.427867889404297;19.622406005859375;92.19717407226562
68;1673302156.948113;47.130643299999996;7.2406188;2.820000171661377;1673302156.9803128;-20.014822006225586;17.21291160583496;92.63756561279297
69;1673302157.1191266;47.130643;7.240619199999999;3.013000249862671;1673302157.151335;-19.446640014648438;19.559650421142578;92.0068359375
70;1673302157.3107195;47.1306429;7.2406194;3.2090001106262207;1673302157.3449316;-18.825267791748047;19.923471450805664;91.98619079589844
71;1673302157.510995;47.1306428;7.2406196;3.4060001373291016;1673302157.5451531;-19.367534637451172;17.00753402709961;92.7475814819336
72;1673302157.7259426;47.1306428;7.2406196;3.6020002365112305;1673302157.761388;-20.015300750732422;18.94088363647461;92.00708770751953
73;1673302157.9556956;47.130642699999996;7.240619499999999;3.7940001487731934;1673302157.9830377;-19.420047760009766;20.298860549926758;91.63003540039062
74;1673302158.1237576;47.1306425;7.240619499999999;3.9830002784729004;1673302158.172737;-20.23980712890625;16.707717895507812;92.5855484008789
75;1673302158.3681245;47.1306425;7.2406194;4.173000335693359;1673302158.399956;-20.837247848510742;17.771135330200195;92.64736938476562
76;1673302158.5586424;47.1306424;7.2406193;4.368000030517578;1673302158.5889125;-20.313690185546875;20.35906219482422;91.90432739257812
77;1673302158.7311513;47.1306424;7.2406193;4.563000202178955;1673302158.7604892;-20.773269653320312;17.720491409301758;92.38265228271484
78;1673302158.9405353;47.1306425;7.2406194;4.75700044631958;1673302158.9805946;-20.790117263793945;17.728107452392578;92.49098205566406
79;1673302159.134379;47.1306425;7.2406194;4.945000171661377;1673302159.1665752;-20.433149337768555;20.934444427490234;91.66659545898438
80;1673302159.3215442;47.1306425;7.2406196;5.133000373840332;1673302159.357647;-20.01283836364746;18.68498420715332;92.31959533691406
81;1673302159.5580516;47.130642599999995;7.2406197;5.324000358581543;1673302159.5864694;-20.768835067749023;17.730194091796875;92.69881439208984
82;1673302159.7273123;47.130642599999995;7.240619799999999;5.516000270843506;1673302159.7966177;-20.314634323120117;20.45986557006836;91.98096466064453
83;1673302159.9944203;47.130642699999996;7.2406198999999996;5.708000183105469;1673302160.0247068;-19.832765579223633;19.744447708129883;91.97986602783203
84;1673302160.1688304;47.130642699999996;7.24062;5.904000282287598;1673302160.1961892;-20.465856552124023;17.327228546142578;92.75181579589844
85;1673302160.3424995;47.130642699999996;7.24062;6.0960001945495605;1673302160.37585;-20.293590545654297;19.620723724365234;92.2275619506836
86;1673302160.5331516;47.130642599999995;7.2406201;6.2870001792907715;1673302160.5702748;-19.685518264770508;20.22722625732422;91.88282012939453
87;1673302160.7305634;47.130642599999995;7.2406201999999995;6.4810004234313965;1673302160.7637467;-20.23938751220703;16.887939453125;92.73225402832031
88;1673302160.9297333;47.130642599999995;7.2406201999999995;6.674000263214111;1673302160.9638934;-20.245052337646484;19.367542266845703;92.1872787475586
89;1673302161.1331675;47.130642599999995;7.2406201999999995;6.867000102996826;1673302161.1661606;-19.711313247680664;20.36398696899414;91.9326400756836
90;1673302161.3275616;47.130642599999995;7.2406201999999995;7.061000347137451;1673302161.3628485;-20.279687881469727;17.35268211364746;92.66376495361328
91;1673302161.5225632;47.130642699999996;7.2406201999999995;7.253000259399414;1673302161.5577197;-20.427593231201172;18.893016815185547;92.382080078125
92;1673302161.7356195;47.130642599999995;7.2406201999999995;7.444000244140625;1673302161.770756;-19.811325073242188;20.886993408203125;91.76876068115234
93;1673302161.939717;47.130642599999995;7.2406201999999995;7.635000228881836;1673302161.9699717;-20.037328720092773;17.723527908325195;92.44627380371094
94;1673302162.140275;47.130642599999995;7.2406201999999995;7.832000255584717;1673302162.1754403;-20.756893157958984;18.266447067260742;92.46127319335938
95;1673302162.3280215;47.130642599999995;7.2406201999999995;8.028000831604004;1673302162.3641598;-19.965309143066406;20.78145408630371;91.75669860839844
96;1673302162.5273747;47.130642599999995;7.2406201999999995;8.222000122070312;1673302162.5605943;-20.238399505615234;18.802947998046875;92.32392883300781
97;1673302162.72729;47.130642599999995;7.2406201999999995;8.418000221252441;1673302162.7674706;-20.49578857421875;17.813085556030273;92.6791763305664
98;1673302162.933752;47.130642599999995;7.2406201999999995;8.613000869750977;1673302162.9660995;-20.221460342407227;20.825815200805664;91.75395965576172
99;1673302163.1320176;47.1306425;7.2406201999999995;8.81100082397461;1673302163.1691685;-19.704505920410156;18.987125396728516;92.17913818359375
100;1673302163.3440697;47.1306425;7.2406203;9.011000633239746;1673302163.376274;-20.645177841186523;17.126550674438477;92.62495422363281
101;1673302163.5424798;47.1306424;7.2406203;9.210000038146973;1673302163.5717607;-20.120695114135742;20.30301284790039;91.92744445800781
102;1673302163.7196207;47.1306425;7.2406203;9.41100025177002;1673302163.7549148;-19.756065368652344;19.4764347076416;92.07484436035156
103;1673302163.9243693;47.1306425;7.2406203;9.610000610351562;1673302163.962647;-20.347442626953125;17.328264236450195;92.78121948242188
104;1673302164.1160364;47.1306425;7.2406204;9.8100004196167;1673302164.1512072;-20.22749900817871;19.75885009765625;92.07032012939453
105;1673302164.3388174;47.1306424;7.2406204;10.010000228881836;1673302164.375905;-19.819143295288086;20.149261474609375;91.84659576416016
106;1673302164.5363827;47.1306424;7.2406204;10.223000526428223;1673302164.5687656;-19.569732666015625;16.692829132080078;92.82720184326172
107;1673302164.7235556;47.1306423;7.2406204999999995;10.5260009765625;1673302164.75674;-23.269195556640625;20.01338768005371;92.35389709472656
108;1673302164.9317603;47.130641999999995;7.240621;10.91100025177002;1673302164.962994;-22.404125213623047;22.409622192382812;91.94036865234375
109;1673302165.1455352;47.130641499999996;7.240621699999999;11.313000679016113;1673302165.1798477;-20.615694046020508;18.097156524658203;92.78440856933594
110;1673302165.3333526;47.1306411;7.2406225;11.719000816345215;1673302165.3677912;-18.95672035217285;17.67926025390625;92.23814392089844
111;1673302165.5426617;47.1306407;7.2406231;12.123000144958496;1673302165.5787728;-17.299097061157227;18.360071182250977;91.95088958740234
112;1673302165.7431793;47.1306404;7.240623599999999;12.527000427246094;1673302165.7773473;-16.958467483520508;15.721639633178711;92.48279571533203
113;1673302165.9308116;47.1306404;7.2406236999999996;12.932000160217285;1673302165.9650166;-17.37017822265625;15.707168579101562;92.61959075927734
114;1673302166.1393356;47.1306405;7.2406235;13.336000442504883;1673302166.1725795;-17.15323257446289;18.606170654296875;91.80835723876953
115;1673302166.3410692;47.1306407;7.2406232;13.744000434875488;1673302166.377346;-17.859848022460938;17.278017044067383;92.16292572021484
116;1673302166.5386946;47.130640899999996;7.2406228;14.153000831604004;1673302166.5719638;-18.966400146484375;16.687530517578125;92.55927276611328
117;1673302166.7343287;47.1306411;7.2406222;14.564001083374023;1673302166.7686503;-19.374303817749023;19.583084106445312;91.85240173339844
118;1673302166.943142;47.1306413;7.2406217999999996;14.976000785827637;1673302166.974373;-19.399688720703125;18.776174545288086;92.12629699707031
119;1673302167.142418;47.130641399999995;7.240621399999999;15.393000602722168;1673302167.1756468;-20.541065216064453;17.05673599243164;92.75605773925781
120;1673302167.3314989;47.1306416;7.240621099999999;15.808000564575195;1673302167.3627455;-20.408632278442383;19.76007843017578;92.13497924804688
121;1673302167.521585;47.1306418;7.2406209;16.214000701904297;1673302167.5537925;-20.023113250732422;19.62371253967285;92.09375
122;1673302167.7132387;47.1306419;7.240620799999999;16.625;1673302167.7454603;-20.58424949645996;17.30220603942871;92.71800231933594
123;1673302167.9135232;47.1306419;7.2406207;17.035001754760742;1673302167.9476838;-20.19308853149414;19.397581100463867;92.23058319091797
124;1673302168.1091323;47.1306419;7.2406207;17.44099998474121;1673302168.1433246;-19.557973861694336;19.91364860534668;91.98751068115234
125;1673302168.3380427;47.1306419;7.2406206;17.845001220703125;1673302168.3712242;-19.963642120361328;17.053560256958008;92.60856628417969
126;1673302168.5277355;47.130641999999995;7.2406207;18.251001358032227;1673302168.5610688;-19.75371551513672;18.80322265625;92.3379898071289
127;1673302168.7287035;47.130641999999995;7.2406207;18.650001525878906;1673302168.7697055;-18.99283218383789;19.953229904174805;91.93306732177734
128;1673302168.9363394;47.130641999999995;7.240620799999999;19.052000045776367;1673302168.9726052;-19.384401321411133;17.441051483154297;92.49446868896484
129;1673302169.1506097;47.130642099999996;7.2406207;19.45800018310547;1673302169.1877077;-19.55326271057129;18.37309455871582;92.47578430175781
130;1673302169.360277;47.130642099999996;7.2406207;19.860000610351562;1673302169.390552;-19.171890258789062;20.343101501464844;91.89048767089844
131;1673302169.5509079;47.130642099999996;7.2406207;20.264001846313477;1673302169.5841043;-19.33373260498047;17.972665786743164;92.41850280761719
132;1673302169.741504;47.130642099999996;7.2406206;20.667001724243164;1673302169.7766395;-19.876195907592773;17.829849243164062;92.46505737304688
133;1673302169.9320958;47.130642099999996;7.2406204999999995;21.07000160217285;1673302169.9672315;-19.515600204467773;20.45840072631836;91.80744171142578
134;1673302170.1433704;47.130642099999996;7.2406204999999995;21.46700096130371;1673302170.179483;-19.46519660949707;18.525407791137695;92.29917907714844
135;1673302170.336624;47.130642099999996;7.2406204999999995;21.867000579833984;1673302170.3708172;-19.92156219482422;17.42137908935547;92.64811706542969
136;1673302170.5300581;47.130642099999996;7.2406204;22.268001556396484;1673302170.563258;-19.57157325744629;19.95195960998535;92.0016860961914
137;1673302170.723684;47.130641999999995;7.2406204;22.671001434326172;1673302170.7549152;-19.14389419555664;19.107704162597656;92.11988830566406
138;1673302170.9097178;47.130641999999995;7.2406203;23.073001861572266;1673302170.951425;-19.976877212524414;16.837507247924805;92.7267074584961
139;1673302171.1280756;47.130641999999995;7.2406201999999995;23.474000930786133;1673302171.1603115;-19.810890197753906;19.366418838500977;92.13851928710938
140;1673302171.3153374;47.130641999999995;7.2406201999999995;23.871000289916992;1673302171.3561003;-19.408124923706055;19.741539001464844;91.98074340820312
141;1673302171.5268044;47.130641999999995;7.2406201999999995;24.2710018157959;1673302171.5659456;-19.767274856567383;17.279966354370117;92.5765151977539
142;1673302171.7302117;47.130641999999995;7.2406201999999995;24.672000885009766;1673302171.7665622;-19.718137741088867;18.789592742919922;92.35023498535156
143;1673302171.935472;47.130641999999995;7.2406201999999995;25.07600212097168;1673302171.9708998;-19.387996673583984;20.227046966552734;91.8495864868164
144;1673302172.133103;47.130641999999995;7.2406201999999995;25.48000144958496;1673302172.1673346;-19.505413055419922;17.326465606689453;92.59466552734375
145;1673302172.3306253;47.130642099999996;7.2406203;25.88300132751465;1673302172.3663228;-19.904512405395508;18.291318893432617;92.47355651855469
146;1673302172.5301712;47.130642099999996;7.2406203;26.286001205444336;1673302172.5663888;-19.151517868041992;20.36819839477539;91.93709564208984
147;1673302172.7258282;47.130642099999996;7.2406203;26.6820011138916;1673302172.7620118;-19.45234489440918;18.254032135009766;92.37323760986328
148;1673302172.950924;47.130641999999995;7.2406201999999995;27.0830020904541;1673302172.9841397;-20.033849716186523;17.626806259155273;92.46328735351562
149;1673302173.142451;47.130641999999995;7.2406201999999995;27.487001419067383;1673302173.1767762;-19.636554718017578;20.131319046020508;91.8348388671875
150;1673302173.3402994;47.130641999999995;7.2406201999999995;27.893001556396484;1673302173.373486;-19.326282501220703;18.41002655029297;92.21310424804688
151;1673302173.521947;47.130641999999995;7.2406201999999995;28.299001693725586;1673302173.5561113;-20.073375701904297;17.293344497680664;92.63737487792969
152;1673302173.7172449;47.130642099999996;7.2406201999999995;28.70400047302246;1673302173.749982;-19.632450103759766;19.63853645324707;92.0263900756836
153;1673302173.9129755;47.130642099999996;7.2406201999999995;29.101001739501953;1673302173.949685;-19.331087112426758;19.31180191040039;92.08152770996094
154;1673302174.1142156;47.1306422;7.2406201999999995;29.499000549316406;1673302174.1508632;-19.83601188659668;17.348901748657227;92.78704071044922
155;1673302174.3136141;47.1306423;7.2406203;29.900001525878906;1673302174.3473313;-19.716943740844727;19.640304565429688;92.26276397705078
156;1673302174.5341678;47.1306423;7.2406203;30.303001403808594;1673302174.5703433;-19.12180519104004;20.002763748168945;91.95752716064453
157;1673302174.7382286;47.1306423;7.2406203;30.707000732421875;1673302174.7725494;-19.848037719726562;17.477094650268555;92.57127380371094
158;1673302174.9276772;47.1306424;7.2406203;31.106000900268555;1673302174.964758;-19.738590240478516;18.880464553833008;92.39315032958984
159;1673302175.1292446;47.1306425;7.2406203;31.511001586914062;1673302175.161454;-19.36903190612793;20.64035415649414;91.78193664550781
160;1673302175.3471498;47.1306424;7.2406203;31.908000946044922;1673302175.3783293;-19.44240951538086;17.710445404052734;92.48202514648438
161;1673302175.5368357;47.1306424;7.2406203;32.30500030517578;1673302175.5729656;-20.08268165588379;18.23617172241211;92.4754409790039
162;1673302175.7331603;47.1306423;7.2406203;32.70500183105469;1673302175.7673247;-19.060976028442383;20.4025936126709;91.91728973388672
163;1673302175.9317117;47.1306423;7.2406204;33.10700225830078;1673302175.9688332;-19.341739654541016;18.392290115356445;92.36505889892578
164;1673302176.1382384;47.1306424;7.2406204;33.50600051879883;1673302176.172566;-19.916349411010742;17.90367889404297;92.5424575805664
165;1673302176.3476648;47.1306424;7.2406204;33.90700149536133;1673302176.3798797;-19.15057373046875;20.556446075439453;91.89720916748047
166;1673302176.5453115;47.1306424;7.2406204;34.303001403808594;1673302176.5774882;-19.136899948120117;18.722248077392578;92.27149963378906
167;1673302176.7536533;47.1306424;7.2406204;34.707000732421875;1673302176.785991;-19.717649459838867;17.629497528076172;92.58221435546875
168;1673302176.9440033;47.1306424;7.2406204;35.111000061035156;1673302176.9801266;-19.43393325805664;19.936573028564453;92.0010986328125
169;1673302177.1293206;47.1306424;7.2406203;35.5150032043457;1673302177.1634915;-19.200441360473633;19.493743896484375;92.17182159423828
170;1673302177.3224118;47.1306424;7.2406201999999995;35.92000198364258;1673302177.3591027;-19.94791603088379;17.131080627441406;92.71963500976562
171;1673302177.5409338;47.1306424;7.2406201;36.32500076293945;1673302177.5751493;-19.794513702392578;19.53638458251953;92.19854736328125
172;1673302177.7249906;47.1306424;7.2406201;36.72800064086914;1673302177.764363;-19.261699676513672;20.112974166870117;91.99778747558594
173;1673302177.936207;47.1306424;7.2406201;37.12300109863281;1673302177.9766564;-19.65565299987793;17.200294494628906;92.61785125732422
174;1673302178.139484;47.1306423;7.2406201;37.52300262451172;1673302178.1708708;-19.71352767944336;18.84048080444336;92.27871704101562
175;1673302178.324702;47.1306423;7.2406201;37.92400360107422;1673302178.3603811;-19.316516876220703;20.15575408935547;91.92669677734375
176;1673302178.5371804;47.1306423;7.2406201;38.323001861572266;1673302178.577247;-19.430065155029297;18.407669067382812;92.322021484375
177;1673302178.733568;47.1306424;7.2406201;38.72600173950195;1673302178.7697175;-19.950241088867188;18.073759078979492;92.4766616821289
178;1673302178.9252477;47.1306424;7.2406201;39.12700271606445;1673302178.9599533;-19.48055648803711;20.888444900512695;91.78172302246094
179;1673302179.1153033;47.1306424;7.2406201;39.52100372314453;1673302179.150466;-19.1575984954834;18.627532958984375;92.333251953125
180;1673302179.3169212;47.1306424;7.2406201;39.92100143432617;1673302179.357495;-19.975065231323242;17.865413665771484;92.56651306152344
181;1673302179.5365388;47.1306424;7.2406201;40.32500076293945;1673302179.5736284;-19.485422134399414;20.122432708740234;92.1014175415039
182;1673302179.7270138;47.1306424;7.24062;40.730003356933594;1673302179.761347;-19.322895050048828;19.172609329223633;92.1661148071289
183;1673302179.925173;47.1306424;7.24062;41.13300323486328;1673302179.9696372;-19.849735260009766;17.431537628173828;92.73308563232422
184;1673302180.1886878;47.1306425;7.24062;41.53200149536133;1673302180.2187295;-19.72824478149414;19.93672752380371;92.06847381591797
185;1673302180.3586936;47.1306425;7.2406198999999996;41.932003021240234;1673302180.3850763;-19.34117317199707;19.99197006225586;91.8951644897461
186;1673302180.5415611;47.1306425;7.2406198999999996;42.32400131225586;1673302180.5777888;-19.805574417114258;17.435508728027344;92.5745849609375
187;1673302180.7327175;47.1306424;7.2406198999999996;42.720001220703125;1673302180.765056;-19.764934539794922;18.994699478149414;92.32049560546875
188;1673302180.9238079;47.1306424;7.2406198999999996;43.1150016784668;1673302180.955584;-19.256099700927734;20.458316802978516;91.9301986694336
189;1673302181.126924;47.1306425;7.2406198999999996;43.51100158691406;1673302181.1611047;-19.630596160888672;17.774362564086914;92.57079315185547
190;1673302181.3291314;47.1306425;7.2406198999999996;43.91200256347656;1673302181.3658001;-19.96831703186035;18.590158462524414;92.4069595336914
191;1673302181.5375578;47.1306425;7.2406198999999996;44.310001373291016;1673302181.577576;-19.271198272705078;20.78290367126465;91.81784057617188
192;1673302181.749536;47.1306425;7.2406198999999996;44.702003479003906;1673302181.7847052;-19.363059997558594;18.426340103149414;92.34919738769531
193;1673302181.9462523;47.1306425;7.2406198999999996;45.099002838134766;1673302181.9806626;-19.806392669677734;18.101348876953125;92.62571716308594
194;1673302182.137541;47.1306425;7.2406198999999996;45.49700164794922;1673302182.1776106;-19.471574783325195;20.488245010375977;91.90192413330078
195;1673302182.3434548;47.1306425;7.2406198999999996;45.89400100708008;1673302182.3778548;-19.27018165588379;18.88141441345215;92.19950866699219
196;1673302182.5406523;47.1306425;7.2406198999999996;46.28900146484375;1673302182.5729861;-20.012937545776367;17.45290756225586;92.61013793945312
197;1673302182.7229593;47.130642599999995;7.2406198999999996;46.68600082397461;1673302182.7566855;-19.49909019470215;20.423446655273438;91.96560668945312
198;1673302182.9301832;47.1306425;7.2406198999999996;47.08100128173828;1673302182.9658513;-19.16973876953125;19.537885665893555;92.15789794921875
199;1673302183.116761;47.1306425;7.2406198999999996;47.47200393676758;1673302183.151476;-19.705032348632812;17.408674240112305;92.7278823852539
200;1673302183.330762;47.1306424;7.240619799999999;47.867000579833984;1673302183.3762662;-19.73436164855957;19.16440200805664;92.31922912597656
201;1673302183.5588832;47.1306425;7.240619799999999;48.243003845214844;1673302183.587183;-19.595027923583984;20.413896560668945;91.72454833984375
202;1673302183.7475932;47.130642599999995;7.2406197;48.56700134277344;1673302183.7789044;-20.061918258666992;18.564889907836914;92.42195892333984
203;1673302183.9321587;47.1306428;7.2406194;48.84100341796875;1673302183.9683115;-20.210302352905273;20.466732025146484;92.01092529296875
204;1673302184.1331093;47.130643;7.2406191;49.06700134277344;1673302184.171715;-20.591121673583984;20.759307861328125;92.00601196289062
205;1673302184.3380942;47.130643199999994;7.2406188;49.249000549316406;1673302184.3669505;-21.16942596435547;19.036788940429688;92.5876235961914
206;1673302184.539292;47.130643299999996;7.2406185;49.39800262451172;1673302184.5731003;-15.221625328063965;22.74003791809082;91.50594329833984
207;1673302184.7462103;47.1306434;7.2406177;49.48800277709961;1673302184.78135;-5.8423333168029785;35.99201583862305;81.77092742919922
208;1673302184.95751;47.1306431;7.2406162;49.547000885009766;1673302184.9877052;-11.682948112487793;29.45814323425293;67.94098663330078
209;1673302185.1589015;47.1306425;7.2406147999999995;49.59400177001953;1673302185.1916392;-3.2801437377929688;30.743785858154297;59.16489791870117
210;1673302185.3644724;47.1306419;7.240613499999999;49.63600158691406;1673302185.3986151;2.781336784362793;31.55584144592285;49.67245101928711
211;1673302185.5523937;47.1306411;7.240612199999999;49.676002502441406;1673302185.5853126;6.147255897521973;28.946138381958008;40.23241424560547
212;1673302185.7587123;47.130640299999996;7.2406111;49.702003479003906;1673302185.7944999;10.356203079223633;27.107425689697266;31.153188705444336
213;1673302185.9588308;47.1306394;7.2406101;49.72100067138672;1673302185.9905782;13.614619255065918;25.6505069732666;22.149246215820312
214;1673302186.1605685;47.1306386;7.2406093;49.73500061035156;1673302186.196722;16.9090576171875;24.619670867919922;13.485634803771973
215;1673302186.3837895;47.130637899999996;7.240608699999999;49.749000549316406;1673302186.420522;19.618621826171875;22.85930633544922;4.7665205001831055
216;1673302186.581355;47.1306373;7.2406083;49.76400375366211;1673302186.6114798;22.099225997924805;20.371999740600586;-3.9575624465942383
217;1673302186.7745125;47.1306369;7.240608;49.77700424194336;1673302186.8015757;24.66811180114746;16.761808395385742;-12.650919914245605
218;1673302186.9514194;47.1306365;7.240607799999999;49.78300094604492;1673302186.984399;26.433561325073242;12.413924217224121;-21.57352638244629
219;1673302187.1424096;47.1306364;7.240607799999999;49.78900146484375;1673302187.179407;27.71940803527832;7.119809150695801;-30.60595703125
220;1673302187.3596485;47.1306364;7.2406079;49.80000305175781;1673302187.3928337;28.157522201538086;1.5762770175933838;-39.51042938232422
221;1673302187.5896316;47.130636599999995;7.240608;49.81100082397461;1673302187.617934;27.80911636352539;-3.6423988342285156;-48.187259674072266
222;1673302187.7636244;47.1306368;7.240608099999999;49.823001861572266;1673302187.7948568;27.273155212402344;-7.874709129333496;-51.52729034423828
223;1673302187.952309;47.130637;7.240608;49.83400344848633;1673302187.9893994;27.80739402770996;-5.752409934997559;-48.026065826416016
224;1673302188.1456838;47.130637199999995;7.240607799999999;49.845001220703125;1673302188.181004;28.243085861206055;-3.0555412769317627;-45.81730651855469
225;1673302188.3591626;47.130637;7.2406074;49.85000228881836;1673302188.392965;28.355405807495117;-0.9134582281112671;-44.9169807434082
226;1673302188.5637784;47.1306368;7.240606799999999;49.862003326416016;1673302188.5990083;29.07090950012207;-0.5182431936264038;-44.6779899597168
227;1673302188.7680988;47.130636599999995;7.2406063;49.875003814697266;1673302188.799335;29.634965896606445;-1.301773190498352;-44.85869216918945
228;1673302188.976612;47.1306364;7.2406058;49.88600158691406;1673302189.0113804;29.612728118896484;-1.8992712497711182;-45.05679702758789
229;1673302189.1755345;47.1306363;7.2406055;49.89400100708008;1673302189.209691;29.012760162353516;-1.6149324178695679;-45.061851501464844
230;1673302189.3787863;47.1306362;7.2406052999999995;49.900001525878906;1673302189.412948;28.311450958251953;-0.7435294389724731;-44.94819259643555
231;1673302189.5637357;47.130635999999996;7.2406052999999995;49.897003173828125;1673302189.5956554;20.36286163330078;0.04494591802358627;-45.98638916015625
232;1673302189.7438965;47.1306363;7.2406047;49.89500427246094;1673302189.7730978;-13.348833084106445;2.904627561569214;-47.6240348815918
233;1673302189.9379342;47.130637799999995;7.240602099999999;49.867000579833984;1673302189.9710255;-39.40231704711914;4.526426792144775;-49.62784957885742
234;1673302190.1399524;47.1306417;7.240596099999999;49.79300308227539;1673302190.1749325;-37.02194595336914;1.2101494073867798;-47.82108688354492
235;1673302190.3325765;47.130648099999995;7.240585899999999;49.77000045776367;1673302190.3698132;-49.45283508300781;0.08416467159986496;-47.59120178222656
236;1673302190.5360599;47.1306571;7.2405707999999995;49.759002685546875;1673302190.5720596;-47.47169876098633;0.40545451641082764;-47.368309020996094
237;1673302190.7323039;47.130668199999995;7.240551699999999;49.749000549316406;1673302190.769968;-48.034423828125;0.8024342656135559;-46.13959503173828
238;1673302190.9290178;47.130681599999996;7.2405294;49.743003845214844;1673302190.9637172;-50.143959045410156;0.04834926500916481;-45.70001983642578
239;1673302191.1560504;47.130697;7.2405038;49.74400329589844;1673302191.1839018;-51.874755859375;1.5246943235397339;-46.76224899291992
240;1673302191.3708887;47.1307142;7.2404755;49.75100326538086;1673302191.4114792;-51.772518157958984;2.571436882019043;-46.833900451660156
241;1673302191.6094086;47.130733299999996;7.240444699999999;49.78000259399414;1673302191.6526222;-51.07512664794922;2.9405722618103027;-46.82126998901367
242;1673302191.8270993;47.1307537;7.2404120999999995;49.814002990722656;1673302191.8594098;-46.51456832885742;4.650065898895264;-46.42543029785156
243;1673302192.0420334;47.1307751;7.240378499999999;49.845001220703125;1673302192.0719032;-41.64634704589844;4.547664165496826;-46.81577682495117
244;1673302192.2238364;47.130797099999995;7.2403448;49.86600112915039;1673302192.246979;-37.12607955932617;3.143481731414795;-46.4664306640625
245;1673302192.3991542;47.1308193;7.2403108;49.875003814697266;1673302192.4309437;-32.449729919433594;2.4459469318389893;-46.53997802734375
246;1673302192.5763862;47.130841499999995;7.240277099999999;49.874000549316406;1673302192.607629;-19.681642532348633;1.2284753322601318;-46.265384674072266
247;1673302192.7640727;47.1308629;7.2402444;49.87000274658203;1673302192.807044;17.426015853881836;-2.0656070709228516;-45.57306671142578
248;1673302192.9602618;47.1308827;7.2402144999999996;49.814002990722656;1673302192.9952073;29.426298141479492;-0.5483176708221436;-44.24910354614258
249;1673302193.158282;47.1309001;7.240188;49.711002349853516;1673302193.1853678;30.17311668395996;1.0122709274291992;-45.31853103637695
250;1673302193.3591502;47.1309147;7.2401659;49.711002349853516;1673302193.395316;47.79950714111328;1.2263184785842896;-46.64777374267578
251;1673302193.5662148;47.1309257;7.2401493;49.749000549316406;1673302193.5993052;51.61618423461914;0.5275370478630066;-47.1909065246582
252;1673302193.7632122;47.130933899999995;7.2401374999999994;49.80400085449219;1673302193.7952259;52.578914642333984;-0.1204788088798523;-48.03932571411133
253;1673302193.9571788;47.1309396;7.2401298;49.862003326416016;1673302193.9942634;50.126319885253906;-0.04259166121482849;-47.18077087402344
254;1673302194.156156;47.1309434;7.2401252;49.90200424194336;1673302194.190958;48.374332427978516;-0.682715117931366;-47.18632507324219
255;1673302194.3692496;47.1309456;7.2401231;49.92100143432617;1673302194.4031749;44.30470275878906;-2.149724006652832;-46.945091247558594
256;1673302194.6031876;47.1309465;7.2401227;49.94400405883789;1673302194.6853068;36.851810455322266;-0.8449394702911377;-46.737457275390625
257;1673302194.8456173;47.130946599999994;7.2401231;49.95100402832031;1673302194.8901668;30.96833610534668;-2.304136037826538;-46.78182601928711
258;1673302195.0446053;47.1309464;7.2401237;49.945003509521484;1673302195.0743287;24.858814239501953;-0.37231841683387756;-46.52546691894531
259;1673302195.2241604;47.1309462;7.2401241999999995;49.93600082397461;1673302195.252314;20.016122817993164;0.38149917125701904;-46.053466796875
260;1673302195.4124477;47.1309462;7.2401241;49.93000411987305;1673302195.4397852;17.14505386352539;1.7603880167007446;-46.08403778076172
261;1673302195.6001244;47.1309464;7.240123499999999;49.92500305175781;1673302195.6392589;17.515945434570312;1.1839138269424438;-46.85419845581055
262;1673302195.7991016;47.1309471;7.2401222999999995;49.92400360107422;1673302195.830344;19.998573303222656;0.26642125844955444;-47.06795120239258
263;1673302195.9916403;47.130948;7.240120699999999;49.928001403808594;1673302196.0209217;22.009056091308594;-1.2162374258041382;-47.26497268676758
264;1673302196.1654572;47.130949199999996;7.2401184999999995;49.93600082397461;1673302196.1976712;24.385311126708984;-2.1605708599090576;-47.30267333984375
265;1673302196.370375;47.1309505;7.2401165;49.945003509521484;1673302196.4016564;25.910072326660156;-1.9642468690872192;-47.138221740722656
266;1673302196.5516458;47.1309517;7.2401146;49.95600128173828;1673302196.5828776;27.79416847229004;-0.280087947845459;-46.74016189575195
267;1673302196.748163;47.1309529;7.240113;49.9640007019043;1673302196.7845044;29.362743377685547;1.152147650718689;-46.08461380004883
268;1673302196.9549024;47.1309538;7.2401116;49.970001220703125;1673302196.981288;30.62416648864746;2.1237106323242188;-46.06493377685547
269;1673302197.163083;47.1309544;7.2401105999999995;49.97100067138672;1673302197.1972437;31.43927001953125;1.3958975076675415;-46.34941482543945
270;1673302197.363513;47.1309548;7.2401097;49.97100067138672;1673302197.3939228;31.74574089050293;0.6285586357116699;-46.643646240234375
271;1673302197.5534217;47.1309551;7.2401091;49.95000076293945;1673302197.5914857;32.739662170410156;-0.5999782681465149;-46.21622848510742
272;1673302197.7416713;47.1309554;7.2401083999999996;49.630001068115234;1673302197.7774904;24.791425704956055;1.8005907535552979;-44.15018844604492
273;1673302197.9621556;47.1309559;7.2401075;48.95600128173828;1673302197.9972856;3.4008398056030273;3.092658758163452;-43.09539031982422
274;1673302198.1626763;47.130956499999996;7.240106399999999;47.90700149536133;1673302198.1929328;-30.28870391845703;3.0284132957458496;-43.02410125732422
275;1673302198.3561513;47.130957099999996;7.2401051999999995;46.46200180053711;1673302198.388357;-67.09658813476562;1.6896110773086548;-43.09181594848633
276;1673302198.5545866;47.130957599999995;7.240104;44.63900375366211;1673302198.5908659;-86.0619888305664;-165.4148712158203;121.25161743164062
277;1673302198.7548456;47.1309581;7.240102599999999;42.441001892089844;1673302198.7890189;-79.12452697753906;-170.31539916992188;123.51839447021484
278;1673302198.9502327;47.1309587;7.2401013;39.89900207519531;1673302198.9814715;-83.73301696777344;-23.363969802856445;-25.146121978759766
279;1673302199.14872;47.1309593;7.2401;37.012001037597656;1673302199.1845808;-45.26649475097656;-4.259851932525635;-45.393978118896484
280;1673302199.3632374;47.1309598;7.2400989;33.75;1673302199.3935177;3.3567616939544678;-2.7664003372192383;-46.044063568115234
281;1673302199.5407503;47.1309604;7.2400977;30.089000701904297;1673302199.5718122;37.82355880737305;1.2027037143707275;-44.35346221923828
282;1673302199.739287;47.130961299999996;7.2400961;26.065000534057617;1673302199.7720883;41.101078033447266;5.228750228881836;-42.4273796081543
283;1673302199.959979;47.130962499999995;7.2400937999999995;21.678001403808594;1673302199.999019;11.426065444946289;4.816410541534424;-43.5901985168457
284;1673302200.2400143;47.1309639;7.240091199999999;16.910001754760742;1673302200.2762759;-35.35836410522461;1.2651880979537964;-44.35567855834961
285;1673302200.459024;47.1309652;7.2400888;11.758000373840332;1673302200.5078557;-65.52498626708984;-5.559157848358154;-41.12696075439453
286;1673302200.6260486;47.1309663;7.2400867;6.276000499725342;1673302200.652413;-57.88520812988281;-6.800055503845215;-41.80752944946289
287;1673302200.7828462;47.1309672;7.240085;0.46000000834465027;1673302200.8131013;-10.998245239257812;-7.723742485046387;-44.485958099365234
288;1673302200.9607615;47.130966799999996;7.240074399999999;0.48100003600120544;1673302200.999804;-7.693859100341797;-4.812926292419434;-44.600345611572266
289;1673302201.160039;47.1309676;7.240061099999999;0.6650000214576721;1673302201.1962664;-8.712993621826172;-7.537278175354004;-43.55170822143555
290;1673302201.3624244;47.130968599999996;7.240046899999999;0.8920000195503235;1673302201.3926995;-8.653155326843262;-7.626701354980469;-43.3585319519043
291;1673302201.5464685;47.1309695;7.2400331;1.0380001068115234;1673302201.5880077;-8.480019569396973;-7.5478715896606445;-43.254947662353516
292;1673302201.7498639;47.1309702;7.2400202;1.125;1673302201.788479;-8.299749374389648;-7.705775260925293;-43.16607666015625
293;1673302201.9398406;47.1309709;7.2400085999999995;1.1780000925064087;1673302201.9759722;-7.993612289428711;-8.112457275390625;-43.006526947021484
294;1673302202.1457226;47.1309715;7.2399982;1.2130000591278076;1673302202.176532;-7.672755718231201;-8.483881950378418;-42.89168930053711
295;1673302202.3460095;47.1309721;7.2399841;1.2300000190734863;1673302202.380708;-7.625100612640381;-8.973990440368652;-42.881813049316406
296;1673302202.5491295;47.1309727;7.2399676;1.2790000438690186;1673302202.5828352;-7.45969820022583;-9.267860412597656;-42.89008331298828
297;1673302202.7790315;47.130973399999995;7.2399491;1.2980000972747803;1673302202.8141673;-7.360114097595215;-9.401779174804688;-42.90993118286133
298;1673302202.9761457;47.130973999999995;7.2399290999999995;1.2990000247955322;1673302203.0073776;-7.263257026672363;-9.441373825073242;-42.9460563659668
299;1673302203.175395;47.130974699999996;7.2399078;1.2890000343322754;1673302203.210711;-7.177556991577148;-9.38347053527832;-42.94647216796875
300;1673302203.360457;47.1309754;7.2398853;1.2720000743865967;1673302203.3985322;-7.117645263671875;-9.24245834350586;-42.96963119506836
301;1673302203.5995877;47.130976;7.2398618;1.2480000257492065;1673302203.6309173;-7.057410717010498;-9.071721076965332;-43.00913619995117
302;1673302203.7865913;47.1309767;7.2398373;1.2170000076293945;1673302203.8185248;-7.018749237060547;-8.884332656860352;-43.05282211303711
303;1673302203.9794643;47.1309773;7.2398121;1.2080000638961792;1673302204.012439;-6.9433913230896;-8.693230628967285;-43.102081298828125
304;1673302204.1773024;47.1309779;7.239785899999999;1.187000036239624;1673302204.2085142;-6.8998894691467285;-8.50645923614502;-43.161170959472656
305;1673302204.3817317;47.1309786;7.239758699999999;1.158000111579895;1673302204.4125228;-6.886503219604492;-8.324159622192383;-43.20083999633789
306;1673302204.5735564;47.1309792;7.2397306;1.124000072479248;1673302204.6076846;-6.84444522857666;-8.139481544494629;-43.24623489379883
307;1673302204.7605963;47.1309797;7.2397016999999995;1.0880000591278076;1673302204.7985833;-6.797069549560547;-7.959165096282959;-43.30310821533203
308;1673302204.9464464;47.1309803;7.2396718;1.0470000505447388;1673302204.9785817;-6.780555725097656;-7.809585094451904;-43.333396911621094
309;1673302205.1866179;47.130980799999996;7.2396414;1.0140000581741333;1673302205.2235208;-6.782286167144775;-7.645659446716309;-43.380924224853516
310;1673302205.3785117;47.1309812;7.23961;0.9720000624656677;1673302205.408602;-6.7314653396606445;-7.521128177642822;-43.39749526977539
311;1673302205.557411;47.1309817;7.239577799999999;0.9260000586509705;1673302205.5934527;-6.721856594085693;-7.355395317077637;-43.427940368652344
312;1673302205.7655613;47.1309822;7.2395447;0.8730000257492065;1673302205.799554;-6.681865215301514;-7.240363121032715;-43.4720458984375
313;1673302205.9477751;47.130982599999996;7.239510999999999;0.8220000267028809;1673302205.9816308;-6.673776149749756;-7.087749481201172;-43.50619888305664
314;1673302206.1586378;47.130983;7.239476499999999;0.7720000147819519;1673302206.1936338;-6.673013687133789;-6.975532531738281;-43.53367614746094
315;1673302206.3580217;47.1309834;7.239441299999999;0.7200000286102295;1673302206.3974555;-6.613640785217285;-6.8601531982421875;-43.58312225341797
316;1673302206.5535116;47.130983799999996;7.2394053;0.6640000343322754;1673302206.5886633;-6.656477928161621;-6.750032901763916;-43.60212707519531
317;1673302206.7535973;47.1309841;7.2393687;0.612000048160553;1673302206.7875266;-6.599635124206543;-6.642040729522705;-43.666866302490234
318;1673302206.9489272;47.130984399999996;7.2393344;0.5610000491142273;1673302206.9855628;-6.55051851272583;-6.5455098152160645;-43.69221115112305
319;;;;;1673302207.191378;-6.579300403594971;-6.458585739135742;-43.68890380859375
320;;;;;1673302207.3895657;-6.535326957702637;-6.355923175811768;-43.734031677246094
321;;;;;1673302207.585699;-6.442842483520508;-6.217888355255127;-43.78118896484375
322;;;;;1673302207.7767375;-6.471053123474121;-6.171817302703857;-43.80158996582031
