;pos_time;latitude;longitude;altitude;alt_time;pitch;roll;yaw
0;1673299766.308105;47.1306424;7.2406201;0.0;1673299766.4423826;0.16523565351963043;0.44672343134880066;90.34539031982422
1;1673299766.5044546;47.1306424;7.24062;0.0;1673299766.644923;0.11960705369710922;-0.022348981350660324;90.39180755615234
2;1673299766.7022822;47.1306424;7.24062;0.0010000000474974513;1673299766.8399422;0.17933855950832367;-0.8181769251823425;90.48906707763672
3;1673299766.9009993;47.1306424;7.24062;-0.0010000000474974513;1673299767.0355096;-0.08388865739107132;-0.31829702854156494;90.32217407226562
4;1673299767.0962741;47.1306423;7.24062;0.0;1673299767.2463987;0.19033671915531158;-0.5205204486846924;90.40342712402344
5;1673299767.3131888;47.1306423;7.24062;0.0020000000949949026;1673299767.4517531;0.22518831491470337;-0.45708316564559937;90.38080596923828
6;1673299767.5089054;47.1306423;7.24062;0.003000000026077032;1673299767.6387124;0.3701818883419037;-0.46632859110832214;90.37053680419922
7;1673299767.7034414;47.1306423;7.24062;0.0020000000949949026;1673299767.8370767;0.08752918988466263;-0.26065775752067566;90.25978088378906
8;1673299767.8981404;47.1306422;7.24062;0.0;1673299768.0297456;0.16565653681755066;-0.3936704695224762;90.24205017089844
9;1673299768.0929053;47.1306422;7.24062;-0.0020000000949949026;1673299768.238025;0.08944925665855408;-0.2978585958480835;90.44612121582031
10;1673299768.3113503;47.1306422;7.2406198999999996;-0.006000000052154064;1673299768.4597535;0.24336197972297668;-0.32477349042892456;90.31697845458984
11;1673299768.5173242;47.1306422;7.2406198999999996;-0.007000000216066837;1673299768.6469688;0.030421219766139984;-0.3296879231929779;90.43366241455078
12;1673299768.7041183;47.1306423;7.2406198999999996;-0.00800000037997961;1673299768.8365958;0.08881474286317825;-0.23157918453216553;90.40902709960938
13;1673299768.8978174;47.1306423;7.24062;-0.010000000707805157;1673299769.0468688;-0.054761338979005814;-0.24552157521247864;90.2689437866211
14;1673299769.1090717;47.1306423;7.2406201;0.0;1673299769.2405646;-0.031102757900953293;-0.4845764935016632;90.55579376220703
15;1673299769.2958102;47.1306423;7.2406201999999995;0.0;1673299769.4311097;-0.1544332057237625;-0.24492816627025604;90.46321105957031
16;1673299769.4970484;47.1306423;7.2406203;0.004000000189989805;1673299769.6420813;-0.1455741822719574;-0.37146762013435364;90.41632843017578
17;1673299769.715242;47.1306423;7.2406203;0.009000000543892384;1673299769.8708818;-0.04565342515707016;-0.3197020888328552;90.3182601928711
18;1673299769.9274197;47.1306424;7.2406203;0.009000000543892384;1673299770.060434;-0.11065558344125748;-0.34586697816848755;90.3994369506836
19;1673299770.1191034;47.1306424;7.2406204;0.007000000216066837;1673299770.2603698;-0.1917266547679901;-0.535864531993866;90.51083374023438
20;1673299770.3152087;47.1306424;7.2406204;0.0020000000949949026;1673299770.4472857;-0.20897595584392548;-0.20568017661571503;90.36504364013672
21;1673299770.506351;47.1306424;7.2406204;-0.0010000000474974513;1673299770.6483428;0.22098129987716675;-0.12855879962444305;90.32255554199219
22;1673299770.707058;47.1306424;7.2406204;-0.0010000000474974513;1673299770.8532572;-0.041021548211574554;-0.087887704372406;90.3025131225586
23;1673299770.9082286;47.1306424;7.2406204;-0.0020000000949949026;1673299771.050889;-0.11367885023355484;0.0160946287214756;90.4762191772461
24;1673299771.1152;47.1306424;7.2406204;0.0;1673299771.2537618;-0.03102687932550907;-0.5293309688568115;90.47872924804688
25;1673299771.3192656;47.1306423;7.2406204;0.004000000189989805;1673299771.4593663;0.06830335408449173;0.05680988356471062;90.60850524902344
26;1673299771.5201309;47.1306423;7.2406204999999995;0.007000000216066837;1673299771.6547582;-0.02761077880859375;-0.19096893072128296;90.40860748291016
27;1673299771.7153065;47.1306423;7.2406204;0.005000000353902578;1673299771.8602047;0.10914138704538345;-0.17644596099853516;90.34823608398438
28;1673299771.911455;47.1306423;7.2406204;0.006000000052154064;1673299772.0462568;0.19283117353916168;-0.026781776919960976;90.05377960205078
29;1673299772.1151562;47.1306423;7.2406203;0.004000000189989805;1673299772.2593844;-0.04756355285644531;-0.08284476399421692;90.16358947753906
30;1673299772.3271744;47.1306423;7.2406201999999995;-0.0010000000474974513;1673299772.4712656;0.1769004911184311;0.030498966574668884;90.11829376220703
31;1673299772.5281534;47.1306423;7.2406201;-0.005000000353902578;1673299772.6661358;0.3394574224948883;-0.19136637449264526;90.23526000976562
32;1673299772.724312;47.1306423;7.2406201;-0.00800000037997961;1673299772.8551266;0.5682182312011719;-0.5396804809570312;89.89059448242188
33;1673299772.918135;47.1306424;7.2406201;-0.007000000216066837;1673299773.064096;0.6913214921951294;-0.6473535299301147;90.78172302246094
34;1673299773.140587;47.1306424;7.2406201;0.01100000087171793;1673299773.2569916;0.8285029530525208;2.129147529602051;90.67398834228516
35;1673299773.3092902;47.1306423;7.2406201;0.05000000074505806;1673299773.4504468;0.266834020614624;-2.92155122756958;90.92871856689453
36;1673299773.5123522;47.1306424;7.2406201;0.10700000822544098;1673299773.6527677;-0.45287594199180603;-0.3686857223510742;90.54564666748047
37;1673299773.7151582;47.1306425;7.2406201;0.18200001120567322;1673299773.8434017;-0.4404776692390442;2.735800266265869;90.25222778320312
38;1673299773.9061732;47.130642599999995;7.2406201999999995;0.27000001072883606;1673299774.0452166;-0.03225364908576012;-2.8010566234588623;90.40947723388672
39;1673299774.103363;47.130642599999995;7.2406203;0.36900001764297485;1673299774.2256525;1.0814663171768188;-0.6373247504234314;90.48316192626953
40;1673299774.2850263;47.1306425;7.2406203;0.4820000231266022;1673299774.4381113;0.9600175023078918;2.323584794998169;90.28863525390625
41;1673299774.4989827;47.1306425;7.2406203;0.6070000529289246;1673299774.6445029;0.6295560002326965;-1.8848987817764282;90.72766876220703
42;1673299774.7056336;47.1306425;7.2406204;0.7410000562667847;1673299774.842527;0.14724227786064148;-2.0035758018493652;90.65778350830078
43;1673299774.9006743;47.130642599999995;7.2406204;0.8920000195503235;1673299775.0459254;-0.1496046781539917;3.0212583541870117;90.37144470214844
44;1673299775.1210616;47.130642699999996;7.2406204;1.055999994277954;1673299775.2564158;-0.04925486072897911;-0.45387357473373413;90.53840637207031
45;1673299775.3195305;47.130642699999996;7.2406204;1.2320001125335693;1673299775.4493117;0.49323418736457825;-2.9369988441467285;90.65579223632812
46;1673299775.5127928;47.130642699999996;7.2406203;1.4180001020431519;1673299775.6567407;0.8026476502418518;2.051222324371338;89.69247436523438
47;1673299775.7149167;47.130642599999995;7.2406203;1.6110000610351562;1673299775.859036;0.6911506056785583;0.843007504940033;89.89716339111328
48;1673299775.9205918;47.130642599999995;7.2406203;1.8040001392364502;1673299776.0871081;0.5674654245376587;-3.1211342811584473;90.37381744384766
49;1673299776.1457176;47.130642699999996;7.2406203;1.998000144958496;1673299776.2872381;-0.021500099450349808;1.8046848773956299;90.01810455322266
50;1673299776.3459675;47.1306428;7.2406203;2.19100022315979;1673299776.4771326;-0.3124183416366577;1.8325940370559692;90.00852966308594
51;1673299776.53394;47.130642699999996;7.2406203;2.385000228881836;1673299776.6557348;-0.0016168337315320969;-2.935133695602417;90.31144714355469
52;1673299776.7114747;47.130642599999995;7.2406203;2.579000234603882;1673299776.8504133;0.18425169587135315;-0.22094523906707764;90.1358642578125
53;1673299776.9050033;47.1306425;7.2406203;2.7750000953674316;1673299777.0440187;0.41688212752342224;1.309153437614441;90.14299774169922
54;1673299777.111944;47.1306423;7.2406201999999995;2.9730000495910645;1673299777.2569742;0.45036977529525757;-3.19653582572937;90.27275085449219
55;1673299777.3408537;47.1306424;7.2406201999999995;3.1740002632141113;1673299777.5105236;0.282499223947525;-0.21778777241706848;90.36570739746094
56;1673299777.5884125;47.1306425;7.2406201;3.373000144958496;1673299777.7195666;-0.1413557082414627;2.9572579860687256;90.1098861694336
57;1673299777.7743726;47.130642599999995;7.2406201999999995;3.571000099182129;1673299777.9076548;-0.4934946298599243;-1.9463099241256714;90.4261703491211
58;1673299777.9668403;47.130642599999995;7.2406201999999995;3.7680001258850098;1673299778.1011956;-0.44065311551094055;-1.2323657274246216;90.4148178100586
59;1673299778.1578822;47.130642599999995;7.2406201999999995;3.9610002040863037;1673299778.280114;0.003006136743351817;2.5444023609161377;90.05533599853516
60;1673299778.3347685;47.1306424;7.2406203;4.156000137329102;1673299778.4619365;0.4700671434402466;-1.620736837387085;90.36528778076172
61;1673299778.5250661;47.1306424;7.2406203;4.354000091552734;1673299778.666403;0.781708836555481;-2.5078978538513184;90.22149658203125
62;1673299778.728954;47.1306425;7.2406203;4.555000305175781;1673299778.8815265;0.7912969589233398;2.6407954692840576;90.21797180175781
63;1673299778.9490263;47.1306425;7.2406204;4.763000011444092;1673299779.144833;0.07502511143684387;0.5869380831718445;90.31558990478516
64;1673299779.190758;47.1306425;7.2406203;4.970000267028809;1673299779.3222558;-0.20613223314285278;-2.732511281967163;90.52459716796875
65;1673299779.3825326;47.1306424;7.2406203;5.1710004806518555;1673299779.509977;-0.3647983968257904;1.8211240768432617;90.14788818359375
66;1673299779.5681918;47.1306423;7.2406203;5.375000476837158;1673299779.6911924;-0.32803818583488464;0.39923855662345886;90.04076385498047
67;1673299779.739066;47.1306423;7.2406201999999995;5.581000328063965;1673299779.8771603;-0.29480868577957153;-2.8369882106781006;90.52992248535156
68;1673299779.9417102;47.1306423;7.2406201;5.7860002517700195;1673299780.0676622;0.029888292774558067;0.7228535413742065;90.13753509521484
69;1673299780.1274445;47.1306425;7.2406201;5.990000247955322;1673299780.2566364;0.21949611604213715;2.591643810272217;90.18964385986328
70;1673299780.3235726;47.1306425;7.2406201;6.193000316619873;1673299780.4659956;0.21216781437397003;-2.3933868408203125;90.44197082519531
71;1673299780.5514617;47.1306424;7.2406201;6.39300012588501;1673299780.6913955;0.19977283477783203;-0.9171372652053833;90.17933654785156
72;1673299780.753137;47.1306423;7.2406201999999995;6.593000411987305;1673299780.8743777;-0.2635325491428375;2.132079601287842;90.10154724121094
73;1673299780.934102;47.1306422;7.2406201999999995;6.794000148773193;1673299781.0691159;-0.19766242802143097;-2.3766262531280518;90.16014099121094
74;1673299781.1277015;47.130642099999996;7.2406203;6.99500036239624;1673299781.263827;-0.12422708421945572;-1.8768131732940674;90.44273376464844
75;1673299781.321102;47.1306422;7.2406204;7.196000576019287;1673299781.4594963;0.25313636660575867;2.433521270751953;90.16934204101562
76;1673299781.5179627;47.1306423;7.2406204;7.395000457763672;1673299781.678759;0.8395386934280396;-0.6788140535354614;90.06866455078125
77;1673299781.7466807;47.1306422;7.2406204999999995;7.595000267028809;1673299781.9014463;0.5871731638908386;-2.844813585281372;90.45645141601562
78;1673299781.9622738;47.1306422;7.2406204;7.793000221252441;1673299782.0927317;0.3434116244316101;1.8511309623718262;90.18655395507812
79;1673299782.147514;47.130642099999996;7.2406204;7.992000579833984;1673299782.2821665;0.2065722644329071;0.5238965153694153;90.30369567871094
80;1673299782.3447952;47.130642099999996;7.2406204999999995;8.195000648498535;1673299782.466759;0.0487467423081398;-2.92954683303833;90.47856903076172
81;1673299782.5166712;47.1306422;7.2406206;8.401000022888184;1673299782.6444292;-0.13611271977424622;0.8559305667877197;90.17943572998047
82;1673299782.7150702;47.1306423;7.2406206;8.607000350952148;1673299782.8742378;0.07836107164621353;1.6854196786880493;90.12962341308594
83;1673299782.9377954;47.1306422;7.2406206;8.808000564575195;1673299783.0821927;0.5230774283409119;-3.273618221282959;90.21467590332031
84;1673299783.1364062;47.130642099999996;7.2406206;9.004000663757324;1673299783.2659683;0.8938301205635071;-1.155435562133789;90.23658752441406
85;1673299783.32779;47.130642099999996;7.2406206;9.204000473022461;1673299783.4746544;0.5677655339241028;2.136373519897461;90.2994155883789
86;1673299783.5421534;47.130642099999996;7.2406206;9.407000541687012;1673299783.6866837;0.4393599331378937;-2.1965689659118652;90.50357055664062
87;1673299783.7633867;47.1306422;7.2406206;9.611000061035156;1673299783.8900099;0.18994133174419403;-1.6852411031723022;90.2430191040039
88;1673299783.9446998;47.1306423;7.2406206;9.815000534057617;1673299784.0758052;-0.028628095984458923;2.686824083328247;89.92686462402344
89;1673299784.1365318;47.1306424;7.2406206;10.017000198364258;1673299784.29977;-0.12031744420528412;-0.7726784348487854;90.402099609375
90;1673299784.3749728;47.1306424;7.2406207;10.22800064086914;1673299784.4964602;0.09874899685382843;-2.2506513595581055;90.6280746459961
91;1673299784.5463903;47.1306424;7.2406206;10.530000686645508;1673299784.6711917;0.7113934755325317;1.0332480669021606;90.26173400878906
92;1673299784.73676;47.1306423;7.2406206;10.897000312805176;1673299784.8982766;0.7175875306129456;0.9377951622009277;90.10939025878906
93;1673299784.9608972;47.1306422;7.2406204999999995;11.282000541687012;1673299785.0970647;0.584894597530365;-2.9842770099639893;90.35143280029297
94;1673299785.1565976;47.1306423;7.2406204999999995;11.678000450134277;1673299785.302998;0.07938752323389053;-0.114944688975811;90.12808990478516
95;1673299785.3627195;47.1306424;7.2406204999999995;12.075000762939453;1673299785.4918892;-0.10659614950418472;2.4186997413635254;90.04815673828125
96;1673299785.5586107;47.1306424;7.2406204999999995;12.474000930786133;1673299785.7306488;-0.12636426091194153;-2.2454779148101807;90.51067352294922
97;1673299785.792313;47.1306423;7.2406204999999995;12.870000839233398;1673299785.917822;-0.11984247714281082;-1.2122238874435425;90.3546371459961
98;1673299785.9720898;47.1306423;7.2406204999999995;13.270000457763672;1673299786.0996075;-0.13192051649093628;2.139007806777954;90.08493041992188
99;1673299786.1631222;47.1306423;7.2406204;13.67400074005127;1673299786.2844386;0.31685546040534973;-1.635076880455017;90.22058868408203
100;1673299786.367702;47.1306422;7.2406204;14.082000732421875;1673299786.4908032;0.4969113767147064;-1.8846371173858643;90.38900756835938
101;1673299786.5444925;47.1306423;7.2406204;14.492000579833984;1673299786.6896925;0.3928579092025757;2.306457042694092;90.23085021972656
102;1673299786.753202;47.1306424;7.2406203;14.90000057220459;1673299786.905177;0.1088612973690033;-0.02753659337759018;90.42631530761719
103;1673299786.9866867;47.1306424;7.2406203;15.307001113891602;1673299787.1221168;-0.3944803476333618;-2.373779058456421;90.47040557861328
104;1673299787.1822803;47.1306423;7.2406203;15.711000442504883;1673299787.3412888;-0.38122227787971497;1.4417521953582764;90.03193664550781
105;1673299787.3868132;47.1306423;7.2406203;16.115001678466797;1673299787.4977944;-0.5293406248092651;0.8787816166877747;89.9348373413086
106;1673299787.545652;47.1306423;7.2406203;16.52400016784668;1673299787.6767478;-0.11671861261129379;-2.618927478790283;90.30939483642578
107;1673299787.7347984;47.1306424;7.2406203;16.933000564575195;1673299787.871985;-0.05929066613316536;-0.008077217265963554;90.33950805664062
108;1673299787.9298234;47.1306425;7.2406203;17.341001510620117;1673299788.064609;0.42755502462387085;3.1359355449676514;90.2505111694336
109;1673299788.14175;47.1306425;7.2406203;17.75;1673299788.2861075;0.2740534543991089;-2.060811758041382;90.16851043701172
110;1673299788.3378718;47.1306425;7.2406203;18.157001495361328;1673299788.4675207;0.4073699414730072;-1.7016324996948242;90.2277603149414
111;1673299788.5336094;47.1306424;7.2406203;18.564001083374023;1673299788.6777053;0.27874889969825745;2.240821599960327;90.19927978515625
112;1673299788.749848;47.1306424;7.2406204;18.968000411987305;1673299788.8857982;0.3090657591819763;-1.1996315717697144;90.35891723632812
113;1673299788.941431;47.1306423;7.2406204;19.369001388549805;1673299789.0863578;-0.008730368688702583;-2.3694334030151367;90.42992401123047
114;1673299789.145193;47.1306424;7.2406204999999995;19.772001266479492;1673299789.2760587;0.26071518659591675;2.3437716960906982;90.17125701904297
115;1673299789.3362017;47.1306425;7.2406204999999995;20.179000854492188;1673299789.4739132;0.3744427263736725;-0.0023168574552983046;90.28514862060547
116;1673299789.5377867;47.1306425;7.2406204999999995;20.58700180053711;1673299789.6763253;0.615674614906311;-3.061041831970215;90.2571029663086
117;1673299789.7336125;47.1306424;7.2406204999999995;20.990001678466797;1673299789.8806639;0.8220022916793823;1.2084161043167114;90.2112808227539
118;1673299789.9365075;47.1306424;7.2406204999999995;21.39000129699707;1673299790.072025;0.7004836201667786;1.169567584991455;90.32960510253906
119;1673299790.1229217;47.1306423;7.2406204;21.793001174926758;1673299790.277858;0.44942429661750793;-2.609610080718994;90.42330169677734
120;1673299790.3419604;47.1306424;7.2406204;22.198001861572266;1673299790.4877098;0.13989569246768951;0.21382947266101837;90.12611389160156
121;1673299790.549266;47.130642599999995;7.2406204;22.601001739501953;1673299790.68357;-0.23561997711658478;2.3966591358184814;90.1030502319336
122;1673299790.7436917;47.130642599999995;7.2406203;23.000001907348633;1673299790.91353;-0.06187053024768829;-1.615803837776184;90.40876007080078
123;1673299790.968399;47.130642599999995;7.2406203;23.395000457763672;1673299791.1044812;-0.06189902499318123;-1.4221738576889038;90.50439453125
124;1673299791.1684327;47.1306425;7.2406203;23.786001205444336;1673299791.3212364;-0.06163830682635307;2.3660898208618164;90.09700775146484
125;1673299791.3852217;47.1306425;7.2406201999999995;24.181001663208008;1673299791.5167286;0.014233472757041454;-1.174452304840088;90.3004150390625
126;1673299791.5717354;47.1306425;7.2406201;24.580001831054688;1673299791.7130756;0.2512113153934479;-2.1551859378814697;90.41243743896484
127;1673299791.7768812;47.1306425;7.2406201;24.976001739501953;1673299791.8964696;0.19722150266170502;1.851122260093689;90.21308898925781
128;1673299791.953342;47.130642599999995;7.24062;25.37200164794922;1673299792.0928388;0.14845095574855804;1.051674485206604;90.22496795654297
129;1673299792.1544049;47.130642699999996;7.24062;25.76700210571289;1673299792.3078814;-0.034760113805532455;-2.52856183052063;90.35266876220703
130;1673299792.3757575;47.130642599999995;7.24062;26.158000946044922;1673299792.525884;-0.1297600269317627;1.1473392248153687;90.13248443603516
131;1673299792.6365018;47.130642599999995;7.24062;26.551000595092773;1673299792.8080692;-0.38756057620048523;1.3775479793548584;90.04232788085938
132;1673299792.8519855;47.1306425;7.24062;26.944002151489258;1673299792.9628232;-0.18295150995254517;-2.500905752182007;90.44599151611328
133;1673299793.037874;47.130642599999995;7.2406198999999996;27.34200096130371;1673299793.143387;-0.07624952495098114;0.6067020893096924;90.31392669677734
134;1673299793.1994145;47.130642699999996;7.2406198999999996;27.74100112915039;1673299793.3243732;0.26143693923950195;2.8621530532836914;90.14091491699219
135;1673299793.3800142;47.130642699999996;7.2406198999999996;28.14200210571289;1673299793.504851;0.424636572599411;-1.9518316984176636;90.29833221435547
136;1673299793.5638006;47.130642599999995;7.2406198999999996;28.53900146484375;1673299793.741027;0.4024527072906494;-1.24297034740448;90.20897674560547
137;1673299793.7982106;47.1306425;7.24062;28.931001663208008;1673299793.9346101;0.47139498591423035;2.5357284545898438;90.17586517333984
138;1673299793.9870226;47.1306425;7.2406201;29.32400131225586;1673299794.1057515;0.11159020662307739;-1.570356845855713;90.46195983886719
139;1673299794.1517315;47.1306424;7.2406201;29.716001510620117;1673299794.2827444;-0.030703939497470856;-1.8417609930038452;90.48299407958984
140;1673299794.3400638;47.1306425;7.2406201;30.10700225830078;1673299794.4686306;-0.003044129814952612;2.6054863929748535;90.14698028564453
141;1673299794.530711;47.130642599999995;7.2406201;30.500001907348633;1673299794.6668904;0.2923562228679657;-0.11061661690473557;90.25419616699219
142;1673299794.7432766;47.1306425;7.2406201;30.894001007080078;1673299794.89984;0.5604836940765381;-2.4167208671569824;90.33991241455078
143;1673299794.954531;47.1306425;7.2406201;31.28700065612793;1673299795.0916328;0.5184011459350586;1.6908507347106934;90.20091247558594
144;1673299795.1638944;47.1306424;7.2406201;31.6820011138916;1673299795.3030837;0.474278062582016;1.238467812538147;90.2492904663086
145;1673299795.3666892;47.1306424;7.2406201;32.08399963378906;1673299795.4879332;0.2253188043832779;-2.81886887550354;90.44442749023438
146;1673299795.5621252;47.1306425;7.2406201;32.4890022277832;1673299795.703546;-0.015727229416370392;0.8317023515701294;89.97844696044922
147;1673299795.776423;47.130642599999995;7.24062;32.8910026550293;1673299795.9124563;-0.22809551656246185;2.3673906326293945;90.0807876586914
148;1673299795.9671118;47.130642599999995;7.24062;33.290000915527344;1673299796.105148;-0.20623809099197388;-2.154282331466675;90.44697570800781
149;1673299796.1648617;47.1306425;7.2406201;33.68400192260742;1673299796.2977176;-0.17688341438770294;-0.6012619137763977;90.35907745361328
150;1673299796.3566384;47.1306425;7.2406201;34.07500076293945;1673299796.4868095;0.19919420778751373;1.8849105834960938;90.13153839111328
151;1673299796.5383608;47.1306424;7.24062;34.46900177001953;1673299796.6773012;0.24840407073497772;-1.571672797203064;90.20356750488281
152;1673299796.7381153;47.1306424;7.24062;34.867000579833984;1673299796.8815196;0.4909279942512512;-2.2115917205810547;90.28996276855469
153;1673299796.9446282;47.1306425;7.24062;35.263999938964844;1673299797.0845313;0.16514308750629425;2.5610153675079346;90.12089538574219
154;1673299797.1438525;47.130642599999995;7.24062;35.66100311279297;1673299797.2819114;-0.19427001476287842;0.8572818040847778;90.31062316894531
155;1673299797.3496287;47.130642699999996;7.24062;36.060001373291016;1673299797.5291777;-0.3529396653175354;-2.191634178161621;90.48980712890625
156;1673299797.5899863;47.130642699999996;7.24062;36.45500183105469;1673299797.7197056;-0.3795057237148285;2.1152842044830322;90.22163391113281
157;1673299797.7813294;47.130642599999995;7.24062;36.85000228881836;1673299797.9162786;-0.23551024496555328;0.7025323510169983;90.07857513427734
158;1673299797.9775457;47.130642699999996;7.24062;37.246002197265625;1673299798.1106386;0.04334790259599686;-2.861727714538574;90.32954406738281
159;1673299798.169206;47.130642699999996;7.24062;37.64200210571289;1673299798.309602;0.21376752853393555;1.514504075050354;90.27545928955078
160;1673299798.3613417;47.1306429;7.24062;38.038002014160156;1673299798.4899945;0.1794423758983612;2.4463372230529785;90.2599868774414
161;1673299798.5569787;47.1306429;7.24062;38.43100357055664;1673299798.716451;0.060127660632133484;-2.2656733989715576;90.48348999023438
162;1673299798.7831411;47.1306428;7.24062;38.81800079345703;1673299798.9264433;-0.2266511768102646;-0.022796329110860825;90.16654968261719
163;1673299798.980119;47.130642699999996;7.2406201;39.20100021362305;1673299799.124058;-0.12048526108264923;2.148679256439209;89.93315124511719
164;1673299799.183729;47.130642599999995;7.2406201;39.586002349853516;1673299799.3151672;-0.26273566484451294;-2.181623697280884;90.40206146240234
165;1673299799.3767097;47.130642599999995;7.2406201999999995;39.97500228881836;1673299799.5117369;0.22393840551376343;-0.7627896070480347;90.37633514404297
166;1673299799.5724123;47.130642699999996;7.2406201999999995;40.36600112915039;1673299799.7137942;0.2956066429615021;2.7629411220550537;90.20161437988281
167;1673299799.7720509;47.130642699999996;7.2406203;40.76000213623047;1673299799.932564;0.6624295115470886;-1.029934287071228;90.3138427734375
168;1673299800.028641;47.130642699999996;7.2406201999999995;41.15500259399414;1673299800.1533124;0.4385005831718445;-1.9095736742019653;90.26739501953125
169;1673299800.209563;47.130642699999996;7.2406201999999995;41.547000885009766;1673299800.3599749;0.47222164273262024;2.2852752208709717;90.16190338134766
170;1673299800.4226248;47.130642599999995;7.2406201999999995;41.9370002746582;1673299800.5484903;0.3608274459838867;-0.30527132749557495;90.3558120727539
171;1673299800.6043205;47.130642599999995;7.2406201999999995;42.329002380371094;1673299800.7361164;-0.05169578641653061;-2.4108164310455322;90.43563842773438
172;1673299800.7937117;47.130642599999995;7.2406201;42.72200012207031;1673299800.9210079;-0.26830506324768066;1.7560186386108398;90.09481811523438
173;1673299800.9772613;47.130642699999996;7.2406201;43.11600112915039;1673299801.1055987;-0.19207412004470825;1.444390058517456;90.12200164794922
174;1673299801.1686947;47.130642699999996;7.2406201;43.509002685546875;1673299801.3112013;0.3435010015964508;-2.7689969539642334;90.31867980957031
175;1673299801.365985;47.130642599999995;7.2406201999999995;43.900001525878906;1673299801.5033574;0.6271113753318787;0.828041672706604;90.28408813476562
176;1673299801.5641367;47.1306425;7.2406201;44.28700256347656;1673299801.6975424;0.6500419974327087;1.5554957389831543;90.34293365478516
177;1673299801.766718;47.1306425;7.2406201;44.67300033569336;1673299801.8946834;0.45321211218833923;-2.701768636703491;90.34114074707031
178;1673299801.9513748;47.1306425;7.2406201;45.064002990722656;1673299802.086837;0.29086169600486755;-0.5244331359863281;90.21480560302734
179;1673299802.1724434;47.130642699999996;7.2406201;45.45900344848633;1673299802.3080285;-0.24551081657409668;2.979844570159912;90.14388275146484
180;1673299802.3669214;47.1306428;7.24062;45.85400390625;1673299802.5092165;-0.19509202241897583;-0.921139657497406;90.39907836914062
181;1673299802.563088;47.130642699999996;7.24062;46.24800109863281;1673299802.7094383;-0.4443669319152832;-1.8113107681274414;90.51679992675781
182;1673299802.7710521;47.130642699999996;7.24062;46.63800048828125;1673299802.9052112;0.021273797377943993;2.9651169776916504;90.11454010009766
183;1673299802.9686565;47.130642599999995;7.24062;47.027000427246094;1673299803.0975757;0.06720424443483353;-0.8450937867164612;90.2406005859375
184;1673299803.1592143;47.130642599999995;7.2406198999999996;47.41800308227539;1673299803.3123116;0.18805506825447083;-2.198763608932495;90.36778259277344
185;1673299803.385225;47.130642599999995;7.240619799999999;47.80500411987305;1673299803.5270467;-0.23030124604701996;2.581002712249756;90.13126373291016
186;1673299803.581902;47.130642699999996;7.2406197;48.178001403808594;1673299803.7158666;-0.2843537926673889;0.42572957277297974;90.06303405761719
187;1673299803.778259;47.130642599999995;7.2406197;48.50300216674805;1673299803.9073353;-0.3507567048072815;-2.767237424850464;90.51219177246094
188;1673299803.9620094;47.1306425;7.2406197;48.777000427246094;1673299804.0993803;-0.2391568124294281;1.4992772340774536;90.20161437988281
189;1673299804.1575377;47.1306424;7.2406197;49.00400161743164;1673299804.2995543;-0.10789850354194641;-0.06039338931441307;90.32296752929688
190;1673299804.3539543;47.1306424;7.2406197;49.198001861572266;1673299804.4814944;0.08513428270816803;-2.4312658309936523;90.37525177001953
191;1673299804.5438774;47.1306424;7.2406197;49.36100387573242;1673299804.6884646;11.246512413024902;0.4472515881061554;86.45914459228516
192;1673299804.7534761;47.1306425;7.240619499999999;49.48200225830078;1673299804.8809667;-6.0755743980407715;4.139017105102539;75.32764434814453
193;1673299804.946502;47.1306425;7.240618899999999;49.5260009765625;1673299805.081467;6.264543056488037;8.852187156677246;65.0134506225586
194;1673299805.1563904;47.1306422;7.2406187;49.53900146484375;1673299805.3244388;17.373353958129883;1.2288516759872437;55.113075256347656
195;1673299805.3824983;47.130641399999995;7.2406178;49.553001403808594;1673299805.5272024;-2.772339105606079;-1.4242733716964722;45.42784881591797
196;1673299805.5774138;47.130640299999996;7.2406163999999995;49.58100128173828;1673299805.7028553;4.2396931648254395;-4.5211710929870605;37.20320510864258
197;1673299805.7622313;47.1306393;7.240615099999999;49.612003326416016;1673299805.9053595;2.9038429260253906;-1.0655080080032349;28.688087463378906
198;1673299805.964555;47.1306383;7.2406137;49.643001556396484;1673299806.0953429;1.2762168645858765;-1.0641090869903564;20.094205856323242
199;1673299806.1895719;47.1306374;7.2406124;49.67500305175781;1673299806.324691;-0.5153495669364929;1.70753812789917;12.309404373168945
200;1673299806.3836153;47.130636599999995;7.2406111;49.707000732421875;1673299806.4951584;-3.0616533756256104;3.2569775581359863;4.388763904571533
201;1673299806.5515845;47.130635999999996;7.2406101;49.733001708984375;1673299806.6785476;-3.2206199169158936;1.094923973083496;-4.1959614753723145
202;1673299806.734379;47.130635399999996;7.2406093;49.75300216674805;1673299806.8722093;-1.6937768459320068;-0.43472740054130554;-12.835946083068848
203;1673299806.9351184;47.1306351;7.2406085;49.768001556396484;1673299807.0754962;1.2434415817260742;-0.3524652123451233;-21.26923179626465
204;1673299807.1407835;47.130634799999996;7.2406079;49.78000259399414;1673299807.3085053;2.041022300720215;1.5120854377746582;-29.671798706054688
205;1673299807.3768494;47.1306345;7.2406076;49.7910041809082;1673299807.5160468;0.8422877788543701;3.594524383544922;-38.644287109375
206;1673299807.5742948;47.1306345;7.2406076;49.79900360107422;1673299807.7084475;-1.4321565628051758;1.6983615159988403;-47.13020324707031
207;1673299807.7651694;47.1306345;7.2406077;49.80600357055664;1673299807.8980176;-2.1112983226776123;0.3122306168079376;-52.48773956298828
208;1673299807.9536512;47.1306346;7.240607799999999;49.810001373291016;1673299808.090185;-0.5535592436790466;0.21715912222862244;-53.476844787597656
209;1673299808.151735;47.130634699999995;7.2406079;49.81300354003906;1673299808.2920456;1.0627862215042114;-4.076043605804443;-51.909996032714844
210;1673299808.3497794;47.130634799999996;7.240608099999999;49.81500244140625;1673299808.4878907;0.5218319892883301;-2.4190714359283447;-50.54297637939453
211;1673299808.5535138;47.1306349;7.240608;49.816001892089844;1673299808.697775;-0.9333949089050293;2.930368423461914;-49.23726272583008
212;1673299808.7584848;47.1306349;7.2406077;49.81900405883789;1673299808.892337;-1.2375487089157104;1.1694105863571167;-47.64564514160156
213;1673299808.9518707;47.130635;7.2406074;49.82200241088867;1673299809.0997267;-0.3442365527153015;-4.7162089347839355;-46.23888397216797
214;1673299809.1613693;47.130635;7.2406071;49.82200241088867;1673299809.3104997;2.1114213466644287;-4.511602878570557;-46.19474411010742
215;1673299809.364325;47.130634799999996;7.240606799999999;49.82100296020508;1673299809.4966843;3.5740668773651123;2.6648876667022705;-46.368812561035156
216;1673299809.5601301;47.1306345;7.2406066;49.82100296020508;1673299809.7088087;-0.12700459361076355;0.1023583635687828;-46.878387451171875
217;1673299809.7665546;47.1306343;7.240606499999999;49.82400131225586;1673299809.9067695;-28.29180145263672;3.1997861862182617;-46.812400817871094
218;1673299809.9681234;47.1306345;7.2406058;49.833003997802734;1673299810.1179638;-50.1229248046875;5.111471176147461;-47.499942779541016
219;1673299810.1727474;47.1306361;7.240602999999999;49.827003479003906;1673299810.316879;-48.54085922241211;2.5614075660705566;-47.72270584106445
220;1673299810.3801348;47.130639699999996;7.2405973999999995;49.788002014160156;1673299810.5219874;-43.96455764770508;-2.717909097671509;-46.390010833740234
221;1673299810.5919273;47.1306449;7.2405893;49.750003814697266;1673299810.7140243;-46.32329177856445;-4.7694878578186035;-45.24458694458008
222;1673299810.7689507;47.1306516;7.2405783999999995;49.74500274658203;1673299810.9057066;-52.2352180480957;-0.8731865882873535;-46.56435012817383
223;1673299810.9692461;47.130659699999995;7.240564699999999;49.76900100708008;1673299811.1238232;-58.45658874511719;2.103792428970337;-47.347389221191406
224;1673299811.1820116;47.1306697;7.2405481;49.80900192260742;1673299811.3238235;-60.49070739746094;2.1020843982696533;-47.825260162353516
225;1673299811.418836;47.130681599999996;7.2405287;49.84600067138672;1673299811.5608635;-57.885711669921875;1.9669650793075562;-47.4838981628418
226;1673299811.621277;47.130694899999995;7.2405069;49.8640022277832;1673299811.740878;-55.149131774902344;1.7326301336288452;-46.9677848815918
227;1673299811.7888627;47.1307097;7.2404835;49.8650016784668;1673299811.9170537;-55.2053337097168;0.5198534727096558;-46.625953674316406
228;1673299811.9715855;47.1307255;7.2404587;49.85100173950195;1673299812.0859082;-51.61631774902344;1.0088787078857422;-46.59489059448242
229;1673299812.1428878;47.130742;7.2404329;49.827003479003906;1673299812.2798884;-49.61857223510742;0.8019900321960449;-46.47586441040039
230;1673299812.3456469;47.1307591;7.2404063999999995;49.80400085449219;1673299812.4822285;-49.505558013916016;0.5077394247055054;-46.407161712646484
231;1673299812.5484838;47.130776499999996;7.2403794999999995;49.781002044677734;1673299812.6924307;-48.445213317871094;0.6279430985450745;-46.4567756652832
232;1673299812.7493558;47.1307943;7.240352199999999;49.76100158691406;1673299812.9083288;-48.566287994384766;-0.3300168514251709;-45.960567474365234
233;1673299812.9639478;47.1308121;7.2403248;49.755001068115234;1673299813.092579;-38.15644454956055;-0.7025930285453796;-46.48505783081055
234;1673299813.1486914;47.130829899999995;7.2402973;49.77000045776367;1673299813.2946706;4.412442684173584;1.420113444328308;-47.474605560302734
235;1673299813.3548481;47.1308466;7.2402716;49.7760009765625;1673299813.485672;37.0348014831543;6.818272113800049;-43.612274169921875
236;1673299813.5527263;47.1308613;7.240249299999999;49.63800048828125;1673299813.7117743;19.873096466064453;0.03660309687256813;-45.140289306640625
237;1673299813.7706985;47.1308736;7.2402305;49.3380012512207;1673299813.9046454;16.133270263671875;-0.9467799663543701;-47.1676139831543
238;1673299813.9678185;47.1308833;7.2402158;49.07200241088867;1673299814.0987968;15.354881286621094;-0.09553231298923492;-46.99281692504883
239;1673299814.162714;47.130890699999995;7.2402047;48.945003509521484;1673299814.2968779;32.02881622314453;0.0849129855632782;-46.7443962097168
240;1673299814.3568957;47.130895599999995;7.2401974;49.04600143432617;1673299814.5021076;51.70934295654297;-1.0445795059204102;-46.662620544433594
241;1673299814.5627108;47.1308977;7.2401943;49.204002380371094;1673299814.695936;46.77937698364258;-0.8104774355888367;-46.495262145996094
242;1673299814.7650487;47.130896899999996;7.2401955;49.34600067138672;1673299814.9069762;45.943145751953125;-1.4614449739456177;-47.01248550415039
243;1673299814.9645178;47.1308939;7.2401998999999995;49.4640007019043;1673299815.1057281;32.308719635009766;-0.10761922597885132;-47.01252746582031
244;1673299815.1667614;47.1308894;7.2402066;49.54900360107422;1673299815.3057537;17.669981002807617;-0.30940306186676025;-46.43008804321289
245;1673299815.364322;47.1308842;7.240214399999999;49.599002838134766;1673299815.5030534;1.2565562725067139;3.4954423904418945;-46.605323791503906
246;1673299815.5726733;47.130879;7.2402222;49.617000579833984;1673299815.6943378;-14.00983715057373;3.9751100540161133;-47.266395568847656
247;1673299815.7480156;47.1308746;7.240228999999999;49.62900161743164;1673299815.8801537;-20.63074493408203;-1.5479398965835571;-47.517887115478516
248;1673299815.9437487;47.1308712;7.2402343;49.62700271606445;1673299816.074247;-25.133697509765625;-5.039146900177002;-46.347660064697266
249;1673299816.1320453;47.130868799999995;7.2402378;49.592002868652344;1673299816.2861485;-27.81232452392578;1.8947361707687378;-44.98303985595703
250;1673299816.3515484;47.130867599999995;7.2402394;49.52100372314453;1673299816.4823215;-21.998109817504883;2.347728967666626;-44.812435150146484
251;1673299816.5496714;47.130867699999996;7.2402394;49.441001892089844;1673299816.6945949;-20.016080856323242;1.5308148860931396;-45.09779357910156
252;1673299816.7546735;47.1308687;7.240238199999999;49.380001068115234;1673299816.8991303;-16.958316802978516;-0.11097034066915512;-45.14337158203125
253;1673299816.9648101;47.1308704;7.2402359;49.34800338745117;1673299817.107399;-3.7955751419067383;-3.461430549621582;-45.1695556640625
254;1673299817.1727931;47.130872499999995;7.240233099999999;49.35400390625;1673299817.3404627;9.234119415283203;-2.7339799404144287;-45.788238525390625
255;1673299817.3971992;47.130874299999995;7.2402305;49.3910026550293;1673299817.5266936;16.569517135620117;2.392838478088379;-45.994441986083984
256;1673299817.5887277;47.130875499999995;7.240228699999999;49.439002990722656;1673299817.7345178;25.49564552307129;16.892911911010742;-44.835872650146484
257;1673299817.7971594;47.1308764;7.240227699999999;49.34300231933594;1673299817.9276912;41.723663330078125;42.35734939575195;-36.306297302246094
258;1673299817.9858289;47.130877299999995;7.2402264999999995;48.871002197265625;1673299818.1194155;51.51861572265625;70.4211196899414;-20.58575439453125
259;1673299818.1746027;47.130877999999996;7.2402253;48.03000259399414;1673299818.310026;55.02492904663086;90.76457214355469;-7.832029819488525
260;1673299818.3637068;47.1308788;7.2402242;46.814002990722656;1673299818.5092597;56.821067810058594;90.90440368652344;-9.57689094543457
261;1673299818.5738704;47.1308795;7.2402231;45.23100280761719;1673299818.715231;56.43130111694336;62.5656852722168;-33.013450622558594
262;1673299818.7773747;47.1308802;7.2402220999999995;43.29600143432617;1673299818.9117053;38.206520080566406;23.292205810546875;-62.52378845214844
263;1673299818.9723196;47.1308808;7.2402207999999995;41.00400161743164;1673299819.1198654;1.7568215131759644;-6.405534267425537;-69.63289642333984
264;1673299819.1784759;47.1308814;7.2402193;38.32600021362305;1673299819.3367732;-32.66960906982422;-33.0269775390625;-62.025840759277344
265;1673299819.4255102;47.130882;7.240218;35.255001068115234;1673299819.5487828;-49.9745979309082;-51.11697769165039;-50.4156608581543
266;1673299819.6051567;47.130882799999995;7.2402171;31.82000160217285;1673299819.717458;-49.2640266418457;-34.39929962158203;-63.23971939086914
267;1673299819.775062;47.130883499999996;7.2402165;28.040000915527344;1673299819.9191468;-21.18522834777832;-3.575467824935913;-81.78794860839844
268;1673299819.9796705;47.1308844;7.2402163999999996;23.900001525878906;1673299820.120571;21.660133361816406;17.793855667114258;-83.23883819580078
269;1673299820.176239;47.1308851;7.2402163999999996;19.362001419067383;1673299820.305314;49.453556060791016;28.040170669555664;-78.17308044433594
270;1673299820.360127;47.1308857;7.2402159;14.462000846862793;1673299820.4843647;46.66820526123047;10.553166389465332;-90.09980773925781
271;1673299820.5436916;47.1308862;7.240215;9.22700023651123;1673299820.697127;9.994458198547363;-9.072874069213867;-98.13273620605469
272;1673299820.7559452;47.1308866;7.240213499999999;3.628000259399414;1673299820.9038074;-19.341859817504883;-0.04852134361863136;-97.45995330810547
273;1673299820.9652941;47.130885299999996;7.240204599999999;-0.009000000543892384;1673299821.1053667;-16.691633224487305;-5.240518569946289;-92.74405670166016
274;1673299821.1661632;47.1308797;7.240179599999999;-0.5920000076293945;1673299821.2982674;-27.315719604492188;-5.240701198577881;-91.19363403320312
275;1673299821.360548;47.130873699999995;7.2401522;-1.2570000886917114;1673299821.499574;-24.11337661743164;-3.756246566772461;-91.38888549804688
276;1673299821.5533426;47.130867699999996;7.240125;-1.8840000629425049;1673299821.6939228;-23.412565231323242;-3.109210729598999;-91.19763946533203
277;1673299821.7604318;47.130861599999996;7.240095999999999;-2.505000114440918;1673299821.896184;-23.310558319091797;-3.3905255794525146;-91.2483139038086
278;1673299821.9685988;47.130855;7.2400638;-3.130000114440918;1673299822.0942988;-23.27174186706543;-3.3831305503845215;-91.2466812133789
279;1673299822.1686764;47.1308479;7.2400288999999995;-3.756000280380249;1673299822.3013015;-23.211246490478516;-3.3781378269195557;-91.26168060302734
280;1673299822.369341;47.1308406;7.239991799999999;-4.392000198364258;1673299822.5000966;-23.078821182250977;-3.376966953277588;-91.189208984375
281;1673299822.5578523;47.130833599999995;7.2399539;-4.828000068664551;1673299822.7079918;-22.809202194213867;-3.2410130500793457;-91.04586029052734
282;1673299822.7667756;47.1308271;7.2399154999999995;-4.999000072479248;1673299822.9119465;-22.55846405029297;-3.1609866619110107;-90.95484161376953
283;1673299822.9718726;47.130820299999996;7.239875199999999;-0.5610000491142273;1673299823.100825;-22.55965232849121;-3.1579840183258057;-90.95687103271484
284;1673299823.1559489;47.130812899999995;7.2398318999999995;-0.2550000250339508;1673299823.3033724;-22.52924346923828;-3.192298173904419;-90.92094421386719
285;1673299823.3597848;47.130804999999995;7.2397861;-0.11900000274181366;1673299823.4877307;-22.497045516967773;-3.215916872024536;-90.94681549072266
286;1673299823.5597587;47.1307966;7.2397379;-0.08100000023841858;1673299823.7009876;-22.523475646972656;-3.220186233520508;-90.94648742675781
287;1673299823.7668054;47.1307879;7.2396876;-0.09600000083446503;1673299823.9178631;-22.4459228515625;-3.2385149002075195;-90.9590072631836
288;1673299823.9779174;47.130779;7.2396351999999995;-0.11100000888109207;1673299824.1289322;-22.478347778320312;-3.235074520111084;-90.97921752929688
289;1673299824.189898;47.130769799999996;7.2395809;-0.125;1673299824.3293445;-22.423635482788086;-3.2509400844573975;-90.96475982666016
290;1673299824.3939881;47.1307604;7.239524599999999;-0.14600001275539398;1673299824.536016;-22.488330841064453;-3.2580759525299072;-90.95911407470703
291;1673299824.588998;47.1307507;7.239466299999999;-0.16300000250339508;1673299824.7198126;-22.48916244506836;-3.220682144165039;-90.95886993408203
292;1673299824.7848275;47.1307408;7.2394061;-0.19100001454353333;1673299824.9232054;-22.508821487426758;-3.2161993980407715;-90.98542022705078
293;1673299824.9830437;47.1307307;7.2393439;-0.2240000069141388;1673299825.1580024;-22.516014099121094;-3.238978862762451;-90.96259307861328
294;1673299825.2148912;47.1307203;7.2392799;-0.23400001227855682;1673299825.3510537;-22.511516571044922;-3.2351956367492676;-90.9924545288086
295;1673299825.4074187;47.1307098;7.239213899999999;-0.23500001430511475;1673299825.529872;-22.515012741088867;-3.2717957496643066;-90.99469757080078
296;1673299825.589182;47.130699;7.239146;-0.2330000102519989;1673299825.7094302;-22.432004928588867;-3.2934422492980957;-90.98921203613281
297;1673299825.7608874;47.130688;7.2390761999999995;-0.23200000822544098;1673299825.8829966;-22.452648162841797;-3.3140554428100586;-90.97370910644531
298;1673299825.9510808;47.130676799999996;7.2390044;-0.2290000170469284;1673299826.0949755;-22.41130256652832;-3.298241138458252;-90.9894027709961
299;1673299826.1599553;47.1306653;7.2389306;-0.242000013589859;1673299826.3020566;-22.42711067199707;-3.339104175567627;-90.99034881591797
300;1673299826.3638906;47.130653699999996;7.2388549;-0.26500001549720764;1673299826.4928396;-22.424306869506836;-3.3247694969177246;-90.98014831542969
301;1673299826.556849;47.130647499999995;7.2388148;-0.2639999985694885;1673299826.7029638;-22.401561737060547;-3.3001224994659424;-90.99408721923828
302;;;;;1673299826.9028225;-22.408300399780273;-3.2710936069488525;-91.00727081298828
303;;;;;1673299827.100963;-22.398530960083008;-3.249906063079834;-91.02291107177734
304;;;;;1673299827.2949476;-22.50531578063965;-3.263151168823242;-91.05386352539062
305;;;;;1673299827.4978461;-22.465410232543945;-3.3895914554595947;-91.03595733642578
306;;;;;1673299827.6976898;-22.43224334716797;-3.4018146991729736;-91.03702545166016
307;;;;;1673299827.8828428;-22.435102462768555;-3.3759353160858154;-91.06245422363281
