;pos_time;latitude;longitude;altitude;alt_time;pitch;roll;yaw
0;1673303574.9406805;47.1306423;7.24062;-0.017000000923871994;1673303574.9436114;0.08703050017356873;-0.3398917615413666;90.32061767578125
1;1673303575.1421645;47.1306423;7.2406198999999996;-0.01600000075995922;1673303575.14607;0.044742368161678314;-0.3715035617351532;90.35269165039062
2;1673303575.3461754;47.1306423;7.2406198999999996;-0.015000000596046448;1673303575.3491066;0.009880868718028069;-0.3209593892097473;90.19293975830078
3;1673303575.5460002;47.1306423;7.240619799999999;-0.01600000075995922;1673303575.5489328;0.1477639228105545;-0.4168616235256195;90.42300415039062
4;1673303575.7405438;47.1306423;7.2406197;-0.01900000125169754;1673303575.7434711;0.2856614589691162;-0.24531927704811096;90.2268295288086
5;1673303575.937065;47.1306423;7.2406197;-0.02200000174343586;1673303575.9399865;0.04687567055225372;-0.3568362593650818;90.21658325195312
6;1673303576.1394935;47.1306424;7.2406197;-0.024000000208616257;1673303576.1433964;-0.08581532537937164;-0.31045350432395935;90.22624206542969
7;1673303576.3458414;47.1306424;7.2406197;-0.02500000037252903;1673303576.3477943;0.034604769200086594;-0.3734491169452667;90.20423889160156
8;1673303576.546255;47.1306424;7.2406196;-0.024000000208616257;1673303576.55015;0.2864144444465637;-0.26302236318588257;90.17190551757812
9;1673303576.7519426;47.1306424;7.2406196;-0.023000001907348633;1673303576.7549736;0.1199878603219986;-0.24352112412452698;90.17335510253906
10;1673303576.9502661;47.1306423;7.2406196;-0.021000001579523087;1673303576.9531977;0.10090018808841705;-0.49300259351730347;90.38483428955078
11;1673303577.1486657;47.1306423;7.2406197;-0.01900000125169754;1673303577.1515937;0.12246537953615189;-0.24157345294952393;90.2642593383789
12;1673303577.347951;47.1306423;7.2406197;-0.01900000125169754;1673303577.3508723;0.22972211241722107;-0.4195137619972229;90.33924102783203
13;1673303577.5364635;47.1306424;7.2406197;-0.020000001415610313;1673303577.5393908;0.003486157627776265;-0.2680574655532837;90.15158081054688
14;1673303577.7357163;47.1306424;7.240619799999999;0.0;1673303577.738647;-0.025896422564983368;-0.4423659145832062;90.12687683105469
15;1673303577.937296;47.1306424;7.240619799999999;0.0;1673303577.9402153;-0.12727408111095428;-0.3735000193119049;90.24048614501953
16;1673303578.1387944;47.1306424;7.240619799999999;0.0;1673303578.142851;-0.1332871913909912;-0.37308749556541443;90.16842651367188
17;1673303578.3506367;47.1306424;7.240619799999999;0.003000000026077032;1673303578.3535826;-0.1841816008090973;-0.41370126605033875;90.14241790771484
18;1673303578.55298;47.1306424;7.240619799999999;0.005000000353902578;1673303578.5559099;-0.1359482705593109;-0.36366769671440125;90.28370666503906
19;1673303578.7579648;47.1306424;7.240619799999999;0.006000000052154064;1673303578.7610064;-0.11677480489015579;-0.3726155757904053;90.46040344238281
20;1673303578.9510117;47.1306424;7.240619799999999;0.0020000000949949026;1673303578.9539487;0.02896972931921482;-0.12570755183696747;90.45653533935547
21;1673303579.1409438;47.1306423;7.2406198999999996;0.0;1673303579.1429174;-0.1680971384048462;-0.6707862615585327;90.26057434082031
22;1673303579.3549843;47.1306423;7.2406198999999996;-0.0020000000949949026;1673303579.3579261;-0.22393251955509186;-0.49947798252105713;90.3302230834961
23;1673303579.5498497;47.1306423;7.24062;-0.0020000000949949026;1673303579.5531557;-0.5161939859390259;-0.00030721089569851756;90.42289733886719
24;1673303579.7699215;47.1306423;7.24062;-0.005000000353902578;1673303579.7738433;-0.49738582968711853;-0.1653018295764923;90.52529907226562
25;1673303579.9739678;47.1306423;7.24062;-0.006000000052154064;1673303579.9768968;-0.48239392042160034;-0.5121716260910034;90.29730224609375
26;1673303580.1668644;47.1306423;7.24062;-0.009000000543892384;1673303580.1709688;-0.34822824597358704;-0.14222170412540436;90.31539154052734
27;1673303580.3698897;47.1306423;7.2406198999999996;-0.007000000216066837;1673303580.3730693;-0.47052493691444397;-0.30825793743133545;90.41502380371094
28;1673303580.5620503;47.1306423;7.24062;-0.0010000000474974513;1673303580.5669212;-0.56336909532547;-0.18749865889549255;90.33643341064453
29;1673303580.7489548;47.1306423;7.24062;0.0010000000474974513;1673303580.7519565;-0.628124475479126;-0.14718087017536163;90.2734375
30;1673303580.9339466;47.1306423;7.2406201;0.006000000052154064;1673303580.9368763;-0.5982117652893066;-0.22547413408756256;90.26692199707031
31;1673303581.1351323;47.1306423;7.2406203;0.009000000543892384;1673303581.1370993;1.0249907970428467;-0.11993919312953949;88.08679962158203
32;1673303581.3320076;47.1306423;7.240621;0.023000001907348633;1673303581.3339684;6.531101703643799;-0.5435898900032043;86.640869140625
33;1673303581.5260682;47.1306424;7.2406219;0.0430000014603138;1673303581.529045;13.07380199432373;0.43870511651039124;86.07125854492188
34;1673303581.7268362;47.1306424;7.2406231;0.06599999964237213;1673303581.7308629;16.33039665222168;-3.1144332885742188;86.23743438720703
35;1673303581.948052;47.1306424;7.2406245;0.10100000351667404;1673303581.9510975;16.6787166595459;-0.4802023470401764;87.339599609375
36;1673303582.1572077;47.1306424;7.240626;0.1469999998807907;1673303582.161226;17.946664810180664;1.1317996978759766;88.20164489746094
37;1673303582.3498971;47.1306424;7.2406273;0.20600001513957977;1673303582.3532069;19.392850875854492;-2.2120249271392822;88.25275421142578
38;1673303582.548174;47.1306425;7.2406285;0.2750000059604645;1673303582.5511;21.26612663269043;-1.3637713193893433;88.6960220336914
39;1673303582.756042;47.130642699999996;7.2406293999999995;0.3570000231266022;1673303582.7589717;23.231916427612305;2.1283905506134033;89.5345230102539
40;1673303583.026475;47.130642699999996;7.2406296999999995;0.4490000307559967;1673303583.0294127;25.238237380981445;-1.1188488006591797;89.42533874511719
41;1673303583.211617;47.130642699999996;7.2406295;0.5470000505447388;1673303583.2145305;27.24588394165039;-1.5842008590698242;89.50379180908203
42;1673303583.3952453;47.130642699999996;7.2406286;0.6500000357627869;1673303583.3972147;26.383563995361328;2.361234426498413;90.40359497070312
43;1673303583.5819936;47.130642599999995;7.240627099999999;0.7600000500679016;1673303583.5849655;24.294605255126953;-0.10349823534488678;90.23457336425781
44;1673303583.7792559;47.130642599999995;7.2406253;0.8770000338554382;1673303583.7831428;22.205076217651367;-1.8177813291549683;89.84984588623047
45;1673303583.9564734;47.130642699999996;7.2406234;1.00600004196167;1673303583.9613485;19.89027214050293;2.0021896362304688;90.6200180053711
46;1673303584.1527693;47.130642699999996;7.2406216;1.1510000228881836;1673303584.1566744;17.989917755126953;0.9070687890052795;90.4354019165039
47;1673303584.3689623;47.130642699999996;7.24062;1.3100000619888306;1673303584.3709333;16.39550018310547;-1.5755592584609985;89.95751953125
48;1673303584.563054;47.130642599999995;7.240618899999999;1.4790000915527344;1673303584.5675116;15.990998268127441;1.1818110942840576;90.30962371826172
49;1673303584.7479582;47.130642599999995;7.2406182;1.658000111579895;1673303584.750887;15.69024658203125;1.4004594087600708;95.51469421386719
50;1673303584.944037;47.130642599999995;7.2406178;1.840000033378601;1673303584.9469643;15.964415550231934;-2.1831295490264893;93.7800064086914
51;1673303585.1325448;47.130642599999995;7.2406178;2.0199999809265137;1673303585.1354866;16.6028995513916;1.1112756729125977;93.26918029785156
52;1673303585.3288896;47.130642699999996;7.2406179999999996;2.2039999961853027;1673303585.330841;17.38212013244629;2.0536916255950928;92.9710922241211
53;1673303585.535615;47.130642699999996;7.2406182;2.3910000324249268;1673303585.5385592;18.12979507446289;-2.3127214908599854;91.99183654785156
54;1673303585.7455585;47.130642699999996;7.2406185999999995;2.5840001106262207;1673303585.7484937;19.03179931640625;0.7499114274978638;91.84181213378906
55;1673303585.9411635;47.130642699999996;7.240618899999999;2.7740001678466797;1673303585.9460442;19.762928009033203;2.2135021686553955;91.67992401123047
56;1673303586.1436253;47.130642699999996;7.240619199999999;2.9670002460479736;1673303586.147516;19.827001571655273;-1.5068947076797485;91.22940826416016
57;1673303586.3606732;47.1306428;7.2406194;3.1570000648498535;1673303586.3626254;19.837604522705078;0.22754357755184174;91.42622375488281
58;1673303586.561038;47.1306428;7.2406194;3.3440001010894775;1673303586.5639775;19.64078140258789;3.080329656600952;91.86076354980469
59;1673303586.7616763;47.130642599999995;7.2406194;3.5310001373291016;1673303586.7646196;19.54269027709961;-1.0794519186019897;91.36654663085938
60;1673303586.9557106;47.1306425;7.2406193;3.7170002460479736;1673303586.9566872;19.153406143188477;-1.2184165716171265;91.45516204833984
61;1673303587.138886;47.1306423;7.2406193;3.9010002613067627;1673303587.1427896;19.157522201538086;2.1870808601379395;91.91729736328125
62;1673303587.3245957;47.1306422;7.240619199999999;4.087000370025635;1673303587.3275404;18.941896438598633;-0.920266330242157;91.64695739746094
63;1673303587.5140727;47.1306423;7.240619199999999;4.273000240325928;1673303587.5169945;18.955965042114258;-1.335410237312317;91.42945861816406
64;1673303587.723524;47.1306423;7.240619199999999;4.463000297546387;1673303587.727426;18.895071029663086;2.6238088607788086;92.0854263305664
65;1673303587.9228387;47.1306423;7.240619199999999;4.6579999923706055;1673303587.928696;18.917709350585938;0.34387603402137756;91.7724609375
66;1673303588.146428;47.1306423;7.240619199999999;4.857000350952148;1673303588.1483808;18.736419677734375;-2.037646770477295;91.27836608886719
67;1673303588.3353229;47.1306424;7.240619199999999;5.054000377655029;1673303588.339227;18.84170913696289;2.3873846530914307;91.77479553222656
68;1673303588.5365472;47.1306424;7.2406193;5.248000144958496;1673303588.5394752;18.881898880004883;1.460317611694336;91.86819458007812
69;1673303588.7370107;47.1306425;7.2406193;5.441000461578369;1673303588.7399402;18.84561538696289;-1.430479884147644;91.42237854003906
70;1673303588.9505994;47.1306425;7.2406194;5.63100004196167;1673303588.9545038;18.90953826904297;1.9529892206192017;91.76185607910156
71;1673303589.1492786;47.1306425;7.240619499999999;5.824000358581543;1673303589.1522088;19.011940002441406;2.599930763244629;91.9385986328125
72;1673303589.347207;47.1306423;7.240619499999999;6.017000198364258;1673303589.3491595;18.96230125427246;-1.9067679643630981;91.29035949707031
73;1673303589.5459962;47.1306422;7.2406196;6.216000080108643;1673303589.5499008;19.25617218017578;0.46072807908058167;91.46879577636719
74;1673303589.7532918;47.1306422;7.2406197;6.409000396728516;1673303589.7571855;19.054447174072266;2.3162553310394287;91.96269226074219
75;1673303589.9704218;47.1306422;7.240619799999999;6.599000453948975;1673303589.9733489;19.17690086364746;-1.7098792791366577;91.36791229248047
76;1673303590.1718116;47.1306422;7.240619799999999;6.789000511169434;1673303590.1737626;19.29022789001465;-0.1629355251789093;91.50975036621094
77;1673303590.3528223;47.1306422;7.2406198999999996;6.982000350952148;1673303590.3547747;19.21558380126953;2.7638304233551025;91.8729476928711
78;1673303590.542435;47.130642099999996;7.2406198999999996;7.183000564575195;1673303590.5453558;19.26456069946289;-1.2712838649749756;91.63026428222656
79;1673303590.74741;47.130642099999996;7.24062;7.383000373840332;1673303590.7503338;19.235576629638672;-1.0689356327056885;91.67767333984375
80;1673303590.9483724;47.1306422;7.24062;7.584000587463379;1673303590.9522748;19.433303833007812;3.0184080600738525;91.95744323730469
81;1673303591.1994052;47.1306423;7.24062;7.783000469207764;1673303591.204288;19.211734771728516;0.32632046937942505;91.6471176147461
82;1673303591.3839946;47.1306424;7.24062;7.982000350952148;1673303591.3859322;19.067094802856445;-0.7472811937332153;91.5167236328125
83;1673303591.552696;47.1306425;7.24062;8.180000305175781;1673303591.5566099;19.14045524597168;3.158226728439331;92.1297378540039
84;1673303591.7518194;47.1306424;7.24062;8.378000259399414;1673303591.7547448;19.091289520263672;0.9390281438827515;91.81830596923828
85;1673303591.9465415;47.1306423;7.24062;8.572999954223633;1673303591.9485047;19.09327507019043;-1.6984561681747437;91.32005310058594
86;1673303592.1824331;47.1306423;7.24062;8.770000457763672;1673303592.1843834;19.21017837524414;2.3313279151916504;91.79647064208984
87;1673303592.3762944;47.1306424;7.24062;8.964000701904297;1673303592.3797622;18.891761779785156;1.51083505153656;91.7777099609375
88;1673303592.5486069;47.1306424;7.24062;9.157999992370605;1673303592.5515158;19.162235260009766;-1.7287863492965698;91.2164535522461
89;1673303592.7616022;47.1306424;7.24062;9.348999977111816;1673303592.7645037;19.164287567138672;1.7107305526733398;91.66677856445312
90;1673303592.9553382;47.1306424;7.2406201;9.541000366210938;1673303592.9592452;19.260379791259766;2.189101457595825;92.047119140625
91;1673303593.1440182;47.1306423;7.2406201;9.735000610351562;1673303593.1449704;19.341447830200195;-1.841148018836975;91.48766326904297
92;1673303593.3430767;47.1306422;7.2406201;9.930000305175781;1673303593.3460045;19.548065185546875;1.1133900880813599;91.79428100585938
93;1673303593.543953;47.1306422;7.2406201;10.129000663757324;1673303593.5468736;19.485431671142578;2.241257429122925;91.94780731201172
94;1673303593.7441623;47.1306423;7.2406198999999996;10.37700080871582;1673303593.747099;19.393993377685547;-0.8304253816604614;91.49047088623047
95;1673303593.9441807;47.1306423;7.240619499999999;10.734000205993652;1673303593.9490619;20.931835174560547;0.7213397026062012;91.70521545410156
96;1673303594.1523275;47.1306423;7.240618899999999;11.116000175476074;1673303594.1552799;19.265501022338867;3.0556867122650146;92.16658020019531
97;1673303594.3458111;47.1306422;7.2406182999999995;11.51200008392334;1673303594.3487365;17.960102081298828;-0.5846987962722778;91.73309326171875
98;1673303594.5469768;47.130642099999996;7.2406178;11.91200065612793;1673303594.5508823;16.93592071533203;-1.031651258468628;91.47184753417969
99;1673303594.7416623;47.130642099999996;7.2406175;12.316000938415527;1673303594.7446065;16.628402709960938;2.4772250652313232;92.04013061523438
100;1673303594.9456203;47.1306422;7.2406174;12.718000411987305;1673303594.949522;16.47496795654297;0.13504672050476074;91.73930358886719
101;1673303595.1670074;47.1306422;7.2406174;13.121000289916992;1673303595.1699228;16.712398529052734;-0.8683832287788391;91.49706268310547
102;1673303595.363388;47.1306423;7.2406177;13.521000862121582;1673303595.3653197;17.197708129882812;2.7269744873046875;92.06583404541016
103;1673303595.5588706;47.1306422;7.2406179999999996;13.915000915527344;1673303595.5608263;17.885520935058594;0.8151401281356812;91.82984161376953
104;1673303595.7668064;47.1306422;7.2406184;14.302000999450684;1673303595.7697349;18.544265747070312;-1.1920690536499023;91.39781951904297
105;1673303595.9663835;47.1306422;7.2406188;14.692000389099121;1673303595.9693112;18.774822235107422;2.5019314289093018;91.87285614013672
106;1673303596.158329;47.1306422;7.2406191;15.084000587463379;1673303596.1622343;19.133264541625977;1.5660369396209717;91.85318756103516
107;1673303596.3479612;47.1306423;7.2406193;15.472001075744629;1673303596.3508887;19.21731185913086;-1.2081059217453003;91.40363311767578
108;1673303596.5486884;47.1306423;7.2406193;15.86500072479248;1673303596.5516365;19.26405143737793;1.7101433277130127;91.76490783691406
109;1673303596.7621028;47.1306422;7.2406193;16.260000228881836;1673303596.7650309;18.936660766601562;1.4872264862060547;91.86011505126953
110;1673303596.9972951;47.130642099999996;7.2406193;16.657001495361328;1673303596.9992564;18.924983978271484;-1.693846583366394;91.40741729736328
111;1673303597.1775432;47.1306422;7.240619199999999;17.056001663208008;1673303597.181448;18.75212287902832;1.3394802808761597;91.76239776611328
112;1673303597.3750062;47.1306422;7.240619199999999;17.453001022338867;1673303597.3789115;18.51631736755371;1.997841715812683;91.86164093017578
113;1673303597.574178;47.1306423;7.2406191;17.84400177001953;1673303597.5780864;18.22674560546875;-1.389256238937378;91.33618927001953
114;1673303597.814267;47.1306424;7.240619;18.24100112915039;1673303597.8162072;18.423147201538086;1.1444262266159058;91.68046569824219
115;1673303598.0081062;47.1306424;7.240619;18.638999938964844;1673303598.0100582;18.22820281982422;2.382497549057007;91.97650146484375
116;1673303598.1885736;47.1306424;7.240619;19.030000686645508;1673303598.1921847;18.3823299407959;-1.1038252115249634;91.39826202392578
117;1673303598.3746507;47.1306424;7.2406191;19.42500114440918;1673303598.3775866;18.498476028442383;0.7905847430229187;91.63890075683594
118;1673303598.5555682;47.1306425;7.2406191;19.82000160217285;1673303598.5584974;18.726652145385742;2.798072576522827;91.99337768554688
119;1673303598.752976;47.1306425;7.240619199999999;20.21700096130371;1673303598.7568789;18.533082962036133;0.22576509416103363;91.65718841552734
120;1673303598.9811118;47.1306425;7.240619199999999;20.60700035095215;1673303598.9840417;18.69244384765625;-0.13646021485328674;91.59717559814453
121;1673303599.1682887;47.1306424;7.240619199999999;21.00200080871582;1673303599.170256;18.53267478942871;2.7030417919158936;92.00299072265625
122;1673303599.3767514;47.1306424;7.2406191;21.398000717163086;1673303599.3796885;18.476577758789062;0.20245690643787384;91.642333984375
123;1673303599.565456;47.1306425;7.2406191;21.793001174926758;1673303599.569283;18.526552200317383;-0.45898574590682983;91.46512603759766
124;1673303599.744373;47.130642599999995;7.2406191;22.18600082397461;1673303599.7472568;18.402183532714844;3.1737220287323;92.03549194335938
125;1673303599.9387088;47.130642699999996;7.2406191;22.58300018310547;1673303599.9425876;18.423294067382812;0.3714434504508972;91.67071533203125
126;1673303600.1506553;47.130642699999996;7.2406191;22.972002029418945;1673303600.1526077;18.627784729003906;-0.17206703126430511;91.53251647949219
127;1673303600.3423378;47.130642699999996;7.2406191;23.367000579833984;1673303600.3452682;18.717138290405273;3.14998459815979;92.09469604492188
128;1673303600.5487132;47.130642699999996;7.240619199999999;23.759000778198242;1673303600.5516608;18.561119079589844;0.680827796459198;91.74078369140625
129;1673303600.7504458;47.130642699999996;7.2406193;24.155000686645508;1673303600.7553356;18.72783851623535;-0.7855485677719116;91.4169921875
130;1673303600.966;47.130642699999996;7.2406193;24.552001953125;1673303600.9690826;18.732683181762695;3.136434316635132;92.02011108398438
131;1673303601.1577065;47.1306428;7.2406193;24.94900131225586;1673303601.1625865;18.66779136657715;1.1919106245040894;91.79232025146484
132;1673303601.340527;47.130642699999996;7.240619199999999;25.343000411987305;1673303601.3434634;18.695518493652344;-0.8145396113395691;91.44258117675781
133;1673303601.536492;47.130642599999995;7.240619199999999;25.731000900268555;1673303601.5394344;18.628477096557617;2.6900501251220703;91.91165161132812
134;1673303601.7478697;47.1306425;7.240619199999999;26.123001098632812;1673303601.7507997;18.497859954833984;1.4925557374954224;91.81944274902344
135;1673303601.9403307;47.1306425;7.240619199999999;26.5210018157959;1673303601.9432588;18.54987907409668;-1.1254054307937622;91.30904388427734
136;1673303602.1406035;47.130642599999995;7.240619199999999;26.916000366210938;1673303602.143541;18.465085983276367;2.6001651287078857;91.8719711303711
137;1673303602.3554611;47.130642599999995;7.240619199999999;27.310001373291016;1673303602.3583837;18.645845413208008;1.4772403240203857;91.72201538085938
138;1673303602.5477128;47.130642599999995;7.240619199999999;27.703001022338867;1673303602.5506368;18.546207427978516;-0.9201843738555908;91.35932159423828
139;1673303602.7602105;47.1306425;7.240619199999999;28.090002059936523;1673303602.7631419;18.580718994140625;1.9596748352050781;91.75167083740234
140;1673303602.958637;47.1306425;7.240619199999999;28.481000900268555;1673303602.963528;18.652055740356445;2.5763301849365234;91.86310577392578
141;1673303603.1641884;47.1306425;7.240619199999999;28.87200164794922;1673303603.1671166;18.504627227783203;-1.0200124979019165;91.34142303466797
142;1673303603.3589346;47.130642599999995;7.240619199999999;29.26700210571289;1673303603.360892;18.626806259155273;1.9505046606063843;91.75959777832031
143;1673303603.5427005;47.130642699999996;7.240619199999999;29.65900230407715;1673303603.5475929;18.43222427368164;2.6120967864990234;91.8943862915039
144;1673303603.7425056;47.130642699999996;7.2406193;30.054000854492188;1673303603.7454338;18.506610870361328;-0.6488708853721619;91.405517578125
145;1673303603.9470572;47.130642699999996;7.2406193;30.45100212097168;1673303603.949981;18.568132400512695;1.3755428791046143;91.6550064086914
146;1673303604.1365225;47.130642699999996;7.2406193;30.841001510620117;1673303604.1404254;18.581064224243164;3.303596258163452;91.98287200927734
147;1673303604.3445024;47.130642699999996;7.2406194;31.23400115966797;1673303604.3484068;18.506940841674805;-0.430447518825531;91.41162109375
148;1673303604.543701;47.130642699999996;7.2406194;31.630001068115234;1673303604.547604;18.707910537719727;1.1025066375732422;91.60319519042969
149;1673303604.7489467;47.130642699999996;7.240619499999999;32.03000259399414;1673303604.7518904;18.600122451782227;3.142106533050537;92.07233428955078
150;1673303604.949153;47.130642699999996;7.240619499999999;32.42900085449219;1673303604.9520805;18.612192153930664;-0.5099787712097168;91.49116516113281
151;1673303605.1590981;47.130642599999995;7.240619499999999;32.8280029296875;1673303605.1629944;18.745328903198242;-0.14394472539424896;91.4801025390625
152;1673303605.3720546;47.130642599999995;7.240619499999999;33.217002868652344;1673303605.374984;18.66506576538086;2.952209234237671;91.99455261230469
153;1673303605.5624855;47.130642599999995;7.2406196;33.61300277709961;1673303605.5663888;18.647748947143555;-0.4982853829860687;91.51837921142578
154;1673303605.7495677;47.130642699999996;7.2406196;34.009002685546875;1673303605.7534714;18.700891494750977;0.38354894518852234;91.44659423828125
155;1673303605.9531534;47.1306428;7.2406196;34.406002044677734;1673303605.9570491;18.750431060791016;3.474189519882202;91.9655532836914
156;1673303606.147478;47.1306428;7.2406197;34.802001953125;1673303606.1494212;18.531267166137695;0.5039564967155457;91.5930404663086
157;1673303606.3515487;47.1306428;7.2406196;35.198001861572266;1673303606.354492;18.69350814819336;0.3064931035041809;91.4776611328125
158;1673303606.5478275;47.1306429;7.2406196;35.59400177001953;1673303606.551731;18.537063598632812;3.745710849761963;92.02104949951172
159;1673303606.7550325;47.1306429;7.2406196;35.980003356933594;1673303606.7569833;18.4893798828125;0.9199868440628052;91.65821838378906
160;1673303606.9564357;47.1306429;7.2406197;36.37200164794922;1673303606.9613173;18.684791564941406;0.27109822630882263;91.49248504638672
161;1673303607.1543045;47.1306429;7.2406197;36.7650032043457;1673303607.1562514;18.626277923583984;3.336087703704834;91.95854949951172
162;1673303607.3524144;47.1306428;7.2406197;37.15700149536133;1673303607.355359;18.680089950561523;1.3219914436340332;91.76471710205078
163;1673303607.5529835;47.130642699999996;7.240619799999999;37.54900360107422;1673303607.5559297;18.810888290405273;-0.9000778794288635;91.32909393310547
164;1673303607.7462914;47.130642599999995;7.240619799999999;37.94300079345703;1673303607.7501948;18.71010971069336;2.7639658451080322;91.8716049194336
165;1673303607.9575803;47.130642599999995;7.240619799999999;38.327003479003906;1673303607.9614832;18.77309226989746;1.2592905759811401;91.70558166503906
166;1673303608.1527827;47.130642699999996;7.240619799999999;38.72100067138672;1673303608.1567214;18.885147094726562;-0.7996286749839783;91.28898620605469
167;1673303608.346544;47.130642699999996;7.240619799999999;39.11900329589844;1673303608.3494735;18.876731872558594;2.473071575164795;91.6810531616211
168;1673303608.5449758;47.130642699999996;7.2406197;39.51700210571289;1673303608.5488603;18.57277488708496;2.07977294921875;91.7288818359375
169;1673303608.7493937;47.130642699999996;7.2406196;39.915000915527344;1673303608.7513456;18.610889434814453;-0.5835866332054138;91.36089324951172
170;1673303608.9627614;47.130642699999996;7.2406196;40.314002990722656;1673303608.9676487;18.655126571655273;2.602665901184082;91.79078674316406
171;1673303609.172924;47.130642699999996;7.2406196;40.7130012512207;1673303609.1767614;18.423904418945312;2.7367565631866455;91.9299087524414
172;1673303609.3843682;47.130642699999996;7.240619499999999;41.10200119018555;1673303609.3853445;18.506105422973633;-0.6511199474334717;91.38624572753906
173;1673303609.5643325;47.130642599999995;7.240619499999999;41.49700164794922;1673303609.5672436;18.598892211914062;1.9891554117202759;91.76799011230469
174;1673303609.748037;47.130642599999995;7.240619499999999;41.89600372314453;1673303609.7509487;18.574907302856445;2.755539894104004;91.9747314453125
175;1673303609.9435952;47.1306425;7.240619499999999;42.29100036621094;1673303609.9474971;18.539249420166016;-1.0119223594665527;91.38831329345703
176;1673303610.1408803;47.1306425;7.2406194;42.685001373291016;1673303610.1447847;18.60245704650879;1.5755176544189453;91.74081420898438
177;1673303610.333384;47.1306425;7.240619499999999;43.0780029296875;1673303610.3372989;18.48966407775879;2.8037405014038086;91.97023010253906
178;1673303610.5375519;47.1306425;7.240619499999999;43.4630012512207;1673303610.5415552;18.510488510131836;-0.5369449853897095;91.38682556152344
179;1673303610.7523968;47.130642599999995;7.240619499999999;43.855003356933594;1673303610.7572827;18.67902183532715;1.374898910522461;91.55711364746094
180;1673303610.9524841;47.1306425;7.240619499999999;44.25400161743164;1673303610.9564445;18.70326805114746;3.249246835708618;91.97967529296875
181;1673303611.1837292;47.1306425;7.240619499999999;44.65300369262695;1673303611.1876302;18.483196258544922;-0.2182617038488388;91.4854736328125
182;1673303611.381427;47.1306425;7.240619499999999;45.05500030517578;1673303611.3843553;18.641206741333008;0.9222731590270996;91.54962158203125
183;1673303611.5807383;47.130642599999995;7.240619499999999;45.45500183105469;1673303611.582699;18.54176139831543;3.3838038444519043;92.04644775390625
184;1673303611.7793205;47.130642599999995;7.2406196;45.85600280761719;1673303611.78127;18.498388290405273;0.3727169632911682;91.55903625488281
185;1673303611.9701667;47.1306425;7.2406196;46.24400329589844;1673303611.9730947;18.621854782104492;0.31143245100975037;91.4914321899414
186;1673303612.1585336;47.1306425;7.2406196;46.634002685546875;1673303612.163414;18.536346435546875;3.1959426403045654;92.03883361816406
187;1673303612.356661;47.1306424;7.2406196;47.027000427246094;1673303612.3586235;18.518827438354492;0.9220443367958069;91.75139617919922
188;1673303612.5787394;47.1306424;7.2406196;47.42500305175781;1673303612.5806923;18.66697120666504;-0.4061725437641144;91.48638153076172
189;1673303612.7663915;47.1306425;7.2406196;47.823001861572266;1673303612.768346;18.669050216674805;3.3555471897125244;92.06906127929688
190;1673303612.9481738;47.1306425;7.2406197;48.2130012512207;1673303612.952088;18.590166091918945;1.4447013139724731;91.56232452392578
191;1673303613.1378143;47.1306425;7.240619799999999;48.547000885009766;1673303613.1417172;18.74846076965332;-0.4049707055091858;91.28498840332031
192;1673303613.3537614;47.1306425;7.24062;48.8380012512207;1673303613.3557246;18.58477020263672;3.0881240367889404;91.83389282226562
193;1673303613.561962;47.1306425;7.2406203;49.0880012512207;1673303613.565864;18.93109893798828;1.8165422677993774;91.83934020996094
194;1673303613.7701626;47.1306425;7.2406206;49.297000885009766;1673303613.773098;19.09299659729004;-1.2085340023040771;91.06734466552734
195;1673303613.9500127;47.130642599999995;7.240620799999999;49.47200393676758;1673303613.9539158;29.561534881591797;3.033839702606201;89.86129760742188
196;1673303614.139532;47.1306425;7.240620799999999;49.55600357055664;1673303614.1444309;18.946088790893555;1.1997195482254028;82.63030242919922
197;1673303614.3459382;47.1306423;7.240621;49.56800079345703;1673303614.3488662;20.936023712158203;1.715478539466858;70.7770767211914
198;1673303614.5531597;47.1306418;7.240621;49.58700180053711;1673303614.5560937;34.60995864868164;-3.104588747024536;59.86786651611328
199;1673303614.7469528;47.1306407;7.2406201;49.63300323486328;1673303614.7489839;19.092777252197266;-9.768087387084961;51.30533981323242
200;1673303614.9581468;47.1306395;7.240618899999999;49.685001373291016;1673303614.96305;16.939237594604492;-15.68360710144043;43.454856872558594
201;1673303615.1650496;47.130638399999995;7.2406177;49.73400115966797;1673303615.1670005;15.57701587677002;-16.763826370239258;34.654991149902344
202;1673303615.3871531;47.130637199999995;7.2406163999999995;49.77700424194336;1673303615.3901782;9.771417617797852;-17.533571243286133;25.160783767700195
203;1673303615.5704205;47.1306362;7.240615399999999;49.810001373291016;1673303615.5723681;5.470950126647949;-15.9464693069458;15.412407875061035
204;1673303615.7630596;47.130635299999994;7.2406147;49.83000183105469;1673303615.765001;0.030158698558807373;-15.249771118164062;5.695500373840332
205;1673303615.9570403;47.130634699999995;7.2406143;49.85300064086914;1673303615.960185;-4.651812553405762;-16.33611297607422;-4.133453845977783
206;1673303616.147243;47.130634199999996;7.240614099999999;49.875003814697266;1673303616.149288;-7.525958061218262;-17.30417823791504;-13.59412956237793
207;1673303616.3431675;47.1306339;7.240614;49.89800262451172;1673303616.3460963;-8.758025169372559;-19.365482330322266;-22.360767364501953
208;1673303616.555182;47.1306338;7.240614;49.9160041809082;1673303616.5571346;-10.620109558105469;-20.0246524810791;-30.953134536743164
209;1673303616.758931;47.1306337;7.2406139;49.93300247192383;1673303616.7608943;-12.996686935424805;-18.467668533325195;-39.558773040771484
210;1673303616.9571753;47.130633599999996;7.240613799999999;49.94600296020508;1673303616.9600887;-15.676582336425781;-14.925960540771484;-48.22218704223633
211;1673303617.1645212;47.130633599999996;7.2406134;49.94700241088867;1673303617.1674476;-17.09589385986328;-10.808659553527832;-51.88105010986328
212;1673303617.368233;47.1306337;7.2406131;49.95500183105469;1673303617.3717003;-15.622832298278809;-11.687210083007812;-48.652626037597656
213;1673303617.5713916;47.1306339;7.2406128;49.967002868652344;1673303617.5752988;-13.953137397766113;-14.751173973083496;-45.58329391479492
214;1673303617.7764063;47.1306339;7.240612499999999;49.97500228881836;1673303617.7802994;-12.456060409545898;-17.433629989624023;-44.597923278808594
215;1673303617.972892;47.1306339;7.2406121;49.97900390625;1673303617.9758236;-12.006616592407227;-18.212953567504883;-44.415191650390625
216;1673303618.1618402;47.1306338;7.2406118;49.98200225830078;1673303618.1657445;-12.529218673706055;-17.611705780029297;-44.444679260253906
217;1673303618.358374;47.1306337;7.2406114;49.974002838134766;1673303618.3642309;-13.184019088745117;-14.95822811126709;-44.65424346923828
218;1673303618.5726972;47.1306337;7.2406112;49.97700119018555;1673303618.5766048;-13.823943138122559;-13.000507354736328;-45.041194915771484
219;1673303618.7644405;47.1306337;7.2406111;49.98100280761719;1673303618.7673686;-13.683267593383789;-12.890714645385742;-44.56426239013672
220;1673303618.9569561;47.1306337;7.2406109999999995;49.987003326416016;1673303618.9589143;-13.164535522460938;-14.715536117553711;-44.098995208740234
221;1673303619.1525857;47.1306337;7.2406106999999995;49.99500274658203;1673303619.1565025;-29.713354110717773;-15.59300708770752;-44.546321868896484
222;1673303619.3643646;47.1306344;7.2406093;50.01400375366211;1673303619.3682806;-46.16267013549805;-12.167566299438477;-46.23048782348633
223;1673303619.5663986;47.1306365;7.2406058;50.03000259399414;1673303619.569326;-57.03751754760742;-8.899341583251953;-47.410400390625
224;1673303619.7559426;47.130640899999996;7.2405991;50.022003173828125;1673303619.7598817;-58.47985076904297;-6.4785308837890625;-49.98038101196289
225;1673303619.9629216;47.1306473;7.2405899;50.02300262451172;1673303619.9648778;-55.83493423461914;-4.388813495635986;-51.855072021484375
226;1673303620.1497142;47.1306552;7.2405783999999995;50.031002044677734;1673303620.1529152;-54.78670120239258;-3.8290929794311523;-51.380165100097656
227;1673303620.3509455;47.1306647;7.2405650999999995;50.035003662109375;1673303620.353878;-56.174259185791016;-4.244162082672119;-49.964717864990234
228;1673303620.5537925;47.1306753;7.2405503;50.02700424194336;1673303620.558678;-54.82648468017578;-6.019516944885254;-48.93657684326172
229;1673303620.7608309;47.130686999999995;7.2405342;50.005001068115234;1673303620.76382;-52.80567932128906;-6.395387172698975;-48.94044494628906
230;1673303620.949916;47.130699299999996;7.2405171;49.96600341796875;1673303620.9532638;-51.24736022949219;-7.220508575439453;-48.63618850708008
231;1673303621.1468172;47.130711999999995;7.2404994;49.939002990722656;1673303621.1507664;-48.102996826171875;-7.715698719024658;-48.66831588745117
232;1673303621.3530087;47.1307251;7.2404812;49.93000411987305;1673303621.3559353;-47.47777557373047;-10.08806037902832;-48.206298828125
233;1673303621.555885;47.1307383;7.2404625;49.92900085449219;1673303621.558813;-49.52698516845703;-8.729666709899902;-48.90956497192383
234;1673303621.7558527;47.130751599999996;7.2404433;49.92400360107422;1673303621.7597578;-49.27600860595703;-8.532731056213379;-49.00044631958008
235;1673303621.9593363;47.130765;7.2404237;49.923004150390625;1673303621.9642322;-48.63243865966797;-9.064740180969238;-48.90900802612305
236;1673303622.2056766;47.1307784;7.240403799999999;49.928001403808594;1673303622.2086043;-47.21308898925781;-10.198756217956543;-50.30708312988281
237;1673303622.373238;47.130791699999996;7.2403837;49.923004150390625;1673303622.3761582;-47.04087448120117;-10.07034683227539;-51.17620086669922
238;1673303622.558547;47.1308047;7.2403632;49.92900085449219;1673303622.561488;-46.54349136352539;-15.657551765441895;-49.80622863769531
239;1673303622.7580674;47.1308173;7.2403423;49.941001892089844;1673303622.7609959;-42.47791290283203;-18.408905029296875;-51.41729736328125
240;1673303622.967663;47.1308291;7.240321499999999;49.97300338745117;1673303622.9715693;-9.593581199645996;-13.671418190002441;-53.037296295166016
241;1673303623.1523132;47.1308392;7.240303399999999;49.992000579833984;1673303623.1552923;29.616046905517578;-9.253654479980469;-50.91476058959961
242;1673303623.33908;47.1308478;7.240289;49.827003479003906;1673303623.343019;23.055511474609375;-0.7433786988258362;-52.974979400634766
243;1673303623.549381;47.1308546;7.2402796;49.544002532958984;1673303623.5523207;15.971206665039062;-2.229902744293213;-48.29235076904297
244;1673303623.770455;47.130859799999996;7.240274299999999;49.314002990722656;1673303623.7730937;14.48560619354248;-3.1866977214813232;-47.40928649902344
245;1673303623.9798844;47.130863399999996;7.2402729;49.20100402832031;1673303623.9844117;13.849190711975098;-4.98771858215332;-47.32767868041992
246;1673303624.189132;47.1308657;7.2402748;49.21900177001953;1673303624.1920617;25.480911254882812;-9.972972869873047;-47.27302169799805
247;1673303624.4140134;47.1308661;7.2402796;49.29600143432617;1673303624.4159894;35.2051887512207;-17.27292823791504;-45.60862731933594
248;1673303624.6092272;47.1308642;7.2402869;49.4010009765625;1673303624.6131601;30.981426239013672;-23.672578811645508;-43.281761169433594
249;1673303624.7970757;47.13086;7.240295499999999;49.52100372314453;1673303624.7990267;16.641307830810547;-24.874422073364258;-43.772029876708984
250;1673303624.9985466;47.1308544;7.2403039;49.62900161743164;1673303625.0004833;0.07752779126167297;-21.8864688873291;-45.425987243652344
251;1673303625.1727533;47.1308485;7.2403118;49.71900177001953;1673303625.174713;-15.286916732788086;-11.900043487548828;-47.13227844238281
252;1673303625.3567016;47.1308432;7.2403188;49.790000915527344;1673303625.3586643;-26.152462005615234;-7.245645999908447;-49.100582122802734
253;1673303625.5430675;47.130839099999996;7.240324299999999;49.85000228881836;1673303625.5459955;-31.82308578491211;-9.965683937072754;-50.4442253112793
254;1673303625.7561939;47.1308362;7.2403283;49.8900032043457;1673303625.7581482;-26.594083786010742;-5.263027191162109;-50.15522384643555
255;1673303625.953639;47.1308346;7.2403315;49.92100143432617;1673303625.9565477;-23.2550106048584;-5.906316757202148;-49.445335388183594
256;1673303626.1691608;47.1308341;7.2403341;49.94600296020508;1673303626.1720884;-20.527156829833984;-4.907169342041016;-49.3702392578125
257;1673303626.3675194;47.1308343;7.240336699999999;49.96900177001953;1673303626.3704524;-16.249313354492188;-5.938238143920898;-49.14766311645508
258;1673303626.5717218;47.130834799999995;7.240339199999999;49.987003326416016;1673303626.5746486;-12.457798957824707;-8.217845916748047;-48.61367416381836
259;1673303626.7859457;47.1308353;7.2403417;50.00300216674805;1673303626.7898486;-9.301704406738281;-10.46955394744873;-48.40269470214844
260;1673303626.991835;47.1308357;7.240344299999999;49.98800277709961;1673303626.9937878;-14.039562225341797;0.46430444717407227;-49.95138168334961
261;1673303627.1860693;47.1308363;7.240347099999999;49.650001525878906;1673303627.1899636;-20.052854537963867;31.341279983520508;-56.03719711303711
262;1673303627.3878167;47.1308368;7.240349999999999;48.94300079345703;1673303627.3897672;-17.62276840209961;61.8406867980957;-58.474891662597656
263;1673303627.5783699;47.130837199999995;7.240353;47.842002868652344;1673303627.5812957;-12.406319618225098;84.5556640625;-51.11733627319336
264;1673303627.7847164;47.1308375;7.240355999999999;46.384002685546875;1673303627.7876437;-9.947919845581055;94.74603271484375;-35.30354690551758
265;1673303627.9783661;47.130837799999995;7.2403591;44.573001861572266;1673303627.9822352;-9.556885719299316;88.46686553955078;-12.64067268371582
266;1673303628.1682994;47.130838;7.2403622;42.41100311279297;1673303628.1717596;-4.896369457244873;66.54363250732422;13.7003812789917
267;1673303628.4033191;47.1308383;7.240365;39.87900161743164;1673303628.4072237;15.619505882263184;31.80067253112793;32.993682861328125
268;1673303628.6279342;47.1308389;7.2403679;36.957000732421875;1673303628.6298814;32.6978645324707;-8.837301254272461;36.23648452758789
269;1673303628.7973995;47.130839599999995;7.240371199999999;33.63800048828125;1673303628.8013027;33.830135345458984;-41.09221267700195;37.51979446411133
270;1673303628.9822502;47.130840199999994;7.240374999999999;29.985000610351562;1673303628.9841967;20.19211769104004;-44.976043701171875;52.271060943603516
271;1673303629.1932757;47.1308407;7.240379399999999;25.987001419067383;1673303629.198156;-6.841858386993408;-25.476316452026367;71.46965789794922
272;1673303629.3937423;47.130840799999994;7.2403838;21.608001708984375;1673303629.3976467;-37.655609130859375;8.197193145751953;79.12202453613281
273;1673303629.579302;47.130841;7.2403878;16.856000900268555;1673303629.5812585;-49.45201110839844;41.621070861816406;77.2354507446289
274;1673303629.7931077;47.1308413;7.240391499999999;11.771000862121582;1673303629.7960355;-37.83911895751953;37.48384475708008;96.50558471679688
275;1673303630.001111;47.130842099999995;7.2403949;6.338000297546387;1673303630.0040371;-3.195815086364746;10.998244285583496;118.49918365478516
276;1673303630.1963375;47.1308431;7.2403986;0.4910000264644623;1673303630.1992605;33.02771759033203;-16.944751739501953;123.59368896484375
277;1673303630.4094422;47.1308498;7.240390799999999;-0.32200002670288086;1673303630.4113955;16.633878707885742;4.104069709777832;127.29661560058594
278;1673303630.605144;47.130860299999995;7.240379099999999;-0.4320000112056732;1673303630.6070852;15.6224365234375;0.35896047949790955;128.7744140625
279;1673303630.804848;47.130871299999995;7.2403669;-0.4690000116825104;1673303630.8087616;15.795419692993164;2.0030148029327393;128.39122009277344
280;1673303631.0049214;47.1308815;7.2403545;-0.503000020980835;1673303631.0088384;15.717019081115723;1.3939979076385498;128.14947509765625
281;1673303631.2578907;47.130890699999995;7.2403422;-0.5390000343322754;1673303631.259846;15.587449073791504;1.867139458656311;127.8754653930664
282;1673303631.4280217;47.130901099999996;7.240327499999999;-0.612000048160553;1673303631.4309406;15.570359230041504;2.1690027713775635;127.71028137207031
283;1673303631.6117723;47.1309123;7.2403110999999996;-0.6800000071525574;1673303631.6147003;15.602131843566895;2.4231667518615723;127.5457534790039
284;1673303631.8229702;47.130924;7.2402931;-0.7440000176429749;1673303631.8307798;15.608661651611328;2.615018129348755;127.42659759521484
285;1673303631.9881346;47.1309362;7.2402738;-0.8060000538825989;1673303631.9910634;15.623438835144043;2.6866257190704346;127.27179718017578
286;1673303632.1690109;47.130948599999996;7.2402533;-0.8690000176429749;1673303632.170964;15.604531288146973;2.792682409286499;127.15131378173828
287;1673303632.3670511;47.1309614;7.2402317;-0.9320000410079956;1673303632.3699834;15.547586441040039;2.76015567779541;127.05310821533203
288;1673303632.5669556;47.1309744;7.240208999999999;-0.9890000224113464;1673303632.5689223;15.525218963623047;2.776947498321533;126.90161895751953
289;1673303632.7641149;47.1309879;7.2401849;-1.0940001010894775;1673303632.767479;15.55020523071289;2.70371413230896;126.80111694335938
290;1673303632.976946;47.1310016;7.2401599;-1.1820000410079956;1673303632.9808424;15.546387672424316;2.602748394012451;126.70362091064453
291;1673303633.1880343;47.1310155;7.2401339;-1.2510000467300415;1673303633.19096;15.459568977355957;2.4848415851593018;126.6202392578125
292;1673303633.3630452;47.1310296;7.240107;-1.3200000524520874;1673303633.3660488;15.395803451538086;2.392031669616699;126.52234649658203
293;1673303633.553065;47.131043899999995;7.240079199999999;-1.38100004196167;1673303633.556113;15.37198543548584;2.327059745788574;126.44337463378906
294;1673303633.7573397;47.1310584;7.2400505;-1.433000087738037;1673303633.7612486;15.347196578979492;2.1668930053710938;126.35748291015625
295;1673303633.9509413;47.1310735;7.2400202;-1.5360000133514404;1673303633.9539642;15.326955795288086;2.0076804161071777;126.2881851196289
296;1673303634.1501167;47.1310886;7.2399892999999995;-1.6100001335144043;1673303634.1530454;15.259430885314941;1.8821206092834473;126.19511413574219
297;1673303634.351251;47.1311038;7.2399578;-1.66100013256073;1673303634.3542209;15.158677101135254;1.768489956855774;126.12142944335938
298;1673303634.5649593;47.131119299999995;7.2399255;-1.7050000429153442;1673303634.5678737;15.090949058532715;1.678532600402832;126.03205108642578
299;1673303634.776271;47.1311349;7.2398924;-1.7390000820159912;1673303634.7792013;15.097146987915039;1.6041738986968994;125.96641540527344
300;1673303634.985114;47.1311507;7.239858399999999;-1.7680001258850098;1673303634.988054;14.980902671813965;1.5625008344650269;125.8896255493164
301;1673303635.2040179;47.131166799999995;7.2398237;-1.7890000343322754;1673303635.2069957;14.937173843383789;1.509861946105957;125.8213119506836
302;1673303635.4290419;47.1311836;7.2397868999999995;-1.8720000982284546;1673303635.4310508;14.88017749786377;1.4688133001327515;125.70257568359375
303;1673303635.6027868;47.1312004;7.2397499;-1.9180001020431519;1673303635.606187;14.813902854919434;1.4197578430175781;125.62513732910156
304;1673303635.7948372;47.131217299999996;7.239712399999999;-1.942000150680542;1673303635.7979648;14.754073143005371;1.3784414529800415;125.53479766845703
305;1673303635.997889;47.1312344;7.239674099999999;-1.9510000944137573;1673303636.0018039;14.676419258117676;1.3641871213912964;125.46197509765625
306;;;;;1673303636.2012777;14.628503799438477;1.3480360507965088;125.40122985839844
307;;;;;1673303636.4024775;14.54227066040039;1.3048487901687622;125.2981185913086
308;;;;;1673303636.5899944;14.547975540161133;1.290879249572754;125.20887756347656
309;;;;;1673303636.7839985;14.425684928894043;1.2993738651275635;125.16311645507812
310;;;;;1673303636.9714155;14.424322128295898;1.5299773216247559;125.0910415649414
311;;;;;1673303637.166678;14.317426681518555;1.6862025260925293;125.02098083496094
312;;;;;1673303637.3590598;14.25661849975586;1.8598004579544067;124.92654418945312
313;;;;;1673303637.5638847;14.233878135681152;1.9689043760299683;124.78055572509766
