;pos_time;latitude;longitude;altitude;alt_time;pitch;roll;yaw
0;1673300054.982767;47.1306423;7.2406201999999995;-0.017000000923871994;1673300055.0675228;0.32578206062316895;-0.11983950436115265;90.19889068603516
1;1673300055.189385;47.1306423;7.2406204;-0.014000000432133675;1673300055.2716672;0.2641565501689911;-0.2729795277118683;90.39207458496094
2;1673300055.3884475;47.1306424;7.2406206;-0.01100000087171793;1673300055.4835289;0.11000259965658188;-0.2626778483390808;90.1697998046875
3;1673300055.606557;47.1306424;7.2406207;-0.009000000543892384;1673300055.6885452;0.0024119371082633734;-0.2526589632034302;90.26004791259766
4;1673300055.806709;47.1306424;7.2406207;-0.009000000543892384;1673300055.900613;-0.09433849900960922;-0.38203418254852295;90.39117431640625
5;1673300056.013629;47.1306424;7.240620799999999;-0.006000000052154064;1673300056.0844743;-0.0646686777472496;-0.23468373715877533;90.48828125
6;1673300056.199508;47.1306424;7.240620799999999;-0.004000000189989805;1673300056.2816877;-0.21892353892326355;-0.22156520187854767;90.2876968383789
7;1673300056.4026494;47.1306424;7.2406207;-0.007000000216066837;1673300056.4814916;-0.2696044445037842;-0.42969557642936707;90.42561340332031
8;1673300056.5957394;47.1306423;7.2406206;-0.00800000037997961;1673300056.673689;-0.10804464668035507;-0.30111345648765564;90.51248168945312
9;1673300056.7884533;47.1306423;7.2406204;0.0010000000474974513;1673300056.8647656;-0.002722283825278282;-0.7205549478530884;90.4347915649414
10;1673300056.9694545;47.1306424;7.2406204;0.003000000026077032;1673300057.0468085;-0.045443251729011536;-0.7266858816146851;90.56146240234375
11;1673300057.1757102;47.1306424;7.2406204;0.003000000026077032;1673300057.2677715;-0.23784717917442322;-0.5959612727165222;90.32955932617188
12;1673300057.3982265;47.1306424;7.2406203;0.004000000189989805;1673300057.4884367;-0.10767526924610138;-0.6984130144119263;90.33613586425781
13;1673300057.6033928;47.1306424;7.2406203;0.004000000189989805;1673300057.6954594;0.00046387920156121254;-0.3899696469306946;90.33319854736328
14;1673300057.8274717;47.1306424;7.2406203;0.005000000353902578;1673300057.9029016;-0.2282327115535736;-0.8128353357315063;90.47938537597656
15;1673300058.0185583;47.1306424;7.2406203;0.004000000189989805;1673300058.100915;-0.28199607133865356;-0.7037695050239563;90.5055923461914
16;1673300058.2129867;47.1306425;7.2406203;0.0010000000474974513;1673300058.2956934;-0.2784162163734436;-0.47615236043930054;90.46617126464844
17;1673300058.4075577;47.1306425;7.2406201999999995;-0.0010000000474974513;1673300058.493627;-0.3031619191169739;-0.729426920413971;90.35253143310547
18;1673300058.5904274;47.1306425;7.2406201999999995;0.0010000000474974513;1673300058.6695073;-0.14332085847854614;-0.9057199358940125;90.39157104492188
19;1673300058.8037343;47.1306425;7.2406201;0.006000000052154064;1673300058.8784542;-0.19358603656291962;-0.382969468832016;90.35208129882812
20;1673300059.0058112;47.1306425;7.2406201;0.00800000037997961;1673300059.0864177;-0.1785241961479187;-0.2661110758781433;90.56375122070312
21;1673300059.203882;47.1306425;7.2406201999999995;0.009000000543892384;1673300059.2838597;-0.07546154409646988;-0.1697216033935547;90.39264678955078
22;1673300059.3816564;47.1306425;7.2406201999999995;0.009000000543892384;1673300059.4575348;-0.26202502846717834;-0.4122008681297302;90.41666412353516
23;1673300059.577663;47.1306425;7.2406201999999995;0.00800000037997961;1673300059.670492;-0.2744806110858917;-0.4224279820919037;90.45049285888672
24;1673300059.7864895;47.1306425;7.2406201999999995;0.00800000037997961;1673300059.865592;-0.22389233112335205;-0.29614001512527466;90.51915740966797
25;1673300059.9827392;47.1306425;7.2406201999999995;0.009000000543892384;1673300060.0647502;-0.04889147728681564;-0.2430974394083023;90.80702209472656
26;1673300060.221884;47.1306425;7.2406201;0.009000000543892384;1673300060.3040035;0.4767206609249115;0.2655933201313019;93.2775650024414
27;1673300060.4094582;47.130642599999995;7.2406203;0.003000000026077032;1673300060.5056763;0.4741658866405487;1.7104108333587646;95.20162200927734
28;1673300060.6184478;47.130642699999996;7.2406206;0.00800000037997961;1673300060.6905532;3.4008629322052;4.603553295135498;94.73370361328125
29;1673300060.8184426;47.1306428;7.240621;0.029000001028180122;1673300060.904764;7.768413543701172;9.185826301574707;93.78413391113281
30;1673300061.061716;47.1306428;7.2406213;0.06700000166893005;1673300061.1438024;7.999691486358643;9.60615348815918;92.511474609375
31;1673300061.2627108;47.1306428;7.2406215;0.11400000751018524;1673300061.353766;8.894207000732422;3.79089617729187;90.82130432128906
32;1673300061.4530182;47.130642699999996;7.2406216;0.17800000309944153;1673300061.5256102;9.652318000793457;4.849926471710205;89.69396209716797
33;1673300061.62955;47.130642599999995;7.2406215;0.26100000739097595;1673300061.7116385;9.126376152038574;8.263260841369629;89.48127746582031
34;1673300061.8146484;47.130642699999996;7.240621399999999;0.359000027179718;1673300061.9127154;8.210494041442871;5.271008014678955;89.33203125
35;1673300062.0273964;47.1306428;7.240621099999999;0.47200003266334534;1673300062.130769;8.098340034484863;5.012049674987793;89.21593475341797
36;1673300062.2564588;47.1306428;7.240620799999999;0.5980000495910645;1673300062.3557112;6.715909957885742;8.992759704589844;88.32891082763672
37;1673300062.4581506;47.130642699999996;7.2406204999999995;0.7330000400543213;1673300062.5319552;6.8461127281188965;7.69974422454834;87.19863891601562
38;1673300062.6367302;47.130642599999995;7.2406201999999995;0.8820000290870667;1673300062.7194636;6.419618606567383;2.8453691005706787;86.58126831054688
39;1673300062.8353815;47.1306424;7.2406198999999996;1.0470000505447388;1673300062.9144676;6.449462890625;4.900330066680908;86.75969696044922
40;1673300063.0335605;47.1306423;7.2406197;1.224000096321106;1673300063.109571;7.365416049957275;8.027220726013184;86.94451904296875
41;1673300063.2076893;47.1306422;7.2406196;1.409000039100647;1673300063.2833843;7.9104743003845215;5.535147190093994;86.51898956298828
42;1673300063.3952394;47.1306423;7.2406197;1.5950000286102295;1673300063.4719186;7.664932727813721;3.696524143218994;85.7249755859375
43;1673300063.5888257;47.1306423;7.2406197;1.78600013256073;1673300063.674446;6.872519493103027;7.500956058502197;84.73902893066406
44;1673300063.7912903;47.1306424;7.2406197;1.9780000448226929;1673300063.8718185;7.164141654968262;7.117278575897217;83.74578094482422
45;1673300064.0042002;47.1306424;7.2406197;2.1700000762939453;1673300064.0910711;6.701274871826172;2.700592041015625;83.51383209228516
46;1673300064.2067175;47.1306423;7.2406197;2.3620002269744873;1673300064.2861242;6.987520217895508;4.309183120727539;83.80020904541016
47;1673300064.4087942;47.1306422;7.240619799999999;2.555000066757202;1673300064.4952395;8.387521743774414;8.453240394592285;84.03215789794922
48;1673300064.6197426;47.1306423;7.2406198999999996;2.753000020980835;1673300064.6983845;8.95899772644043;4.8668999671936035;83.47007751464844
49;1673300064.816224;47.1306424;7.2406198999999996;2.946000099182129;1673300064.89885;8.656630516052246;4.387594223022461;82.91361236572266
50;1673300065.023493;47.1306424;7.2406198999999996;3.13700008392334;1673300065.1117237;8.306463241577148;7.615090847015381;83.23609161376953
51;1673300065.2236915;47.1306425;7.2406198999999996;3.3310000896453857;1673300065.309049;7.290998458862305;6.4922895431518555;83.62982940673828
52;1673300065.4211106;47.1306425;7.240619799999999;3.5270001888275146;1673300065.5079696;6.740474224090576;3.177844524383545;83.91752624511719
53;1673300065.61962;47.1306424;7.240619799999999;3.7250001430511475;1673300065.6949887;6.991792678833008;6.189021110534668;84.15090942382812
54;1673300065.8030298;47.1306423;7.240619799999999;3.9250001907348633;1673300065.8818107;7.891284465789795;8.034662246704102;84.00587463378906
55;1673300066.0076423;47.1306422;7.2406198999999996;4.127000331878662;1673300066.0907629;8.31478500366211;3.8352420330047607;83.27884674072266
56;1673300066.2124426;47.130642099999996;7.24062;4.328999996185303;1673300066.3016765;8.326533317565918;3.099179267883301;82.69920349121094
57;1673300066.408737;47.130641999999995;7.2406201;4.5320000648498535;1673300066.4864535;8.336565971374512;6.990911960601807;83.19303131103516
58;1673300066.615066;47.130642099999996;7.2406201999999995;4.732000350952148;1673300066.710648;7.834022521972656;5.457730293273926;83.72087860107422
59;1673300066.8335612;47.1306422;7.2406201999999995;4.931000232696533;1673300066.9401886;7.419075012207031;3.007253646850586;83.84661102294922
60;1673300067.0483298;47.1306422;7.2406203;5.129000186920166;1673300067.125262;7.532595157623291;5.943865776062012;83.78482055664062
61;1673300067.2331703;47.1306422;7.2406204;5.327000141143799;1673300067.311911;7.915567398071289;7.781358242034912;83.61234283447266
62;1673300067.426937;47.1306422;7.2406204;5.525000095367432;1673300067.4977326;8.548001289367676;3.794556140899658;83.04763793945312
63;1673300067.6015668;47.1306422;7.2406204999999995;5.7220001220703125;1673300067.6852891;9.125846862792969;3.996213674545288;82.9327163696289
64;1673300067.8024874;47.1306422;7.2406204999999995;5.923000335693359;1673300067.88111;8.898350715637207;7.6181721687316895;83.70807647705078
65;1673300068.003931;47.1306424;7.2406206;6.129000186920166;1673300068.0855434;8.219185829162598;6.128750801086426;84.30885314941406
66;1673300068.20449;47.1306425;7.2406204999999995;6.336000442504883;1673300068.292955;8.078357696533203;4.444173812866211;84.2600326538086
67;1673300068.402859;47.1306425;7.2406204999999995;6.5420002937316895;1673300068.4944005;7.505027770996094;7.037968635559082;83.8049545288086
68;1673300068.6309536;47.1306423;7.2406204;6.743000507354736;1673300068.7154665;7.373929023742676;7.916311740875244;83.56172180175781
69;1673300068.8332531;47.1306422;7.2406204;6.940000534057617;1673300068.9069793;7.502969264984131;3.712496519088745;83.49922943115234
70;1673300069.027663;47.130642099999996;7.2406204;7.135000228881836;1673300069.1121764;7.698888778686523;3.1215097904205322;83.51533508300781
71;1673300069.2271438;47.130642099999996;7.2406204999999995;7.333000183105469;1673300069.3011565;8.262569427490234;7.251813888549805;83.89527130126953
72;1673300069.407585;47.130642099999996;7.2406204999999995;7.534000396728516;1673300069.4940886;8.77495288848877;5.8640851974487305;83.92718505859375
73;1673300069.618565;47.1306423;7.2406206;7.740000247955322;1673300069.7030382;8.788240432739258;3.430936336517334;83.52648162841797
74;1673300069.8180509;47.1306424;7.2406206;7.944000244140625;1673300069.8966439;7.5437421798706055;6.040101051330566;83.11222076416016
75;1673300070.0035641;47.1306424;7.2406206;8.142000198364258;1673300070.080427;7.492304801940918;7.963971138000488;82.95926666259766
76;1673300070.2070134;47.1306423;7.2406206;8.336000442504883;1673300070.2887669;7.760282039642334;3.7711691856384277;83.34175109863281
77;1673300070.3976731;47.1306423;7.2406206;8.534000396728516;1673300070.473845;7.38779878616333;2.918952465057373;83.70861053466797
78;1673300070.5891392;47.1306423;7.2406207;8.738000869750977;1673300070.6770976;8.211376190185547;7.5398335456848145;84.08816528320312
79;1673300070.7964685;47.1306424;7.2406207;8.946000099182129;1673300070.8876271;8.827309608459473;7.328065872192383;83.78812408447266
80;1673300071.0113378;47.1306425;7.2406207;9.154000282287598;1673300071.094763;8.949274063110352;3.6469857692718506;83.20984649658203
81;1673300071.2159467;47.130642699999996;7.2406207;9.359000205993652;1673300071.2975004;8.704487800598145;4.994986534118652;83.0615234375
82;1673300071.4190738;47.1306428;7.2406207;9.562000274658203;1673300071.502598;7.927350044250488;8.74220085144043;83.27926635742188
83;1673300071.615414;47.1306429;7.2406206;9.766000747680664;1673300071.6881871;7.176482677459717;4.846424102783203;83.57579803466797
84;1673300071.8020248;47.1306428;7.2406204999999995;9.969000816345215;1673300071.8781562;6.880776405334473;3.6896581649780273;84.13333892822266
85;1673300071.9916673;47.130642699999996;7.2406204999999995;10.17400074005127;1673300072.089821;7.272695541381836;8.138431549072266;84.33097839355469
86;1673300072.2124808;47.130642599999995;7.2406204;10.44800090789795;1673300072.298761;8.801630973815918;10.012210845947266;83.73983764648438
87;1673300072.4114077;47.1306424;7.2406203;10.8100004196167;1673300072.4846687;9.274173736572266;5.1544928550720215;83.22420501708984
88;1673300072.5951037;47.130642099999996;7.2406201;11.194000244140625;1673300072.6883745;8.424334526062012;4.075841426849365;83.45767974853516
89;1673300072.8102167;47.1306418;7.240619799999999;11.587000846862793;1673300072.8908038;7.567349910736084;6.663305282592773;83.75102233886719
90;1673300072.999805;47.130641499999996;7.2406196;11.984000205993652;1673300073.0835464;7.211440563201904;4.280720233917236;83.90217590332031
91;1673300073.213763;47.130641399999995;7.2406196;12.385000228881836;1673300073.2943883;6.98299503326416;1.7519946098327637;83.95262145996094
92;1673300073.4335616;47.1306413;7.2406196;12.78700065612793;1673300073.5122983;6.527500629425049;4.410841941833496;83.64048767089844
93;1673300073.6143837;47.1306412;7.2406197;13.190000534057617;1673300073.6891882;6.645518779754639;5.775451183319092;83.65621948242188
94;1673300073.832503;47.1306413;7.240619799999999;13.593000411987305;1673300073.9146163;6.972105979919434;2.581362247467041;83.74579620361328
95;1673300074.0267677;47.130641499999996;7.2406198999999996;13.993000984191895;1673300074.1058936;7.26561164855957;3.6264352798461914;83.66217041015625
96;1673300074.2159688;47.1306417;7.2406201;14.390000343322754;1673300074.2862692;8.028362274169922;8.10378646850586;83.7883071899414
97;1673300074.3917887;47.130641999999995;7.2406203;14.785000801086426;1673300074.4816732;8.566320419311523;7.323758602142334;83.90375518798828
98;1673300074.6039627;47.1306422;7.2406204999999995;15.181000709533691;1673300074.6861923;8.783880233764648;4.048142433166504;83.82209014892578
99;1673300074.801402;47.1306422;7.2406206;15.576001167297363;1673300074.8824837;8.792689323425293;6.490834712982178;83.57473754882812
100;1673300074.9998796;47.130642099999996;7.2406207;15.975000381469727;1673300075.0800426;8.435243606567383;7.443427085876465;83.5914535522461
101;1673300075.200526;47.130642099999996;7.2406207;16.378000259399414;1673300075.28768;7.539053916931152;3.602215528488159;83.89846801757812
102;1673300075.4110541;47.130642099999996;7.2406206;16.777000427246094;1673300075.4935987;7.440436363220215;4.430960655212402;84.01571655273438
103;1673300075.595847;47.130642099999996;7.2406206;17.176000595092773;1673300075.6828604;7.631004333496094;8.165568351745605;83.67737579345703
104;1673300075.8007402;47.130642099999996;7.2406204999999995;17.57900047302246;1673300075.8740056;7.780812740325928;5.934998989105225;83.25553131103516
105;1673300075.982395;47.1306422;7.2406204999999995;17.981000900268555;1673300076.063948;8.092643737792969;2.8925833702087402;83.27401733398438
106;1673300076.181795;47.130642099999996;7.2406204999999995;18.381999969482422;1673300076.2801776;7.885470867156982;5.768124580383301;83.7169418334961
107;1673300076.4182138;47.130642099999996;7.2406204;18.780000686645508;1673300076.4969966;8.00605583190918;7.223931312561035;84.1240234375
108;1673300076.5952942;47.130641999999995;7.2406203;19.179000854492188;1673300076.6676;8.03127670288086;3.9665424823760986;83.97886657714844
109;1673300076.79016;47.130641999999995;7.2406201999999995;19.58300018310547;1673300076.8793492;7.430861949920654;3.4625816345214844;83.39695739746094
110;1673300076.9938047;47.130641999999995;7.2406201999999995;19.98900032043457;1673300077.0904646;7.215588092803955;7.13716459274292;83.42318725585938
111;1673300077.2204807;47.130642099999996;7.2406201;20.3960018157959;1673300077.300171;7.191013813018799;5.963925361633301;83.53221130371094
112;1673300077.4101534;47.1306423;7.2406201;20.796001434326172;1673300077.486292;7.2273640632629395;3.3713579177856445;83.69969177246094
113;1673300077.5924866;47.1306424;7.2406201;21.192001342773438;1673300077.6750753;7.549518585205078;6.4021735191345215;84.12842559814453
114;1673300077.8042185;47.1306424;7.2406201;21.584001541137695;1673300077.886204;8.25055980682373;8.005127906799316;84.2225570678711
115;1673300078.005432;47.1306423;7.2406201999999995;21.981000900268555;1673300078.0933306;8.561088562011719;4.403858184814453;83.71940612792969
116;1673300078.1978414;47.1306423;7.2406201999999995;22.37900161743164;1673300078.3077614;8.207732200622559;3.6439197063446045;83.33182525634766
117;1673300078.4323034;47.1306422;7.2406201999999995;22.77800178527832;1673300078.5207636;7.845422267913818;7.063586711883545;83.49909973144531
118;1673300078.6265485;47.1306423;7.2406201999999995;23.181001663208008;1673300078.7052126;7.626626491546631;5.7421979904174805;83.59230041503906
119;1673300078.823024;47.1306425;7.2406201999999995;23.588001251220703;1673300078.901653;7.263548851013184;3.415128231048584;83.61144256591797
120;1673300079.0117972;47.130642599999995;7.2406201999999995;23.988000869750977;1673300079.0840578;7.409078121185303;6.4099578857421875;83.85421752929688
121;1673300079.1993384;47.130642699999996;7.2406201999999995;24.387001037597656;1673300079.278484;7.7980451583862305;8.145895957946777;83.77531433105469
122;1673300079.4054701;47.1306428;7.2406201999999995;24.78700065612793;1673300079.4913664;8.167495727539062;5.18015718460083;83.64432525634766
123;1673300079.6145513;47.1306428;7.2406201999999995;25.184001922607422;1673300079.6979237;8.345586776733398;3.5909688472747803;83.42427062988281
124;1673300079.8098967;47.1306428;7.2406201999999995;25.578001022338867;1673300079.8899555;8.20431137084961;7.494337558746338;83.45795440673828
125;1673300079.997014;47.1306428;7.2406201999999995;25.975000381469727;1673300080.0797014;7.840291976928711;6.724221706390381;83.69671630859375
126;1673300080.1988828;47.1306428;7.2406201999999995;26.374000549316406;1673300080.2889116;7.371588706970215;3.5892279148101807;83.99305725097656
127;1673300080.4020064;47.1306429;7.2406201999999995;26.76700210571289;1673300080.4869394;7.448332786560059;6.51063871383667;83.9870376586914
128;1673300080.6039903;47.1306429;7.2406201999999995;27.154001235961914;1673300080.6859818;7.419947624206543;8.298583984375;83.44526672363281
129;1673300080.7981188;47.1306429;7.2406203;27.541000366210938;1673300080.875807;8.104016304016113;5.059142112731934;83.08663177490234
130;1673300081.010009;47.1306428;7.2406203;27.929000854492188;1673300081.0881984;8.450620651245117;3.631049633026123;83.43025970458984
131;1673300081.2053545;47.130642699999996;7.2406204;28.32200050354004;1673300081.2848663;8.526159286499023;7.364677429199219;83.79365539550781
132;1673300081.3954666;47.130642699999996;7.2406204;28.715002059936523;1673300081.4701753;8.258676528930664;6.674341678619385;83.98994445800781
133;1673300081.6071324;47.130642699999996;7.2406203;29.10500144958496;1673300081.6832473;7.8682146072387695;3.59224009513855;83.94679260253906
134;1673300081.7962012;47.130642699999996;7.2406201999999995;29.49700164794922;1673300081.8793397;7.144554615020752;5.623366355895996;83.5613021850586
135;1673300082.0036476;47.130642699999996;7.2406201999999995;29.891000747680664;1673300082.0836809;7.119125843048096;8.13628101348877;83.0948486328125
136;1673300082.2006106;47.130642699999996;7.2406201;30.28400230407715;1673300082.2802377;7.562549114227295;4.425902366638184;83.07389831542969
137;1673300082.3948429;47.130642599999995;7.2406201;30.67500114440918;1673300082.480933;7.883821487426758;3.817143678665161;83.61373138427734
138;1673300082.5967948;47.1306425;7.2406201;31.066001892089844;1673300082.6783528;8.001531600952148;7.253471851348877;84.02012634277344
139;1673300082.7911777;47.1306425;7.2406201;31.45600128173828;1673300082.8727798;8.185614585876465;6.294512748718262;84.00138092041016
140;1673300083.0013137;47.1306425;7.2406201999999995;31.843002319335938;1673300083.0897326;8.162391662597656;3.248281478881836;83.63123321533203
141;1673300083.206144;47.1306424;7.2406201;32.23200225830078;1673300083.2989545;7.3730058670043945;5.4577317237854;83.45539093017578
142;1673300083.4163165;47.1306424;7.2406201;32.625;1673300083.4974318;7.140056610107422;7.846399784088135;83.42127990722656
143;1673300083.6179078;47.1306424;7.2406201;33.020999908447266;1673300083.7020965;6.905843734741211;5.013619422912598;83.65007019042969
144;1673300083.8219507;47.1306424;7.24062;33.415000915527344;1673300083.900151;6.796223163604736;3.201327323913574;83.92088317871094
145;1673300084.0106761;47.1306423;7.24062;33.8129997253418;1673300084.092998;7.588746070861816;7.524147033691406;84.251708984375
146;1673300084.2273645;47.1306422;7.2406201;34.20600128173828;1673300084.3067954;8.442912101745605;7.098374366760254;84.01797485351562
147;1673300084.4296;47.130642099999996;7.2406201;34.599002838134766;1673300084.51245;8.3123197555542;2.993511438369751;83.64031219482422
148;1673300084.6569963;47.130642099999996;7.2406201999999995;34.99400329589844;1673300084.7236218;7.888385772705078;4.646918773651123;83.41788482666016
149;1673300084.829696;47.130642099999996;7.2406201999999995;35.393001556396484;1673300084.9049935;7.639344215393066;7.191678047180176;83.55830383300781
150;1673300085.0095267;47.1306422;7.2406201999999995;35.794002532958984;1673300085.0895538;7.42958927154541;4.630855083465576;83.49702453613281
151;1673300085.2077796;47.1306424;7.2406201999999995;36.195003509521484;1673300085.2810178;7.261301040649414;3.8622515201568604;83.66474914550781
152;1673300085.384089;47.1306424;7.2406201999999995;36.59400177001953;1673300085.463699;7.490028381347656;7.397608280181885;83.99024963378906
153;1673300085.5817392;47.1306424;7.2406203;36.986000061035156;1673300085.6642444;7.960537910461426;7.018138885498047;83.88821411132812
154;1673300085.7871246;47.1306424;7.2406203;37.37600326538086;1673300085.8679042;8.444165229797363;3.282435894012451;83.46566772460938
155;1673300085.9866235;47.1306424;7.2406204;37.768001556396484;1673300086.0757446;8.429332733154297;4.790017604827881;83.24735260009766
156;1673300086.1934836;47.1306425;7.2406204999999995;38.163002014160156;1673300086.2848003;8.32882308959961;7.804922580718994;83.62114715576172
157;1673300086.4045334;47.130642599999995;7.2406204999999995;38.56100082397461;1673300086.4910755;7.7212815284729;5.540863990783691;83.87687683105469
158;1673300086.5969372;47.1306428;7.2406204;38.95900344848633;1673300086.6807048;7.540884494781494;4.306282997131348;83.96516418457031
159;1673300086.81751;47.1306429;7.2406204;39.35200119018555;1673300086.9015672;7.235268592834473;6.823777675628662;83.6725082397461
160;1673300087.0223868;47.1306429;7.2406204;39.74300003051758;1673300087.103553;7.488559246063232;8.065352439880371;83.45101928710938
161;1673300087.215104;47.1306429;7.2406204999999995;40.13600158691406;1673300087.2873275;7.952256679534912;4.347060203552246;83.49652862548828
162;1673300087.3884087;47.1306429;7.2406206;40.52800369262695;1673300087.4759877;8.287425994873047;4.700886249542236;83.56839752197266
163;1673300087.5984335;47.1306428;7.2406207;40.9170036315918;1673300087.6887593;8.39449405670166;7.932841777801514;83.80335235595703
164;1673300087.8100736;47.1306428;7.2406207;41.30900192260742;1673300087.95203;8.284526824951172;5.6692214012146;84.02035522460938
165;1673300088.0523255;47.1306428;7.240620799999999;41.702003479003906;1673300088.1194317;8.20733642578125;3.349198818206787;83.62950897216797
166;1673300088.2320125;47.1306428;7.240620799999999;42.09400177001953;1673300088.3196049;7.55642557144165;6.4189677238464355;83.31990814208984
167;1673300088.4296563;47.1306428;7.2406207;42.48800277709961;1673300088.5141537;7.434574127197266;7.759862899780273;83.12330627441406
168;1673300088.63003;47.1306428;7.2406206;42.88500213623047;1673300088.7073529;7.494200229644775;4.111973285675049;83.5564956665039
169;1673300088.8220747;47.1306428;7.2406204999999995;43.28700256347656;1673300088.9231393;7.166674613952637;4.525222301483154;83.8443374633789
170;1673300089.0320504;47.130642699999996;7.2406204;43.68600082397461;1673300089.112254;7.772078037261963;7.929507732391357;83.96939086914062
171;1673300089.2255895;47.130642699999996;7.2406204;44.08500289916992;1673300089.305615;8.326815605163574;5.521702766418457;83.73033905029297
172;1673300089.4201167;47.130642699999996;7.2406204;44.47900390625;1673300089.5030015;8.079005241394043;3.4816813468933105;83.55180358886719
173;1673300089.6243114;47.130642699999996;7.2406203;44.871002197265625;1673300089.7293658;7.609764575958252;6.752509593963623;83.68016815185547
174;1673300089.8383436;47.1306428;7.2406203;45.26700210571289;1673300089.9076777;7.205358028411865;7.79979133605957;83.82225799560547
175;1673300090.0239913;47.1306428;7.2406201999999995;45.660003662109375;1673300090.102194;6.63877534866333;3.9907827377319336;83.76058959960938
176;1673300090.2241457;47.130642699999996;7.2406201999999995;46.05000305175781;1673300090.3012562;6.8693342208862305;4.689418792724609;83.98483276367188
177;1673300090.409358;47.130642599999995;7.2406201999999995;46.43800354003906;1673300090.492864;7.4942708015441895;8.366233825683594;84.08488464355469
178;1673300090.612554;47.130642599999995;7.2406201999999995;46.83000183105469;1673300090.690237;8.191076278686523;5.969761848449707;83.62914276123047
179;1673300090.8125432;47.1306425;7.2406201999999995;47.220001220703125;1673300090.8858266;8.093053817749023;3.20438551902771;83.12337493896484
180;1673300091.008467;47.1306425;7.2406203;47.60700225830078;1673300091.1137977;8.289949417114258;5.63071346282959;83.4764175415039
181;1673300091.2354107;47.1306425;7.2406201999999995;47.999000549316406;1673300091.306255;7.880771636962891;7.6583685874938965;83.68447875976562
182;1673300091.4085386;47.130642599999995;7.2406201999999995;48.362003326416016;1673300091.4823608;7.575994968414307;3.8476243019104004;83.36164093017578
183;1673300091.598401;47.130642599999995;7.2406203;48.676002502441406;1673300091.6770315;7.2288312911987305;4.337680816650391;83.30951690673828
184;1673300091.7948484;47.130642599999995;7.2406204;48.93800354003906;1673300091.877644;7.638070583343506;7.676663398742676;83.53958892822266
185;1673300092.0000083;47.130642599999995;7.2406204999999995;49.150001525878906;1673300092.082611;8.009613990783691;5.026387691497803;83.53600311279297
186;1673300092.1983206;47.130642699999996;7.2406207;49.31900405883789;1673300092.2810113;16.397905349731445;6.908478736877441;83.6086654663086
187;1673300092.4065115;47.130642699999996;7.2406204999999995;49.454002380371094;1673300092.505823;24.750133514404297;13.241329193115234;77.87857818603516
188;1673300092.6176305;47.1306425;7.240619799999999;49.50200271606445;1673300092.7032654;16.395177841186523;9.407512664794922;64.56871032714844
189;1673300092.812095;47.1306418;7.2406187;49.51700210571289;1673300092.8930302;13.974509239196777;0.99162358045578;54.96857452392578
190;1673300093.011137;47.130640899999996;7.2406174;49.56300354003906;1673300093.0899565;17.138553619384766;1.8961297273635864;46.62931823730469
191;1673300093.2081115;47.1306399;7.240615999999999;49.605003356933594;1673300093.280882;13.732847213745117;2.3856358528137207;38.21717071533203
192;1673300093.3999643;47.1306388;7.2406146;49.6400032043457;1673300093.475803;9.947342872619629;0.9161838293075562;29.3996524810791
193;1673300093.5919867;47.1306376;7.240613499999999;49.67100143432617;1673300093.673038;5.977165699005127;-2.632965326309204;20.405101776123047
194;1673300093.7908487;47.1306365;7.2406127;49.704002380371094;1673300093.8769288;3.016580104827881;-7.167248249053955;11.350804328918457
195;1673300093.9950495;47.1306356;7.240612;49.73100280761719;1673300094.082067;2.070002794265747;-7.830103874206543;2.4020297527313232
196;1673300094.192067;47.130635;7.240611599999999;49.75300216674805;1673300094.2731464;3.145472288131714;-7.881739139556885;-6.216182708740234
197;1673300094.3941474;47.130634799999996;7.240611299999999;49.772003173828125;1673300094.4887564;4.158278465270996;-8.362948417663574;-15.165373802185059
198;1673300094.6069305;47.130634799999996;7.2406112;49.78600311279297;1673300094.6898186;4.296192169189453;-7.5542426109313965;-24.158374786376953
199;1673300094.8097587;47.1306349;7.2406111;49.79900360107422;1673300094.8969183;1.8178634643554688;-6.676986217498779;-33.383995056152344
200;1673300095.0116456;47.130635;7.2406111;49.814002990722656;1673300095.0994153;-1.3174506425857544;-7.952643871307373;-43.01650619506836
201;1673300095.205451;47.1306351;7.2406111;49.8280029296875;1673300095.288997;-4.317436695098877;-9.494344711303711;-50.98306655883789
202;1673300095.4047608;47.130635299999994;7.2406111;49.840003967285156;1673300095.4831629;-5.008777618408203;-10.72176456451416;-53.58692169189453
203;1673300095.599079;47.1306355;7.2406109999999995;49.85000228881836;1673300095.6806355;-2.5638208389282227;-11.875839233398438;-51.86711502075195
204;1673300095.8097906;47.1306358;7.2406106999999995;49.85700225830078;1673300095.8984554;-0.0657956525683403;-13.113279342651367;-49.1826057434082
205;1673300096.0133016;47.130635999999996;7.2406104;49.85900115966797;1673300096.0958362;1.5797902345657349;-11.768285751342773;-47.546321868896484
206;1673300096.2059028;47.130635999999996;7.240609999999999;49.86300277709961;1673300096.2796648;1.7613154649734497;-10.495469093322754;-47.01857376098633
207;1673300096.4058475;47.130635999999996;7.2406095;49.871002197265625;1673300096.4839015;1.2339624166488647;-9.282276153564453;-46.58523941040039
208;1673300096.6038682;47.1306358;7.2406090999999995;49.87800216674805;1673300096.6743762;0.17926308512687683;-8.623320579528809;-46.09443664550781
209;1673300096.7911425;47.1306356;7.240608699999999;49.88200378417969;1673300096.8795848;-0.819290280342102;-8.878113746643066;-45.939212799072266
210;1673300096.9964454;47.130635399999996;7.240608399999999;49.884002685546875;1673300097.0832183;-1.8410065174102783;-9.199750900268555;-45.88749313354492
211;1673300097.2026596;47.1306352;7.2406082;49.88100051879883;1673300097.286208;-2.4930264949798584;-10.292295455932617;-45.781253814697266
212;1673300097.403483;47.1306351;7.2406079;49.87700271606445;1673300097.4827707;-12.7168607711792;-14.086213111877441;-45.378326416015625
213;1673300097.6054626;47.130635399999996;7.2406071999999995;49.87900161743164;1673300097.6857278;-36.90876770019531;-10.256096839904785;-43.67772674560547
214;1673300097.7955334;47.1306367;7.2406049999999995;49.87900161743164;1673300097.87959;-51.17893600463867;-6.197742938995361;-45.80874252319336
215;1673300098.0014496;47.1306399;7.2406004;49.8390007019043;1673300098.0823326;-43.63081741333008;-4.850996971130371;-47.28470993041992
216;1673300098.2116034;47.130645;7.2405934;49.78400421142578;1673300098.2945497;-40.24997329711914;-4.0564422607421875;-48.141265869140625
217;1673300098.4014294;47.1306515;7.2405845;49.7400016784668;1673300098.4724846;-41.796669006347656;-3.7997171878814697;-47.665748596191406
218;1673300098.5877147;47.1306594;7.2405738;49.724002838134766;1673300098.670318;-48.729976654052734;-4.257606506347656;-47.02896499633789
219;1673300098.7944176;47.1306687;7.240560899999999;49.746002197265625;1673300098.875412;-56.986289978027344;-5.71352481842041;-47.86206817626953
220;1673300098.994308;47.1306796;7.2405455;49.7920036315918;1673300099.0784807;-60.48603439331055;-4.253197193145752;-49.87887191772461
221;1673300099.1965573;47.1306921;7.2405272;49.83100128173828;1673300099.2856088;-56.71057891845703;-4.632652759552002;-50.07402801513672
222;1673300099.4013946;47.130705899999995;7.2405064999999995;49.85100173950195;1673300099.4815028;-54.20553207397461;-5.864325046539307;-49.12181854248047
223;1673300099.5963218;47.1307207;7.2404839;49.85400390625;1673300099.676232;-54.7821044921875;-8.549259185791016;-48.11526107788086
224;1673300099.79312;47.1307361;7.2404598;49.84400177001953;1673300099.8785467;-52.2543830871582;-5.863612174987793;-48.91786193847656
225;1673300100.0093129;47.130752;7.2404345;49.82400131225586;1673300100.1209257;-49.50078582763672;-4.652227878570557;-48.9337043762207
226;1673300100.2349043;47.1307684;7.2404084;49.803001403808594;1673300100.3122559;-48.27637481689453;-4.858078956604004;-48.83815383911133
227;1673300100.4363928;47.1307852;7.2403819;49.7910041809082;1673300100.520071;-47.305511474609375;-7.42207145690918;-49.18153381347656
228;1673300100.6232853;47.130801999999996;7.2403549;49.790000915527344;1673300100.6966205;-46.39927291870117;-9.455426216125488;-50.08244323730469
229;1673300100.8126655;47.1308187;7.2403276;49.80400085449219;1673300100.8896372;-24.388959884643555;-10.386640548706055;-52.287879943847656
230;1673300101.0037067;47.1308346;7.2403011;49.823001861572266;1673300101.084557;21.88579559326172;-2.8209540843963623;-51.715946197509766
231;1673300101.2024336;47.130848799999995;7.240278099999999;49.77000045776367;1673300101.2823749;26.692888259887695;1.4178600311279297;-49.56296157836914
232;1673300101.3905036;47.1308612;7.240259;49.52700424194336;1673300101.4694796;16.599515914916992;-1.7445753812789917;-48.690650939941406
233;1673300101.5854862;47.1308717;7.2402443;49.26900100708008;1673300101.6685436;14.582082748413086;-1.2242224216461182;-48.567543029785156
234;1673300101.7854931;47.130880399999995;7.2402334999999995;49.09300231933594;1673300101.8724694;14.27347469329834;-1.664437174797058;-48.7718505859375
235;1673300102.022277;47.1308872;7.2402266;49.10600280761719;1673300102.1046412;46.99486541748047;-7.032721996307373;-49.229007720947266
236;1673300102.2205796;47.1308916;7.2402242;49.2390022277832;1673300102.30461;51.053958892822266;-6.0807085037231445;-46.285430908203125
237;1673300102.4385908;47.130892599999996;7.2402264999999995;49.35400390625;1673300102.5264788;49.774200439453125;-7.5385050773620605;-45.14522933959961
238;1673300102.6325123;47.130890799999996;7.2402326;49.45900344848633;1673300102.720394;48.30075454711914;-13.459176063537598;-46.010337829589844
239;1673300102.8328018;47.130886499999995;7.2402415;49.55900192260742;1673300102.9193583;37.09416961669922;-16.875627517700195;-45.497013092041016
240;1673300103.04392;47.130880399999995;7.2402517;49.63300323486328;1673300103.1197052;15.80935287475586;-18.233997344970703;-45.03920364379883
241;1673300103.2237532;47.1308734;7.2402617;49.68300247192383;1673300103.2985272;-7.1469407081604;-15.37275505065918;-45.608882904052734
242;1673300103.4064503;47.1308667;7.2402704;49.71600341796875;1673300103.4920797;-28.104148864746094;-11.257181167602539;-47.83903503417969
243;1673300103.6078057;47.1308613;7.2402769;49.71800231933594;1673300103.684593;-38.01060485839844;-13.962231636047363;-49.59074783325195
244;1673300103.806415;47.1308578;7.240279999999999;49.6670036315918;1673300103.883126;-27.973743438720703;-6.22151517868042;-50.281707763671875
245;1673300104.0073922;47.1308558;7.2402805;49.61300277709961;1673300104.0906506;-33.73920822143555;-12.57111930847168;-49.65463638305664
246;1673300104.2054412;47.1308551;7.2402786;49.582000732421875;1673300104.2860386;-31.78894805908203;-11.250510215759277;-50.21723556518555
247;1673300104.4132538;47.130855399999994;7.2402745;49.56800079345703;1673300104.5027173;-17.857160568237305;-11.168130874633789;-49.700355529785156
248;1673300104.6166918;47.1308564;7.240269;49.60600280761719;1673300104.6992052;-3.222184181213379;-8.46634292602539;-48.3641242980957
249;1673300104.8200018;47.1308577;7.240263499999999;49.66800308227539;1673300104.9008148;8.892038345336914;-6.1442084312438965;-47.13379669189453
250;1673300105.0167265;47.1308589;7.240259;49.730003356933594;1673300105.1421409;17.18804168701172;-2.132755994796753;-47.25803756713867
251;1673300105.2706442;47.130859699999995;7.2402561;49.78400421142578;1673300105.3477666;22.48523712158203;3.0017189979553223;-48.62309646606445
252;1673300105.4600823;47.130860299999995;7.2402546999999995;49.71600341796875;1673300105.534155;47.54253387451172;26.477041244506836;-40.45479965209961
253;1673300105.6671522;47.130860999999996;7.2402533;49.27800369262695;1673300105.7700443;63.35321044921875;71.629638671875;-11.676445960998535
254;1673300105.9035182;47.1308617;7.240252099999999;48.47100067138672;1673300105.9744098;63.09041213989258;122.383544921875;22.352182388305664
255;1673300106.0674691;47.1308625;7.240251;47.298004150390625;1673300106.13386;61.09019088745117;145.35177612304688;29.314626693725586
256;1673300106.2281146;47.130863399999996;7.2402501;45.76000213623047;1673300106.3018646;67.8374252319336;143.61569213867188;15.084611892700195
257;1673300106.4166567;47.1308642;7.240249299999999;43.85300064086914;1673300106.4894466;73.33293914794922;68.18109893798828;-69.74189758300781
258;1673300106.612175;47.1308651;7.240248599999999;41.5890007019043;1673300106.6959226;36.346988677978516;19.671005249023438;-119.13421630859375
259;1673300106.8185127;47.130865799999995;7.2402478;38.96000289916992;1673300106.8993187;-15.804308891296387;0.6026414036750793;-129.91055297851562
260;1673300107.0165145;47.1308663;7.2402470999999995;35.93400192260742;1673300107.101721;-56.317787170410156;-19.68700408935547;-125.93267059326172
261;1673300107.2057395;47.130867099999996;7.2402467999999995;32.53600311279297;1673300107.2858772;-70.44610595703125;-40.72221755981445;-117.26106262207031
262;1673300107.398106;47.1308681;7.2402466;28.803001403808594;1673300107.482636;-55.7757453918457;-21.941852569580078;-146.09747314453125
263;1673300107.5972412;47.130869399999995;7.2402465;24.726001739501953;1673300107.6852558;-9.941349029541016;-11.744989395141602;-166.26119995117188
264;1673300107.8099794;47.1308709;7.2402465;20.2710018157959;1673300107.888652;44.22603988647461;-12.308503150939941;178.43556213378906
265;1673300108.015157;47.1308722;7.2402463;15.4350004196167;1673300108.104511;70.7283706665039;-23.611093521118164;155.9522705078125
266;1673300108.225445;47.130873199999996;7.240246099999999;10.280000686645508;1673300108.3206868;56.44634246826172;-10.788323402404785;157.86741638183594
267;1673300108.441278;47.1308739;7.240246099999999;4.810000419616699;1673300108.518924;5.317677974700928;2.991990804672241;158.7616424560547
268;1673300108.6346333;47.1308734;7.2402454999999994;0.13600000739097595;1673300108.71425;-0.5785389542579651;6.626655578613281;156.1326904296875
269;1673300108.8348885;47.1308661;7.2402422;0.33400002121925354;1673300108.9115627;-0.3671073317527771;4.032998561859131;147.37208557128906
270;1673300109.0224845;47.130857;7.2402391999999995;0.3840000033378601;1673300109.1236699;-0.2027629017829895;3.7411324977874756;147.6431121826172
271;1673300109.260523;47.130848099999994;7.2402364;0.4230000078678131;1673300109.3368452;-0.089832603931427;4.186356544494629;147.96788024902344
272;1673300109.45159;47.13084;7.2402337;0.44300001859664917;1673300109.5263245;0.01530004944652319;3.769746780395508;148.40576171875
273;1673300109.6361718;47.130832899999994;7.2402311;0.4540000259876251;1673300109.713822;0.11040361225605011;3.742466688156128;148.8702392578125
274;1673300109.823307;47.1308271;7.240228699999999;0.4620000123977661;1673300109.8975515;0.2882968783378601;3.8477160930633545;149.343994140625
275;1673300110.0134063;47.1308225;7.2402266;0.47300001978874207;1673300110.1048393;0.41704320907592773;3.7609174251556396;149.7269287109375
276;1673300110.226521;47.130817699999994;7.2402242999999995;0.4930000305175781;1673300110.3140566;0.40570658445358276;4.059560298919678;150.00021362304688
277;1673300110.4334679;47.130811099999995;7.240221;0.5080000162124634;1673300110.5138056;0.4013693332672119;4.494901180267334;150.26141357421875
278;1673300110.6247172;47.1308034;7.2402171;0.5139999985694885;1673300110.716196;0.43141603469848633;4.783647537231445;150.47598266601562
279;1673300110.8314424;47.1307951;7.2402128;0.5120000243186951;1673300110.9027297;0.4034896492958069;4.905935287475586;150.75210571289062
280;1673300111.0088754;47.1307864;7.2402082;0.5070000290870667;1673300111.095394;0.4143906235694885;5.069225788116455;150.97970581054688
281;1673300111.224929;47.1307774;7.2402032;0.5;1673300111.2951198;0.44037163257598877;5.1649017333984375;151.1967010498047
282;1673300111.4041529;47.1307682;7.2401979999999995;0.49000000953674316;1673300111.48767;0.42158418893814087;5.1524457931518555;151.4046630859375
283;1673300111.602424;47.130758799999995;7.240192599999999;0.48500001430511475;1673300111.6782424;0.4104353189468384;5.129422664642334;151.61094665527344
284;1673300111.792158;47.1307493;7.240186899999999;0.4780000150203705;1673300111.875181;0.41244590282440186;5.052560329437256;151.78042602539062
285;1673300112.0192304;47.1307396;7.2401808999999995;0.4660000205039978;1673300112.1131072;0.41009923815727234;4.9683732986450195;151.94650268554688
286;1673300112.2408988;47.1307298;7.240174799999999;0.453000009059906;1673300112.3270435;0.4288444519042969;4.834062576293945;152.09181213378906
287;1673300112.4488668;47.1307198;7.2401683;0.4390000104904175;1673300112.5233657;0.37615638971328735;4.6852617263793945;152.21180725097656
288;1673300112.6322405;47.1307098;7.2401617;0.42600002884864807;1673300112.7160628;0.37086546421051025;4.559370994567871;152.238037109375
289;1673300112.8322542;47.1306996;7.2401548;0.4150000214576721;1673300112.9146345;0.3650878667831421;4.682136058807373;152.2062225341797
290;1673300113.0323384;47.1306892;7.240147599999999;0.4020000100135803;1673300113.1112773;0.34363633394241333;4.696386814117432;152.15072631835938
291;1673300113.2221284;47.1306787;7.2401402;0.38700002431869507;1673300113.3021271;0.38339143991470337;4.516637802124023;152.13645935058594
292;1673300113.4281633;47.1306681;7.2401325;0.3700000047683716;1673300113.5165353;0.3757550120353699;4.401785850524902;152.12071228027344
293;1673300113.6350486;47.1306574;7.2401247;0.35100001096725464;1673300113.7151077;0.40918123722076416;4.277349948883057;152.11209106445312
294;1673300113.8304565;47.1306465;7.2401165;0.33100003004074097;1673300113.9057994;0.47712892293930054;4.135103702545166;152.09361267089844
295;1673300114.0161958;47.1306355;7.2401081;0.30900001525878906;1673300114.0982592;0.44885924458503723;4.001020908355713;152.11082458496094
296;1673300114.2270353;47.130624399999995;7.2400994999999995;0.2880000174045563;1673300114.3069;0.48793965578079224;3.888659954071045;152.0882110595703
297;1673300114.4261742;47.1306132;7.240090599999999;0.26900002360343933;1673300114.5062659;0.5280650854110718;3.7552783489227295;152.0874786376953
298;1673300114.6211128;47.130601899999995;7.2400815;0.25;1673300114.6971807;0.49783575534820557;3.67020583152771;152.08599853515625
299;1673300114.8144367;47.130590399999996;7.2400721;0.23100000619888306;1673300114.8961763;0.5047284364700317;3.5860586166381836;152.07725524902344
300;1673300115.0094178;47.1305835;7.2400664;0.2160000056028366;1673300115.0981066;0.5184369683265686;3.4892983436584473;152.09222412109375
301;;;;;1673300115.3102903;0.5376033782958984;3.395089864730835;152.08375549316406
302;;;;;1673300115.4965563;0.5142346024513245;3.6759281158447266;152.0743408203125
