;pos_time;latitude;longitude;altitude;alt_time;pitch;roll;yaw
0;1673390292.9380107;47.1306423;7.240619499999999;0.010000000707805157;1673390293.0722613;-0.036252282559871674;0.2461661398410797;90.20555114746094
1;1673390293.1305385;47.1306422;7.2406196;0.004000000189989805;1673390293.2623572;0.046647507697343826;0.2604287266731262;90.178466796875
2;1673390293.317027;47.1306422;7.240619499999999;0.0;1673390293.4690845;-0.08812686800956726;0.21904899179935455;90.14421081542969
3;1673390293.5266757;47.1306423;7.240619499999999;-0.004000000189989805;1673390293.6826043;0.1434950828552246;-0.17677688598632812;90.2353744506836
4;1673390293.7345867;47.1306423;7.240619499999999;-0.007000000216066837;1673390293.8659534;0.3467601239681244;-0.00013085654063615948;90.24353790283203
5;1673390293.9216042;47.1306423;7.2406196;-0.00800000037997961;1673390294.062307;0.25035229325294495;-0.20207557082176208;90.32012176513672
6;1673390294.1172936;47.1306423;7.2406196;-0.005000000353902578;1673390294.2624435;0.09168338775634766;0.039723753929138184;90.14325714111328
7;1673390294.3255787;47.1306423;7.2406197;-0.003000000026077032;1673390294.4737098;-0.08788763731718063;-0.16337133944034576;90.41482543945312
8;1673390294.5318334;47.1306423;7.240619799999999;-0.005000000353902578;1673390294.6688223;-0.1687067449092865;-0.07650895416736603;90.26631927490234
9;1673390294.719588;47.1306423;7.240619799999999;0.0;1673390294.8485527;-0.133871927857399;-0.5358067750930786;90.27516174316406
10;1673390294.9047067;47.1306423;7.2406197;-0.0020000000949949026;1673390295.045848;-0.0918518453836441;-0.3831014335155487;90.35623168945312
11;1673390295.105385;47.1306424;7.2406196;-0.003000000026077032;1673390295.2676985;0.05706045776605606;-0.3833661675453186;90.17057800292969
12;1673390295.340999;47.1306424;7.240619499999999;-0.003000000026077032;1673390295.4756918;0.14964839816093445;-0.3867725431919098;90.22246551513672
13;1673390295.5324655;47.1306424;7.2406194;-0.0010000000474974513;1673390295.670708;0.275031179189682;-0.4637458622455597;90.10952758789062
14;1673390295.7356684;47.1306424;7.2406194;0.0;1673390295.8908002;0.18441464006900787;-0.42559483647346497;90.05194854736328
15;1673390295.94241;47.1306424;7.240619499999999;0.0;1673390296.0806954;0.049865346401929855;-0.6096810102462769;90.08320617675781
16;1673390296.1313207;47.1306424;7.2406196;0.0;1673390296.2584264;0.2081870138645172;-0.6471826434135437;90.1939468383789
17;1673390296.3125396;47.1306424;7.2406196;0.0;1673390296.447364;0.20982882380485535;-0.6877666115760803;90.13165283203125
18;1673390296.5043762;47.1306424;7.2406197;0.0020000000949949026;1673390296.6447911;0.1872144490480423;-0.37838995456695557;90.21893310546875
19;1673390296.6975226;47.1306424;7.2406197;0.00800000037997961;1673390296.846292;0.13452012836933136;-0.6957079768180847;89.8044662475586
20;1673390296.9021087;47.1306424;7.240619799999999;0.01600000075995922;1673390297.0454054;0.0498974435031414;-0.7972160577774048;90.00556945800781
21;1673390297.1036153;47.1306424;7.2406198999999996;0.021000001579523087;1673390297.2404978;0.3668598532676697;0.11646626144647598;89.78349304199219
22;1673390297.295687;47.1306425;7.24062;0.023000001907348633;1673390297.4315317;0.4471302926540375;0.59135502576828;89.05424499511719
23;1673390297.488527;47.1306425;7.24062;0.023000001907348633;1673390297.6507757;0.8689507842063904;-0.30434077978134155;89.1868667602539
24;1673390297.749671;47.130642599999995;7.24062;0.02500000037252903;1673390297.8864667;0.9962805509567261;-0.1636689305305481;89.08313751220703
25;1673390297.9338255;47.130642699999996;7.2406201;0.027000000700354576;1673390298.0574672;1.4805248975753784;-0.15326261520385742;88.56419372558594
26;1673390298.109613;47.130642699999996;7.24062;0.030000001192092896;1673390298.2484498;2.3867251873016357;0.14135143160820007;85.24500274658203
27;1673390298.310595;47.1306428;7.240619799999999;0.03100000135600567;1673390298.4625714;-0.13363830745220184;4.340811729431152;76.41028594970703
28;1673390298.5266335;47.130643;7.2406194;0.03400000184774399;1673390298.6614296;-1.964142918586731;6.641831874847412;77.90042114257812
29;1673390298.71864;47.1306431;7.2406188;0.05100000277161598;1673390298.8764946;-6.34024715423584;8.420697212219238;80.65656280517578
30;1673390298.954502;47.1306431;7.2406182;0.0860000029206276;1673390299.0842273;-6.946577548980713;11.189748764038086;82.05126953125
31;1673390299.1698036;47.1306431;7.2406177;0.13900001347064972;1673390299.316707;-8.483202934265137;6.906831741333008;83.33304595947266
32;1673390299.386461;47.1306429;7.2406175;0.20500001311302185;1673390299.513236;-9.01142692565918;6.186656475067139;84.13819122314453
33;1673390299.5620558;47.1306428;7.2406175;0.2850000262260437;1673390299.6975093;-8.252705574035645;10.014789581298828;84.30025482177734
34;1673390299.7683637;47.130642699999996;7.2406177;0.38100001215934753;1673390299.890919;-7.023152828216553;6.343421936035156;85.45301818847656
35;1673390299.933908;47.130642599999995;7.2406181;0.49000000953674316;1673390300.0737207;-6.403725624084473;4.582887649536133;86.33198547363281
36;1673390300.1325417;47.1306425;7.2406185999999995;0.612000048160553;1673390300.2670777;-5.707475185394287;8.987874984741211;86.24069213867188
37;1673390300.3359342;47.1306424;7.240619;0.7460000514984131;1673390300.468233;-5.374813079833984;6.058312892913818;87.03517150878906
38;1673390300.5251515;47.1306423;7.2406194;0.8940000534057617;1673390300.6675098;-5.404383659362793;3.633220672607422;87.81855773925781
39;1673390300.7222853;47.1306422;7.2406196;1.055999994277954;1673390300.861522;-5.663487434387207;8.522004127502441;87.56037902832031
40;1673390300.914441;47.1306423;7.2406196;1.2340000867843628;1673390301.0572414;-5.515051364898682;7.139695167541504;88.1186752319336
41;1673390301.1314366;47.1306425;7.2406196;1.4210001230239868;1673390301.2807202;-5.877821922302246;3.836033821105957;86.9103012084961
42;1673390301.3457515;47.1306425;7.2406196;1.6100001335144043;1673390301.4851508;-5.683865070343018;8.071613311767578;86.85770416259766
43;1673390301.5393922;47.130642599999995;7.240619499999999;1.8010001182556152;1673390301.6736472;-5.91652250289917;8.543763160705566;87.0097427368164
44;1673390301.7294912;47.130642599999995;7.2406193;1.9950001239776611;1673390301.8707852;-6.7222676277160645;3.9457433223724365;87.68879699707031
45;1673390301.926417;47.130642599999995;7.2406191;2.195000171661377;1673390302.0610914;-7.115264415740967;7.474551200866699;87.37834930419922
46;1673390302.1167192;47.130642699999996;7.240619;2.3980000019073486;1673390302.2721343;-7.251949310302734;9.731884002685547;87.11075592041016
47;1673390302.3258972;47.1306428;7.240618899999999;2.5960001945495605;1673390302.4705977;-7.172640800476074;5.062422275543213;87.91834259033203
48;1673390302.5332155;47.1306428;7.240619;2.7940001487731934;1673390302.6750925;-6.962967872619629;6.643064022064209;87.91011810302734
49;1673390302.7347224;47.130642699999996;7.2406191;2.991000175476074;1673390302.8831522;-6.433164596557617;9.56798267364502;87.40416717529297
50;1673390302.942309;47.130642599999995;7.240619199999999;3.184000253677368;1673390303.0765655;-6.489091873168945;4.542716026306152;87.92813873291016
51;1673390303.136106;47.1306424;7.2406193;3.38100004196167;1673390303.2738867;-6.634158134460449;4.703110218048096;87.85196685791016
52;1673390303.327613;47.1306423;7.2406194;3.579000234603882;1673390303.4732108;-6.355973243713379;9.574984550476074;87.4444808959961
53;1673390303.5278769;47.1306424;7.2406196;3.7760002613067627;1673390303.6723373;-6.370001792907715;6.154850482940674;87.91718292236328
54;1673390303.7339065;47.1306425;7.2406197;3.9740002155303955;1673390303.8919556;-6.152317047119141;5.034059047698975;87.91183471679688
55;1673390303.950241;47.1306425;7.240619799999999;4.171000003814697;1673390304.0852458;-6.030995845794678;9.46906566619873;87.0959243774414
56;1673390304.1341388;47.1306424;7.240619799999999;4.36400032043457;1673390304.263199;-5.886613845825195;5.84118127822876;87.44771575927734
57;1673390304.3217516;47.1306424;7.240619799999999;4.559000015258789;1673390304.4604964;-6.049015045166016;4.330660820007324;87.73648071289062
58;1673390304.528042;47.1306423;7.240619799999999;4.75700044631958;1673390304.6579595;-6.402542591094971;9.577733993530273;87.26752471923828
59;1673390304.7106643;47.1306424;7.2406197;4.958000183105469;1673390304.8435228;-6.408714294433594;7.727298259735107;87.52980041503906
60;1673390304.900287;47.1306425;7.2406197;5.1620001792907715;1673390305.0439286;-6.734686374664307;4.299507141113281;88.09058380126953
61;1673390305.118534;47.1306425;7.2406197;5.366000175476074;1673390305.2976017;-6.680385112762451;8.343457221984863;87.51608276367188
62;1673390305.3601613;47.1306424;7.2406197;5.568000316619873;1673390305.5112128;-6.562536716461182;8.28596305847168;87.44392395019531
63;1673390305.5573251;47.1306423;7.2406196;5.770000457763672;1673390305.6877108;-6.480554103851318;3.6442861557006836;87.91893768310547
64;1673390305.739565;47.1306423;7.2406196;5.974000453948975;1673390305.8773942;-6.559848308563232;7.922550201416016;87.56256866455078
65;1673390305.9301486;47.1306424;7.2406196;6.179000377655029;1673390306.06711;-6.198282718658447;9.214944839477539;87.5343246459961
66;1673390306.1228287;47.1306425;7.2406196;6.386000156402588;1673390306.2609792;-6.513176918029785;4.63457727432251;87.91515350341797
67;1673390306.3236074;47.1306425;7.2406196;6.593000411987305;1673390306.4687886;-6.9851837158203125;6.429193496704102;87.43354797363281
68;1673390306.5254612;47.1306424;7.2406196;6.798000335693359;1673390306.676001;-6.624542713165283;9.89087963104248;87.04964447021484
69;1673390306.7299285;47.1306423;7.2406196;7.000000476837158;1673390306.8663287;-6.289816856384277;4.519685745239258;87.76642608642578
70;1673390306.9199455;47.1306423;7.2406197;7.205000400543213;1673390307.0782256;-6.402276515960693;5.848082542419434;87.7281723022461
71;1673390307.137917;47.1306423;7.2406197;7.414000511169434;1673390307.2707164;-5.960875511169434;9.99669361114502;87.33068084716797
72;1673390307.3253615;47.1306425;7.240619799999999;7.622000217437744;1673390307.4663184;-6.286080837249756;6.273394584655762;87.69072723388672
73;1673390307.5279174;47.1306425;7.240619799999999;7.828000545501709;1673390307.6767094;-6.515318393707275;4.883372783660889;87.81739807128906
74;1673390307.7353082;47.1306424;7.240619799999999;8.028000831604004;1673390307.8736975;-6.542357444763184;9.980608940124512;87.27748107910156
75;1673390307.9302948;47.1306424;7.2406197;8.22700023651123;1673390308.098138;-6.741117000579834;7.294088363647461;87.62403106689453
76;1673390308.1586766;47.1306424;7.2406197;8.42400074005127;1673390308.2980602;-6.633059501647949;4.616786479949951;87.97944641113281
77;1673390308.3525417;47.1306424;7.240619799999999;8.620000839233398;1673390308.5054557;-6.405157566070557;9.451886177062988;87.4547348022461
78;1673390308.5628526;47.1306425;7.240619799999999;8.820000648498535;1673390308.7001102;-6.087934494018555;7.932829856872559;87.61158752441406
79;1673390308.7504847;47.1306425;7.2406198999999996;9.02500057220459;1673390308.8876872;-6.176045894622803;4.159607410430908;87.98577880859375
80;1673390308.9453185;47.1306424;7.2406198999999996;9.232000350952148;1673390309.0691094;-6.470326900482178;8.44640827178955;87.44379425048828
81;1673390309.1227882;47.1306424;7.2406198999999996;9.434000015258789;1673390309.2597947;-6.492501735687256;8.215996742248535;87.42139434814453
82;1673390309.3137012;47.1306423;7.2406198999999996;9.635000228881836;1673390309.452822;-6.707589149475098;4.166487693786621;87.8014144897461
83;1673390309.5037978;47.1306423;7.2406198999999996;9.838000297546387;1673390309.6367438;-6.845770359039307;8.301691055297852;87.35641479492188
84;1673390309.6997998;47.1306424;7.2406198999999996;10.041000366210938;1673390309.844949;-6.144587993621826;8.77114200592041;87.25802612304688
85;1673390309.9021053;47.1306424;7.2406198999999996;10.258000373840332;1673390310.0525453;-6.373836040496826;5.723446369171143;87.8353271484375
86;1673390310.109153;47.1306423;7.24062;10.570000648498535;1673390310.2607076;-7.283682823181152;6.734518527984619;87.93439483642578
87;1673390310.3192766;47.1306422;7.2406201999999995;10.941000938415527;1673390310.4697087;-6.446470737457275;10.026981353759766;87.44319152832031
88;1673390310.527627;47.130641999999995;7.2406204;11.333000183105469;1673390310.663823;-6.200525760650635;5.548426628112793;87.89529418945312
89;1673390310.7235205;47.1306418;7.2406207;11.725000381469727;1673390310.8730342;-5.913223743438721;3.4286160469055176;87.77708435058594
90;1673390310.9316056;47.1306417;7.240620799999999;12.121000289916992;1673390311.078304;-5.367753028869629;8.611885070800781;87.1385726928711
91;1673390311.140955;47.1306418;7.240621;12.520000457763672;1673390311.2856112;-4.985636234283447;6.408414840698242;87.6441879272461
92;1673390311.3373437;47.1306418;7.240621;12.922000885009766;1673390311.4861014;-5.182443618774414;3.703287363052368;88.05550384521484
93;1673390311.5399191;47.1306418;7.240621;13.322000503540039;1673390311.6777754;-5.595871925354004;8.395427703857422;87.43968200683594
94;1673390311.7324672;47.1306418;7.2406209;13.723000526428223;1673390311.8763454;-5.9074578285217285;6.785040378570557;87.54376983642578
95;1673390311.9378583;47.1306418;7.2406207;14.12600040435791;1673390312.0759075;-6.508732795715332;3.884995937347412;87.91996002197266
96;1673390312.1332626;47.1306419;7.2406204;14.529000282287598;1673390312.285849;-6.563573360443115;8.778664588928223;87.3335952758789
97;1673390312.340515;47.130642099999996;7.2406203;14.933000564575195;1673390312.4804254;-6.530275821685791;8.673402786254883;87.49883270263672
98;1673390312.536053;47.1306422;7.2406201;15.338000297546387;1673390312.6759295;-6.621263027191162;3.926645278930664;87.94661712646484
99;1673390312.7315612;47.130642099999996;7.2406201;15.744000434875488;1673390312.8803568;-6.684216022491455;7.886773586273193;87.25267028808594
100;1673390312.9392843;47.130642099999996;7.2406201;16.14900016784668;1673390313.0864522;-6.346099853515625;9.122734069824219;87.29822540283203
101;1673390313.1465101;47.1306422;7.2406201;16.552000045776367;1673390313.2953548;-6.574056148529053;4.692875385284424;88.03321838378906
102;1673390313.3509977;47.1306422;7.2406201;16.957000732421875;1673390313.482872;-6.461974620819092;6.865901947021484;87.77783966064453
103;1673390313.5365512;47.1306423;7.2406201999999995;17.369001388549805;1673390313.6781993;-5.867336273193359;9.676785469055176;87.24147033691406
104;1673390313.7387087;47.1306423;7.2406203;17.7810001373291;1673390313.8872645;-5.743734836578369;5.678905487060547;87.69635009765625
105;1673390313.9400356;47.1306422;7.2406203;18.192001342773438;1673390314.0946903;-6.012237548828125;5.015816688537598;87.78905487060547
106;1673390314.1464205;47.130642099999996;7.2406204;18.60500144958496;1673390314.2968621;-6.074068546295166;9.44555950164795;87.24777221679688
107;1673390314.3754933;47.130642099999996;7.2406204;19.016000747680664;1673390314.5218325;-6.2515387535095215;5.995484352111816;87.73843383789062
108;1673390314.5796416;47.130642099999996;7.2406203;19.424001693725586;1673390314.7228303;-6.353485584259033;4.220428943634033;87.93563079833984
109;1673390314.7751875;47.130642099999996;7.2406203;19.83300018310547;1673390314.9010563;-6.044455528259277;9.257771492004395;87.2712631225586
110;1673390314.9631479;47.1306422;7.2406203;20.246000289916992;1673390315.092749;-6.144484043121338;7.402277946472168;87.539794921875
111;1673390315.1454902;47.130642099999996;7.2406203;20.658000946044922;1673390315.2821288;-6.221651554107666;3.9779856204986572;87.93388366699219
112;1673390315.3338573;47.130641999999995;7.2406201999999995;21.07000160217285;1673390315.4619105;-6.257556438446045;8.032161712646484;87.4501953125
113;1673390315.5244389;47.130641999999995;7.2406201999999995;21.48200035095215;1673390315.6840446;-6.0395612716674805;8.4473295211792;87.40008544921875
114;1673390315.7394378;47.130642099999996;7.2406201999999995;21.88800048828125;1673390315.8753803;-6.08546257019043;4.741262912750244;87.78946685791016
115;1673390315.925365;47.1306422;7.2406201999999995;22.292001724243164;1673390316.0616567;-6.402990341186523;7.1047139167785645;87.44883728027344
116;1673390316.1221776;47.1306423;7.2406201999999995;22.702001571655273;1673390316.2776785;-6.229348659515381;9.569610595703125;87.11865997314453
117;1673390316.340444;47.1306424;7.2406201;23.110000610351562;1673390316.4749246;-6.411277770996094;6.599972248077393;87.79705047607422
118;1673390316.5287168;47.1306424;7.2406201;23.51500129699707;1673390316.6618445;-6.438796520233154;5.569981575012207;88.03278350830078
119;1673390316.717522;47.1306423;7.24062;23.918001174926758;1673390316.8678892;-6.17545747756958;8.911662101745605;87.33235931396484
120;1673390316.9179878;47.1306422;7.24062;24.32000160217285;1673390317.0570333;-6.072206497192383;6.829923152923584;87.4071273803711
121;1673390317.1206172;47.1306422;7.24062;24.71900177001953;1673390317.2596939;-6.242936611175537;4.187628269195557;87.79800415039062
122;1673390317.321769;47.1306422;7.2406198999999996;25.12200164794922;1673390317.4570322;-6.460488796234131;8.519725799560547;87.31922912597656
123;1673390317.5171447;47.1306423;7.240619799999999;25.5260009765625;1673390317.6524842;-6.665497779846191;8.56997013092041;87.47899627685547
124;1673390317.7125242;47.1306424;7.2406197;25.931001663208008;1673390317.859272;-6.814064025878906;4.513428688049316;88.14714813232422
125;1673390317.9268746;47.1306423;7.2406196;26.334001541137695;1673390318.070336;-6.608442783355713;7.758111000061035;87.51038360595703
126;1673390318.1230252;47.1306423;7.2406196;26.738000869750977;1673390318.2549474;-6.406248569488525;8.859543800354004;87.18199157714844
127;1673390318.3116393;47.1306423;7.2406196;27.13800048828125;1673390318.4597976;-6.388344764709473;4.69818115234375;87.78663635253906
128;1673390318.5208964;47.1306423;7.2406196;27.536001205444336;1673390318.6642537;-6.388097763061523;7.143382549285889;87.69465637207031
129;1673390318.7228148;47.1306424;7.2406196;27.93800163269043;1673390318.8679767;-6.256661891937256;10.124136924743652;87.43592071533203
130;1673390318.9270685;47.1306425;7.2406196;28.339000701904297;1673390319.0653484;-6.274834632873535;5.512869358062744;87.83374786376953
131;1673390319.1171105;47.1306424;7.2406197;28.74100112915039;1673390319.2563028;-6.347285747528076;5.621983051300049;87.70618438720703
132;1673390319.3194537;47.1306424;7.2406197;29.14200210571289;1673390319.4482417;-6.232148170471191;10.001436233520508;87.14790344238281
133;1673390319.5099528;47.1306424;7.2406197;29.540000915527344;1673390319.6829722;-6.253759860992432;6.111208438873291;87.68163299560547
134;1673390319.7407045;47.1306424;7.2406197;29.934001922607422;1673390319.8785813;-6.363221168518066;5.324498653411865;87.90776062011719
135;1673390319.931262;47.1306424;7.2406197;30.339000701904297;1673390320.1032538;-6.217711448669434;9.978776931762695;87.30573272705078
136;1673390320.190323;47.1306425;7.2406197;30.7450008392334;1673390320.3526206;-5.988536834716797;7.41525411605835;87.53002166748047
137;1673390320.4092789;47.1306424;7.2406197;31.147001266479492;1673390320.5310504;-6.466214656829834;4.327805042266846;87.84148406982422
138;1673390320.5748136;47.1306423;7.2406197;31.546001434326172;1673390320.6903627;-6.326797008514404;8.764881134033203;87.45452880859375
139;1673390320.74225;47.1306423;7.2406197;31.94500160217285;1673390320.892767;-6.271689414978027;8.079256057739258;87.5577163696289
140;1673390320.9405901;47.1306423;7.2406197;32.3390007019043;1673390321.0893068;-6.4743828773498535;4.461045265197754;87.89082336425781
141;1673390321.1529024;47.1306423;7.2406197;32.733001708984375;1673390321.2995317;-6.2725510597229;8.411620140075684;87.41107940673828
142;1673390321.3522651;47.1306424;7.2406197;33.12900161743164;1673390321.4872577;-6.199569225311279;9.474578857421875;87.28641510009766
143;1673390321.5390263;47.1306424;7.240619799999999;33.52300262451172;1673390321.6825628;-6.143617153167725;4.677735805511475;87.88536071777344
144;1673390321.7402947;47.1306423;7.240619799999999;33.91699981689453;1673390321.886038;-6.336888790130615;6.559503078460693;87.66902160644531
145;1673390321.9397027;47.1306422;7.240619799999999;34.314002990722656;1673390322.0795722;-6.010359287261963;9.494436264038086;87.24800109863281
146;1673390322.1420734;47.1306422;7.240619799999999;34.7130012512207;1673390322.281926;-6.212121486663818;5.221367835998535;87.67861938476562
147;1673390322.328774;47.1306422;7.240619799999999;35.1140022277832;1673390322.4690626;-6.418325901031494;5.731600761413574;87.601806640625
148;1673390322.523324;47.1306422;7.2406198999999996;35.52000045776367;1673390322.662097;-6.26759672164917;10.112568855285645;87.19428253173828
149;1673390322.723829;47.1306423;7.2406198999999996;35.92300033569336;1673390322.8797596;-6.335819721221924;6.568467617034912;87.7823486328125
150;1673390322.9383569;47.1306423;7.2406198999999996;36.32600021362305;1673390323.084644;-6.5841569900512695;4.6786017417907715;88.09625244140625
151;1673390323.1384988;47.1306422;7.2406198999999996;36.72700119018555;1673390323.2829838;-6.208786964416504;9.012290954589844;87.26951599121094
152;1673390323.3357406;47.1306422;7.2406198999999996;37.130001068115234;1673390323.4833121;-6.010444164276123;7.6982316970825195;87.31975555419922
153;1673390323.5428474;47.1306423;7.2406198999999996;37.53200149536133;1673390323.6855795;-6.326944351196289;4.485833168029785;87.90972900390625
154;1673390323.7441783;47.1306424;7.2406198999999996;37.93100357055664;1673390323.9015393;-6.293211460113525;8.88516902923584;87.45428466796875
155;1673390323.960108;47.1306425;7.2406198999999996;38.33100128173828;1673390324.110565;-6.260627746582031;9.532914161682129;87.3902587890625
156;1673390324.1652403;47.130642599999995;7.240619799999999;38.73200225830078;1673390324.298831;-6.415847301483154;5.015259265899658;87.92684173583984
157;1673390324.3691092;47.1306425;7.240619799999999;39.13100051879883;1673390324.509614;-6.653227806091309;6.5902628898620605;87.41915893554688
158;1673390324.567192;47.1306425;7.240619799999999;39.535003662109375;1673390324.717706;-6.478190898895264;10.134608268737793;87.0361557006836
159;1673390324.7788084;47.1306425;7.240619799999999;39.9370002746582;1673390324.9150407;-6.463540554046631;5.934194087982178;87.6903076171875
160;1673390324.959944;47.1306425;7.2406197;40.33500289916992;1673390325.0928462;-6.497128963470459;6.073838233947754;87.95709228515625
161;1673390325.149449;47.130642599999995;7.2406197;40.7390022277832;1673390325.2795434;-6.0593414306640625;10.367018699645996;87.4761734008789
162;1673390325.3390853;47.130642599999995;7.240619799999999;41.1400032043457;1673390325.4847362;-6.3583984375;6.181177616119385;87.56034851074219
163;1673390325.5416067;47.1306425;7.240619799999999;41.53600311279297;1673390325.7038286;-6.444148063659668;4.9701032638549805;87.71343231201172
164;1673390325.752781;47.1306424;7.240619799999999;41.93100357055664;1673390325.929538;-6.517941951751709;9.552629470825195;87.2297134399414
165;1673390326.0161233;47.1306424;7.240619799999999;42.33000183105469;1673390326.1358612;-6.5395684242248535;7.3841094970703125;87.4981918334961
166;1673390326.19376;47.1306425;7.240619799999999;42.72300338745117;1673390326.3373115;-6.467166423797607;4.766961097717285;87.98838806152344
167;1673390326.39125;47.1306425;7.240619799999999;43.1140022277832;1673390326.534406;-5.987983226776123;9.224227905273438;87.4489974975586
168;1673390326.5886962;47.130642599999995;7.2406198999999996;43.51000213623047;1673390326.7270994;-5.926631450653076;9.62350082397461;87.3351058959961
169;1673390326.7872775;47.130642699999996;7.2406198999999996;43.906002044677734;1673390326.9079373;-6.202669620513916;4.700727939605713;87.96923828125
170;1673390326.960641;47.130642599999995;7.2406198999999996;44.30500030517578;1673390327.0791006;-6.374606609344482;7.6230788230896;87.50798034667969
171;1673390327.1279821;47.1306425;7.2406198999999996;44.707000732421875;1673390327.2762623;-6.148862361907959;9.449263572692871;87.38085174560547
172;1673390327.330141;47.1306425;7.2406198999999996;45.10700225830078;1673390327.4745078;-6.2917094230651855;4.851006031036377;87.82583618164062
173;1673390327.5519197;47.1306425;7.2406198999999996;45.50200271606445;1673390327.6902742;-6.440904140472412;6.851287841796875;87.56865692138672
174;1673390327.7410583;47.130642599999995;7.2406198999999996;45.90300369262695;1673390327.8809793;-6.250789642333984;9.96132755279541;87.19615936279297
175;1673390327.9408057;47.130642599999995;7.2406198999999996;46.302001953125;1673390328.0918415;-6.238934516906738;5.485655784606934;87.8050308227539
176;1673390328.144559;47.1306425;7.240619799999999;46.69900131225586;1673390328.2905297;-6.401827335357666;5.55260705947876;87.95909881591797
177;1673390328.3520813;47.1306424;7.240619799999999;47.09400177001953;1673390328.5093787;-6.169473171234131;9.820048332214355;87.3249282836914
178;1673390328.563081;47.1306424;7.240619799999999;47.49100112915039;1673390328.6912425;-6.347554683685303;6.334937572479248;87.66178131103516
179;1673390328.7412515;47.1306424;7.2406197;47.88600158691406;1673390328.8755348;-6.698286533355713;5.953574180603027;87.79006958007812
180;1673390328.9419854;47.1306425;7.2406197;48.25300216674805;1673390329.0935822;-6.644338607788086;10.9315767288208;87.32610321044922
181;1673390329.147278;47.130642599999995;7.2406197;48.57600402832031;1673390329.2783778;-6.380667209625244;6.317730903625488;87.6710433959961
182;1673390329.334056;47.1306425;7.2406196;48.849002838134766;1673390329.4644978;-6.767075061798096;5.603465557098389;87.67342376708984
183;1673390329.5206776;47.1306425;7.240619499999999;49.079002380371094;1673390329.658852;-6.650886535644531;9.812846183776855;87.37469482421875
184;1673390329.7130969;47.130642599999995;7.2406194;49.27000045776367;1673390329.8581197;1.14345121383667;15.376078605651855;88.45991516113281
185;1673390329.9231493;47.130642599999995;7.2406191;49.42500305175781;1673390330.0790381;18.262216567993164;33.132041931152344;99.67948913574219
186;1673390330.138148;47.1306419;7.240617599999999;49.56100082397461;1673390330.2895594;23.799161911010742;48.665340423583984;110.83496856689453
187;1673390330.355137;47.1306395;7.240613199999999;49.68000411987305;1673390330.5241137;18.434091567993164;58.36420822143555;118.47892761230469
188;1673390330.577797;47.130634699999995;7.240604899999999;49.76300048828125;1673390330.708839;0.9039736986160278;58.066932678222656;127.79434967041016
189;1673390330.7684195;47.130627499999996;7.240593;49.810001373291016;1673390330.9181025;-13.471335411071777;55.53728103637695;138.2091827392578
190;1673390330.9818609;47.130618299999995;7.2405782;49.83100128173828;1673390331.1326563;-26.319883346557617;48.83916091918945;149.5784454345703
191;1673390331.2296262;47.130607399999995;7.2405611;49.833003997802734;1673390331.3497803;-40.44883728027344;44.3210334777832;161.11512756347656
192;1673390331.4005814;47.1305948;7.2405417;49.833003997802734;1673390331.525703;-49.27998733520508;41.71953582763672;173.53062438964844
193;1673390331.5793867;47.1305808;7.2405200999999995;49.810001373291016;1673390331.7172875;-46.199989318847656;27.254528045654297;-175.43748474121094
194;1673390331.7682252;47.1305658;7.2404964;49.75100326538086;1673390331.942179;-44.49752426147461;20.788955688476562;-170.77442932128906
195;1673390331.9935737;47.130550199999995;7.2404717;49.68700408935547;1673390332.1123164;-48.60628890991211;15.611207962036133;-163.47203063964844
196;1673390332.1631284;47.1305341;7.2404462;49.63800048828125;1673390332.287363;-47.43613815307617;9.73730754852295;-155.08584594726562
197;1673390332.341336;47.1305176;7.2404202;49.60000228881836;1673390332.4843364;-47.23920440673828;4.220213413238525;-147.87051391601562
198;1673390332.5470169;47.1305009;7.2403938;49.5780029296875;1673390332.6918104;-48.339134216308594;1.2153143882751465;-141.73434448242188
199;1673390332.7484288;47.1304841;7.240367099999999;49.566001892089844;1673390332.8820994;-46.819725036621094;-4.913881301879883;-134.81195068359375
200;1673390332.9402459;47.1304671;7.2403398999999995;49.56200408935547;1673390333.0886157;-46.95433807373047;-13.260560035705566;-132.46340942382812
201;1673390333.1737595;47.130449999999996;7.240312599999999;49.570003509521484;1673390333.3205938;-46.277496337890625;-11.967362403869629;-136.5013427734375
202;1673390333.389501;47.1304325;7.240285699999999;49.58100128173828;1673390333.56042;-47.38417053222656;-10.766374588012695;-138.6505889892578
203;1673390333.616962;47.130414599999995;7.240259399999999;49.60100173950195;1673390333.813789;-48.38067626953125;-9.634439468383789;-139.73536682128906
204;1673390333.8798583;47.1303963;7.2402337;49.625003814697266;1673390333.9761143;-49.126182556152344;-7.832264423370361;-140.5977020263672
205;1673390334.0433564;47.1303777;7.2402083;49.647003173828125;1673390334.1859632;-49.5599479675293;-5.988434791564941;-141.0850830078125
206;1673390334.2503932;47.130358699999995;7.2401832;49.66400146484375;1673390334.3609087;-48.4828987121582;-5.2581634521484375;-140.94137573242188
207;1673390334.4024625;47.1303396;7.240158;49.67900085449219;1673390334.5220847;-47.62431716918945;-5.353940010070801;-140.57923889160156
208;1673390334.5718617;47.130320399999995;7.2401329;49.69700241088867;1673390334.7135;-47.788814544677734;-5.610699653625488;-140.2106475830078
209;1673390334.7911384;47.1303012;7.240107699999999;49.7140007019043;1673390334.937189;-47.97437286376953;-5.819962501525879;-139.94558715820312
210;1673390334.9915214;47.1302819;7.2400825;49.72500228881836;1673390335.1462512;-47.5787353515625;-5.96024751663208;-139.73068237304688
211;1673390335.2083652;47.130262699999996;7.240057299999999;49.730003356933594;1673390335.3436108;-46.84953689575195;-5.863674640655518;-139.5211181640625
212;1673390335.3932085;47.1302434;7.2400321;49.733001708984375;1673390335.5121863;-46.60700988769531;-5.927407264709473;-139.3033905029297
213;1673390335.5581717;47.1302242;7.2400069;49.7390022277832;1673390335.6972294;-47.11421585083008;-6.072444915771484;-139.1716766357422
214;1673390335.7538574;47.1302051;7.2399816999999995;49.74700164794922;1673390335.8978152;-47.64507293701172;-6.14514684677124;-139.07998657226562
215;1673390335.9544868;47.1301859;7.2399565;49.75600051879883;1673390336.1021307;-47.68858337402344;-6.1750593185424805;-139.00437927246094
216;1673390336.1656506;47.1301668;7.239931299999999;49.76300048828125;1673390336.313277;-47.25224304199219;-6.089061260223389;-138.95233154296875
217;1673390336.3631904;47.130147699999995;7.2399059;49.7650032043457;1673390336.5086203;-46.870445251464844;-6.056675910949707;-138.89088439941406
218;1673390336.5546122;47.1301286;7.239880599999999;49.7660026550293;1673390336.7039928;-46.878639221191406;-6.0821452140808105;-138.7844696044922
219;1673390336.7608988;47.130109499999996;7.239855299999999;49.768001556396484;1673390336.9098392;-47.29515075683594;-6.108051300048828;-138.75823974609375
220;1673390336.959648;47.130090499999994;7.239829899999999;49.77300262451172;1673390337.0964382;-47.48201370239258;-6.098202228546143;-138.7393035888672
221;1673390337.1549985;47.1300715;7.2398045;49.77800369262695;1673390337.298629;-47.49665069580078;-6.130682468414307;-138.70840454101562
222;1673390337.3563018;47.1300525;7.2397789999999995;49.785003662109375;1673390337.4977405;-47.63622283935547;-6.127162933349609;-138.69764709472656
223;1673390337.5524511;47.130033499999996;7.2397535;49.7920036315918;1673390337.693025;-47.64117431640625;-6.1498847007751465;-138.6954345703125
224;1673390337.7565835;47.130014599999996;7.2397279;49.79500198364258;1673390337.8927014;-47.53432846069336;-6.0949811935424805;-138.7040252685547
225;1673390337.946932;47.1299956;7.239702299999999;49.794002532958984;1673390338.0994747;-47.14944839477539;-6.044404983520508;-138.68014526367188
226;1673390338.1531985;47.1299766;7.2396766999999995;49.79300308227539;1673390338.3038447;-47.03561782836914;-6.056350231170654;-138.66543579101562
227;1673390338.3734846;47.1299577;7.239650999999999;49.797000885009766;1673390338.5207477;-47.63688659667969;-6.158415794372559;-138.66624450683594
228;1673390338.5773957;47.1299387;7.2396252;49.80400085449219;1673390338.7076511;-47.966529846191406;-6.166717052459717;-138.70167541503906
229;1673390338.7681937;47.129919799999996;7.2395993999999995;49.80900192260742;1673390338.9041784;-47.77079772949219;-6.116910457611084;-138.72955322265625
230;1673390338.9636893;47.129900799999994;7.2395736;49.81100082397461;1673390339.1086285;-47.41221237182617;-6.0559916496276855;-138.73910522460938
231;1673390339.1682312;47.1298818;7.239547699999999;49.81200408935547;1673390339.310628;-47.37471389770508;-6.023716926574707;-138.7201385498047
232;1673390339.3623888;47.1298628;7.2395219;49.81200408935547;1673390339.4994216;-47.512779235839844;-6.012666702270508;-138.73382568359375
233;1673390339.5544317;47.1298439;7.239496099999999;49.81500244140625;1673390339.7114575;-47.671390533447266;-6.042990684509277;-138.74888610839844
234;1673390339.7681174;47.129824899999996;7.2394701999999995;49.82100296020508;1673390339.9012387;-47.78290939331055;-6.0631489753723145;-138.74598693847656
235;1673390339.9610798;47.129805999999995;7.2394444;49.8280029296875;1673390340.107195;-47.90340042114258;-6.0258660316467285;-138.7537384033203
236;1673390340.1659386;47.129787;7.239418499999999;49.832000732421875;1673390340.316472;-47.77541732788086;-5.975826740264893;-138.78619384765625
237;1673390340.3683138;47.129768;7.2393925999999995;49.83400344848633;1673390340.5053904;-47.472068786621094;-5.946898937225342;-138.82080078125
238;1673390340.5653234;47.129749;7.2393667;49.83500289916992;1673390340.72225;-47.37220001220703;-5.928668975830078;-138.83033752441406
239;1673390340.7742665;47.129729999999995;7.2393407;49.836002349853516;1673390340.9191813;-47.43941116333008;-5.930936336517334;-138.8575439453125
240;1673390340.9810944;47.129711;7.2393146999999995;49.8380012512207;1673390341.1252663;-47.52841567993164;-5.949421405792236;-138.87277221679688
241;1673390341.1810417;47.129692;7.2392886999999995;49.84300231933594;1673390341.32363;-47.669307708740234;-5.889172554016113;-138.91676330566406
242;1673390341.3754518;47.1296731;7.2392628;49.84600067138672;1673390341.5062523;-47.457489013671875;-5.861290454864502;-138.93849182128906
243;1673390341.5601482;47.129654099999996;7.2392368;49.849002838134766;1673390341.713064;-47.29148864746094;-5.800057888031006;-138.95419311523438
244;1673390341.7786806;47.129635;7.2392109;49.85200119018555;1673390341.921687;-47.40071105957031;-5.774917125701904;-139.00811767578125
245;1673390341.9822955;47.129616;7.2391849;49.85900115966797;1673390342.1174996;-47.609310150146484;-5.746796131134033;-139.0174102783203
246;1673390342.1684442;47.129597;7.2391589;49.867000579833984;1673390342.36864;-47.92714309692383;-5.744379043579102;-139.0533447265625
247;1673390342.411656;47.129577999999995;7.2391328999999995;49.87900161743164;1673390342.5382276;-48.030216217041016;-5.678843975067139;-139.14154052734375
248;1673390342.5913286;47.129559;7.2391068999999995;49.887001037597656;1673390342.7217133;-47.79641342163086;-5.61738395690918;-139.1806182861328
249;1673390342.778438;47.12954;7.239080899999999;49.8910026550293;1673390342.9291022;-47.5183219909668;-5.568966388702393;-139.2193603515625
250;1673390342.986381;47.129521;7.2390548;49.89400100708008;1673390343.1207182;-47.48160171508789;-5.483706951141357;-139.3294219970703
251;1673390343.1734223;47.1295019;7.2390286999999995;49.9010009765625;1673390343.2999995;-47.75910568237305;-5.511373043060303;-139.35415649414062
252;1673390343.3532386;47.1294829;7.2390026999999995;49.90900421142578;1673390343.4925294;-48.088409423828125;-5.471468925476074;-139.47750854492188
253;1673390343.546765;47.1294639;7.2389765;49.91800308227539;1673390343.6890512;-47.93239974975586;-5.4662885665893555;-139.5261688232422
254;1673390343.7530038;47.129444799999995;7.2389503;49.926002502441406;1673390343.9133372;-47.7649040222168;-6.442122459411621;-139.4446563720703
255;1673390343.967353;47.1294256;7.2389242;49.93400192260742;1673390344.1035044;-47.979156494140625;-6.4392499923706055;-139.74703979492188
256;1673390344.1567798;47.129406499999995;7.2388981;49.94000244140625;1673390344.2932012;-47.418739318847656;-7.761457920074463;-139.76937866210938
257;1673390344.3467379;47.1293872;7.238872199999999;49.94600296020508;1673390344.489805;-47.694664001464844;-7.566492557525635;-140.20196533203125
258;1673390344.5459573;47.1293678;7.238846499999999;49.952003479003906;1673390344.6998053;-47.72736740112305;-8.094100952148438;-140.30838012695312
259;1673390344.7719176;47.1293484;7.238821;49.957000732421875;1673390344.9288943;-47.470726013183594;-8.912470817565918;-140.46202087402344
260;1673390344.9896631;47.129328799999996;7.2387958;49.961002349853516;1673390345.1458302;-47.49171829223633;-9.339533805847168;-140.73329162597656
261;1673390345.2270145;47.129309;7.238771;49.9640007019043;1673390345.3833554;-45.97749328613281;-10.400589942932129;-140.9820556640625
262;1673390345.4360995;47.129289199999995;7.238746399999999;49.97100067138672;1673390345.622741;-37.37874221801758;-8.766657829284668;-141.54290771484375
263;1673390345.6637566;47.1292693;7.2387225;49.99500274658203;1673390345.796091;-20.83633804321289;-10.157833099365234;-139.78834533691406
264;1673390345.8542066;47.1292502;7.2386997;50.025001525878906;1673390345.9855366;-3.7415847778320312;-7.900400161743164;-138.13180541992188
265;1673390346.0311441;47.1292325;7.2386786999999995;50.044002532958984;1673390346.173377;8.581463813781738;-6.248559951782227;-136.73033142089844
266;1673390346.2247458;47.129217;7.2386601;50.04900360107422;1673390346.3602939;15.62671184539795;-6.093425750732422;-136.2947998046875
267;1673390346.412619;47.129204099999995;7.2386441999999995;50.038002014160156;1673390346.5803635;22.002033233642578;-2.1849637031555176;-137.12620544433594
268;1673390346.6365483;47.129193799999996;7.2386311;50.0160026550293;1673390346.762358;19.102039337158203;-12.017221450805664;-135.84564208984375
269;1673390346.812749;47.129186;7.2386206;49.97700119018555;1673390346.929642;16.795085906982422;-6.808571815490723;-137.03857421875
270;1673390346.989366;47.1291801;7.2386124999999995;49.913002014160156;1673390347.1338553;13.151997566223145;-16.09857749938965;-136.44480895996094
271;1673390347.187525;47.1291758;7.2386064;49.85200119018555;1673390347.3265164;4.767966270446777;-18.998130798339844;-136.2488555908203
272;1673390347.3822665;47.1291722;7.2386022;49.814002990722656;1673390347.5123172;-6.627628326416016;-19.024520874023438;-135.8868865966797
273;1673390347.5750146;47.129168899999996;7.2385993;49.81300354003906;1673390347.723834;-13.039190292358398;-10.639841079711914;-136.70423889160156
274;1673390347.7962441;47.1291654;7.2385969;49.84300231933594;1673390347.96761;-13.423175811767578;-4.790999889373779;-135.40037536621094
275;1673390348.0190718;47.1291618;7.2385943;49.887001037597656;1673390348.1582453;-11.239466667175293;-0.8298596143722534;-132.47186279296875
276;1673390348.2086568;47.129158399999994;7.2385911;49.932003021240234;1673390348.326467;-6.076397895812988;-0.12738056480884552;-129.1486358642578
277;1673390348.38112;47.1291553;7.2385873;49.97300338745117;1673390348.5198553;-1.9812356233596802;-2.7631800174713135;-127.16463470458984
278;1673390348.5881913;47.1291527;7.2385831;50.00700378417969;1673390348.7349026;-13.737370491027832;-8.395606994628906;-128.50587463378906
279;1673390348.7985077;47.1291504;7.238578599999999;50.053001403808594;1673390348.9491637;-26.17926597595215;-7.513697624206543;-135.50120544433594
280;1673390349.0221765;47.1291478;7.2385731;50.13300323486328;1673390349.1851099;-18.470905303955078;-2.477731943130493;-139.6347198486328
281;1673390349.237763;47.1291446;7.238566499999999;50.272003173828125;1673390349.3810387;-16.776763916015625;0.8772584199905396;-139.6579132080078
282;1673390349.429412;47.1291411;7.2385592;50.51100158691406;1673390349.560653;-16.300689697265625;-1.0919440984725952;-138.6744842529297
283;1673390349.6149843;47.1291374;7.2385511;50.8380012512207;1673390349.7464738;-38.09205627441406;-11.608942985534668;-137.54026794433594
284;1673390349.7972884;47.1291331;7.238542;51.20600128173828;1673390349.9341865;-46.949527740478516;-16.526887893676758;-137.11158752441406
285;1673390349.9880126;47.129127;7.2385316;51.579002380371094;1673390350.1142645;-42.05386734008789;-13.682037353515625;-138.07916259765625
286;1673390350.1708765;47.129118899999995;7.2385199;51.94600296020508;1673390350.3273282;-37.93321228027344;-11.586103439331055;-138.77166748046875
287;1673390350.3878942;47.1291094;7.2385074;52.302001953125;1673390350.5190902;-32.17591857910156;-9.181435585021973;-138.83120727539062
288;1673390350.5816586;47.1290992;7.2384943999999996;52.64800262451172;1673390350.7330887;-29.310361862182617;-7.207792282104492;-138.53965759277344
289;1673390350.7897005;47.129088599999996;7.238481299999999;52.99500274658203;1673390350.923574;-27.18696403503418;-7.048224925994873;-137.6622314453125
290;1673390350.9801834;47.1290778;7.2384679;53.34600067138672;1673390351.1296906;-25.440467834472656;-6.621620178222656;-137.52674865722656
291;1673390351.1843636;47.1290671;7.238454399999999;53.704002380371094;1673390351.3253841;-24.279155731201172;-7.89016056060791;-136.886474609375
292;1673390351.3897452;47.1290565;7.2384407;54.070003509521484;1673390351.5274715;-23.573108673095703;-8.521421432495117;-136.60826110839844
293;1673390351.5782716;47.1290461;7.2384271;54.44200134277344;1673390351.7127519;-23.78356170654297;-8.299354553222656;-136.7822265625
294;1673390351.7718625;47.129036;7.2384135;54.81500244140625;1673390351.9390283;-23.820249557495117;-8.145683288574219;-136.91644287109375
295;1673390351.9947643;47.1290261;7.2383999999999995;55.195003509521484;1673390352.1658235;-24.670024871826172;-7.18612003326416;-137.08932495117188
296;1673390352.2347796;47.1290164;7.2383865;55.579002380371094;1673390352.3459973;-25.703170776367188;-5.903635501861572;-137.4662628173828
297;1673390352.3909018;47.1290068;7.2383731;55.96600341796875;1673390352.534408;-26.499473571777344;-6.488196849822998;-137.50314331054688
298;1673390352.5871542;47.1289972;7.2383596;56.358001708984375;1673390352.7338378;-26.85385513305664;-8.003750801086426;-137.28590393066406
299;1673390352.8150592;47.128987599999995;7.238346;56.75300216674805;1673390352.9579988;-26.83734130859375;-9.665817260742188;-137.06968688964844
300;1673390353.013686;47.128977899999995;7.2383324;57.14900207519531;1673390353.1692119;-26.52416229248047;-10.851706504821777;-136.93202209472656
301;1673390353.2222757;47.128968099999994;7.2383188999999994;57.54300308227539;1673390353.3422177;-26.334257125854492;-11.080307006835938;-136.822509765625
302;1673390353.3921058;47.1289583;7.2383052999999995;57.93300247192383;1673390353.5304723;-26.504898071289062;-10.27178955078125;-137.00140380859375
303;1673390353.5861452;47.1289483;7.2382919;58.32100296020508;1673390353.723722;-26.27648162841797;-8.904244422912598;-137.23912048339844
304;1673390353.7727227;47.128938299999994;7.238278599999999;58.71000289916992;1673390353.919789;-26.45624351501465;-7.520413398742676;-137.3372802734375
305;1673390353.9792073;47.1289283;7.238265299999999;59.099002838134766;1673390354.1265624;-26.48777198791504;-6.607548236846924;-137.3699951171875
306;1673390354.1785262;47.128918299999995;7.238251999999999;59.493003845214844;1673390354.3297398;-26.745994567871094;-5.9649882316589355;-137.46511840820312
307;1673390354.3805344;47.1289083;7.2382386;59.887001037597656;1673390354.5328937;-26.622276306152344;-5.898754119873047;-137.4840850830078
308;1673390354.5985332;47.128898299999996;7.238225099999999;60.28000259399414;1673390354.7335434;-26.683441162109375;-6.147842884063721;-137.26290893554688
309;1673390354.7882667;47.1288884;7.2382116;60.673004150390625;1673390354.9290156;-26.776535034179688;-6.658560276031494;-137.07518005371094
310;1673390354.9856102;47.1288785;7.238198;61.06500244140625;1673390355.1509552;-26.825729370117188;-7.736722946166992;-136.9669189453125
311;1673390355.2014961;47.1288687;7.2381844;61.458003997802734;1673390355.3254757;-26.7445125579834;-8.6880464553833;-136.8022003173828
312;1673390355.3801148;47.128858799999996;7.238170599999999;61.85100173950195;1673390355.5207212;-26.60578155517578;-9.370963096618652;-136.7831573486328
313;1673390355.5786865;47.1288488;7.2381569;62.24400329589844;1673390355.728648;-26.407787322998047;-10.0576810836792;-136.6967315673828
314;1673390355.7874265;47.1288389;7.238143099999999;62.634002685546875;1673390355.9308884;-26.495969772338867;-10.310933113098145;-136.64736938476562
315;1673390355.9904609;47.128828999999996;7.2381294;63.025001525878906;1673390356.1331096;-26.622299194335938;-10.235963821411133;-136.5384979248047
316;1673390356.2107456;47.128819;7.2381158;63.4170036315918;1673390356.3835142;-26.530376434326172;-9.486123085021973;-136.9357147216797
317;1673390356.4460835;47.1288091;7.238102199999999;63.81300354003906;1673390356.581035;-26.71528434753418;-9.121341705322266;-136.8598175048828
318;1673390356.6269639;47.128799099999995;7.2380887;64.21000671386719;1673390356.7651904;-26.782550811767578;-8.357964515686035;-136.94894409179688
319;1673390356.820838;47.128789;7.2380752;64.60700225830078;1673390356.9557035;-26.838022232055664;-7.6671295166015625;-137.0561065673828
320;1673390357.0163004;47.128778999999994;7.238061699999999;65.0009994506836;1673390357.1618366;-27.0888729095459;-7.13808012008667;-137.12184143066406
321;1673390357.2200627;47.128769;7.238048099999999;65.39600372314453;1673390357.344434;-27.131027221679688;-6.73499059677124;-137.29617309570312
322;1673390357.3949056;47.128758999999995;7.2380344999999995;65.78900146484375;1673390357.5594099;-27.190929412841797;-6.640223503112793;-137.24127197265625
323;1673390357.6200442;47.1287491;7.238020799999999;66.1830062866211;1673390357.763105;-27.26190757751465;-7.05027961730957;-137.15089416503906
324;1673390357.8233974;47.1287392;7.238007;66.5780029296875;1673390357.9651842;-27.362991333007812;-7.344952583312988;-137.19546508789062
325;1673390358.0180979;47.128729299999996;7.2379932;66.97100067138672;1673390358.165544;-27.28120231628418;-7.90457820892334;-137.1466522216797
326;1673390358.2263114;47.1287193;7.2379793999999995;67.36199951171875;1673390358.3476455;-27.452823638916016;-7.627973556518555;-137.3246307373047
327;1673390358.3993375;47.1287094;7.2379656;67.75800323486328;1673390358.5331242;-27.382104873657227;-7.880814552307129;-137.13064575195312
328;1673390358.591822;47.1286993;7.237951799999999;68.1570053100586;1673390358.7464678;-27.11465835571289;-7.854758262634277;-137.17434692382812
329;1673390358.8013713;47.1286893;7.2379381;68.5510025024414;1673390358.9499893;-27.18599510192871;-7.765692234039307;-137.2008514404297
330;1673390359.009742;47.1286792;7.2379244;68.94300079345703;1673390359.1985378;-27.072574615478516;-7.8793792724609375;-137.2056121826172
331;1673390359.2697594;47.128669099999996;7.2379108;69.33800506591797;1673390359.4200914;-27.14030647277832;-8.16653823852539;-137.03509521484375
332;1673390359.487246;47.1286591;7.2378971;69.73500061035156;1673390359.6167266;-27.18802833557129;-8.226795196533203;-136.9518585205078
333;1673390359.6593924;47.128648999999996;7.2378833;70.13200378417969;1673390359.8373256;-15.923870086669922;-8.85611629486084;-137.2257537841797
334;1673390359.8890927;47.1286391;7.2378697999999995;70.50900268554688;1673390360.000688;-6.2404279708862305;-9.767095565795898;-136.85020446777344
335;1673390360.050042;47.1286298;7.237857099999999;70.84900665283203;1673390360.180554;-2.3642351627349854;-10.22210693359375;-136.50791931152344
336;1673390360.2379339;47.1286215;7.2378458;71.1500015258789;1673390360.3736646;3.259636640548706;-10.258731842041016;-136.4592742919922
337;1673390360.4244313;47.1286141;7.2378358;71.41500091552734;1673390360.569898;6.220927715301514;-9.20921516418457;-136.1826171875
338;1673390360.6216292;47.128607699999996;7.2378272;71.64600372314453;1673390360.7380195;8.538736343383789;-9.931097030639648;-135.10012817382812
339;1673390360.7935557;47.1286025;7.237819999999999;71.84900665283203;1673390360.9419553;8.738189697265625;-11.084604263305664;-134.83705139160156
340;1673390361.0083382;47.1285983;7.237813999999999;72.0260009765625;1673390361.1394799;7.684060573577881;-11.905491828918457;-135.67210388183594
341;1673390361.2025495;47.128595;7.2378092;72.17500305175781;1673390361.3285341;5.372576713562012;-12.532705307006836;-136.50596618652344
342;1673390361.3818421;47.1285923;7.2378054999999994;72.29800415039062;1673390361.519082;4.025577545166016;9.76352310180664;-131.49981689453125
343;1673390361.5813272;47.1285904;7.2378022;72.4020004272461;1673390361.7246716;2.866276741027832;20.192562103271484;-121.0007553100586
344;1673390361.77798;47.128589899999994;7.237798499999999;72.48700714111328;1673390361.9232996;-4.041967391967773;14.693662643432617;-110.76531219482422
345;1673390361.9876087;47.1285908;7.2377942;72.552001953125;1673390362.1267385;-5.4877495765686035;9.156015396118164;-101.69733428955078
346;1673390362.2005641;47.128592499999996;7.237789299999999;72.60700225830078;1673390362.3834865;-4.344936847686768;5.654133319854736;-93.455810546875
347;1673390362.4414747;47.128594799999995;7.2377838;72.6520004272461;1673390362.5819266;-2.055222749710083;0.20659051835536957;-84.4462890625
348;1673390362.6302717;47.1285974;7.237778;72.68700408935547;1673390362.7583575;-0.20861214399337769;-2.830580949783325;-75.07493591308594
349;1673390362.8142881;47.1286001;7.237772;72.71500396728516;1673390362.946675;0.40139085054397583;-5.049417972564697;-65.27360534667969
350;1673390363.006211;47.128602699999995;7.237766;72.74100494384766;1673390363.1498318;0.4165708124637604;-4.232517719268799;-55.71613693237305
351;1673390363.208435;47.1286053;7.237760199999999;72.76399993896484;1673390363.3577156;0.4583947956562042;-3.997502088546753;-46.07855224609375
352;1673390363.4123974;47.1286078;7.2377544;72.78400421142578;1673390363.5560524;0.24140948057174683;-3.4896364212036133;-40.18463897705078
353;1673390363.6068282;47.1286102;7.2377487;72.8030014038086;1673390363.7495317;-1.0380576848983765;-1.0877808332443237;-41.485721588134766
354;1673390363.81297;47.128612399999994;7.237743099999999;72.82300567626953;1673390363.9498177;-25.345012664794922;1.0525046586990356;-44.24631118774414
355;1673390364.011374;47.128614999999996;7.2377369;72.8550033569336;1673390364.150253;-46.60993957519531;2.3051581382751465;-45.55034637451172
356;1673390364.2137518;47.128619099999995;7.237729;72.89100646972656;1673390364.3638825;-54.94376754760742;0.9724517464637756;-44.749603271484375
357;1673390364.4274921;47.1286254;7.2377180999999995;72.90400695800781;1673390364.5789683;-54.7101936340332;-0.449372261762619;-45.742164611816406
358;1673390364.6356702;47.128634299999995;7.2377037;72.92200469970703;1673390364.7782772;-60.32586669921875;-1.5062421560287476;-46.203773498535156
359;1673390364.8413203;47.1286456;7.2376854999999995;72.95700073242188;1673390364.9786918;-61.29426574707031;-1.267654538154602;-45.469749450683594
360;1673390365.0364902;47.128659299999995;7.2376635;72.98600006103516;1673390365.178198;-59.44249725341797;-0.33263930678367615;-45.58774948120117
361;1673390365.2252197;47.1286748;7.2376387;72.9990005493164;1673390365.3473308;-56.026123046875;-0.28387486934661865;-45.92194366455078
362;1673390365.4078853;47.1286918;7.237611599999999;72.99700164794922;1673390365.5550795;-57.27253341674805;-0.7128823399543762;-45.8669319152832
363;1673390365.6120074;47.1287099;7.237583099999999;72.93700408935547;1673390365.759293;-48.20207214355469;-0.9804791808128357;-45.90779113769531
364;1673390365.8213506;47.1287281;7.237554599999999;72.55500030517578;1673390365.9679837;-21.783008575439453;-1.2290703058242798;-46.09669876098633
365;1673390366.017165;47.128746199999995;7.237526099999999;71.81999969482422;1673390366.1521637;26.632774353027344;-1.8043339252471924;-46.81907653808594
366;1673390366.2033246;47.128764;7.2374979999999995;70.70000457763672;1673390366.3414044;85.54995727539062;-20.984590530395508;-66.16033935546875
367;1673390366.4041464;47.1287819;7.2374697999999995;69.16500091552734;1673390366.5511293;48.881591796875;-178.2185821533203;135.7259063720703
368;1673390366.617234;47.128799699999995;7.2374415999999995;67.26300048828125;1673390366.77407;30.481937408447266;179.6712188720703;131.07296752929688
369;1673390366.8259983;47.128817399999996;7.2374136;65.00900268554688;1673390366.9702709;41.535926818847656;179.98745727539062;130.3109588623047
370;1673390367.0221248;47.1288348;7.2373861999999995;62.39200210571289;1673390367.1550033;82.18228912353516;-175.863525390625;135.02610778808594
371;1673390367.2062805;47.128851999999995;7.237359;59.43100357055664;1673390367.3380334;31.1945743560791;-1.617024540901184;-51.892208099365234
372;1673390367.3959317;47.1288693;7.2373316999999995;56.10900115966797;1673390367.541045;-33.413631439208984;0.7817559242248535;-50.02573013305664
373;1673390367.5920863;47.1288864;7.2373046;52.380001068115234;1673390367.7321763;-64.44832611083984;-2.1302850246429443;-45.998130798339844
374;1673390367.8321717;47.128903099999995;7.237278099999999;48.30900192260742;1673390367.9820752;-53.4040641784668;-2.4071502685546875;-45.31514358520508
375;1673390368.0492022;47.128919599999996;7.237252;43.9170036315918;1673390368.1952698;-0.19289977848529816;-2.3508646488189697;-46.42670822143555
376;1673390368.2422554;47.1289357;7.2372264;39.17500305175781;1673390368.37813;67.71275329589844;-1.6183608770370483;-45.90251541137695
377;1673390368.4350266;47.128951799999996;7.2372008999999995;34.031002044677734;1673390368.5820758;77.91035461425781;171.4236297607422;125.85677337646484
378;1673390368.6373122;47.128968099999994;7.237175199999999;28.57200050354004;1673390368.7934976;83.23429107666016;31.180423736572266;-15.125859260559082
379;1673390368.8578734;47.1289844;7.2371497;22.821001052856445;1673390368.9870374;21.512861251831055;3.9704959392547607;-42.43410873413086
380;1673390369.0449257;47.1290008;7.2371238;16.735000610351562;1673390369.1843448;-42.15378189086914;-0.8591341972351074;-41.19329071044922
381;1673390369.2380486;47.129016899999996;7.2370981;10.248000144958496;1673390369.3733814;-56.40153884887695;-7.154000759124756;-36.10517120361328
382;1673390369.4201698;47.129032699999996;7.2370731;3.455000162124634;1673390369.5611458;-24.277013778686523;0.8615074753761292;-45.576194763183594
383;1673390369.6211002;47.1290476;7.2370519;0.3830000162124634;1673390369.7713492;-20.04652976989746;5.626753330230713;-55.89981460571289
384;1673390369.8313;47.1290651;7.2370288;0.8140000104904175;1673390369.9672828;-20.854887008666992;8.681129455566406;-59.522438049316406
385;1673390370.0252047;47.129083099999995;7.237004499999999;1.186000108718872;1673390370.1613278;-20.714231491088867;8.084232330322266;-60.03548812866211
386;1673390370.2117112;47.129100699999995;7.2369807999999995;1.5450000762939453;1673390370.3401968;-20.307029724121094;6.997651100158691;-60.36701202392578
387;1673390370.3929915;47.1291182;7.2369581;1.7810001373291016;1673390370.570126;-20.12009620666504;6.595226764678955;-60.627262115478516
388;1673390370.6261697;47.1291375;7.2369331;1.967000126838684;1673390370.7729676;-19.970279693603516;6.642468452453613;-60.80000305175781
389;1673390370.8341026;47.129158399999994;7.236906299999999;2.0390000343322754;1673390370.9824886;-19.843650817871094;6.695491790771484;-60.906036376953125
390;1673390371.034071;47.1291806;7.236878099999999;2.052000045776367;1673390371.1731226;-19.756120681762695;6.865109920501709;-61.013084411621094
391;1673390371.2311916;47.129203999999994;7.2368486;2.0280001163482666;1673390371.3659768;-19.673919677734375;7.036448955535889;-61.1131706237793
392;1673390371.419392;47.129228399999995;7.2368181;1.9800001382827759;1673390371.5923276;-19.501934051513672;7.200160503387451;-61.201210021972656
393;1673390371.6537;47.1292538;7.2367865;1.9220000505447388;1673390371.801547;-19.356563568115234;7.349122524261475;-61.30301284790039
394;1673390371.8590899;47.12928;7.2367541;1.8760000467300415;1673390371.9881516;-19.25506019592285;7.496898174285889;-61.39256286621094
395;1673390372.0421028;47.1293072;7.2367206;1.8090001344680786;1673390372.1814413;-19.156082153320312;7.591521739959717;-61.486351013183594
396;1673390372.2393203;47.1293353;7.236686199999999;1.7300001382827759;1673390372.3721008;-19.07097816467285;7.741207122802734;-61.5796012878418
397;1673390372.422102;47.1293642;7.236650999999999;1.6350001096725464;1673390372.5471067;-18.95527458190918;7.8668365478515625;-61.66651153564453
398;1673390372.597091;47.129394;7.236614899999999;1.533000111579895;1673390372.7570553;-18.790794372558594;7.954056262969971;-61.73036575317383
399;1673390372.8151157;47.1294245;7.2365781;1.4280000925064087;1673390372.9611726;-18.703153610229492;8.02241325378418;-61.809391021728516
400;1673390373.009343;47.1294556;7.236540499999999;1.3170000314712524;1673390373.1411903;-18.583066940307617;8.09223461151123;-61.87777328491211
401;1673390373.1971822;47.129487499999996;7.236502199999999;1.1990000009536743;1673390373.3343518;-18.424373626708984;8.180055618286133;-61.977638244628906
402;1673390373.3872986;47.1295199;7.2364633;1.0840001106262207;1673390373.5231519;-18.287431716918945;8.22775936126709;-62.05769348144531
403;1673390373.5790315;47.1295529;7.236423899999999;0.9700000286102295;1673390373.720336;-18.124584197998047;8.282687187194824;-62.14130401611328
404;1673390373.7750738;47.1295864;7.236383999999999;0.8610000610351562;1673390373.916955;-17.941524505615234;8.320560455322266;-62.2042236328125
405;1673390373.9721532;47.1296203;7.236343499999999;0.7490000128746033;1673390374.1192229;-17.784637451171875;8.36580753326416;-62.28543472290039
406;1673390374.1753788;47.1296549;7.2363024;0.6290000081062317;1673390374.3312607;-17.64168357849121;8.46229362487793;-62.36766815185547
407;1673390374.39724;47.1296903;7.2362603;0.4910000264644623;1673390374.5502856;-17.436237335205078;8.469864845275879;-62.44550704956055
408;1673390374.609018;47.1297259;7.236218099999999;0.3750000298023224;1673390374.7541637;-17.276687622070312;8.525914192199707;-62.53120422363281
409;1673390374.8152359;47.129761599999995;7.2361758;0.27400001883506775;1673390374.9721637;-17.07292938232422;8.525802612304688;-62.61262893676758
410;1673390375.027239;47.1297977;7.2361331;0.1850000023841858;1673390375.2050545;-16.851152420043945;8.552181243896484;-62.675750732421875
411;1673390375.2580776;47.1298271;7.2360982;0.09600000083446503;1673390375.3972282;-16.705703735351562;8.527709007263184;-62.77189254760742
412;;;;;1673390375.584127;-16.41971206665039;8.548972129821777;-62.8248405456543
413;;;;;1673390375.7798026;-16.329509735107422;8.477733612060547;-62.909637451171875
414;;;;;1673390375.970044;-16.137849807739258;8.442273139953613;-63.01409912109375
415;;;;;1673390376.1862645;-15.974903106689453;8.405725479125977;-63.1368522644043
416;;;;;1673390376.3769617;-15.818461418151855;8.408592224121094;-63.28977966308594
417;;;;;1673390376.5879378;-15.706657409667969;8.460902214050293;-63.43714904785156
