;pos_time;latitude;longitude;altitude;alt_time;pitch;roll;yaw
0;1673389366.7331254;47.1306424;7.2406196;-0.0010000000474974513;1673389366.7175105;0.032859399914741516;-0.13457097113132477;90.03134155273438
1;1673389366.9374323;47.1306424;7.2406197;0.0;1673389366.9198725;0.09437553584575653;-0.09814605116844177;89.90044403076172
2;1673389367.1337228;47.1306424;7.2406197;-0.0020000000949949026;1673389367.1161723;0.43420714139938354;0.030003976076841354;90.1149673461914
3;1673389367.3331609;47.1306424;7.240619799999999;-0.003000000026077032;1673389367.3116887;0.31290605664253235;-0.29812091588974;90.01206970214844
4;1673389367.5607064;47.1306424;7.2406198999999996;-0.0010000000474974513;1673389367.5431225;-0.15161538124084473;-0.11352935433387756;90.01156616210938
5;1673389367.7633777;47.1306424;7.2406198999999996;-0.0010000000474974513;1673389367.744835;-0.09699876606464386;-0.2689882814884186;90.03244018554688
6;1673389367.967179;47.1306424;7.2406198999999996;-0.004000000189989805;1673389367.9543433;0.09015292674303055;-0.12015318870544434;89.98384857177734
7;1673389368.173685;47.1306424;7.2406198999999996;-0.007000000216066837;1673389368.1580925;-0.04890904948115349;-0.24601873755455017;90.07268524169922
8;1673389368.3603797;47.1306424;7.2406198999999996;-0.00800000037997961;1673389368.344606;-0.17604313790798187;-0.11546102166175842;90.01107788085938
9;1673389368.5677476;47.1306424;7.2406198999999996;-0.007000000216066837;1673389368.5492046;-0.24220484495162964;-0.2983938157558441;90.02549743652344
10;1673389368.7655427;47.1306424;7.2406198999999996;-0.013000000268220901;1673389368.750903;-0.24288494884967804;-0.21012680232524872;90.13136291503906
11;1673389368.9660718;47.1306424;7.2406198999999996;-0.014000000432133675;1673389368.9416714;-0.20579120516777039;-0.05374822020530701;89.96859741210938
12;1673389369.1670454;47.1306424;7.240619799999999;-0.01600000075995922;1673389369.1514313;-0.0030946757178753614;-0.27559664845466614;90.0009536743164
13;1673389369.3617458;47.1306424;7.240619799999999;0.0;1673389369.3430161;-0.04082377627491951;-0.3476930260658264;89.97280883789062
14;1673389369.556009;47.1306424;7.2406198999999996;0.005000000353902578;1673389369.541202;-0.21582402288913727;-0.5615163445472717;89.9384536743164
15;1673389369.7594373;47.1306424;7.2406198999999996;0.0020000000949949026;1673389369.7416747;-0.13122832775115967;-0.4966394603252411;90.06159210205078
16;1673389369.9634354;47.1306425;7.240619799999999;0.003000000026077032;1673389369.9468431;-0.2206825166940689;-0.4143514335155487;89.96615600585938
17;1673389370.1639132;47.1306425;7.2406198999999996;0.004000000189989805;1673389370.1459658;-0.19574441015720367;-0.4794361889362335;90.06339263916016
18;1673389370.371869;47.1306425;7.2406198999999996;0.003000000026077032;1673389370.3508677;-0.2683604657649994;-0.5062637329101562;89.99064636230469
19;1673389370.5714762;47.1306425;7.2406198999999996;-0.0020000000949949026;1673389370.5547702;-0.23845091462135315;-0.5542837977409363;89.97233581542969
20;1673389370.802649;47.130642599999995;7.240619799999999;-0.005000000353902578;1673389370.7818387;-0.09408881515264511;-0.3606429696083069;89.89307403564453
21;1673389370.9971664;47.130642599999995;7.240619799999999;-0.003000000026077032;1673389370.9820573;-0.2666149437427521;-0.7913576364517212;89.80022430419922
22;1673389371.2197144;47.1306425;7.240619799999999;-0.0010000000474974513;1673389371.20581;-0.01191694475710392;-0.17018944025039673;90.02680969238281
23;1673389371.4395542;47.130642599999995;7.2406197;0.0010000000474974513;1673389371.425721;-0.2724328637123108;-0.5052123665809631;89.8869857788086
24;1673389371.621209;47.1306425;7.2406197;0.0;1673389371.606705;-0.19624827802181244;-0.6765713691711426;89.90562438964844
25;1673389371.8017747;47.130642599999995;7.2406197;-0.003000000026077032;1673389371.787754;-0.0801200345158577;-0.530728280544281;90.13915252685547
26;1673389372.0028915;47.130642599999995;7.2406197;-0.0020000000949949026;1673389371.9778194;-0.19786962866783142;-0.29253464937210083;90.09259033203125
27;1673389372.1767588;47.130642599999995;7.240619799999999;-0.005000000353902578;1673389372.159803;-0.25338155031204224;-0.5403608679771423;90.18658447265625
28;1673389372.3675864;47.130642599999995;7.240619799999999;-0.004000000189989805;1673389372.3457205;-0.25574445724487305;-0.11145935952663422;90.30469512939453
29;1673389372.5738273;47.130642599999995;7.240619799999999;-0.0010000000474974513;1673389372.5527852;-0.28388863801956177;-0.2696908712387085;91.28997802734375
30;1673389372.7766056;47.130642699999996;7.2406198999999996;0.0;1673389372.7597847;-0.38310402631759644;-0.2114037126302719;92.32201385498047
31;1673389372.9856207;47.1306428;7.2406201;0.003000000026077032;1673389372.9686568;0.9570944905281067;0.7031760811805725;96.9814453125
32;1673389373.18716;47.130643;7.2406204;0.009000000543892384;1673389373.1738377;3.0569522380828857;3.4260056018829346;95.2378158569336
33;1673389373.388919;47.130643199999994;7.240620799999999;0.03200000151991844;1673389373.37109;6.406026840209961;8.092395782470703;93.90007019042969
34;1673389373.6176484;47.130643299999996;7.240621099999999;0.07400000095367432;1673389373.5941317;8.202386856079102;10.895856857299805;92.99948120117188
35;1673389373.827627;47.130643299999996;7.240621099999999;0.13300000131130219;1673389373.8106945;8.148938179016113;5.583658218383789;91.36255645751953
36;1673389374.0157394;47.130643199999994;7.240621099999999;0.2110000103712082;1673389373.9986956;8.927600860595703;4.779786586761475;90.12430572509766
37;1673389374.2245104;47.130643;7.2406209;0.30000001192092896;1673389374.2049901;8.778093338012695;8.931469917297363;90.09153747558594
38;1673389374.402651;47.1306429;7.2406207;0.398000031709671;1673389374.3821084;8.517570495605469;5.466727256774902;89.62117004394531
39;1673389374.5872202;47.1306428;7.2406204;0.5080000162124634;1673389374.5725503;7.892906188964844;4.310276508331299;89.0841064453125
40;1673389374.7772605;47.130642699999996;7.2406201;0.6380000114440918;1673389374.7615423;6.73406457901001;8.39184284210205;88.39248657226562
41;1673389374.9856489;47.130642699999996;7.240619799999999;0.781000018119812;1673389374.9675152;6.575681686401367;6.2702178955078125;87.43046569824219
42;1673389375.1878028;47.130642699999996;7.2406196;0.9390000700950623;1673389375.171054;6.795866966247559;3.0906853675842285;86.57872772216797
43;1673389375.3818944;47.130642599999995;7.2406194;1.1080000400543213;1673389375.3662343;6.860325813293457;6.282808780670166;86.5289535522461
44;1673389375.5788367;47.1306425;7.2406194;1.287000060081482;1673389375.5581782;7.971571445465088;7.352944850921631;86.50601959228516
45;1673389375.7895067;47.1306424;7.2406193;1.4730000495910645;1673389375.7743354;7.6786417961120605;3.2625694274902344;85.98194122314453
46;1673389375.9867423;47.1306424;7.2406193;1.6680001020431519;1673389375.96762;7.342077255249023;5.881321430206299;88.30215454101562
47;1673389376.1771712;47.1306424;7.2406193;1.8680000305175781;1673389376.1635532;6.856456279754639;8.177639961242676;87.57189178466797
48;1673389376.3573759;47.1306425;7.2406193;2.068000078201294;1673389376.3407843;7.008058071136475;3.7774248123168945;86.88692474365234
49;1673389376.584518;47.1306425;7.2406193;2.2660000324249268;1673389376.570804;7.152295112609863;4.994833946228027;86.37529754638672
50;1673389376.7996001;47.1306425;7.2406193;2.4630000591278076;1673389376.7717066;7.964340686798096;8.266827583312988;86.23955535888672
51;1673389377.0076406;47.1306425;7.2406193;2.6590001583099365;1673389376.993977;8.665325164794922;4.160841941833496;85.60560607910156
52;1673389377.1807303;47.1306425;7.2406193;2.8570001125335693;1673389377.1641486;7.784334659576416;4.240553379058838;84.79057312011719
53;1673389377.3715703;47.130642599999995;7.2406193;3.063000202178955;1673389377.3559475;7.499772548675537;8.098423957824707;84.82078552246094
54;1673389377.569918;47.130642699999996;7.240619199999999;3.265000104904175;1673389377.5543013;6.834105014801025;4.768319606781006;85.24571228027344
55;1673389377.7716339;47.1306428;7.2406193;3.4670002460479736;1673389377.7510462;6.767715930938721;4.102634906768799;85.55821228027344
56;1673389377.9661708;47.130642699999996;7.240619499999999;3.6710002422332764;1673389377.94925;7.931736946105957;8.528318405151367;85.96720886230469
57;1673389378.1768398;47.130642599999995;7.2406197;3.869000196456909;1673389378.159198;8.956518173217773;6.254279613494873;85.68016052246094
58;1673389378.3912396;47.1306425;7.240619799999999;4.067000389099121;1673389378.3741002;8.434921264648438;3.241156816482544;84.98603057861328
59;1673389378.59514;47.1306424;7.2406198999999996;4.266000270843506;1673389378.5799792;7.932229518890381;6.71525239944458;84.75633239746094
60;1673389378.7958944;47.1306424;7.24062;4.466000080108643;1673389378.7800884;7.734835147857666;6.0584540367126465;85.23181915283203
61;1673389378.9966571;47.1306425;7.24062;4.6670002937316895;1673389378.9750051;7.435846328735352;3.0287575721740723;85.44940948486328
62;1673389379.199179;47.1306425;7.24062;4.866000175476074;1673389379.18497;7.791612148284912;6.543916702270508;85.9293441772461
63;1673389379.3805573;47.1306425;7.24062;5.066000461578369;1673389379.361978;8.620633125305176;8.220170974731445;86.14601135253906
64;1673389379.5700405;47.1306425;7.24062;5.264000415802002;1673389379.5563772;8.586179733276367;3.7015819549560547;85.49223327636719
65;1673389379.7656367;47.1306425;7.24062;5.461000442504883;1673389379.7499015;7.967432498931885;5.800260543823242;85.01615142822266
66;1673389379.9536633;47.1306425;7.24062;5.663000106811523;1673389379.934159;7.574090957641602;7.941117286682129;85.18826293945312
67;1673389380.1651127;47.130642599999995;7.24062;5.868000507354736;1673389380.1485236;7.296812057495117;3.921743392944336;85.29853057861328
68;1673389380.3666785;47.130642599999995;7.24062;6.076000213623047;1673389380.3479822;7.592857837677002;5.2961506843566895;85.58573913574219
69;1673389380.5731962;47.1306425;7.24062;6.279000282287598;1673389380.556605;8.163657188415527;8.11475658416748;85.97355651855469
70;1673389380.8144722;47.1306425;7.24062;6.4770002365112305;1673389380.7988183;8.529797554016113;4.821976184844971;85.80221557617188
71;1673389381.0268483;47.1306424;7.24062;6.673000335693359;1673389381.0122054;8.079618453979492;4.070159912109375;85.24771881103516
72;1673389381.25483;47.1306425;7.24062;6.869000434875488;1673389381.2148132;7.602172374725342;8.121399879455566;85.15474700927734
73;1673389381.4180555;47.130642599999995;7.2406198999999996;7.068000316619873;1673389381.4024403;7.473303318023682;5.40811014175415;85.2929916381836
74;1673389381.5906346;47.130642599999995;7.2406198999999996;7.266000270843506;1673389381.5750577;7.208726406097412;3.5969669818878174;85.35104370117188
75;1673389381.7911258;47.1306425;7.2406198999999996;7.458000183105469;1673389381.776469;7.661067485809326;7.592780113220215;85.72943878173828
76;1673389381.9680908;47.1306425;7.24062;7.653000354766846;1673389381.9534454;8.313465118408203;7.0493998527526855;85.89382934570312
77;1673389382.1618788;47.130642599999995;7.24062;7.848000526428223;1673389382.1472502;8.328024864196777;3.6108620166778564;85.53784942626953
78;1673389382.3649192;47.130642599999995;7.24062;8.046000480651855;1673389382.3483257;8.082318305969238;6.792349338531494;85.385498046875
79;1673389382.56164;47.130642699999996;7.24062;8.248000144958496;1673389382.545012;7.80152702331543;7.873461723327637;85.59685516357422
80;1673389382.768717;47.130642699999996;7.24062;8.447999954223633;1673389382.7531073;7.319711685180664;3.9498231410980225;85.61304473876953
81;1673389382.9714842;47.130642599999995;7.24062;8.64900016784668;1673389382.9568455;7.296146869659424;6.100061893463135;85.59043884277344
82;1673389383.1847966;47.1306425;7.24062;8.848000526428223;1673389383.170151;8.058423042297363;8.24743366241455;85.57208251953125
83;1673389383.4115405;47.1306425;7.24062;9.045000076293945;1673389383.3846529;8.507365226745605;3.910719871520996;85.2093505859375
84;1673389383.6097646;47.1306425;7.24062;9.23900032043457;1673389383.594576;8.108465194702148;4.518709182739258;84.99810028076172
85;1673389383.7911563;47.1306425;7.24062;9.438000679016113;1673389383.7745607;7.754856109619141;8.143180847167969;85.4364242553711
86;1673389383.9788072;47.130642599999995;7.24062;9.640000343322754;1673389383.9602382;7.326426029205322;4.661965847015381;85.5179214477539
87;1673389384.1712773;47.130642599999995;7.2406201;9.838000297546387;1673389384.1555603;7.182637691497803;4.306293487548828;85.74724578857422
88;1673389384.3757224;47.130642599999995;7.2406201999999995;10.039000511169434;1673389384.3610823;7.78646993637085;8.14189338684082;85.83013153076172
89;1673389384.59017;47.130642599999995;7.2406201999999995;10.253000259399414;1673389384.5725935;8.810904502868652;5.997987747192383;85.47189331054688
90;1673389384.801183;47.130642599999995;7.2406201;10.553000450134277;1673389384.7845604;9.724769592285156;6.449363708496094;84.93719482421875
91;1673389384.9889925;47.1306424;7.24062;10.920000076293945;1673389384.969388;9.096463203430176;8.022475242614746;84.9773941040039
92;1673389385.1961925;47.130642099999996;7.2406197;11.3100004196167;1673389385.1786144;7.594489574432373;8.608335494995117;85.56578063964844
93;1673389385.3818262;47.1306417;7.2406194;11.709000587463379;1673389385.3652368;7.106217861175537;3.5210909843444824;85.58375549316406
94;1673389385.5715148;47.1306413;7.240619199999999;12.109000205993652;1673389385.5549223;6.520565032958984;3.441484212875366;85.52342224121094
95;1673389385.7770374;47.1306411;7.2406191;12.512001037597656;1673389385.761423;6.656436443328857;5.736700534820557;85.9484634399414
96;1673389385.9605365;47.130641;7.2406191;12.915000915527344;1673389385.947793;7.231731414794922;3.4506916999816895;85.86893463134766
97;1673389386.1458538;47.130641;7.240619199999999;13.319000244140625;1673389386.1292086;6.834758758544922;2.297306776046753;85.60742950439453
98;1673389386.3600678;47.1306412;7.2406193;13.726000785827637;1673389386.34153;6.801619052886963;6.837852478027344;85.55403137207031
99;1673389386.575891;47.130641399999995;7.2406194;14.136000633239746;1673389386.5563724;7.137821197509766;5.284134387969971;85.62325286865234
100;1673389386.78998;47.1306417;7.240619499999999;14.547000885009766;1673389386.7694798;7.507538795471191;3.771827459335327;85.7069320678711
101;1673389386.9932303;47.1306418;7.2406196;14.955000877380371;1673389386.9746788;7.742795944213867;7.580104351043701;85.78938293457031
102;1673389387.214718;47.1306419;7.2406197;15.36500072479248;1673389387.1907504;8.119049072265625;7.0565505027771;85.73272705078125
103;1673389387.4580328;47.130641999999995;7.240619799999999;15.770000457763672;1673389387.42573;8.252673149108887;3.885004997253418;85.66455078125
104;1673389387.6389213;47.130642099999996;7.240619799999999;16.18000030517578;1673389387.6174505;7.898144245147705;6.929890155792236;85.55314636230469
105;1673389387.825556;47.1306422;7.240619799999999;16.595001220703125;1673389387.8069892;7.887566089630127;8.16378402709961;85.55997467041016
106;1673389388.0161111;47.1306422;7.240619799999999;17.012001037597656;1673389388.0013568;7.632724761962891;4.435969829559326;85.61735534667969
107;1673389388.2033262;47.1306422;7.240619799999999;17.420000076293945;1673389388.187701;7.5546088218688965;5.177921772003174;85.57762908935547
108;1673389388.3871155;47.130642099999996;7.240619799999999;17.83100128173828;1673389388.3705246;7.614857196807861;7.8839826583862305;85.52741241455078
109;1673389388.577816;47.130642099999996;7.2406197;18.236000061035156;1673389388.5601974;7.585773468017578;4.092806816101074;85.51603698730469
110;1673389388.7851763;47.130641999999995;7.2406197;18.642000198364258;1673389388.7675996;7.568122386932373;4.03292989730835;85.6061782836914
111;1673389389.0003772;47.130642099999996;7.2406197;19.051000595092773;1673389388.9818444;7.653299331665039;7.9186835289001465;85.59648895263672
112;1673389389.2093234;47.1306422;7.2406197;19.461000442504883;1673389389.1921828;7.711813449859619;5.2434539794921875;85.55690002441406
113;1673389389.3990347;47.1306422;7.2406197;19.8700008392334;1673389389.3795192;7.550003528594971;4.032476902008057;85.66178131103516
114;1673389389.586877;47.1306422;7.2406197;20.279001235961914;1673389389.5691557;7.479029178619385;7.174172401428223;85.60423278808594
115;1673389389.780241;47.1306422;7.2406197;20.689001083374023;1673389389.7607255;7.691082954406738;6.289364337921143;85.42560577392578
116;1673389389.9882605;47.1306423;7.2406197;21.088001251220703;1673389389.9714408;7.677558422088623;3.522475004196167;85.53871154785156
117;1673389390.180907;47.1306424;7.2406196;21.487001419067383;1673389390.1623616;7.540445804595947;6.9678497314453125;85.5567855834961
118;1673389390.386245;47.1306425;7.2406196;21.892000198364258;1673389390.3716078;7.731913089752197;7.945394039154053;85.53298950195312
119;1673389390.6033971;47.130642599999995;7.2406196;22.292001724243164;1673389390.5848281;7.720214366912842;4.027136325836182;85.51792907714844
120;1673389390.84875;47.1306425;7.240619499999999;22.690000534057617;1673389390.8110578;7.460618495941162;6.233390808105469;85.67279052734375
121;1673389391.017255;47.1306424;7.240619499999999;23.09600067138672;1673389391.0055091;7.544243335723877;7.771275997161865;85.61492156982422
122;1673389391.196933;47.1306424;7.240619499999999;23.4950008392334;1673389391.1813138;7.596202373504639;3.977984666824341;85.5465316772461
123;1673389391.4076393;47.1306424;7.2406194;23.891000747680664;1673389391.3891096;7.533885955810547;4.611489772796631;85.64362335205078
124;1673389391.5967617;47.1306424;7.2406194;24.292001724243164;1673389391.5811496;7.443087100982666;8.527867317199707;85.6864242553711
125;1673389391.802342;47.1306425;7.2406193;24.69900131225586;1673389391.7828193;7.541591167449951;5.0788702964782715;85.45126342773438
126;1673389392.019634;47.1306425;7.2406193;25.100000381469727;1673389392.003603;7.3773417472839355;4.322147846221924;85.5744857788086
127;1673389392.208569;47.1306425;7.2406193;25.50200080871582;1673389392.1938477;7.421824932098389;8.006826400756836;85.68484497070312
128;1673389392.3921506;47.1306425;7.2406193;25.90300178527832;1673389392.3765342;7.634671688079834;5.972984790802002;85.5680160522461
129;1673389392.5843477;47.130642599999995;7.2406194;26.30000114440918;1673389392.5677545;7.572346210479736;3.7427847385406494;85.53196716308594
130;1673389392.77681;47.130642599999995;7.2406194;26.705001831054688;1673389392.7543633;7.485517978668213;7.59779691696167;85.61576080322266
131;1673389392.9720013;47.130642699999996;7.2406193;27.108001708984375;1673389392.9546998;7.632024765014648;7.42136287689209;85.49472045898438
132;1673389393.164227;47.130642699999996;7.2406193;27.509000778198242;1673389393.1475837;7.669816970825195;3.8148107528686523;85.36502838134766
133;1673389393.3786962;47.130642599999995;7.2406193;27.907001495361328;1673389393.3619804;7.5186076164245605;6.7069411277771;85.57958221435547
134;1673389393.5966237;47.1306425;7.2406194;28.305002212524414;1673389393.5810082;7.561350345611572;7.916879653930664;85.62732696533203
135;1673389393.8134375;47.1306425;7.2406194;28.69500160217285;1673389393.7996132;7.759371757507324;3.853781223297119;85.52940368652344
136;1673389393.9818463;47.1306424;7.2406194;29.08700180053711;1673389393.9681826;7.391932487487793;5.490109920501709;85.59632873535156
137;1673389394.1745434;47.1306424;7.2406194;29.48400115966797;1673389394.157953;7.466060638427734;8.254316329956055;85.66157531738281
138;1673389394.386264;47.1306425;7.2406194;29.882001876831055;1673389394.3667572;7.610558986663818;5.230419158935547;85.53839874267578
139;1673389394.5780072;47.1306424;7.2406194;30.27800178527832;1673389394.561395;7.475534915924072;4.206712245941162;85.52881622314453
140;1673389394.7726915;47.1306423;7.240619499999999;30.673002243041992;1673389394.753172;7.541249752044678;7.049434661865234;85.64082336425781
141;1673389394.9700253;47.1306423;7.240619499999999;31.06800079345703;1673389394.9534347;7.590813159942627;6.751882553100586;85.71920013427734
142;1673389395.19861;47.1306423;7.240619499999999;31.459001541137695;1673389395.1810436;7.825332164764404;3.384843587875366;85.44886779785156
143;1673389395.4031823;47.1306423;7.240619499999999;31.85900115966797;1673389395.386591;7.480709552764893;6.89262056350708;85.3461685180664
144;1673389395.5892465;47.1306425;7.240619499999999;32.26100158691406;1673389395.5736256;7.382570743560791;7.870274543762207;85.59263610839844
145;1673389395.7933855;47.1306425;7.240619499999999;32.66400146484375;1673389395.7766776;7.406443119049072;4.048562049865723;85.54967498779297
146;1673389395.9936926;47.1306425;7.240619499999999;33.0629997253418;1673389395.9775643;7.4027934074401855;6.274414539337158;85.57061767578125
147;1673389396.1898012;47.1306425;7.240619499999999;33.461002349853516;1673389396.1770647;7.521935939788818;8.232826232910156;85.66407012939453
148;1673389396.393103;47.1306424;7.2406196;33.85300064086914;1673389396.3675642;7.676502227783203;4.2649946212768555;85.64926147460938
149;1673389396.608098;47.1306424;7.2406196;34.25100326538086;1673389396.588565;7.667993545532227;4.886015892028809;85.50231170654297
150;1673389396.8186135;47.1306425;7.2406196;34.6510009765625;1673389396.8039596;7.546403408050537;8.449065208435059;85.56463623046875
151;1673389397.032182;47.130642599999995;7.2406197;35.05000305175781;1673389397.0150514;7.679792404174805;5.540410995483398;85.67167663574219
152;1673389397.2217069;47.130642599999995;7.2406197;35.44900131225586;1673389397.2084851;7.561761856079102;4.544209003448486;85.6186752319336
153;1673389397.4138632;47.1306425;7.2406197;35.85000228881836;1673389397.3963144;7.540664196014404;7.723852634429932;85.54930114746094
154;1673389397.6263196;47.130642599999995;7.2406197;36.25200271606445;1673389397.6096835;7.585261821746826;6.2960524559021;85.59133911132812
155;1673389397.8142774;47.130642599999995;7.2406197;36.64500045776367;1673389397.7967079;7.45200252532959;3.855024814605713;85.58556365966797
156;1673389398.0046215;47.130642599999995;7.240619799999999;37.04500198364258;1673389397.989005;7.572282791137695;7.051748275756836;85.53602600097656
157;1673389398.2055213;47.130642699999996;7.240619799999999;37.44200134277344;1673389398.1869786;7.5747971534729;7.83593225479126;85.48181915283203
158;1673389398.4112923;47.1306428;7.240619799999999;37.8380012512207;1673389398.3864532;7.662506103515625;4.2376322746276855;85.66019439697266
159;1673389398.604196;47.130642699999996;7.2406198999999996;38.23500061035156;1673389398.590532;7.5994720458984375;6.1238322257995605;85.63558959960938
160;1673389398.7925909;47.130642699999996;7.2406198999999996;38.63300323486328;1673389398.7808735;7.655680179595947;8.013614654541016;85.524658203125
161;1673389398.9809017;47.130642599999995;7.2406198999999996;39.02400207519531;1673389398.9652417;7.716293811798096;4.191205024719238;85.50103759765625
162;1673389399.183315;47.130642599999995;7.2406198999999996;39.41400146484375;1673389399.1686935;7.647428512573242;4.748076438903809;85.6266098022461
163;1673389399.386513;47.130642599999995;7.2406198999999996;39.810001373291016;1673389399.3699095;7.660615921020508;8.74638843536377;85.68865966796875
164;1673389399.5850513;47.130642699999996;7.2406198999999996;40.20600128173828;1673389399.570375;7.7315168380737305;5.27215576171875;85.51678466796875
165;1673389399.7872698;47.130642699999996;7.2406198999999996;40.60200119018555;1673389399.7696476;7.68527364730835;4.323927879333496;85.60159301757812
166;1673389399.9819574;47.130642599999995;7.2406198999999996;40.99800109863281;1673389399.9663107;7.528355121612549;8.064244270324707;85.6300048828125
167;1673389400.1775124;47.130642599999995;7.2406198999999996;41.39600372314453;1673389400.1617618;7.654799938201904;6.531925678253174;85.49362182617188
168;1673389400.3824935;47.130642599999995;7.2406198999999996;41.78700256347656;1673389400.3588305;7.566298007965088;3.474555015563965;85.57601928710938
169;1673389400.5779114;47.130642599999995;7.240619799999999;42.18600082397461;1673389400.5593255;7.517633438110352;7.690127372741699;85.61083221435547
170;1673389400.7682996;47.130642699999996;7.240619799999999;42.58100128173828;1673389400.7526724;7.805759906768799;7.286962032318115;85.55254364013672
171;1673389400.9589653;47.130642699999996;7.240619799999999;42.97300338745117;1673389400.9431899;7.837028503417969;4.18834924697876;85.48064422607422
172;1673389401.1649134;47.130642599999995;7.240619799999999;43.37000274658203;1673389401.1473582;7.592555522918701;6.368933200836182;85.53385162353516
173;1673389401.3722227;47.130642599999995;7.2406197;43.77000045776367;1673389401.355632;7.397469997406006;8.104254722595215;85.68737030029297
174;1673389401.5675583;47.130642599999995;7.2406197;44.163002014160156;1673389401.550966;7.365002632141113;4.263890266418457;85.53376770019531
175;1673389401.7681203;47.1306425;7.2406197;44.55600357055664;1673389401.7515292;7.157431602478027;4.426589488983154;85.54427337646484
176;1673389401.9567382;47.130642599999995;7.2406197;44.952003479003906;1673389401.9401386;7.307571887969971;8.361230850219727;85.6002426147461
177;1673389402.1545482;47.130642599999995;7.2406196;45.34700393676758;1673389402.1406908;7.415832042694092;5.756798267364502;85.52783203125
178;1673389402.355577;47.130642599999995;7.2406196;45.74400329589844;1673389402.3399715;7.6055192947387695;3.956838607788086;85.43223571777344
179;1673389402.5605843;47.130642599999995;7.2406196;46.13800048828125;1673389402.543994;7.442745685577393;7.179038047790527;85.595947265625
180;1673389402.7639897;47.130642599999995;7.2406196;46.53200149536133;1673389402.7473986;7.470023155212402;7.609047889709473;85.69781494140625
181;1673389402.9582057;47.130642599999995;7.2406196;46.92000198364258;1673389402.9445581;7.314018249511719;3.8819782733917236;85.482666015625
182;1673389403.1554532;47.130642599999995;7.240619499999999;47.31500244140625;1673389403.1398394;7.147376537322998;6.247523784637451;85.4366455078125
183;1673389403.3578951;47.130642699999996;7.240619499999999;47.711002349853516;1673389403.3412666;7.142449855804443;8.821237564086914;85.61742401123047
184;1673389403.5538511;47.1306428;7.240619499999999;48.09800338745117;1673389403.5362222;7.427628993988037;4.732735633850098;85.62342071533203
185;1673389403.768624;47.130642699999996;7.240619499999999;48.441001892089844;1673389403.75008;7.376499652862549;5.531394958496094;85.5301742553711
186;1673389403.9760442;47.130642699999996;7.2406196;48.733001708984375;1673389403.9604287;7.4213433265686035;8.27817153930664;85.27608489990234
187;1673389404.189357;47.1306428;7.2406197;48.970001220703125;1673389404.1747172;7.621325492858887;4.843751430511475;85.27233123779297
188;1673389404.4333632;47.1306428;7.2406198999999996;49.169002532958984;1673389404.4161918;7.561180591583252;3.8230419158935547;85.21165466308594
189;1673389404.6415691;47.1306429;7.24062;49.340003967285156;1673389404.617605;8.211706161499023;8.114192008972168;85.48538970947266
190;1673389404.855738;47.1306429;7.240619799999999;49.496002197265625;1673389404.8440244;23.503036499023438;20.242053985595703;90.07310485839844
191;1673389405.0442846;47.130641999999995;7.2406182;49.64200210571289;1673389405.029116;33.873985290527344;36.277286529541016;102.66329193115234
192;1673389405.2524867;47.130639599999995;7.240613799999999;49.76100158691406;1673389405.2324195;34.380462646484375;48.904441833496094;112.51496124267578
193;1673389405.4336054;47.1306349;7.240606;49.86100387573242;1673389405.417981;24.58380126953125;56.29716110229492;120.31114959716797
194;1673389405.6173744;47.1306279;7.2405949;49.9160041809082;1673389405.6027184;7.151648998260498;59.82194137573242;131.5658721923828
195;1673389405.8016372;47.1306193;7.2405813;49.93400192260742;1673389405.785985;-10.867269515991211;54.78996658325195;142.64369201660156
196;1673389405.992787;47.130609299999996;7.240565999999999;49.93100357055664;1673389405.977169;-23.184947967529297;47.87296676635742;153.9678192138672
197;1673389406.1994913;47.130598199999994;7.240549499999999;49.92400360107422;1673389406.1818593;-34.85139083862305;43.634910583496094;163.17678833007812
198;1673389406.3957446;47.130586;7.240531799999999;49.915000915527344;1673389406.3781445;-43.84740447998047;40.223663330078125;174.40380859375
199;1673389406.5881352;47.1305729;7.2405127;49.8900032043457;1673389406.5725238;-48.4080810546875;32.1933708190918;-172.60934448242188
200;1673389406.7857063;47.1305591;7.240492499999999;49.836002349853516;1673389406.769117;-45.385154724121094;24.4523983001709;-165.2328338623047
201;1673389406.9828057;47.1305451;7.2404717;49.781002044677734;1673389406.967197;-44.607444763183594;19.082740783691406;-159.7484893798828
202;1673389407.185991;47.130530799999995;7.2404505;49.73400115966797;1673389407.1664453;-46.65248107910156;14.187267303466797;-152.4330596923828
203;1673389407.38447;47.1305163;7.2404288;49.69900131225586;1673389407.3639321;-47.526241302490234;9.393866539001465;-144.682861328125
204;1673389407.5761483;47.1305018;7.2404069;49.68100357055664;1673389407.5585716;-46.62664794921875;4.093358993530273;-137.76210021972656
205;1673389407.7765017;47.1304873;7.2403847;49.67500305175781;1673389407.758934;-47.073143005371094;-1.1995829343795776;-132.02928161621094
206;1673389407.9761183;47.1304727;7.2403625;49.672000885009766;1673389407.9585583;-48.32945251464844;-6.591089248657227;-131.75535583496094
207;1673389408.1813776;47.1304576;7.2403407;49.6670036315918;1673389408.1646245;-47.02317428588867;-5.293039321899414;-135.22479248046875
208;1673389408.3935342;47.1304422;7.2403192;49.669002532958984;1673389408.3701084;-47.456424713134766;-4.078262805938721;-136.7779083251953
209;1673389408.5801861;47.1304266;7.2402980999999995;49.682003021240234;1673389408.5655577;-47.82959747314453;-2.7659060955047607;-137.6177978515625
210;1673389408.8066196;47.1304106;7.2402771999999995;49.698001861572266;1673389408.7691479;-48.35108947753906;-1.2513445615768433;-138.2891082763672
211;1673389409.0105188;47.1303945;7.2402564;49.72300338745117;1673389408.9939082;-49.06511306762695;-0.10241365432739258;-138.69654846191406
212;1673389409.239262;47.130378199999996;7.2402355;49.74700164794922;1673389409.2246134;-49.62468719482422;0.450156569480896;-138.78628540039062
213;1673389409.4542084;47.130361699999995;7.2402146;49.75600051879883;1673389409.434145;-49.40782165527344;0.7353194952011108;-138.62107849121094
214;1673389409.6051195;47.1303451;7.2401936;49.76400375366211;1673389409.5904799;-48.37790298461914;0.7745265364646912;-138.4636993408203
215;1673389409.7812405;47.1303286;7.2401724;49.77400207519531;1673389409.7646527;-47.73710632324219;0.7698704600334167;-138.276123046875
216;1673389409.969785;47.130311999999996;7.2401512;49.785003662109375;1673389409.952216;-47.916805267333984;0.587014377117157;-138.04428100585938
217;1673389410.1565983;47.130295499999995;7.24013;49.80000305175781;1673389410.1394558;-48.46747589111328;0.533022403717041;-137.91236877441406
218;1673389410.3590612;47.1302789;7.2401086999999995;49.81500244140625;1673389410.342915;-48.75931930541992;0.5128121376037598;-137.79766845703125
219;1673389410.5946286;47.1302623;7.2400872;49.82600402832031;1673389410.5770218;-48.71092987060547;0.46847304701805115;-137.67959594726562
220;1673389410.8239899;47.130245699999996;7.2400657;49.82600402832031;1673389410.803389;-48.208946228027344;0.42322391271591187;-137.52774047851562
221;1673389411.0432951;47.1302291;7.2400440999999995;49.833003997802734;1673389411.0247312;-47.74179458618164;0.319223016500473;-137.39129638671875
222;1673389411.221112;47.1302126;7.2400224;49.842002868652344;1673389411.205496;-48.3220329284668;0.40690165758132935;-137.39840698242188
223;1673389411.435192;47.130196;7.2400006999999995;49.85000228881836;1673389411.4098098;-48.77854537963867;0.3169351816177368;-137.2568817138672
224;1673389411.6308086;47.130179399999996;7.2399789;49.855003356933594;1673389411.608363;-48.650856018066406;0.34720516204833984;-137.20028686523438
225;1673389411.8355412;47.130162899999995;7.2399571;49.85400390625;1673389411.814714;-48.249176025390625;0.3312810957431793;-137.1188201904297
226;1673389412.0317073;47.1301463;7.2399352;49.84700393676758;1673389412.0190167;-47.93317413330078;0.2933439314365387;-137.0599822998047
227;1673389412.2434113;47.1301299;7.2399134;49.842002868652344;1673389412.2042842;-47.78120803833008;0.30369701981544495;-137.00201416015625
228;1673389412.425324;47.1301135;7.239891399999999;49.842002868652344;1673389412.4087646;-47.98252868652344;0.30636686086654663;-136.98919677734375
229;1673389412.6139975;47.1300971;7.239869499999999;49.84600067138672;1673389412.5992153;-48.40928268432617;0.2539753019809723;-136.92581176757812
230;1673389412.8311348;47.1300807;7.2398475;49.84700393676758;1673389412.8164854;-48.76945877075195;0.3355031907558441;-136.93572998046875
231;1673389413.0556157;47.1300643;7.239825499999999;49.84600067138672;1673389413.0399518;-48.578712463378906;0.22499428689479828;-136.85943603515625
232;1673389413.230682;47.1300479;7.2398035;49.84800338745117;1673389413.2150629;-48.34019470214844;0.2975900173187256;-136.8871612548828
233;1673389413.4302063;47.130031599999995;7.2397814;49.845001220703125;1673389413.4174666;-48.307559967041016;0.27740582823753357;-136.843505859375
234;1673389413.6209376;47.130015199999995;7.2397592;49.840003967285156;1673389413.6033716;-48.19416809082031;0.24038633704185486;-136.82223510742188
235;1673389413.812452;47.1299989;7.239737099999999;49.8390007019043;1673389413.7919652;-48.17507553100586;0.19552966952323914;-136.79823303222656
236;1673389414.0163763;47.1299826;7.2397149999999995;49.84100341796875;1673389413.9988089;-48.37200927734375;0.22396381199359894;-136.8007049560547
237;1673389414.2611694;47.1299663;7.239692799999999;49.84300231933594;1673389414.244544;-48.48956298828125;0.19186469912528992;-136.78741455078125
238;1673389414.447933;47.12995;7.239670599999999;49.84400177001953;1673389414.4321046;-48.446346282958984;0.21294671297073364;-136.80128479003906
239;1673389414.6448362;47.129933699999995;7.2396484;49.84100341796875;1673389414.6214035;-48.34791946411133;0.2505631148815155;-136.82017517089844
240;1673389414.8528204;47.1299174;7.2396262;49.836002349853516;1673389414.8319635;-48.01293182373047;0.23082076013088226;-136.77438354492188
241;1673389415.0369856;47.1299011;7.239604;49.833003997802734;1673389415.0223284;-47.910213470458984;0.265369713306427;-136.79534912109375
242;1673389415.222009;47.1298848;7.2395818;49.83100128173828;1673389415.20736;-47.89878463745117;0.2507503628730774;-136.76405334472656
243;1673389415.4233522;47.129868599999995;7.2395597;49.83400344848633;1673389415.4087126;-48.03544235229492;0.25221914052963257;-136.76144409179688
244;1673389415.6219418;47.129852299999996;7.2395375;49.8390007019043;1673389415.604374;-48.33952713012695;0.29340142011642456;-136.77035522460938
245;1673389415.8036;47.1298361;7.2395153;49.84100341796875;1673389415.7889605;-48.36603546142578;0.2325579822063446;-136.7289276123047
246;1673389415.9971745;47.1298199;7.2394931;49.842002868652344;1673389415.9805677;-48.30640411376953;0.2710277736186981;-136.78048706054688
247;1673389416.1869488;47.129803599999995;7.2394709;49.84400177001953;1673389416.1713321;-48.17945098876953;0.3094574213027954;-136.78530883789062
248;1673389416.3772345;47.1297874;7.239448599999999;49.84700393676758;1673389416.360609;-48.15805435180664;0.23491837084293365;-136.73394775390625
249;1673389416.5713575;47.1297711;7.239426399999999;49.85000228881836;1673389416.555741;-48.19270324707031;0.3112305700778961;-136.7715606689453
250;1673389416.7670882;47.129754899999995;7.2394042;49.849002838134766;1673389416.7499294;-48.260684967041016;0.3179975748062134;-136.74562072753906
251;1673389416.9605496;47.129738599999996;7.2393819;49.85400390625;1673389416.9424236;-48.1779899597168;0.24070225656032562;-136.7437744140625
252;1673389417.1689754;47.1297224;7.239359599999999;49.86000061035156;1673389417.1528277;-48.20226287841797;0.2986196279525757;-136.7571563720703
253;1673389417.4063137;47.1297061;7.2393373;49.86600112915039;1673389417.390661;-48.312503814697266;0.22530722618103027;-136.74343872070312
254;1673389417.6008599;47.129689899999995;7.2393149999999995;49.867000579833984;1673389417.5862186;-48.236419677734375;0.22083161771297455;-136.725341796875
255;1673389417.7915528;47.129673499999996;7.2392927;49.868003845214844;1673389417.7758205;-47.99013137817383;0.3241802155971527;-136.77572631835938
256;1673389417.987465;47.1296572;7.2392704;49.87000274658203;1673389417.972847;-47.87051773071289;0.36213889718055725;-136.75636291503906
257;1673389418.1797738;47.1296409;7.239248099999999;49.87600326538086;1673389418.1631832;-47.978126525878906;0.35443195700645447;-136.74620056152344
258;1673389418.3783448;47.1296247;7.2392258;49.88200378417969;1673389418.3588006;-48.229190826416016;0.2901613414287567;-136.70680236816406
259;1673389418.587359;47.129608399999995;7.2392034999999995;49.88800048828125;1673389418.5696478;-48.326751708984375;0.3284279406070709;-136.73162841796875
260;1673389418.7834427;47.129592099999996;7.2391811;49.89400100708008;1673389418.7671194;-48.14582443237305;0.21194516122341156;-136.68824768066406
261;1673389418.981588;47.1295758;7.239158799999999;49.9010009765625;1673389418.9620616;-48.093406677246094;0.2516213357448578;-136.7051239013672
262;1673389419.1840868;47.1295595;7.2391365;49.90900421142578;1673389419.1675045;-48.2230339050293;0.3122991919517517;-136.7093048095703
263;1673389419.387393;47.1295431;7.2391141;49.9170036315918;1673389419.3698244;-48.33930206298828;0.42865172028541565;-136.73626708984375
264;1673389419.595406;47.1295268;7.2390918;49.92500305175781;1673389419.573935;-48.26296615600586;0.39375224709510803;-136.7041473388672
265;1673389419.7889652;47.1295104;7.2390693;49.93000411987305;1673389419.7733452;-48.191043853759766;0.3706713914871216;-136.69107055664062
266;1673389419.995386;47.129494099999995;7.239046999999999;49.93600082397461;1673389419.977817;-48.07957077026367;0.33735156059265137;-136.66062927246094
267;1673389420.1908412;47.1294778;7.2390247;49.94000244140625;1673389420.1762002;-48.25154113769531;0.4183499217033386;-136.67593383789062
268;1673389420.3835678;47.1294615;7.2390023;49.94600296020508;1673389420.3688176;-48.285179138183594;0.34995996952056885;-136.63296508789062
269;1673389420.564449;47.1294451;7.2389798999999995;49.94900131225586;1673389420.5482845;-48.19056701660156;0.3433274030685425;-136.6239013671875
270;1673389420.7574344;47.1294288;7.238957399999999;49.95500183105469;1673389420.742759;-48.052310943603516;0.17366918921470642;-136.58731079101562
271;1673389420.9848006;47.1294125;7.238935;49.96000289916992;1673389420.96528;-48.26447677612305;0.8572593927383423;-136.7954559326172
272;1673389421.1824837;47.129396199999995;7.2389125;49.9630012512207;1673389421.1594467;-48.47300338745117;0.6734013557434082;-136.58523559570312
273;1673389421.4023573;47.12938;7.238889899999999;49.9640007019043;1673389421.3779573;-47.991519927978516;-0.12098313122987747;-136.45458984375
274;1673389421.6296358;47.1293636;7.238867399999999;49.965003967285156;1673389421.615003;-48.182125091552734;0.2977800667285919;-136.6566619873047
275;1673389421.8378844;47.1293473;7.238844899999999;49.96800231933594;1673389421.7967901;-48.31216049194336;0.24925772845745087;-136.5978546142578
276;1673389421.9972734;47.129331;7.2388224;49.97100067138672;1673389421.9834647;-48.22700500488281;0.26439380645751953;-136.59620666503906
277;1673389422.1737275;47.1293146;7.2387998;49.970001220703125;1673389422.1565263;-48.103126525878906;0.3343047499656677;-136.62734985351562
278;1673389422.3605804;47.129298399999996;7.2387773;49.970001220703125;1673389422.3439877;-48.009342193603516;0.40554389357566833;-136.6444549560547
279;1673389422.5641797;47.1292821;7.2387548;49.97200393676758;1673389422.546541;-47.94948196411133;0.1060217097401619;-136.52174377441406
280;1673389422.769085;47.1292658;7.2387323;49.97600173950195;1673389422.7519727;-47.514957427978516;0.4072752594947815;-136.61643981933594
281;1673389422.98019;47.1292496;7.238709999999999;50.005001068115234;1673389422.964279;-39.587955474853516;-0.0018623222131282091;-136.34239196777344
282;1673389423.1708887;47.129233899999996;7.2386884;50.03200149536133;1673389423.1561663;-27.402549743652344;0.5899975299835205;-136.57899475097656
283;1673389423.3724813;47.129219199999994;7.2386683;50.0420036315918;1673389423.3553555;-12.368861198425293;0.5128170251846313;-136.08526611328125
284;1673389423.5757382;47.1292061;7.2386503;50.0410041809082;1673389423.558613;-2.7881789207458496;1.0028446912765503;-136.1271514892578
285;1673389423.7768936;47.129194999999996;7.2386351;50.03600311279297;1673389423.7606804;3.9312222003936768;0.6928637027740479;-136.05531311035156
286;1673389423.984924;47.129185799999995;7.238622599999999;50.0260009765625;1673389423.9590075;8.076683044433594;3.0805814266204834;-136.87509155273438
287;1673389424.1892219;47.129178499999995;7.2386126;50.0160026550293;1673389424.171655;7.103059768676758;7.498586177825928;-140.00387573242188
288;1673389424.3922994;47.1291729;7.2386045999999995;50.01400375366211;1673389424.3706195;4.896650791168213;-2.3063278198242188;-138.3719940185547
289;1673389424.6461496;47.1291686;7.2385984;50.022003173828125;1673389424.6187913;-3.074770927429199;1.0273252725601196;-137.74635314941406
290;1673389424.8408575;47.1291654;7.2385937;50.03600311279297;1673389424.827079;-7.782045841217041;-2.788288116455078;-136.03390502929688
291;1673389425.0120301;47.1291626;7.2385898;50.051002502441406;1673389424.9983535;-10.04531192779541;3.546395778656006;-137.22401428222656
292;1673389425.1831849;47.1291602;7.2385864;50.07100296020508;1673389425.1705236;-11.353618621826172;1.7058522701263428;-136.7582550048828
293;1673389425.3662724;47.129157899999996;7.2385834;50.0880012512207;1673389425.3506544;-11.647453308105469;-0.3361373245716095;-136.21812438964844
294;1673389425.5548158;47.1291558;7.2385806;50.10000228881836;1673389425.5391986;-13.870415687561035;-1.4568166732788086;-135.81964111328125
295;1673389425.766266;47.129153599999995;7.2385777;50.15200424194336;1673389425.7455626;-33.72751235961914;-0.5242066383361816;-137.13819885253906
296;1673389425.9974058;47.1291507;7.2385737;50.24100112915039;1673389425.979838;-30.95111656188965;-0.38079434633255005;-136.87161254882812
297;1673389426.2057607;47.1291473;7.2385689;50.38200378417969;1673389426.1862416;-16.515106201171875;2.622441530227661;-137.4241943359375
298;1673389426.3991277;47.129143899999995;7.238563999999999;50.61000061035156;1673389426.3824377;-15.70952320098877;3.2675631046295166;-137.57498168945312
299;1673389426.5968366;47.1291404;7.2385591;50.923004150390625;1673389426.5782924;-27.18450355529785;1.1178488731384277;-137.10568237304688
300;1673389426.7855535;47.129135999999995;7.238552899999999;51.30600357055664;1673389426.7635474;-49.775245666503906;-1.3883839845657349;-136.0988006591797
301;1673389426.9936986;47.129129999999996;7.2385448;51.665000915527344;1673389426.9771194;-50.028907775878906;-2.6320695877075195;-135.61685180664062
302;1673389427.1865046;47.1291225;7.2385348;51.993003845214844;1673389427.169326;-48.016754150390625;0.1688932180404663;-136.5539093017578
303;1673389427.404403;47.1291138;7.2385231;52.310001373291016;1673389427.3898199;-45.65636444091797;0.27968838810920715;-136.09507751464844
304;1673389427.6232557;47.129104299999995;7.2385101999999995;52.61000061035156;1673389427.6066625;-41.982627868652344;1.6177704334259033;-136.9586639404297
305;1673389427.8226147;47.1290944;7.2384965999999995;52.90800094604492;1673389427.8049414;-38.9120979309082;1.170561671257019;-136.39553833007812
306;1673389428.022478;47.1290841;7.2384824;53.21600341796875;1673389428.0036852;-36.42426300048828;1.0977418422698975;-136.70053100585938
307;1673389428.203859;47.1290737;7.2384680999999995;53.531002044677734;1673389428.1901934;-34.239585876464844;1.0806810855865479;-136.608154296875
308;1673389428.381643;47.1290633;7.238453799999999;53.86100387573242;1673389428.3664715;-33.31694412231445;0.9258832335472107;-136.70074462890625
309;1673389428.585842;47.1290531;7.238439499999999;54.20500183105469;1673389428.5657842;-32.502716064453125;0.8323129415512085;-136.75411987304688
310;1673389428.7861419;47.129042999999996;7.2384254;54.557003021240234;1673389428.771903;-32.252113342285156;0.8178789019584656;-136.88172912597656
311;1673389428.9925468;47.1290331;7.2384115;54.9170036315918;1673389428.9744387;-32.42048263549805;0.82362300157547;-136.96531677246094
312;1673389429.177141;47.1290232;7.2383977999999995;55.28400421142578;1673389429.160002;-32.73017883300781;0.8617659211158752;-137.0020294189453
313;1673389429.381599;47.1290133;7.238384099999999;55.66100311279297;1673389429.3644683;-33.1444091796875;0.7249612808227539;-136.9696502685547
314;1673389429.5769825;47.129003499999996;7.238370499999999;56.04500198364258;1673389429.5602047;-33.602806091308594;0.483745813369751;-136.9366455078125
315;1673389429.8002539;47.128993699999995;7.238356899999999;56.435001373291016;1673389429.7703395;-33.92208480834961;0.4381197988986969;-136.90928649902344
316;1673389430.0184355;47.128983899999994;7.2383434;56.823001861572266;1673389430.0028186;-34.302345275878906;0.37964940071105957;-136.8772430419922
317;1673389430.204406;47.1289741;7.2383299999999995;57.21200180053711;1673389430.1926835;-34.605140686035156;0.532045304775238;-136.90040588378906
318;1673389430.4266496;47.1289642;7.2383163999999995;57.605003356933594;1673389430.4022474;-34.655582427978516;0.660900890827179;-136.935791015625
319;1673389430.5879698;47.128954199999995;7.2383028;57.99900436401367;1673389430.5747344;-34.645328521728516;0.9561604857444763;-136.995361328125
320;1673389430.7656937;47.1289443;7.2382892;58.39200210571289;1673389430.7508466;-34.6579704284668;0.9006039500236511;-136.9505615234375
321;1673389430.9774091;47.1289343;7.2382756;58.78900146484375;1673389430.958862;-34.66421890258789;0.8977265954017639;-136.95750427246094
322;1673389431.1759336;47.1289243;7.2382618999999995;59.18700408935547;1673389431.1593344;-34.50049591064453;0.807647168636322;-136.87872314453125
323;1673389431.3692281;47.1289143;7.238248199999999;59.58400344848633;1673389431.3536088;-34.42866516113281;0.8132970929145813;-136.902099609375
324;1673389431.5614214;47.128904399999996;7.2382345;59.97600173950195;1673389431.5428672;-34.42695236206055;0.6517147421836853;-136.89292907714844
325;1673389431.7984514;47.1288944;7.2382208;60.368003845214844;1673389431.7838109;-34.36442565917969;0.8560807704925537;-136.93064880371094
326;1673389431.977599;47.1288844;7.238207;60.76400375366211;1673389431.962926;-34.341739654541016;0.7852434515953064;-136.94583129882812
327;1673389432.1662893;47.1288744;7.2381931999999995;61.163002014160156;1673389432.149686;-34.30762481689453;0.6750627160072327;-136.95242309570312
328;1673389432.3603537;47.1288644;7.238179499999999;61.56200408935547;1673389432.3437617;-34.348297119140625;0.7124216556549072;-136.98045349121094
329;1673389432.5920107;47.128854399999994;7.2381658;61.961002349853516;1673389432.5763543;-34.38862991333008;0.5398861169815063;-136.92132568359375
330;1673389432.7847035;47.1288444;7.2381521;62.35900115966797;1673389432.7670267;-34.50062561035156;0.6561464071273804;-136.92889404296875
331;1673389433.0073774;47.128834399999995;7.238138299999999;62.75700378417969;1673389432.99175;-34.42713928222656;0.6302703022956848;-136.9298095703125
332;1673389433.200207;47.1288244;7.2381246;63.150001525878906;1673389433.1834488;-34.38264465332031;0.7877984642982483;-136.9418487548828
333;1673389433.407119;47.128814299999995;7.2381109;63.55000305175781;1673389433.389551;-34.39796447753906;0.900998055934906;-136.93751525878906
334;1673389433.6065745;47.1288043;7.2380971999999995;63.95000457763672;1673389433.5899782;-34.42743682861328;0.8420425057411194;-136.9008331298828
335;1673389433.8049731;47.128794299999996;7.2380834;64.35000610351562;1673389433.7903337;-34.37490463256836;0.8608443737030029;-136.91697692871094
336;1673389434.0045743;47.1287842;7.238069599999999;64.74600219726562;1673389433.9869957;-34.30641174316406;0.8134518265724182;-136.9210205078125
337;1673389434.1982315;47.128774199999995;7.2380558;65.14100646972656;1673389434.1830564;-34.46430206298828;0.7871754765510559;-136.91966247558594
338;1673389434.3994255;47.1287642;7.238042;65.53800201416016;1673389434.3832676;-34.45409393310547;0.6306849122047424;-136.89517211914062
339;1673389434.608469;47.128754199999996;7.238028099999999;65.94100189208984;1673389434.5918725;-34.31575012207031;0.5919104814529419;-136.939697265625
340;1673389434.797341;47.1287442;7.2380143;66.34200286865234;1673389434.7801983;-34.31768035888672;0.6452143788337708;-136.9928436279297
341;1673389434.9878466;47.128734099999996;7.2380005;66.74100494384766;1673389434.9707062;-34.31611251831055;0.6253138184547424;-136.95765686035156
342;1673389435.188232;47.1287242;7.2379866999999996;67.13999938964844;1673389435.1709223;-34.46156311035156;0.677579939365387;-136.97488403320312
343;1673389435.3771777;47.1287142;7.237972999999999;67.53600311279297;1673389435.3615549;-34.41049575805664;0.6618934273719788;-136.94125366210938
344;1673389435.5753226;47.1287041;7.2379593;67.94000244140625;1673389435.5586576;-34.48078918457031;0.7794649004936218;-136.94532775878906
345;1673389435.7841654;47.1286941;7.2379456;68.33800506591797;1673389435.7656114;-34.457008361816406;0.7361822724342346;-136.9403839111328
346;1673389435.9811375;47.1286841;7.237931799999999;68.73400115966797;1673389435.963555;-34.504066467285156;0.7564175128936768;-136.937255859375
347;1673389436.1823962;47.128674;7.237918;69.12800598144531;1673389436.1667693;-34.399105072021484;0.8301681876182556;-136.95274353027344
348;1673389436.376843;47.1286639;7.2379042;69.52200317382812;1673389436.3612301;-34.30605697631836;0.8413278460502625;-136.93191528320312
349;1673389436.5772848;47.128653899999996;7.2378905;69.91699981689453;1673389436.5597146;-34.41155242919922;0.815653920173645;-136.94223022460938
350;1673389436.7924664;47.1286439;7.237876699999999;70.3070068359375;1673389436.776317;-30.221843719482422;0.6025820374488831;-136.80462646484375
351;1673389436.9859276;47.128634299999995;7.2378636;70.66500091552734;1673389436.969333;-15.676521301269531;0.8661914467811584;-136.7952880859375
352;1673389437.1802418;47.1286255;7.2378515;70.98200225830078;1673389437.1665823;-13.060315132141113;1.1060106754302979;-137.0172882080078
353;1673389437.3663929;47.1286176;7.2378408;71.26600646972656;1673389437.350758;-7.304446220397949;1.4940974712371826;-136.96328735351562
354;1673389437.5590842;47.128610699999996;7.2378314999999995;71.50900268554688;1673389437.5434358;-4.611326217651367;2.9942171573638916;-137.03317260742188
355;1673389437.7559304;47.128605;7.2378236;71.71900177001953;1673389437.7412262;-1.3262670040130615;2.764829635620117;-137.03561401367188
356;1673389437.9622858;47.128600399999996;7.237817199999999;71.9050064086914;1673389437.941561;-1.531044363975525;2.915785789489746;-137.99322509765625
357;1673389438.177409;47.128596699999996;7.2378119;72.06900024414062;1673389438.1615674;-3.183830499649048;2.0118908882141113;-137.93812561035156
358;1673389438.3803196;47.1285938;7.2378076;72.21000671386719;1673389438.3637443;-5.023434638977051;1.239516019821167;-137.6949462890625
359;1673389438.585431;47.1285915;7.237804;72.32600402832031;1673389438.567854;-6.57372522354126;4.680212497711182;-136.96737670898438
360;1673389438.8100586;47.1285901;7.237800699999999;72.42900085449219;1673389438.7922783;-2.876706123352051;25.450878143310547;-126.07015228271484
361;1673389439.070158;47.1285901;7.237797;72.4990005493164;1673389439.0574703;-13.569726943969727;23.138994216918945;-115.77637481689453
362;1673389439.2661686;47.1285913;7.2377929;72.54600524902344;1673389439.236872;-15.512847900390625;9.683046340942383;-103.94095611572266
363;1673389439.4783154;47.128593099999996;7.2377883;72.59100341796875;1673389439.4685464;-19.457611083984375;4.926515102386475;-95.25053405761719
364;1673389439.6724126;47.128595399999995;7.237783299999999;72.63200378417969;1673389439.660701;-18.59823226928711;0.003358241403475404;-85.70674896240234
365;1673389439.8414538;47.128598;7.237778199999999;72.66800689697266;1673389439.825836;-17.216320037841797;-6.453516483306885;-76.76105499267578
366;1673389440.034255;47.1286006;7.237772799999999;72.70000457763672;1673389440.0196154;-14.330093383789062;-10.545167922973633;-67.35818481445312
367;1673389440.2186954;47.128603299999995;7.2377673;72.72900390625;1673389440.2030475;-10.358879089355469;-13.216043472290039;-58.334136962890625
368;1673389440.4325085;47.128605799999995;7.2377619;72.7540054321289;1673389440.4178708;-7.451614856719971;-14.75075912475586;-49.244136810302734
369;1673389440.6533637;47.128608;7.2377565;72.7770004272461;1673389440.6348352;-5.398871421813965;-14.475421905517578;-41.34562301635742
370;1673389440.878377;47.128609999999995;7.2377512;72.8010025024414;1673389440.866681;-6.484565258026123;-13.738242149353027;-41.217979431152344
371;1673389441.067919;47.128612;7.237746;72.82600402832031;1673389441.047424;-19.43340301513672;-13.415520668029785;-43.74038314819336
372;1673389441.2681344;47.1286145;7.2377401;72.86700439453125;1673389441.2310295;-42.89127731323242;-8.926682472229004;-45.64351272583008
373;1673389441.4488668;47.128618599999996;7.237732299999999;72.906005859375;1673389441.4313004;-56.067203521728516;-5.333754539489746;-47.477962493896484
374;1673389441.6604295;47.1286251;7.2377213;72.92900085449219;1673389441.645785;-61.180870056152344;-3.821368455886841;-47.6000862121582
375;1673389441.8398736;47.1286342;7.2377071;72.94900512695312;1673389441.8231308;-58.544334411621094;-2.684551954269409;-48.71969985961914
376;1673389442.0224473;47.1286455;7.2376898999999995;72.9590072631836;1673389442.0058541;-57.52363204956055;-1.7297502756118774;-49.299007415771484
377;1673389442.214945;47.1286586;7.2376705999999995;72.96700286865234;1673389442.1973755;-56.75748062133789;-2.0841236114501953;-48.69607162475586
378;1673389442.4095914;47.128673199999994;7.237649599999999;72.96900177001953;1673389442.392443;-56.84157180786133;-3.5112879276275635;-48.23101806640625
379;1673389442.602333;47.128689;7.2376271;72.96100616455078;1673389442.5851293;-55.08308029174805;-4.91343355178833;-47.734073638916016
380;1673389442.8032637;47.128705499999995;7.237603399999999;72.9320068359375;1673389442.786635;-54.803768157958984;-5.498961448669434;-47.54690933227539
381;1673389443.0013955;47.128722599999996;7.2375788;72.875;1673389442.9854364;-45.91157913208008;-4.933619976043701;-48.279563903808594
382;1673389443.2013993;47.128739499999995;7.2375542;72.52200317382812;1673389443.186336;-11.889420509338379;-2.2138681411743164;-50.06281661987305
383;1673389443.3932974;47.1287563;7.237529899999999;71.78900146484375;1673389443.3782172;44.428443908691406;1.4682765007019043;-49.87563705444336
384;1673389443.5927684;47.1287733;7.2375055999999995;70.65299987792969;1673389443.5761528;71.92154693603516;174.59832763671875;120.33628845214844
385;1673389443.795241;47.1287902;7.2374811999999995;69.16699981689453;1673389443.77947;26.962175369262695;-179.37551879882812;122.99784851074219
386;1673389444.0701284;47.1288069;7.2374573;67.32200622558594;1673389444.0570643;9.381453514099121;-177.80654907226562;118.75782012939453
387;1673389444.2472699;47.128823399999995;7.2374339999999995;65.09500122070312;1673389444.2307715;18.038572311401367;-176.19081115722656;118.32926177978516
388;1673389444.442228;47.1288396;7.2374111999999995;62.49800109863281;1673389444.4263117;54.50727844238281;-170.26083374023438;127.19710540771484
389;1673389444.66315;47.1288555;7.2373885;59.548004150390625;1673389444.6484144;57.84119415283203;-15.051862716674805;-76.95197296142578
390;1673389444.9192677;47.1288716;7.2373658;56.20600128173828;1673389444.8742766;-16.29389762878418;-2.0521421432495117;-64.63623046875
391;1673389445.0742345;47.1288876;7.2373436;52.47500228881836;1673389445.0574887;-63.73604965209961;-3.706522226333618;-56.16135787963867
392;1673389445.2594142;47.1289033;7.237321799999999;48.419002532958984;1673389445.2474906;-70.11038208007812;-9.392662048339844;-46.50580978393555
393;1673389445.4393835;47.1289188;7.2373004;44.05000305175781;1673389445.4231825;-33.51152038574219;-3.3566999435424805;-48.78670883178711
394;1673389445.6252844;47.128934099999995;7.2372796;39.30500030517578;1673389445.6121728;37.642818450927734;4.92671537399292;-43.95122146606445
395;1673389445.837254;47.128949299999995;7.2372586;34.165000915527344;1673389445.8172402;77.50118255615234;131.87416076660156;80.37700653076172
396;1673389446.0717177;47.128964499999995;7.2372377;28.731000900268555;1673389446.0572536;66.0898666381836;148.72499084472656;97.64497375488281
397;1673389446.252206;47.128979699999995;7.237216999999999;23.010000228881836;1673389446.2372797;64.01494598388672;35.556549072265625;-10.564528465270996
398;1673389446.4473217;47.1289952;7.237196099999999;16.942001342773438;1673389446.4323184;-7.283600807189941;1.815360188484192;-33.50568389892578
399;1673389446.6393325;47.1290103;7.2371757;10.493000030517578;1673389446.6243887;-57.154083251953125;-17.644325256347656;-23.63640594482422
400;1673389446.8162043;47.129025;7.237156;3.744000196456909;1673389446.8013103;-50.435218811035156;-11.58237361907959;-26.81621742248535
401;1673389447.0374134;47.129032699999996;7.2371441;0.3880000114440918;1673389447.0206735;-4.606647968292236;-6.61389684677124;-30.018604278564453
402;1673389447.2523096;47.1290372;7.2371364;0.7320000529289246;1673389447.2362516;-1.390932321548462;-1.272971749305725;-34.2119026184082
403;1673389447.44514;47.129042899999995;7.2371281;1.037000060081482;1673389447.420276;0.20847494900226593;-2.4442124366760254;-32.746253967285156
404;1673389447.6595752;47.1290481;7.23712;1.2780001163482666;1673389447.6462152;0.5244852304458618;-2.6130995750427246;-32.511436462402344
405;1673389447.8541028;47.1290524;7.237113099999999;1.446000099182129;1673389447.8245974;0.7312259078025818;-3.065591812133789;-32.310604095458984
406;1673389448.106115;47.1290555;7.2371075;1.5630000829696655;1673389448.094246;1.0015910863876343;-3.115652322769165;-32.231597900390625
407;1673389448.2641215;47.129057599999996;7.2371034;1.6460000276565552;1673389448.2474613;1.2838650941848755;-3.1240813732147217;-32.22500991821289
408;1673389448.4453495;47.129059899999994;7.237098199999999;1.7780001163482666;1673389448.4285307;1.358747959136963;-3.2336580753326416;-32.2139892578125
409;1673389448.634329;47.1290605;7.2370959;1.8540000915527344;1673389448.618156;1.6821191310882568;-3.1873550415039062;-32.27088165283203
410;1673389448.8283045;47.129059899999994;7.237095699999999;1.8970000743865967;1673389448.8121629;2.0612332820892334;-3.0924692153930664;-32.36279296875
411;1673389449.0154037;47.129058199999996;7.2370972;1.915000081062317;1673389448.998279;2.3993842601776123;-3.014939069747925;-32.457489013671875
412;1673389449.1993387;47.129056;7.2370996;1.9200000762939453;1673389449.1833105;2.7121291160583496;-2.9488942623138428;-32.55027770996094
413;1673389449.3862174;47.1290518;7.2371118;1.8940000534057617;1673389449.3713098;3.4452929496765137;-2.5101263523101807;-33.046382904052734
414;1673389449.577281;47.1290482;7.2371228;1.8660000562667847;1673389449.5582867;3.8211610317230225;-2.3042356967926025;-33.2668571472168
415;1673389449.7908509;47.1290459;7.2371289;1.8900001049041748;1673389449.7692006;3.908630132675171;-2.2626028060913086;-33.275489807128906
416;1673389449.9853294;47.1290443;7.237133999999999;1.8960001468658447;1673389449.9704118;4.006165504455566;-2.1125919818878174;-33.35879898071289
417;1673389450.191052;47.1290431;7.2371377;1.8970000743865967;1673389450.1743958;4.045379161834717;-2.0105843544006348;-33.407188415527344
418;1673389450.396924;47.129042299999995;7.2371403;1.8890000581741333;1673389450.3783758;4.0582733154296875;-1.9152207374572754;-33.415550231933594
