;pos_time;latitude;longitude;altitude;alt_time;pitch;roll;yaw
0;1673390503.1670244;47.1306425;7.2406198999999996;-0.009000000543892384;1673390503.3010046;0.06524760276079178;-0.37069588899612427;90.22968292236328
1;1673390503.3743145;47.1306425;7.2406198999999996;-0.01100000087171793;1673390503.4975715;0.008804182521998882;-0.03468576446175575;90.29966735839844
2;1673390503.5851243;47.1306425;7.2406198999999996;-0.014000000432133675;1673390503.69513;0.0651550367474556;-0.004841056186705828;90.35236358642578
3;1673390503.7792814;47.1306425;7.24062;-0.015000000596046448;1673390503.897911;0.11862093210220337;0.017839543521404266;90.28941345214844
4;1673390503.9740515;47.1306425;7.24062;-0.018000001087784767;1673390504.105234;0.23435300588607788;0.09978331625461578;90.14715576171875
5;1673390504.1858857;47.1306425;7.24062;-0.024000000208616257;1673390504.3095384;0.485070139169693;0.10670366138219833;90.13345336914062
6;1673390504.401131;47.1306425;7.2406198999999996;-0.030000001192092896;1673390504.5339422;0.2473783642053604;0.018196819350123405;90.28333282470703
7;1673390504.6103024;47.1306425;7.2406198999999996;-0.03500000014901161;1673390504.7328472;0.479459285736084;0.033636484295129776;90.36981201171875
8;1673390504.8106678;47.1306425;7.2406198999999996;-0.04100000113248825;1673390504.9294007;0.4235455393791199;-0.010181648656725883;90.27189636230469
9;1673390505.0168219;47.1306425;7.2406198999999996;-0.003000000026077032;1673390505.1268923;0.11313746124505997;-0.6044184565544128;90.37821960449219
10;1673390505.2036746;47.1306425;7.2406201;-0.005000000353902578;1673390505.325365;0.07829375565052032;-0.2807113826274872;90.2662124633789
11;1673390505.4012403;47.1306425;7.2406201;-0.005000000353902578;1673390505.536877;0.2000807523727417;-0.45947548747062683;90.23265075683594
12;1673390505.6068308;47.1306425;7.2406201;-0.003000000026077032;1673390505.7186763;0.15069305896759033;-0.22231164574623108;90.12248229980469
13;1673390505.804836;47.1306425;7.2406201;0.0;1673390505.92485;0.056265074759721756;-0.3347586691379547;90.14763641357422
14;1673390506.040797;47.1306425;7.2406201999999995;0.0010000000474974513;1673390506.1660526;0.06990553438663483;-0.4475916922092438;90.20379638671875
15;1673390506.2377372;47.1306425;7.2406201999999995;0.0010000000474974513;1673390506.3549254;-0.14679010212421417;-0.7439718842506409;90.2119140625
16;1673390506.4155228;47.1306425;7.2406203;0.0;1673390506.515729;-0.04524592310190201;-0.3224785029888153;90.13540649414062
17;1673390506.5866866;47.1306425;7.2406203;-0.0010000000474974513;1673390506.7152493;0.06078338250517845;-0.6392011642456055;90.16202545166016
18;1673390506.7951136;47.1306425;7.2406204;-0.0020000000949949026;1673390506.9175615;0.26614272594451904;-0.6118565201759338;90.34224700927734
19;1673390507.0029373;47.1306425;7.2406203;-0.0010000000474974513;1673390507.133949;0.28985482454299927;-0.8322407603263855;90.18599700927734
20;1673390507.2153962;47.1306425;7.2406203;-0.0010000000474974513;1673390507.3279006;0.0254112109541893;-0.6931861639022827;89.96891021728516
21;1673390507.3987908;47.1306425;7.2406203;-0.003000000026077032;1673390507.513818;0.37156298756599426;-0.18799977004528046;89.56942749023438
22;1673390507.5909696;47.1306425;7.2406203;-0.003000000026077032;1673390507.7120445;0.17394447326660156;-0.0601445697247982;89.5977554321289
23;1673390507.7907984;47.1306425;7.2406203;-0.005000000353902578;1673390507.9185863;0.29215821623802185;-0.4209401607513428;89.59313201904297
24;1673390507.990784;47.130642599999995;7.2406203;-0.003000000026077032;1673390508.1188874;0.5857111215591431;-0.6324422955513;89.45555877685547
25;1673390508.1978648;47.130642599999995;7.2406201999999995;0.003000000026077032;1673390508.3229;1.0821765661239624;-0.21752290427684784;89.01349639892578
26;1673390508.3982306;47.130642699999996;7.2406201;0.009000000543892384;1673390508.5047002;1.7136410474777222;0.04576587677001953;87.16918182373047
27;1673390508.5739017;47.1306428;7.2406198999999996;0.013000000268220901;1673390508.702795;-0.044740941375494;3.177717924118042;82.98377990722656
28;1673390508.7849338;47.130643;7.240619499999999;0.024000000208616257;1673390508.9086173;-3.44059157371521;5.994065761566162;84.36418151855469
29;1673390508.9949567;47.130643199999994;7.240618899999999;0.04500000178813934;1673390509.1188486;-7.213438987731934;11.129364967346191;85.27558135986328
30;1673390509.1978142;47.130643299999996;7.2406184;0.08900000154972076;1673390509.335857;-7.752544403076172;8.498178482055664;85.97173309326172
31;1673390509.4140875;47.1306434;7.2406181;0.1510000079870224;1673390509.5717049;-8.852499961853027;5.388652324676514;86.71485137939453
32;1673390509.6547265;47.130643299999996;7.2406179999999996;0.2290000170469284;1673390509.7897942;-8.688444137573242;9.696094512939453;86.8091049194336
33;1673390509.8694477;47.130643299999996;7.2406181;0.31800001859664917;1673390510.0287254;-7.778310298919678;9.425126075744629;87.19867706298828
34;1673390510.0785005;47.130643199999994;7.2406184;0.4190000295639038;1673390510.1749685;-7.168935298919678;4.055660724639893;88.14926147460938
35;1673390510.2395551;47.1306429;7.2406188;0.534000039100647;1673390510.3498306;-6.450432300567627;6.511427402496338;87.9492416381836
36;1673390510.4217205;47.130642699999996;7.240619199999999;0.6650000214576721;1673390510.5208473;-5.578256130218506;8.925679206848145;87.81820678710938
37;1673390510.5884638;47.130642599999995;7.240619499999999;0.8090000152587891;1673390510.7124472;-5.593479633331299;3.30796480178833;88.51912689208984
38;1673390510.797532;47.1306425;7.240619799999999;0.9650000333786011;1673390510.9335008;-5.48893928527832;5.057990074157715;88.40039825439453
39;1673390511.0039833;47.1306425;7.24062;1.1330000162124634;1673390511.1268697;-5.596405029296875;8.98225212097168;88.01364135742188
40;1673390511.1972003;47.130642599999995;7.24062;1.3140000104904175;1673390511.3300283;-5.922083377838135;5.393069744110107;88.7011489868164
41;1673390511.4024243;47.1306425;7.24062;1.502000093460083;1673390511.5254638;-6.1444091796875;3.7487850189208984;88.4461669921875
42;1673390511.6095395;47.1306425;7.2406198999999996;1.6980000734329224;1673390511.7316394;-6.1695122718811035;9.240638732910156;88.0482406616211
43;1673390511.79804;47.1306425;7.240619799999999;1.8960001468658447;1673390511.9090915;-6.113515853881836;5.792524337768555;88.57947540283203
44;1673390511.9928625;47.130642599999995;7.240619799999999;2.0940001010894775;1673390512.1222038;-6.750088691711426;4.513898849487305;88.79541015625
45;1673390512.2024307;47.130642699999996;7.2406197;2.2950000762939453;1673390512.3235686;-6.6457624435424805;9.743346214294434;88.05308532714844
46;1673390512.395854;47.1306428;7.2406196;2.496000051498413;1673390512.5146465;-7.005372047424316;7.388529300689697;88.33470916748047
47;1673390512.5904903;47.1306428;7.240619499999999;2.694000244140625;1673390512.7234507;-7.045366287231445;3.9303596019744873;89.0863265991211
48;1673390512.7929652;47.130642699999996;7.240619499999999;2.890000104904175;1673390512.9126313;-6.857207775115967;8.77951431274414;88.42974853515625
49;1673390512.9971063;47.130642699999996;7.240619499999999;3.0900001525878906;1673390513.1172388;-6.721586227416992;7.389419078826904;88.6082763671875
50;1673390513.1867218;47.130642599999995;7.2406196;3.2890002727508545;1673390513.3117614;-6.807578086853027;3.417288064956665;89.16441345214844
51;1673390513.395093;47.1306425;7.240619799999999;3.489000082015991;1673390513.5187695;-6.608017444610596;8.324395179748535;88.50408935546875
52;1673390513.6071708;47.130642599999995;7.2406198999999996;3.687000274658203;1673390513.755044;-6.346159934997559;8.627241134643555;88.4147720336914
53;1673390513.8271184;47.130642699999996;7.24062;3.885000228881836;1673390513.953525;-6.1470160484313965;3.7620346546173096;89.00121307373047
54;1673390514.0430586;47.130642599999995;7.2406201;4.085000038146973;1673390514.157084;-6.091259479522705;6.920156478881836;88.53028106689453
55;1673390514.2196004;47.130642599999995;7.2406201;4.2870001792907715;1673390514.3478901;-6.032583236694336;9.272565841674805;88.32672119140625
56;1673390514.4257162;47.130642599999995;7.2406201;4.488000392913818;1673390514.5611105;-6.205949306488037;4.607272624969482;88.88167572021484
57;1673390514.6385136;47.130642699999996;7.2406201;4.688000202178955;1673390514.790709;-6.482681751251221;7.280712127685547;88.5621566772461
58;1673390514.8544557;47.1306428;7.2406201;4.892000198364258;1673390514.9691234;-6.363174915313721;9.5587739944458;88.22311401367188
59;1673390515.0372672;47.1306428;7.2406201999999995;5.0960001945495605;1673390515.1459198;-6.560614585876465;4.903852939605713;88.9921646118164
60;1673390515.217241;47.130642599999995;7.2406201999999995;5.299000263214111;1673390515.3418775;-6.467335224151611;5.480535507202148;88.88804626464844
61;1673390515.4390454;47.1306424;7.2406201999999995;5.50600004196167;1673390515.5668356;-6.349208831787109;9.611821174621582;88.42474365234375
62;1673390515.6372585;47.1306424;7.2406201;5.711000442504883;1673390515.7488554;-6.453585624694824;5.9868927001953125;88.76758575439453
63;1673390515.819138;47.1306424;7.24062;5.9150004386901855;1673390515.9329512;-6.819528102874756;4.258265495300293;89.01803588867188
64;1673390516.0013242;47.1306424;7.2406198999999996;6.123000144958496;1673390516.1177027;-6.8100810050964355;9.196084976196289;88.45894622802734
65;1673390516.194567;47.1306425;7.2406198999999996;6.335000514984131;1673390516.3325794;-6.8287200927734375;8.119183540344238;88.45111846923828
66;1673390516.414577;47.1306424;7.240619799999999;6.545000076293945;1673390516.536737;-6.987701416015625;3.9768803119659424;88.91656494140625
67;1673390516.6159482;47.1306423;7.240619799999999;6.752000331878662;1673390516.7509263;-6.928298473358154;7.876806735992432;88.44031524658203
68;1673390516.8384724;47.1306423;7.240619799999999;6.960000514984131;1673390516.9542377;-6.608735084533691;8.60834789276123;88.25584411621094
69;1673390517.0358217;47.1306424;7.2406198999999996;7.1650004386901855;1673390517.1494837;-6.552923202514648;4.436513423919678;88.74958801269531
70;1673390517.2139;47.1306425;7.2406198999999996;7.368000507354736;1673390517.3292394;-6.732639312744141;7.848333358764648;88.4321517944336
71;1673390517.4164352;47.1306425;7.24062;7.569000244140625;1673390517.5317206;-6.507324695587158;9.430724143981934;88.31832885742188
72;1673390517.615924;47.1306425;7.24062;7.767000198364258;1673390517.7264626;-6.610142707824707;4.424722671508789;89.07379150390625
73;1673390517.8021705;47.1306423;7.2406201;7.966000556945801;1673390517.916098;-6.822201251983643;6.4165873527526855;88.75271606445312
74;1673390517.9928834;47.1306422;7.2406201;8.167000770568848;1673390518.1078312;-6.461491107940674;9.412201881408691;88.28680419921875
75;1673390518.1776848;47.1306423;7.2406201;8.367000579833984;1673390518.292035;-6.645118236541748;4.750277996063232;88.94142150878906
76;1673390518.3643656;47.1306423;7.2406201;8.565000534057617;1673390518.4928513;-6.76962947845459;6.109409809112549;88.9443359375
77;1673390518.587236;47.1306423;7.24062;8.76300048828125;1673390518.7080271;-6.492002010345459;9.576823234558105;88.3869400024414
78;1673390518.7826252;47.1306423;7.24062;8.961000442504883;1673390518.9132164;-6.724656581878662;5.099318027496338;88.80596923828125
79;1673390518.9946687;47.1306422;7.24062;9.157999992370605;1673390519.1235802;-6.913155555725098;4.734552383422852;88.82466888427734
80;1673390519.21028;47.1306422;7.2406201;9.359000205993652;1673390519.3248003;-6.646356105804443;9.573369026184082;88.11930847167969
81;1673390519.3982546;47.1306422;7.2406201;9.56100082397461;1673390519.5111034;-6.522672653198242;7.20929479598999;88.38479614257812
82;1673390519.5878165;47.1306423;7.2406201;9.758000373840332;1673390519.7183027;-6.6248908042907715;4.638507843017578;88.97144317626953
83;1673390519.7941566;47.1306424;7.2406201;9.95300006866455;1673390519.9175472;-6.526931285858154;9.270076751708984;88.46400451660156
84;1673390519.999038;47.1306425;7.2406201999999995;10.154000282287598;1673390520.126447;-6.532249450683594;8.345556259155273;88.66255950927734
85;1673390520.2035882;47.1306424;7.2406201999999995;10.422000885009766;1673390520.3227916;-7.896382808685303;5.190732955932617;88.74055480957031
86;1673390520.4039023;47.1306422;7.2406204;10.777000427246094;1673390520.5284624;-7.271571159362793;7.061269760131836;88.69383239746094
87;1673390520.6012614;47.130641999999995;7.2406206;11.160000801086426;1673390520.7267447;-6.237840175628662;8.776694297790527;88.30327606201172
88;1673390520.8103101;47.1306419;7.2406209;11.556000709533691;1673390520.9375498;-5.66619348526001;4.096220016479492;88.85787200927734
89;1673390521.0188792;47.1306418;7.2406212;11.956000328063965;1673390521.1422808;-5.287590980529785;4.8959126472473145;88.8395004272461
90;1673390521.2215807;47.1306418;7.240621399999999;12.360000610351562;1673390521.336197;-5.417710781097412;8.729459762573242;88.42657470703125
91;1673390521.3994255;47.1306418;7.240621399999999;12.761000633239746;1673390521.529193;-5.553112983703613;4.8140716552734375;88.89945220947266
92;1673390521.6172712;47.1306418;7.240621399999999;13.16100025177002;1673390521.736316;-5.818960189819336;3.6972103118896484;88.79853820800781
93;1673390521.818406;47.1306418;7.2406213;13.564001083374023;1673390521.9493418;-5.891672611236572;8.884982109069824;88.27149200439453
94;1673390522.0275106;47.1306419;7.2406212;13.969000816345215;1673390522.1506498;-6.011379241943359;6.4248809814453125;88.69197845458984
95;1673390522.2362049;47.130641999999995;7.240621;14.370000839233398;1673390522.357803;-6.606543064117432;4.5922932624816895;89.03083801269531
96;1673390522.4374087;47.1306422;7.240620799999999;14.768000602722168;1673390522.5453854;-6.4613189697265625;9.1011323928833;88.48442840576172
97;1673390522.6108413;47.1306423;7.2406206;15.164000511169434;1673390522.7248278;-6.508425712585449;7.868866920471191;88.42395782470703
98;1673390522.7948306;47.1306423;7.2406204999999995;15.556000709533691;1673390522.917268;-6.797300815582275;4.115952968597412;88.85236358642578
99;1673390522.9989698;47.1306422;7.2406204;15.945000648498535;1673390523.1272502;-6.911150932312012;7.098568916320801;88.71946716308594
100;1673390523.2084513;47.1306422;7.2406203;16.336999893188477;1673390523.3247721;-6.735599040985107;8.610424995422363;88.5441665649414
101;1673390523.403959;47.1306423;7.2406203;16.73200035095215;1673390523.5305662;-6.6592183113098145;4.62813663482666;88.88387298583984
102;1673390523.6120727;47.1306423;7.2406204;17.125;1673390523.7287836;-6.586737155914307;6.789028644561768;88.62303924560547
103;1673390523.7992818;47.1306424;7.2406204;17.520999908447266;1673390523.9174774;-6.212052822113037;9.562356948852539;88.31825256347656
104;1673390524.0197322;47.1306424;7.2406204999999995;17.920000076293945;1673390524.1505027;-6.115417003631592;5.754583358764648;88.70863342285156
105;1673390524.222833;47.1306422;7.2406204999999995;18.32000160217285;1673390524.3393242;-6.32138204574585;4.997142791748047;88.85799407958984
106;1673390524.4184396;47.130642099999996;7.2406206;18.72100067138672;1673390524.5323305;-6.122363090515137;9.237897872924805;88.32597351074219
107;1673390524.6089697;47.1306422;7.2406206;19.1200008392334;1673390524.7429037;-6.130346775054932;5.616519451141357;88.63892364501953
108;1673390524.8141944;47.1306422;7.2406206;19.51300048828125;1673390524.9338422;-6.30445671081543;4.918842792510986;88.96558380126953
109;1673390525.0096977;47.1306423;7.2406204999999995;19.9010009765625;1673390525.134219;-6.230552673339844;9.296361923217773;88.5201416015625
110;1673390525.212225;47.1306423;7.2406204999999995;20.292001724243164;1673390525.33767;-6.435848712921143;6.436108112335205;88.71858978271484
111;1673390525.421392;47.1306423;7.2406204999999995;20.687000274658203;1673390525.5347297;-6.48960018157959;4.0790839195251465;88.75308227539062
112;1673390525.606118;47.1306422;7.2406204999999995;21.084001541137695;1673390525.7291367;-6.444813251495361;9.065832138061523;88.150634765625
113;1673390525.803359;47.1306422;7.2406204999999995;21.481000900268555;1673390525.929762;-6.257318019866943;7.009413719177246;88.57706451416016
114;1673390526.0094764;47.1306423;7.2406204999999995;21.8700008392334;1673390526.1382453;-6.517549514770508;4.225417137145996;89.07864379882812
115;1673390526.2241971;47.1306424;7.2406204999999995;22.25400161743164;1673390526.3455086;-6.419086456298828;8.097641944885254;88.48027038574219
116;1673390526.428559;47.1306425;7.2406204;22.642000198364258;1673390526.5517862;-6.057302951812744;8.61349105834961;88.31353759765625
117;1673390526.6289344;47.1306425;7.2406204;23.031002044677734;1673390526.7747953;-6.379112243652344;4.151336193084717;88.95198059082031
118;1673390526.8472931;47.1306424;7.2406203;23.41900062561035;1673390526.9701235;-6.389424800872803;7.66701078414917;88.65858459472656
119;1673390527.0455518;47.1306425;7.2406203;23.808000564575195;1673390527.1728873;-6.057424545288086;9.2324857711792;88.37847137451172
120;1673390527.247786;47.1306425;7.2406201999999995;24.19900131225586;1673390527.3694909;-6.445884704589844;4.7666168212890625;88.7921371459961
121;1673390527.441734;47.1306425;7.2406201999999995;24.591001510620117;1673390527.5610628;-6.751102447509766;6.21082878112793;88.55364990234375
122;1673390527.6708872;47.1306425;7.2406201999999995;24.98200035095215;1673390527.7849169;-6.476500511169434;9.471443176269531;88.22518920898438
123;1673390527.8547597;47.1306425;7.2406201;25.375001907348633;1673390527.9774551;-6.631710052490234;5.596755027770996;88.86161041259766
124;1673390528.0464296;47.1306425;7.2406201;25.775001525878906;1673390528.1620252;-6.547994613647461;4.744595050811768;88.96349334716797
125;1673390528.242061;47.1306424;7.2406201;26.179000854492188;1673390528.3674133;-6.306848049163818;9.31395149230957;88.40299224853516
126;1673390528.4393663;47.1306425;7.24062;26.582000732421875;1673390528.5551136;-6.266617774963379;7.028534412384033;88.58383178710938
127;1673390528.6236966;47.130642599999995;7.24062;26.979001998901367;1673390528.7466955;-6.5381574630737305;4.360499858856201;88.95661163330078
128;1673390528.8244035;47.130642599999995;7.24062;27.374000549316406;1673390528.9435248;-6.427927494049072;8.8148832321167;88.52803802490234
129;1673390529.0220618;47.130642699999996;7.2406198999999996;27.769001007080078;1673390529.1492891;-6.4150824546813965;8.380928993225098;88.51669311523438
130;1673390529.2306724;47.130642699999996;7.2406198999999996;28.16600227355957;1673390529.3564095;-6.524662494659424;4.330814838409424;88.86177825927734
131;1673390529.4334972;47.130642599999995;7.2406198999999996;28.567001342773438;1673390529.556753;-6.674979209899902;7.715312957763672;88.41598510742188
132;1673390529.6319292;47.130642699999996;7.2406198999999996;28.97100067138672;1673390529.7558348;-6.475688457489014;9.304032325744629;88.2983627319336
133;1673390529.834517;47.1306428;7.2406198999999996;29.3700008392334;1673390529.9471245;-6.63385009765625;5.0098161697387695;88.94782257080078
134;1673390530.0115814;47.1306428;7.2406198999999996;29.764001846313477;1673390530.1292608;-6.530022144317627;6.292596340179443;88.89270782470703
135;1673390530.202045;47.130642699999996;7.2406198999999996;30.156002044677734;1673390530.3217404;-6.217376232147217;9.705069541931152;88.33466339111328
136;1673390530.4230115;47.130642699999996;7.2406198999999996;30.552001953125;1673390530.5370717;-6.276409149169922;5.1944451332092285;88.74932861328125
137;1673390530.616224;47.1306425;7.2406198999999996;30.950000762939453;1673390530.7376142;-6.778332710266113;4.969361782073975;88.65265655517578
138;1673390530.8109822;47.1306425;7.240619799999999;31.34800148010254;1673390530.9345198;-6.3014421463012695;9.730278015136719;88.26487731933594
139;1673390531.017199;47.1306425;7.2406198999999996;31.748001098632812;1673390531.1560953;-6.265058994293213;6.265246868133545;88.71736145019531
140;1673390531.2304175;47.1306425;7.2406198999999996;32.14400100708008;1673390531.3611436;-6.629720687866211;4.734400749206543;88.95601654052734
141;1673390531.4243827;47.1306425;7.2406198999999996;32.53900146484375;1673390531.5506678;-6.347494125366211;8.87598991394043;88.39021301269531
142;1673390531.6261082;47.1306425;7.2406198999999996;32.939002990722656;1673390531.738962;-6.391214847564697;7.900699615478516;88.4303207397461
143;1673390531.8147593;47.1306425;7.2406198999999996;33.33700180053711;1673390531.9334805;-6.317446231842041;4.267376899719238;89.03390502929688
144;1673390532.014221;47.1306424;7.2406198999999996;33.733001708984375;1673390532.1397257;-6.4750800132751465;7.813185214996338;88.68069458007812
145;1673390532.218348;47.1306425;7.2406198999999996;34.130001068115234;1673390532.349885;-6.209813594818115;9.004919052124023;88.49169158935547
146;1673390532.427633;47.130642599999995;7.2406198999999996;34.531002044677734;1673390532.552779;-6.486513137817383;4.574243545532227;88.75519561767578
147;1673390532.6309156;47.130642599999995;7.2406198999999996;34.930999755859375;1673390532.7687;-6.467284202575684;7.017376899719238;88.48114776611328
148;1673390532.8393002;47.130642599999995;7.2406198999999996;35.329002380371094;1673390532.958997;-6.356832027435303;9.730066299438477;88.32324981689453
149;1673390533.0309825;47.1306425;7.2406198999999996;35.72800064086914;1673390533.156589;-6.598102569580078;4.8734235763549805;88.97372436523438
150;1673390533.240737;47.1306424;7.2406198999999996;36.12900161743164;1673390533.3635085;-6.581892967224121;5.403506755828857;88.80668640136719
151;1673390533.4318106;47.1306425;7.2406198999999996;36.531002044677734;1673390533.5515065;-6.338120937347412;9.581842422485352;88.2499771118164
152;1673390533.6264045;47.1306425;7.2406198999999996;36.93300247192383;1673390533.746998;-6.29071044921875;6.0281267166137695;88.62557220458984
153;1673390533.8189023;47.130642599999995;7.2406198999999996;37.332000732421875;1673390533.9378538;-6.595309734344482;5.077455043792725;88.93646240234375
154;1673390534.017015;47.130642699999996;7.2406198999999996;37.72800064086914;1673390534.14086;-6.451364040374756;9.484723091125488;88.44413757324219
155;1673390534.2355893;47.130642699999996;7.2406198999999996;38.12900161743164;1673390534.3589444;-6.366631507873535;7.051459789276123;88.63037109375
156;1673390534.430298;47.130642699999996;7.2406198999999996;38.53200149536133;1673390534.539257;-6.6208720207214355;4.374588966369629;88.81210327148438
157;1673390534.6185443;47.130642599999995;7.2406198999999996;38.93800354003906;1673390534.745299;-6.528153419494629;8.90339183807373;88.37562561035156
158;1673390534.8224256;47.130642699999996;7.24062;39.34300231933594;1673390534.9508476;-6.382266998291016;8.053030014038086;88.49954223632812
159;1673390535.0245717;47.1306428;7.24062;39.74300003051758;1673390535.154374;-6.613432884216309;4.374364852905273;89.07470703125
160;1673390535.230073;47.130642699999996;7.24062;40.13500213623047;1673390535.3641334;-6.312664985656738;8.213748931884766;88.48685455322266
161;1673390535.4307551;47.130642699999996;7.24062;40.5260009765625;1673390535.5532012;-6.232442378997803;8.687333106994629;88.37789916992188
162;1673390535.6245296;47.130642599999995;7.24062;40.92000198364258;1673390535.74014;-6.54658842086792;3.8316564559936523;88.96015167236328
163;1673390535.8227372;47.130642599999995;7.24062;41.31500244140625;1673390535.9458776;-6.495298862457275;7.426696300506592;88.65454864501953
164;1673390536.013301;47.130642699999996;7.24062;41.711002349853516;1673390536.1300373;-6.174180507659912;9.319823265075684;88.38955688476562
165;1673390536.2088215;47.1306428;7.24062;42.10700225830078;1673390536.3394072;-6.256140232086182;5.20551872253418;88.66205596923828
166;1673390536.4153206;47.1306428;7.24062;42.500003814697266;1673390536.5565834;-6.48627233505249;6.6142683029174805;88.48606872558594
167;1673390536.6272936;47.1306429;7.24062;42.88900375366211;1673390536.7391214;-6.3387322425842285;10.12147331237793;88.35523986816406
168;1673390536.8177505;47.1306429;7.24062;43.281002044677734;1673390536.9453015;-6.517858028411865;5.423354625701904;88.98971557617188
169;1673390537.0353825;47.1306428;7.2406201;43.67500305175781;1673390537.1498964;-6.564026832580566;5.587466716766357;88.7646713256836
170;1673390537.2314675;47.1306428;7.2406201;44.07100296020508;1673390537.3532357;-6.279699325561523;9.924295425415039;88.2247085571289
171;1673390537.444791;47.1306429;7.2406201;44.467002868652344;1673390537.5667195;-6.090581893920898;6.891441822052002;88.59483337402344
172;1673390537.6321845;47.1306429;7.24062;44.862003326416016;1673390537.7500954;-6.367536544799805;4.691349029541016;88.92835235595703
173;1673390537.8234851;47.1306428;7.24062;45.25100326538086;1673390537.9540195;-6.320450305938721;8.978957176208496;88.4063949584961
174;1673390538.035905;47.130642699999996;7.24062;45.6410026550293;1673390538.1573408;-6.554535388946533;7.5297040939331055;88.63153076171875
175;1673390538.2321851;47.130642699999996;7.2406198999999996;46.03600311279297;1673390538.3800561;-6.580386161804199;3.84515118598938;88.93734741210938
176;1673390538.4564059;47.130642599999995;7.240619799999999;46.43400192260742;1673390538.6193557;-6.836942195892334;8.23946762084961;88.42572784423828
177;1673390538.694173;47.130642699999996;7.240619799999999;46.833003997802734;1673390538.8094237;-6.492474555969238;8.634659767150879;88.47074890136719
178;1673390538.8774228;47.1306428;7.240619799999999;47.22900390625;1673390538.9852939;-6.8151469230651855;4.409675121307373;89.02710723876953
179;1673390539.0565512;47.1306428;7.240619799999999;47.61900329589844;1673390539.1727076;-6.6204304695129395;7.065328598022461;88.72451782226562
180;1673390539.2539148;47.130642699999996;7.240619799999999;48.009002685546875;1673390539.3770568;-6.442688941955566;10.494003295898438;88.23404693603516
181;1673390539.4453952;47.130642699999996;7.240619799999999;48.3650016784668;1673390539.560235;-6.673741817474365;4.092966556549072;88.9061279296875
182;1673390539.6340225;47.1306428;7.2406197;48.673004150390625;1673390539.7538438;-6.867291450500488;8.085351943969727;88.54703521728516
183;1673390539.8383083;47.1306429;7.2406196;48.93300247192383;1673390539.957976;-6.505781650543213;9.1697416305542;88.43645477294922
184;1673390540.040709;47.1306431;7.240619499999999;49.152000427246094;1673390540.1707137;-7.072854518890381;5.135570049285889;88.97013092041016
185;1673390540.2390337;47.1306431;7.2406194;49.333003997802734;1673390540.3571699;4.628403186798096;17.716270446777344;91.35931396484375
186;1673390540.4427984;47.1306429;7.2406188;49.48200225830078;1673390540.5738912;18.566051483154297;36.95891571044922;103.24970245361328
187;1673390540.649343;47.1306417;7.2406166999999995;49.61000061035156;1673390540.767428;21.807334899902344;51.62532043457031;112.87185668945312
188;1673390540.8416116;47.1306386;7.240611299999999;49.7130012512207;1673390540.9735892;13.138038635253906;59.94117736816406;121.32582092285156
189;1673390541.0537379;47.130632999999996;7.2406019;49.77700424194336;1673390541.1682389;-4.109523296356201;57.30793380737305;131.30337524414062
190;1673390541.245499;47.1306252;7.240589099999999;49.80900192260742;1673390541.3598733;-17.601177215576172;52.10979080200195;142.0469970703125
191;1673390541.4351764;47.1306155;7.2405735;49.8280029296875;1673390541.55112;-31.46579933166504;48.7932243347168;152.0251007080078
192;1673390541.624869;47.130604;7.240555499999999;49.84400177001953;1673390541.743325;-44.16436767578125;44.711769104003906;164.35012817382812
193;1673390541.8146563;47.130590999999995;7.2405352999999995;49.84400177001953;1673390541.9352722;-49.762359619140625;36.424434661865234;178.36251831054688
194;1673390542.0119524;47.1305766;7.2405127;49.80900192260742;1673390542.1453326;-45.66396713256836;24.750808715820312;-173.5738067626953
195;1673390542.2297993;47.1305613;7.2404886;49.75100326538086;1673390542.344309;-46.653038024902344;19.324901580810547;-168.27235412597656
196;1673390542.4181294;47.1305455;7.2404636;49.69400405883789;1673390542.548751;-48.01877212524414;13.817842483520508;-160.33143615722656
197;1673390542.6293564;47.1305292;7.2404379;49.637001037597656;1673390542.7570956;-47.72098159790039;7.733332633972168;-152.56361389160156
198;1673390542.8246365;47.130512599999996;7.2404116;49.59700393676758;1673390542.9464023;-45.94931411743164;2.2940378189086914;-145.82470703125
199;1673390543.0237746;47.1304959;7.240385099999999;49.58000183105469;1673390543.151215;-47.768829345703125;-0.45136207342147827;-139.77464294433594
200;1673390543.2425554;47.130479;7.2403583;49.57500076293945;1673390543.3613062;-48.04348373413086;-8.489291191101074;-132.81082153320312
201;1673390543.4344172;47.130462;7.2403312;49.577003479003906;1673390543.561644;-46.87333679199219;-12.575493812561035;-134.12857055664062
202;1673390543.6427605;47.1304446;7.2403040999999995;49.58000183105469;1673390543.7708616;-46.50590896606445;-10.994924545288086;-137.6597442626953
203;1673390543.8444314;47.130426799999995;7.2402774999999995;49.590003967285156;1673390543.9511783;-46.94111633300781;-9.735896110534668;-139.38528442382812
204;1673390544.0216196;47.1304087;7.2402514;49.60600280761719;1673390544.1443539;-48.306915283203125;-8.801748275756836;-140.08990478515625
205;1673390544.220246;47.130390299999995;7.2402258999999995;49.62000274658203;1673390544.3447702;-49.26410675048828;-6.941076755523682;-140.7725372314453
206;1673390544.4236217;47.1303716;7.2402007;49.63500213623047;1673390544.5565062;-48.89927673339844;-5.438683032989502;-141.1183319091797
207;1673390544.6423423;47.130352599999995;7.240175499999999;49.647003173828125;1673390544.781783;-47.89820861816406;-5.275221824645996;-140.79495239257812
208;1673390544.8620949;47.1303335;7.2401503;49.663002014160156;1673390544.9756386;-47.68525695800781;-5.397714614868164;-140.45489501953125
209;1673390545.0401134;47.130314399999996;7.240125099999999;49.68000411987305;1673390545.1580732;-47.829925537109375;-5.598325729370117;-140.14552307128906
210;1673390545.235329;47.1302952;7.2400999;49.695003509521484;1673390545.3511922;-47.89961624145508;-5.822307586669922;-139.89759826660156
211;1673390545.430958;47.130275999999995;7.2400746;49.708003997802734;1673390545.5433397;-47.59519577026367;-5.907032489776611;-139.7136688232422
212;1673390545.6136794;47.1302568;7.240049399999999;49.71800231933594;1673390545.7302074;-47.16301345825195;-5.881433963775635;-139.45013427734375
213;1673390545.8157885;47.1302375;7.2400242;49.72200393676758;1673390545.9336004;-46.84691619873047;-5.892357349395752;-139.31546020507812
214;1673390546.0132205;47.130218299999996;7.239999;49.72700119018555;1673390546.1378255;-46.865726470947266;-5.9577317237854;-139.16587829589844
215;1673390546.218568;47.1301992;7.2399738;49.73100280761719;1673390546.3411922;-47.17750549316406;-6.063442707061768;-139.0634765625
216;1673390546.423751;47.1301801;7.2399485;49.73500061035156;1673390546.5563307;-47.09635925292969;-6.068243026733398;-138.99923706054688
217;1673390546.6365488;47.1301609;7.2399230999999995;49.73800277709961;1673390546.7592053;-46.93917465209961;-6.078122138977051;-138.9236297607422
218;1673390546.8300571;47.1301418;7.2398978;49.74100112915039;1673390546.954787;-46.9952507019043;-6.037959098815918;-138.82568359375
219;1673390547.033255;47.1301227;7.2398725;49.74500274658203;1673390547.1521904;-47.06858825683594;-6.029336452484131;-138.7890167236328
220;1673390547.2305608;47.1301037;7.2398472;49.75600051879883;1673390547.3531144;-47.58962631225586;-6.084096908569336;-138.74705505371094
221;1673390547.4273043;47.1300847;7.2398218;49.772003173828125;1673390547.5538151;-48.11532211303711;-6.1464409828186035;-138.7129364013672
222;1673390547.632243;47.130065699999996;7.2397963999999995;49.78600311279297;1673390547.7518363;-48.02949523925781;-6.105467796325684;-138.7181854248047
223;1673390547.826855;47.1300466;7.2397709;49.797000885009766;1673390547.953085;-47.806190490722656;-6.069385051727295;-138.7290496826172
224;1673390548.0387938;47.1300276;7.2397453;49.80500411987305;1673390548.2107491;-47.67024230957031;-6.0254058837890625;-138.72332763671875
225;1673390548.2935193;47.130008499999995;7.239719699999999;49.80900192260742;1673390548.4063187;-47.40620422363281;-5.9666218757629395;-138.69293212890625
226;1673390548.4773347;47.1299894;7.239694;49.80900192260742;1673390548.5910327;-47.207279205322266;-5.935000419616699;-138.67247009277344
227;1673390548.66844;47.1299704;7.2396683;49.80900192260742;1673390548.7758849;-47.35186004638672;-5.973159313201904;-138.66168212890625
228;1673390548.8429697;47.129951399999996;7.2396426;49.80900192260742;1673390548.9616966;-47.492462158203125;-5.986248016357422;-138.648681640625
229;1673390549.0351644;47.1299324;7.239616799999999;49.80900192260742;1673390549.1573138;-47.45772171020508;-5.961973190307617;-138.6939239501953
230;1673390549.2453887;47.1299134;7.239591;49.810001373291016;1673390549.3790944;-47.42436218261719;-5.9954962730407715;-138.67562866210938
231;1673390549.4515526;47.1298944;7.2395651;49.810001373291016;1673390549.571215;-47.64995574951172;-5.962380886077881;-138.6835174560547
232;1673390549.6464052;47.1298755;7.2395393;49.80900192260742;1673390549.7711306;-47.64236831665039;-5.979135036468506;-138.7041473388672
233;1673390549.8498087;47.129856499999995;7.239513499999999;49.80800247192383;1673390549.956771;-47.39606475830078;-5.89366340637207;-138.74453735351562
234;1673390550.0346935;47.129837599999995;7.2394877;49.810001373291016;1673390550.157329;-47.47516632080078;-5.934348106384277;-138.69863891601562
235;1673390550.2351203;47.1298186;7.239461899999999;49.814002990722656;1673390550.351881;-47.7901496887207;-5.957939624786377;-138.728515625
236;1673390550.4325316;47.1297997;7.2394359999999995;49.81800079345703;1673390550.559221;-47.86154556274414;-5.991372585296631;-138.75437927246094
237;1673390550.6427603;47.1297808;7.2394101;49.82500076293945;1673390550.7709165;-47.82966232299805;-5.967799663543701;-138.7928924560547
238;1673390550.8462634;47.1297618;7.2393841;49.832000732421875;1673390551.0105023;-47.7428092956543;-5.922259330749512;-138.82826232910156
239;1673390551.0978525;47.129742799999995;7.2393581;49.83700180053711;1673390551.2048442;-47.67336654663086;-5.884573459625244;-138.87217712402344
240;1673390551.275746;47.1297238;7.2393320999999995;49.84300231933594;1673390551.3828175;-47.717384338378906;-5.871847152709961;-138.875244140625
241;1673390551.45223;47.1297048;7.2393062;49.84600067138672;1673390551.5679471;-47.55467224121094;-5.773538112640381;-138.92098999023438
242;1673390551.6429539;47.129685699999996;7.2392802;49.84700393676758;1673390551.7606425;-47.297607421875;-5.765532970428467;-138.92518615722656
243;1673390551.8357043;47.1296667;7.2392541999999995;49.84600067138672;1673390551.957786;-47.09319305419922;-5.734884738922119;-138.92697143554688
244;1673390552.0317554;47.1296477;7.2392281999999994;49.845001220703125;1673390552.1494863;-47.16630554199219;-5.749937534332275;-138.95767211914062
245;1673390552.2261984;47.1296287;7.239202199999999;49.85200119018555;1673390552.3458843;-47.660396575927734;-5.755889892578125;-138.97879028320312
246;1673390552.4246073;47.1296098;7.2391763;49.86100387573242;1673390552.5577257;-47.96245574951172;-5.724969387054443;-139.0150146484375
247;1673390552.6388822;47.129590799999995;7.2391504;49.871002197265625;1673390552.7733912;-48.020206451416016;-5.652462482452393;-139.10032653808594
248;1673390552.8501046;47.1295718;7.2391244;49.87900161743164;1673390553.016806;-47.85573196411133;-5.5694193840026855;-139.14540100097656
249;1673390553.087507;47.1295527;7.2390984;49.88600158691406;1673390553.1915202;-47.65706253051758;-5.530724048614502;-139.1704864501953
250;1673390553.248117;47.129533699999996;7.2390723999999995;49.8900032043457;1673390553.361926;-47.507503509521484;-5.44820499420166;-139.25021362304688
251;1673390553.4415295;47.129514699999994;7.2390463;49.89400100708008;1673390553.6086998;-47.648681640625;-5.460855484008789;-139.2700653076172
252;1673390553.6751246;47.1294956;7.2390203;49.9010009765625;1673390553.788625;-47.942413330078125;-5.455209732055664;-139.37890625
253;1673390553.8620453;47.1294766;7.2389942;49.90700149536133;1673390554.00341;-47.7869758605957;-5.345584869384766;-139.45420837402344
254;1673390554.0786026;47.1294575;7.238968099999999;49.910003662109375;1673390554.2045796;-47.59431457519531;-5.466676712036133;-139.4769287109375
255;1673390554.2756784;47.1294384;7.238942;49.91100311279297;1673390554.39879;-47.39004898071289;-6.390182018280029;-139.4716339111328
256;1673390554.4742262;47.129419299999995;7.2389158;49.91400146484375;1673390554.6103098;-47.63561248779297;-6.610172271728516;-139.67489624023438
257;1673390554.6845455;47.1294002;7.2388898;49.922000885009766;1673390554.8087616;-47.435935974121094;-7.928196907043457;-139.7179718017578
258;1673390554.8971338;47.1293809;7.2388639999999995;49.932003021240234;1673390555.0138316;-47.91331100463867;-7.719581127166748;-140.16229248046875
259;1673390555.09038;47.129361499999995;7.2388384;49.939002990722656;1673390555.2110045;-47.99848556518555;-8.176480293273926;-140.2829132080078
260;1673390555.285022;47.129342;7.2388131;49.945003509521484;1673390555.4063063;-47.53118133544922;-8.80534553527832;-140.51649475097656
261;1673390555.4798954;47.1293224;7.238788;49.95100402832031;1673390555.6043365;-47.303184509277344;-9.527081489562988;-140.68539428710938
262;1673390555.6707306;47.129302599999995;7.238763199999999;49.95900344848633;1673390555.7740736;-45.086883544921875;-9.785303115844727;-141.22694396972656
263;1673390555.84362;47.1292827;7.2387388999999995;49.97500228881836;1673390555.9572568;-34.45903396606445;-9.20324420928955;-140.79257202148438
264;1673390556.0365589;47.129263099999996;7.2387152;50.009002685546875;1673390556.1721492;-17.060638427734375;-8.919488906860352;-139.84754943847656
265;1673390556.2469046;47.129244299999996;7.238692899999999;50.038002014160156;1673390556.3612132;-0.7848623394966125;-6.781968593597412;-137.97767639160156
266;1673390556.4281273;47.1292273;7.2386725;50.05500411987305;1673390556.5532894;11.561810493469238;-5.065687656402588;-136.913330078125
267;1673390556.6351507;47.129212599999995;7.238654599999999;50.051002502441406;1673390556.7625864;17.429094314575195;-3.0060529708862305;-138.38394165039062
268;1673390556.8442893;47.1292006;7.2386395;50.0150032043457;1673390556.9689803;22.4879150390625;-6.858259677886963;-138.0961456298828
269;1673390557.0486104;47.1291912;7.238626999999999;49.93100357055664;1673390557.1902997;17.595081329345703;-8.129596710205078;-137.12344360351562
270;1673390557.2578092;47.129184099999996;7.2386174;49.862003326416016;1673390557.3802235;16.530502319335938;-14.267986297607422;-136.90928649902344
271;1673390557.4511025;47.1291788;7.2386104;49.836002349853516;1673390557.5639517;6.752321720123291;-18.873151779174805;-136.12857055664062
272;1673390557.6407475;47.1291746;7.2386053;49.8390007019043;1673390557.7517178;-2.9525675773620605;-12.420548439025879;-135.5985870361328
273;1673390557.825592;47.1291709;7.2386016;49.867000579833984;1673390557.951874;-8.823891639709473;-8.142213821411133;-136.07778930664062
274;1673390558.0233219;47.129167599999995;7.2385983;49.91200256347656;1673390558.1452534;-9.662053108215332;-5.327939510345459;-135.76487731933594
275;1673390558.233291;47.129164499999995;7.2385949;49.954002380371094;1673390558.3628066;-8.919841766357422;-5.393568992614746;-134.53395080566406
276;1673390558.4405768;47.129161499999995;7.2385912999999995;49.9890022277832;1673390558.5718029;-7.45119047164917;-6.401546001434326;-133.326904296875
277;1673390558.650723;47.1291586;7.2385873;50.018001556396484;1673390558.7762806;-6.299638271331787;-7.152743816375732;-132.7415313720703
278;1673390558.8500366;47.1291559;7.2385831;50.0410041809082;1673390558.9650357;-7.806319236755371;-7.827285289764404;-132.90927124023438
279;1673390559.0372038;47.1291533;7.238579;50.07400131225586;1673390559.1579463;-29.761383056640625;-7.065316200256348;-135.77272033691406
280;1673390559.259131;47.129150499999994;7.2385743;50.134002685546875;1673390559.3782022;-22.894580841064453;0.9331890344619751;-139.20877075195312
281;1673390559.4510112;47.1291471;7.2385682;50.2390022277832;1673390559.5669131;-13.503032684326172;-0.6416592001914978;-138.89730834960938
282;1673390559.649527;47.1291434;7.2385611;50.43000411987305;1673390559.7740517;-17.471323013305664;-2.482743501663208;-138.31605529785156
283;1673390559.8514006;47.129139699999996;7.2385532999999995;50.7140007019043;1673390559.96561;-24.981977462768555;-3.623896598815918;-138.12789916992188
284;1673390560.0434272;47.1291358;7.238544699999999;51.06800079345703;1673390560.1577873;-41.90861892700195;-13.499463081359863;-137.27906799316406
285;1673390560.2422805;47.1291308;7.2385351;51.439002990722656;1673390560.3698356;-45.592994689941406;-12.092049598693848;-139.55589294433594
286;1673390560.4425082;47.1291236;7.2385242;51.81100082397461;1673390560.5572176;-40.699703216552734;-12.489386558532715;-138.82806396484375
287;1673390560.6472654;47.129114699999995;7.2385123;52.169002532958984;1673390560.7810268;-35.857276916503906;-12.116195678710938;-138.97433471679688
288;1673390560.8623145;47.1291047;7.2384999;52.51000213623047;1673390560.971184;-31.530336380004883;-11.120743751525879;-138.35023498535156
289;1673390561.0381064;47.129094099999996;7.2384872;52.84700393676758;1673390561.1500418;-29.160890579223633;-10.412016868591309;-137.4140625
290;1673390561.224118;47.129083099999995;7.2384740999999995;53.189002990722656;1673390561.356121;-26.75052261352539;-8.639875411987305;-137.3359832763672
291;1673390561.4358318;47.129072099999995;7.2384609;53.538002014160156;1673390561.5566988;-25.022769927978516;-6.579455852508545;-137.2206573486328
292;1673390561.6340723;47.129061199999995;7.2384476;53.897003173828125;1673390561.7618852;-24.189058303833008;-4.4947333335876465;-137.40924072265625
293;1673390561.8392677;47.1290505;7.2384341999999995;54.268001556396484;1673390561.9671872;-23.83885955810547;-3.6754612922668457;-137.4766845703125
294;1673390562.046569;47.1290401;7.2384207;54.64400100708008;1673390562.1956072;-23.889646530151367;-3.81207275390625;-137.42974853515625
295;1673390562.2665331;47.12903;7.2384071;55.022003173828125;1673390562.397125;-24.425701141357422;-5.300467491149902;-137.21026611328125
296;1673390562.4903767;47.1290203;7.2383935;55.40300369262695;1673390562.6078696;-25.25316619873047;-7.539718151092529;-136.97393798828125
297;1673390562.6776888;47.1290106;7.238379999999999;55.78600311279297;1673390562.7959766;-25.79908561706543;-9.626801490783691;-136.67572021484375
298;1673390562.8619397;47.129000999999995;7.2383665;56.172000885009766;1673390562.9797206;-26.284555435180664;-9.902750968933105;-136.76416015625
299;1673390563.0545125;47.128991299999996;7.238353;56.56200408935547;1673390563.176194;-26.69669532775879;-9.14445972442627;-136.97178649902344
300;1673390563.2528858;47.128981599999996;7.2383396;56.95600128173828;1673390563.3833432;-27.056257247924805;-7.599302291870117;-137.251708984375
301;1673390563.4500296;47.128971799999995;7.2383261;57.35000228881836;1673390563.5781317;-27.190528869628906;-6.358068466186523;-137.61012268066406
302;1673390563.6540246;47.1289619;7.238312499999999;57.74500274658203;1673390563.7712593;-27.205272674560547;-6.205616474151611;-137.48245239257812
303;1673390563.8470883;47.128952;7.238299;58.138004302978516;1673390563.9591286;-27.03724479675293;-6.359925746917725;-137.3855743408203
304;1673390564.0406694;47.128942099999996;7.238285299999999;58.531002044677734;1673390564.1684427;-27.034963607788086;-7.15574836730957;-137.27401733398438
305;1673390564.2489946;47.1289322;7.2382716;58.92400360107422;1673390564.370264;-26.690820693969727;-8.182876586914062;-136.9835205078125
306;1673390564.4440792;47.1289223;7.2382577999999995;59.320003509521484;1673390564.576716;-26.44431495666504;-9.442296981811523;-136.83816528320312
307;1673390564.6500766;47.128912299999996;7.238244;59.71800231933594;1673390564.7691433;-26.19409942626953;-10.21674919128418;-136.6897735595703
308;1673390564.845415;47.1289024;7.238230199999999;60.1140022277832;1673390564.970848;-26.27604103088379;-10.052521705627441;-136.6404266357422
309;1673390565.0563126;47.1288924;7.2382165;60.50700378417969;1673390565.1805115;-26.210161209106445;-9.846183776855469;-136.69244384765625
310;1673390565.2574358;47.128882499999996;7.2382029;60.90200424194336;1673390565.3797765;-26.24159812927246;-9.633989334106445;-136.80662536621094
311;1673390565.456591;47.1288726;7.2381892;61.29900360107422;1673390565.5850427;-26.610363006591797;-8.96164608001709;-136.88839721679688
312;1673390565.661715;47.1288626;7.2381755;61.69700241088867;1673390565.792208;-26.40795135498047;-8.41335678100586;-137.08799743652344
313;1673390565.8710756;47.128852699999996;7.2381619;62.09300231933594;1673390565.9903977;-26.933019638061523;-7.281682014465332;-137.35240173339844
314;1673390566.0680265;47.1288427;7.2381483;62.48800277709961;1673390566.1858456;-26.842233657836914;-6.894028663635254;-137.3211212158203
315;1673390566.2623923;47.1288328;7.2381345999999995;62.88500213623047;1673390566.3861144;-26.971887588500977;-6.554913520812988;-137.4444122314453
316;1673390566.4638216;47.128822799999995;7.238121;63.28000259399414;1673390566.586639;-26.916778564453125;-6.4198431968688965;-137.40737915039062
317;1673390566.6642933;47.1288129;7.238107299999999;63.67500305175781;1673390566.7860825;-26.85218620300293;-6.815088748931885;-137.26121520996094
318;1673390566.8640244;47.1288029;7.238093699999999;64.06999969482422;1673390566.9854417;-26.874900817871094;-7.3016228675842285;-137.23912048339844
319;1673390567.0567067;47.128792999999995;7.23808;64.46600341796875;1673390567.1727242;-26.797630310058594;-8.048788070678711;-137.0782470703125
320;1673390567.2539072;47.1287831;7.2380662;64.86300659179688;1673390567.374948;-26.859472274780273;-8.634260177612305;-136.94070434570312
321;1673390567.4505007;47.1287731;7.238052499999999;65.26100158691406;1673390567.567051;-26.848817825317383;-9.356866836547852;-136.88941955566406
322;1673390567.6423924;47.128763199999995;7.2380388;65.656005859375;1673390567.7874365;-26.973491668701172;-9.76427173614502;-136.80560302734375
323;1673390567.8592618;47.1287532;7.2380252;66.04600524902344;1673390567.9928744;-26.960634231567383;-9.586403846740723;-136.69515991210938
324;1673390568.0638003;47.1287431;7.2380116;66.43500518798828;1673390568.1843402;-27.191801071166992;-9.402359008789062;-136.7215118408203
325;1673390568.2655606;47.128733;7.2379980999999995;66.82400512695312;1673390568.3932154;-27.142990112304688;-9.225475311279297;-136.72787475585938
326;1673390568.47378;47.128723;7.2379846;67.21400451660156;1673390568.5896955;-27.344207763671875;-8.754711151123047;-136.84600830078125
327;1673390568.670436;47.1287129;7.237971;67.60800170898438;1673390568.7913344;-27.3500919342041;-8.573140144348145;-136.80245971679688
328;1673390568.8628433;47.1287028;7.2379573;68.0050048828125;1673390568.9759429;-27.31501007080078;-8.74217414855957;-136.74267578125
329;1673390569.0496783;47.128692699999995;7.2379435999999995;68.39900207519531;1673390569.1635067;-27.233295440673828;-8.359602928161621;-136.86306762695312
330;1673390569.2372832;47.1286827;7.2379298;68.79300689697266;1673390569.3670604;-27.08305549621582;-8.59797191619873;-136.86277770996094
331;1673390569.4432857;47.128672699999996;7.2379159;69.19000244140625;1673390569.5600436;-27.084884643554688;-8.42406177520752;-136.94810485839844
332;1673390569.6438441;47.1286626;7.2379020999999995;69.58800506591797;1673390569.785839;-26.997190475463867;-8.170340538024902;-137.05807495117188
333;1673390569.8625834;47.128652599999995;7.2378883;69.98699951171875;1673390569.9964776;-24.920795440673828;-7.736147403717041;-137.31658935546875
334;1673390570.068921;47.1286426;7.237874499999999;70.37700653076172;1673390570.189525;-7.997887134552002;-8.654338836669922;-137.44847106933594
335;1673390570.2703142;47.128633099999995;7.237861499999999;70.73300170898438;1673390570.3935254;-4.770285606384277;-8.475495338439941;-137.09471130371094
336;1673390570.4732406;47.1286244;7.2378497;71.052001953125;1673390570.600461;1.8006219863891602;-8.134538650512695;-137.32632446289062
337;1673390570.6752303;47.128616699999995;7.237838999999999;71.33200073242188;1673390570.7919815;6.034106254577637;-7.362337112426758;-137.6741943359375
338;1673390570.8668823;47.128610099999996;7.2378297;71.56999969482422;1673390570.9793503;7.002117156982422;-6.49680757522583;-137.7904052734375
339;1673390571.0629249;47.128604599999996;7.2378218;71.7800064086914;1673390571.1866813;7.292089939117432;-7.758243083953857;-137.31781005859375
340;1673390571.2703679;47.1286002;7.2378154;71.97300720214844;1673390571.3922892;6.9317755699157715;-8.650156021118164;-137.04116821289062
341;1673390571.4636903;47.128596599999995;7.237810199999999;72.13800048828125;1673390571.5853493;4.856451511383057;-9.391260147094727;-137.10304260253906
342;1673390571.6624148;47.128593699999996;7.237806099999999;72.26800537109375;1673390571.7848494;2.3800387382507324;-0.9099935293197632;-136.70179748535156
343;1673390571.862748;47.1285915;7.2378028;72.375;1673390571.994004;8.049001693725586;22.927703857421875;-126.31281280517578
344;1673390572.0844202;47.1285903;7.2377993;72.46800231933594;1673390572.214729;1.6681668758392334;19.6323184967041;-116.4134750366211
345;1673390572.2963328;47.1285907;7.2377952;72.52799987792969;1673390572.417898;-1.2141436338424683;9.229781150817871;-106.39508819580078
346;1673390572.493092;47.1285922;7.2377907;72.57400512695312;1673390572.6152155;-5.476932048797607;4.301121234893799;-98.5969009399414
347;1673390572.6849198;47.128594299999996;7.2377857;72.61900329589844;1673390572.8011246;-7.007028579711914;-0.17087885737419128;-89.94174194335938
348;1673390572.8759143;47.1285968;7.2377803;72.65900421142578;1673390572.9927554;-6.071748733520508;-1.7231671810150146;-80.84281158447266
349;1673390573.0626035;47.1285994;7.2377744999999996;72.69499969482422;1673390573.18812;-2.7542245388031006;-2.477895736694336;-71.29820251464844
350;1673390573.273614;47.128602;7.2377685;72.72400665283203;1673390573.3993998;0.6806698441505432;-2.630810260772705;-61.47182083129883
351;1673390573.4825473;47.128604599999996;7.2377625;72.75200653076172;1673390573.6031697;3.632864236831665;-2.287717580795288;-51.518890380859375
352;1673390573.6780453;47.128606999999995;7.237756699999999;72.7800064086914;1673390573.7990024;4.695423603057861;-2.734112024307251;-42.963157653808594
353;1673390573.884464;47.1286093;7.237750999999999;72.80400085449219;1673390574.00589;3.434260129928589;-3.6706600189208984;-40.00649642944336
354;1673390574.080103;47.1286115;7.237745299999999;72.82500457763672;1673390574.2007198;-15.002137184143066;-2.1712117195129395;-42.632328033447266
355;1673390574.274766;47.128613699999995;7.2377394;72.85200500488281;1673390574.3991644;-41.072669982910156;-1.1654961109161377;-44.998207092285156
356;1673390574.4827328;47.1286171;7.2377318;72.89200592041016;1673390574.6020875;-55.96806335449219;-0.676572322845459;-45.04749298095703
357;1673390574.6798959;47.1286227;7.237721499999999;72.90800476074219;1673390574.8047092;-54.55617904663086;-1.472660779953003;-45.03334426879883
358;1673390574.8865106;47.128630699999995;7.2377077;72.91500091552734;1673390575.0062213;-59.49685287475586;-0.6787751913070679;-46.07589340209961
359;1673390575.071302;47.1286413;7.237690499999999;72.94300079345703;1673390575.1902537;-61.262516021728516;-0.9073588848114014;-45.65167236328125
360;1673390575.2645826;47.128654399999995;7.237669599999999;72.97200012207031;1673390575.39399;-58.77315902709961;-0.4389035701751709;-45.281288146972656
361;1673390575.4777875;47.1286695;7.237645799999999;72.98700714111328;1673390575.599036;-57.013633728027344;-0.4335247576236725;-45.612266540527344
362;1673390575.68078;47.1286862;7.2376195999999995;72.99000549316406;1673390575.8019412;-56.90190124511719;-0.6323856115341187;-45.757972717285156
363;1673390575.8777459;47.1287041;7.237591699999999;72.98300170898438;1673390575.9937336;-47.125736236572266;-0.7154906988143921;-46.039581298828125
364;1673390576.0717545;47.128722599999996;7.2375631;72.77799987792969;1673390576.1883528;-20.23605728149414;-0.8815951347351074;-46.317291259765625
365;1673390576.261784;47.128741;7.237534699999999;72.21400451660156;1673390576.3785133;27.90287208557129;-1.8774904012680054;-47.077083587646484
366;1673390576.4548106;47.1287592;7.237506499999999;71.25700378417969;1673390576.58197;86.89334869384766;-40.17113494873047;-85.31453704833984
367;1673390576.6508715;47.1287775;7.2374782;69.89800262451172;1673390576.7858067;45.70341491699219;-177.8776397705078;136.3331298828125
368;1673390576.8619952;47.1287957;7.2374499;68.1760025024414;1673390576.9888105;24.72807502746582;179.96583557128906;131.24403381347656
369;1673390577.0751731;47.1288136;7.237421899999999;66.09400177001953;1673390577.1972115;31.489892959594727;-179.34254455566406;130.73365783691406
370;1673390577.2772632;47.1288312;7.2373945;63.64600372314453;1673390577.398769;68.39942169189453;-174.9340057373047;135.98275756835938
371;1673390577.473776;47.1288486;7.237367399999999;60.85100173950195;1673390577.6108139;48.994606018066406;-4.456053733825684;-54.437217712402344
372;1673390577.6878383;47.128866099999996;7.2373401;57.70600128173828;1673390577.8027494;-20.379154205322266;0.6623115539550781;-51.203346252441406
373;1673390577.8697262;47.1288835;7.237312999999999;54.14800262451172;1673390577.996892;-62.09260940551758;-0.7396113276481628;-47.27452087402344
374;1673390578.075834;47.1289005;7.2372863999999995;50.22800064086914;1673390578.2038522;-62.55058288574219;-3.1043057441711426;-43.67878723144531
375;1673390578.2840955;47.1289172;7.237260099999999;45.9900016784668;1673390578.4058547;-20.92474365234375;-1.753496527671814;-44.77433776855469
376;1673390578.4860845;47.128933599999996;7.237234399999999;41.422000885009766;1673390578.6147768;49.01778030395508;-0.10803909599781036;-43.11884307861328
377;1673390578.6846166;47.128949899999995;7.237209;36.45600128173828;1673390578.7907705;80.5366439819336;160.58302307128906;116.5475845336914
378;1673390578.8679416;47.1289665;7.2371833;31.154001235961914;1673390578.9926734;79.68827819824219;149.60562133789062;105.19786834716797
379;1673390579.0697777;47.1289829;7.2371577;25.556001663208008;1673390579.1870377;48.382484436035156;8.533791542053223;-34.51852035522461
380;1673390579.2747595;47.1289994;7.237132;19.647001266479492;1673390579.396733;-23.44478416442871;0.65456223487854;-38.35005187988281
381;1673390579.4808648;47.1290159;7.2371063;13.332000732421875;1673390579.5992103;-59.478580474853516;-8.162538528442383;-32.380550384521484
382;1673390579.6887417;47.1290318;7.2370811999999995;6.678000450134277;1673390579.8107688;-35.89563751220703;-3.4612200260162354;-35.08937454223633
383;1673390579.8889294;47.1290464;7.237057999999999;0.1469999998807907;1673390580.0206976;-3.138720989227295;-6.906571865081787;-40.78281784057617
384;1673390580.0938323;47.129051;7.2370472999999995;0.6920000314712524;1673390580.2064886;0.7527657747268677;-0.801780641078949;-45.49082565307617
385;1673390580.2826662;47.129057499999995;7.2370342999999995;1.1950000524520874;1673390580.4039907;0.4075215458869934;-3.907963275909424;-45.370418548583984
386;1673390580.479142;47.129064199999995;7.2370212;1.7290000915527344;1673390580.611539;0.4768567383289337;-4.315258502960205;-45.31550598144531
387;1673390580.6880307;47.129070299999995;7.2370085;2.2310001850128174;1673390580.8087115;0.5929682850837708;-5.115447521209717;-45.25825119018555
388;1673390580.8758314;47.1290754;7.236997499999999;2.690000057220459;1673390580.9958644;0.9197408556938171;-5.985172748565674;-45.3224983215332
389;1673390581.0739124;47.1290791;7.2369891;3.1020002365112305;1673390581.1949406;1.293980598449707;-6.16743803024292;-45.46615219116211
390;1673390581.273888;47.1290814;7.2369837;3.4690001010894775;1673390581.4057407;1.7488534450531006;-6.038532733917236;-45.65349197387695
391;1673390581.47785;47.1290823;7.2369810999999995;3.7970001697540283;1673390581.6028147;2.241795063018799;-5.86049747467041;-45.847286224365234
392;1673390581.6910152;47.1290822;7.2369806;4.082000255584717;1673390581.8067245;2.7031233310699463;-5.543080806732178;-46.06109619140625
393;1673390581.8879035;47.1290808;7.2369824;4.252000331878662;1673390582.0370216;3.2488787174224854;-5.27606725692749;-46.26728057861328
394;1673390582.1049016;47.1290793;7.236983899999999;4.318000316619873;1673390582.219841;3.412364959716797;-5.071990966796875;-46.336334228515625
395;1673390582.295017;47.1290772;7.2369859;4.330000400543213;1673390582.41615;3.946328639984131;-4.886940002441406;-46.5380973815918
396;1673390582.4978476;47.1290737;7.2369913;4.243000030517578;1673390582.6260529;4.352269172668457;-4.626824378967285;-46.70624923706055
397;1673390582.704701;47.1290695;7.2370028;4.103000164031982;1673390582.8379204;5.1772074699401855;-4.07009220123291;-47.21905517578125
398;1673390582.9178662;47.1290656;7.237017799999999;3.944000244140625;1673390583.023797;5.487537384033203;-3.7140798568725586;-47.399009704589844
399;1673390583.1009243;47.1290627;7.2370294;3.8030002117156982;1673390583.2151017;5.585076332092285;-3.5111560821533203;-47.418331146240234
400;1673390583.2913845;47.129060599999995;7.237036799999999;3.7200002670288086;1673390583.4097226;5.666440486907959;-3.2929465770721436;-47.40489959716797
401;1673390583.485963;47.1290592;7.237041199999999;3.6650002002716064;1673390583.6180336;5.663308620452881;-3.089580774307251;-47.388919830322266
402;1673390583.702501;47.1290584;7.2370445;3.5870001316070557;1673390583.832109;5.655138969421387;-2.836282730102539;-47.35469436645508
403;1673390583.9064434;47.1290578;7.2370467;3.510000228881836;1673390584.0334406;5.645184516906738;-2.6495583057403564;-47.32229232788086
404;1673390584.1122074;47.1290574;7.237048199999999;3.42900013923645;1673390584.2417896;5.590692043304443;-2.4019880294799805;-47.29263687133789
405;1673390584.3148522;47.129056899999995;7.2370491999999995;3.3460001945495605;1673390584.4296374;5.570682048797607;-2.2179224491119385;-47.21923828125
406;1673390584.5298748;47.1290565;7.2370499;3.266000270843506;1673390584.6421242;5.510916709899902;-2.02260422706604;-47.166046142578125
407;1673390584.710627;47.129055699999995;7.2370506;3.203000068664551;1673390584.8242311;5.567328453063965;-1.892486333847046;-47.13190460205078
408;1673390584.8945024;47.1290549;7.2370512;3.1480002403259277;1673390585.0168056;5.403702735900879;-1.7320504188537598;-47.057334899902344
409;1673390585.087216;47.1290543;7.237051699999999;3.080000162124634;1673390585.1958563;5.322813987731934;-1.5840671062469482;-46.992183685302734
410;1673390585.2758064;47.129053899999995;7.237051999999999;3.003000259399414;1673390585.4080913;5.166689395904541;-1.4022700786590576;-46.921974182128906
411;1673390585.48461;47.1290535;7.237052299999999;2.9200000762939453;1673390585.625529;5.06524133682251;-1.2686196565628052;-46.88142776489258
412;1673390585.7019434;47.1290532;7.237052599999999;2.8340001106262207;1673390585.8055985;4.9353203773498535;-1.1405013799667358;-46.7949104309082
413;1673390585.8862145;47.1290525;7.2370532;2.75600004196167;1673390586.0000308;4.982063293457031;-1.0532417297363281;-46.786163330078125
414;1673390586.0786567;47.1290517;7.237053899999999;2.6760001182556152;1673390586.2063577;4.857212066650391;-0.9014142751693726;-46.738609313964844
415;1673390586.2867444;47.1290512;7.2370543;-0.026000000536441803;1673390586.40258;4.657538414001465;-0.7776985168457031;-46.69681167602539
416;1673390586.483349;47.129051;7.237054499999999;-0.1210000067949295;1673390586.6129026;4.541441440582275;-0.643616259098053;-46.65545654296875
417;1673390586.7017293;47.129050899999996;7.2370547;-0.21900001168251038;1673390586.8339198;4.406814098358154;-0.5017484426498413;-46.61769104003906
418;1673390586.9073427;47.1290507;7.2370548999999995;-0.3150000274181366;;;;
