;pos_time;latitude;longitude;altitude;alt_time;pitch;roll;yaw
0;1673389048.0784373;47.1306424;7.2406203;0.0;1673389048.167851;0.32905182242393494;-0.3945671617984772;90.3156967163086
1;1673389048.2849114;47.1306424;7.2406203;0.0;1673389048.3841438;0.4394698739051819;-0.4664771258831024;90.33533477783203
2;1673389048.492422;47.1306425;7.2406201;-0.0010000000474974513;1673389048.5745034;0.3741219937801361;-0.4041573405265808;90.29446411132812
3;1673389048.6767552;47.1306425;7.2406198999999996;0.0;1673389048.7771628;-0.031630802899599075;-0.21498414874076843;90.2727279663086
4;1673389048.8887072;47.1306425;7.240619799999999;0.0;1673389048.9871597;0.12924645841121674;-0.5428035259246826;90.50146484375
5;1673389049.1065588;47.1306424;7.2406196;0.0020000000949949026;1673389049.1983454;0.1870187669992447;-0.2349841594696045;90.264404296875
6;1673389049.304132;47.1306424;7.240619499999999;0.0020000000949949026;1673389049.3967302;0.02873576432466507;-0.21389737725257874;90.16768646240234
7;1673389049.4956522;47.1306424;7.240619499999999;0.0;1673389049.5834024;-0.04815777391195297;-0.4650424122810364;90.28594970703125
8;1673389049.6802742;47.1306424;7.240619499999999;-0.0020000000949949026;1673389049.775503;0.01631213165819645;-0.3286336362361908;90.32711029052734
9;1673389049.8844252;47.1306424;7.2406196;0.0010000000474974513;1673389049.9913998;0.011244411580264568;-0.3014664649963379;90.32688903808594
10;1673389050.1090975;47.1306424;7.2406196;0.004000000189989805;1673389050.2160683;-0.07685410231351852;-0.3625265955924988;90.31678009033203
11;1673389050.3181167;47.1306424;7.2406197;0.004000000189989805;1673389050.4084709;0.101050965487957;-0.3306329548358917;90.18053436279297
12;1673389050.516586;47.1306423;7.240619799999999;0.003000000026077032;1673389050.6079755;-0.23881766200065613;-0.3548352122306824;90.33941650390625
13;1673389050.6934245;47.1306423;7.2406198999999996;0.0020000000949949026;1673389050.7834837;-0.08749915659427643;-0.14018064737319946;90.21074676513672
14;1673389050.874414;47.1306423;7.2406198999999996;0.0010000000474974513;1673389050.9736483;0.16507551074028015;-0.1866658329963684;90.33143615722656
15;1673389051.0776298;47.1306423;7.2406198999999996;0.0;1673389051.1753907;-0.06458115577697754;-0.3803477883338928;90.21800994873047
16;1673389051.2897584;47.1306423;7.240619799999999;-0.0010000000474974513;1673389051.38649;0.14462852478027344;-0.597002387046814;90.3803939819336
17;1673389051.4957385;47.1306423;7.240619799999999;0.0;1673389051.6019912;0.004439048934727907;-0.27644190192222595;90.21104431152344
18;1673389051.698427;47.1306424;7.2406197;-0.0010000000474974513;1673389051.7778203;-0.06913866102695465;0.035783566534519196;90.38745880126953
19;1673389051.8795247;47.1306424;7.240619799999999;-0.0010000000474974513;1673389051.9733682;-0.1815004199743271;-0.6123836040496826;90.46946716308594
20;1673389052.0674968;47.1306424;7.240619799999999;-0.0020000000949949026;1673389052.1660283;-0.15097370743751526;0.023563086986541748;90.36536407470703
21;1673389052.278619;47.1306425;7.240619799999999;-0.005000000353902578;1673389052.3814373;0.11226963996887207;0.6710809469223022;90.6590805053711
22;1673389052.4867098;47.1306425;7.240619799999999;-0.004000000189989805;1673389052.585418;-0.13215617835521698;0.19430041313171387;90.74845123291016
23;1673389052.6894972;47.1306425;7.240619799999999;-0.004000000189989805;1673389052.7858193;-0.11619976162910461;0.7230413556098938;90.72815704345703
24;1673389052.8996863;47.1306425;7.2406197;-0.0010000000474974513;1673389052.9905758;0.21836970746517181;-0.09420124441385269;90.20866394042969
25;1673389053.096644;47.1306425;7.2406196;0.0010000000474974513;1673389053.1885474;0.2143169790506363;-0.15432244539260864;90.45336151123047
26;1673389053.2914836;47.1306425;7.2406196;0.0020000000949949026;1673389053.391688;-0.0005175102269276977;-0.10004941374063492;90.33355712890625
27;1673389053.4917321;47.1306425;7.2406196;0.0010000000474974513;1673389053.585653;-1.2944552898406982;-0.07917609065771103;91.1861343383789
28;1673389053.6815534;47.1306424;7.2406196;0.004000000189989805;1673389053.7816942;-1.6435892581939697;0.38794270157814026;90.43318939208984
29;1673389053.8945324;47.1306423;7.2406197;0.01900000125169754;1673389053.9906943;-0.599495530128479;2.544023275375366;90.24284362792969
30;1673389054.0885801;47.1306422;7.2406198999999996;0.06200000271201134;1673389054.18969;0.9259753227233887;-1.8370543718338013;90.38665008544922
31;1673389054.327665;47.1306423;7.24062;0.11400000751018524;1673389054.4336507;1.1910334825515747;-1.854099154472351;90.166748046875
32;1673389054.52974;47.1306422;7.2406201;0.18200001120567322;1673389054.6345675;1.5331021547317505;2.3942956924438477;90.08489990234375
33;1673389054.733881;47.130642099999996;7.2406201;0.26600000262260437;1673389054.8209996;0.688872218132019;-1.2533680200576782;90.3292007446289
34;1673389054.9279802;47.130642099999996;7.2406201;0.359000027179718;1673389055.0136669;-0.05554524064064026;-3.263683319091797;90.65025329589844
35;1673389055.113735;47.1306419;7.24062;0.4710000157356262;1673389055.197711;-0.03977149724960327;1.205597996711731;90.16070556640625
36;1673389055.2941232;47.1306419;7.24062;0.5990000367164612;1673389055.3922803;0.27286916971206665;-1.0756486654281616;90.41141510009766
37;1673389055.4934998;47.130641999999995;7.2406198999999996;0.7310000061988831;1673389055.5995612;0.7494291067123413;-3.212841033935547;90.3841781616211
38;1673389055.7076242;47.1306422;7.2406198999999996;0.878000020980835;1673389055.7985249;0.9943747520446777;1.7046983242034912;90.29319763183594
39;1673389055.9067197;47.1306422;7.240619799999999;1.0420000553131104;1673389055.989311;0.10201319307088852;0.9207608699798584;90.4852066040039
40;1673389056.0903964;47.1306423;7.240619799999999;1.2160000801086426;1673389056.1846642;-0.33288607001304626;-2.741072177886963;91.05799865722656
41;1673389056.2997189;47.1306423;7.240619799999999;1.3960000276565552;1673389056.400291;-0.3948996961116791;0.4541620910167694;90.59107971191406
42;1673389056.499447;47.1306422;7.240619799999999;1.5840001106262207;1673389056.5956385;-0.14647719264030457;1.691291332244873;90.38917541503906
43;1673389056.6998217;47.1306423;7.240619799999999;1.777000069618225;1673389056.7873535;0.15392115712165833;-2.7607715129852295;90.63970947265625
44;1673389056.891391;47.1306425;7.240619799999999;1.970000147819519;1673389056.98661;1.0453989505767822;0.09967833012342453;90.52644348144531
45;1673389057.0918493;47.130642599999995;7.240619799999999;2.1680002212524414;1673389057.1804397;0.37987151741981506;2.8377089500427246;90.70784759521484
46;1673389057.2904744;47.130642599999995;7.240619799999999;2.3630001544952393;1673389057.3925278;0.1544380635023117;-1.7746472358703613;91.01697540283203
47;1673389057.5004888;47.130642599999995;7.2406198999999996;2.5530002117156982;1673389057.5947666;-0.18037672340869904;-1.1785917282104492;91.09993743896484
48;1673389057.6958683;47.1306425;7.2406198999999996;2.751000165939331;1673389057.790977;-0.021857457235455513;2.45977783203125;90.79879760742188
49;1673389057.921056;47.1306425;7.24062;2.951000213623047;1673389058.006998;0.09000752121210098;-1.4195395708084106;91.00151824951172
50;1673389058.1357896;47.130642599999995;7.24062;3.1470000743865967;1673389058.22727;0.46821627020835876;-0.9954416155815125;91.29947662353516
51;1673389058.3193667;47.130642699999996;7.24062;3.3450002670288086;1673389058.4176228;0.811341404914856;2.4824657440185547;90.8904800415039
52;1673389058.5188358;47.130642599999995;7.24062;3.5470001697540283;1673389058.6145468;0.4935040771961212;-0.18292157351970673;91.15181732177734
53;1673389058.711877;47.1306425;7.2406198999999996;3.744000196456909;1673389058.8038542;0.04980926588177681;-3.093143939971924;91.13778686523438
54;1673389058.9154227;47.1306423;7.2406198999999996;3.946000099182129;1673389059.0138443;-0.27624720335006714;1.3535473346710205;90.78536224365234
55;1673389059.10881;47.1306422;7.2406198999999996;4.14900016784668;1673389059.1963627;-0.2817001938819885;-0.1240549311041832;91.00420379638672
56;1673389059.2975616;47.1306423;7.2406198999999996;4.3560004234313965;1673389059.3857605;-0.2379564642906189;-2.8075127601623535;91.15731811523438
57;1673389059.502749;47.1306425;7.2406198999999996;4.562000274658203;1673389059.5995774;0.12311781942844391;1.676253318786621;91.14353942871094
58;1673389059.7066145;47.1306425;7.2406198999999996;4.766000270843506;1673389059.7926881;0.5739355087280273;1.5633372068405151;90.873291015625
59;1673389059.914103;47.1306425;7.2406198999999996;4.968000411987305;1673389060.003165;0.5986251831054688;-2.9153740406036377;91.13519287109375
60;1673389060.100014;47.1306424;7.2406198999999996;5.1650004386901855;1673389060.1923096;0.08032726496458054;0.09274610131978989;90.86503601074219
61;1673389060.306113;47.1306423;7.2406198999999996;5.362000465393066;1673389060.3955002;-0.44385698437690735;1.9570770263671875;90.67166137695312
62;1673389060.5024471;47.1306424;7.2406198999999996;5.562000274658203;1673389060.6008155;-0.28159475326538086;-2.4633636474609375;91.16606903076172
63;1673389060.7017505;47.1306425;7.2406198999999996;5.765000343322754;1673389060.7970252;-0.42370539903640747;0.11386347562074661;91.03424835205078
64;1673389060.9075665;47.1306425;7.2406198999999996;5.974000453948975;1673389060.9980505;0.04724249988794327;2.801100015640259;90.90383911132812
65;1673389061.098582;47.1306425;7.240619799999999;6.180000305175781;1673389061.1933799;0.5126367211341858;-1.3663713932037354;90.88195037841797
66;1673389061.2996328;47.1306424;7.240619799999999;6.381000518798828;1673389061.3945303;0.5030084252357483;-1.6813499927520752;91.1092300415039
67;1673389061.4945612;47.1306422;7.2406198999999996;6.585000514984131;1673389061.589133;0.1883486658334732;1.7802149057388306;90.92747497558594
68;1673389061.6993752;47.1306422;7.24062;6.7920002937316895;1673389061.7958286;-0.35597363114356995;-0.8604510426521301;91.14513397216797
69;1673389061.901401;47.1306423;7.2406201;6.998000144958496;1673389062.0006442;-0.287019819021225;-2.5007078647613525;91.45248413085938
70;1673389062.1087234;47.1306423;7.2406201;7.198000431060791;1673389062.2002585;0.1209493950009346;2.281338691711426;90.94502258300781
71;1673389062.3044214;47.1306423;7.2406201999999995;7.397000312805176;1673389062.4056845;0.5063530206680298;0.4861421585083008;91.10731506347656
72;1673389062.513942;47.1306423;7.2406201;7.5960001945495605;1673389062.599488;0.6357549428939819;-2.89799165725708;91.14236450195312
73;1673389062.7015727;47.1306423;7.2406201;7.7910003662109375;1673389062.7968585;0.638174831867218;1.2497447729110718;90.8414077758789
74;1673389062.9019353;47.1306422;7.2406201;7.992000579833984;1673389062.9922745;-0.17216689884662628;0.7624374628067017;91.0007095336914
75;1673389063.1016202;47.1306423;7.2406201;8.190999984741211;1673389063.2004557;-0.4453781545162201;-2.4428458213806152;91.14381408691406
76;1673389063.3094413;47.1306423;7.2406201;8.388999938964844;1673389063.3998199;-0.27098533511161804;1.1046234369277954;91.21691131591797
77;1673389063.5135896;47.1306423;7.24062;8.588000297546387;1673389063.6107793;-0.3153976798057556;1.5583277940750122;90.76053619384766
78;1673389063.713981;47.1306422;7.24062;8.78700065612793;1673389063.8056035;0.12701120972633362;-3.2187771797180176;91.01359558105469
79;1673389063.9076905;47.1306422;7.2406198999999996;8.985000610351562;1673389064.0068276;0.3363966941833496;-0.14897513389587402;91.11449432373047
80;1673389064.113882;47.130642099999996;7.24062;9.182000160217285;1673389064.2506864;0.44143447279930115;2.113271951675415;90.93421173095703
81;1673389064.337346;47.1306422;7.24062;9.380000114440918;1673389064.425295;0.025433063507080078;-1.9946975708007812;91.21871185302734
82;1673389064.5286348;47.1306423;7.2406201;9.577000617980957;1673389064.6191761;-0.6204445958137512;-0.6587779521942139;90.8823013305664
83;1673389064.7115912;47.1306422;7.2406201;9.779000282287598;1673389064.8002975;-0.2842899560928345;2.374847173690796;90.96422576904297
84;1673389064.903888;47.130642099999996;7.2406201;9.97800064086914;1673389064.9943242;-0.2732844650745392;-1.8915162086486816;91.04820251464844
85;1673389065.1024568;47.1306422;7.24062;10.1850004196167;1673389065.1993895;0.1151595190167427;-1.9799498319625854;91.16670227050781
86;1673389065.3058143;47.1306422;7.24062;10.46500015258789;1673389065.3961937;0.19181020557880402;1.936357855796814;91.01312255859375
87;1673389065.5024443;47.1306423;7.24062;10.818000793457031;1673389065.6030324;0.46913236379623413;1.0151371955871582;90.97603607177734
88;1673389065.7041395;47.1306424;7.2406201;11.19800090789795;1673389065.798454;0.5920079946517944;-2.3556885719299316;91.04399871826172
89;1673389065.9041154;47.1306424;7.2406201;11.593000411987305;1673389065.996236;0.5468304753303528;0.8088990449905396;90.95498657226562
90;1673389066.0997796;47.1306423;7.2406201999999995;11.988000869750977;1673389066.1960196;0.3071693480014801;1.7257977724075317;90.95948791503906
91;1673389066.3015032;47.1306423;7.2406201999999995;12.38800048828125;1673389066.3864748;0.14217020571231842;-2.5789594650268555;91.21372985839844
92;1673389066.4837368;47.1306422;7.2406201999999995;12.78800106048584;1673389066.5732746;-0.016432421281933784;-0.5419497489929199;91.02366638183594
93;1673389066.672646;47.130642099999996;7.2406201;13.196001052856445;1673389066.7696888;0.09300287812948227;1.962632179260254;90.81278991699219
94;1673389066.887616;47.1306422;7.2406201;13.609000205993652;1673389066.9926157;0.4384895861148834;-1.983675479888916;90.9882583618164
95;1673389067.1224203;47.1306422;7.2406201;14.01400089263916;1673389067.213415;0.5513260960578918;-1.4048726558685303;91.05853271484375
96;1673389067.3244178;47.1306422;7.2406201;14.422000885009766;1673389067.4309669;0.6945787668228149;2.335134744644165;90.92568969726562
97;1673389067.5377436;47.1306422;7.2406201;14.830000877380371;1673389067.6396375;0.3016176223754883;-0.8000021576881409;91.06407165527344
98;1673389067.7565558;47.1306422;7.24062;15.235000610351562;1673389067.8420832;0.05185853689908981;-2.263930082321167;91.16046905517578
99;1673389067.9499831;47.1306422;7.24062;15.63900089263916;1673389068.0384495;-0.13438525795936584;2.018562078475952;90.7801284790039
100;1673389068.1494317;47.1306422;7.24062;16.04400062561035;1673389068.246154;-0.12833715975284576;0.2766045928001404;91.04461669921875
101;1673389068.3529642;47.1306424;7.2406198999999996;16.450000762939453;1673389068.434673;-0.00561772333458066;-2.2390856742858887;91.30484008789062
102;1673389068.525623;47.1306424;7.2406198999999996;16.85900115966797;1673389068.608202;0.11060686409473419;1.9152436256408691;91.03852844238281
103;1673389068.715136;47.1306424;7.240619799999999;17.273000717163086;1673389068.8026695;0.45244354009628296;1.0629929304122925;90.95797729492188
104;1673389068.9011898;47.1306423;7.240619799999999;17.685001373291016;1673389068.9990032;0.30797865986824036;-2.83895206451416;91.04979705810547
105;1673389069.1049547;47.1306423;7.240619799999999;18.089000701904297;1673389069.196291;0.13232944905757904;0.3512765169143677;90.86730194091797
106;1673389069.3014078;47.1306422;7.240619799999999;18.494001388549805;1673389069.3976023;-0.33033454418182373;1.8898478746414185;90.85272979736328
107;1673389069.5139143;47.1306423;7.2406197;18.9010009765625;1673389069.6157117;-0.39233678579330444;-2.157703399658203;91.28694915771484
108;1673389069.7134717;47.1306423;7.2406197;19.304000854492188;1673389069.8077908;-0.391006201505661;-0.8563997149467468;91.05289459228516
109;1673389069.9206886;47.1306423;7.240619799999999;19.711000442504883;1673389070.0156882;-0.25783005356788635;2.4951980113983154;90.88569641113281
110;1673389070.1247563;47.1306423;7.240619799999999;20.119001388549805;1673389070.2250376;0.03906003758311272;-1.9667531251907349;91.03652954101562
111;1673389070.3225746;47.1306423;7.240619799999999;20.5260009765625;1673389070.417435;0.24248160421848297;-1.6139482259750366;91.11935424804688
112;1673389070.5165982;47.1306423;7.240619799999999;20.92300033569336;1673389070.6101534;0.2968350350856781;2.416128158569336;90.97416687011719
113;1673389070.7087867;47.1306424;7.240619799999999;21.316001892089844;1673389070.7923608;0.1417059451341629;-0.5729486346244812;91.09358215332031
114;1673389070.889543;47.1306425;7.240619799999999;21.709001541137695;1673389070.9950545;0.005966276861727238;-1.8445957899093628;91.18782043457031
115;1673389071.108292;47.1306425;7.240619799999999;22.10700035095215;1673389071.2088993;-0.24058598279953003;2.3321521282196045;90.83055877685547
116;1673389071.3253014;47.1306425;7.240619799999999;22.50400161743164;1673389071.4461622;-0.3008935749530792;0.12606826424598694;90.97251892089844
117;1673389071.54544;47.1306425;7.240619799999999;22.900001525878906;1673389071.6357424;-0.20729124546051025;-2.591066837310791;91.10061645507812
118;1673389071.7645085;47.1306425;7.240619799999999;23.292001724243164;1673389071.852575;0.2913613021373749;1.6757830381393433;91.10517883300781
119;1673389071.9712029;47.1306425;7.2406198999999996;23.691001892089844;1673389072.0490937;0.3563820719718933;1.2676016092300415;90.93653869628906
120;1673389072.1330833;47.130642599999995;7.2406198999999996;24.090002059936523;1673389072.2172647;0.5885183811187744;-2.268338203430176;91.018798828125
121;1673389072.3130214;47.130642699999996;7.2406198999999996;24.487001419067383;1673389072.4119792;0.6206860542297363;0.07319077849388123;90.88359832763672
122;1673389072.5136964;47.130642599999995;7.2406198999999996;24.884000778198242;1673389072.6089268;0.4236065149307251;2.6103386878967285;90.97746276855469
123;1673389072.7100546;47.130642599999995;7.240619799999999;25.28700065612793;1673389072.810208;0.26043030619621277;-1.5277405977249146;91.04918670654297
124;1673389072.9077177;47.130642599999995;7.240619799999999;25.687000274658203;1673389072.999299;-0.12131892144680023;-1.0423774719238281;91.13179779052734
125;1673389073.104288;47.130642599999995;7.2406197;26.078001022338867;1673389073.197802;-0.23357410728931427;2.5231804847717285;90.77096557617188
126;1673389073.2979453;47.130642599999995;7.2406196;26.476001739501953;1673389073.385441;-0.22440680861473083;-0.7896692752838135;91.0841293334961
127;1673389073.4886096;47.130642699999996;7.2406196;26.873001098632812;1673389073.5830667;-0.13816839456558228;-1.7601886987686157;91.27515411376953
128;1673389073.6880426;47.130642599999995;7.240619499999999;27.273000717163086;1673389073.778501;-0.19323205947875977;2.3935160636901855;90.89749145507812
129;1673389073.8924265;47.1306425;7.240619499999999;27.674001693725586;1673389073.9841464;0.04075714200735092;0.45501789450645447;91.06819915771484
130;1673389074.0829983;47.1306425;7.240619499999999;28.07600212097168;1673389074.1930718;0.2200937718153;-2.9261295795440674;91.0425796508789
131;1673389074.3100114;47.1306425;7.240619499999999;28.47100067138672;1673389074.412134;0.32841408252716064;1.3090251684188843;90.95326232910156
132;1673389074.5193353;47.1306424;7.240619499999999;28.86800193786621;1673389074.615576;-0.021982641890645027;1.586130142211914;90.94747924804688
133;1673389074.7227173;47.1306425;7.2406196;29.26300048828125;1673389074.812814;-0.1316155046224594;-2.016422748565674;91.22740936279297
134;1673389074.9705715;47.130642599999995;7.2406196;29.65900230407715;1673389075.1188805;-0.4837995171546936;0.34390097856521606;91.01277923583984
135;1673389075.2001371;47.1306425;7.240619499999999;30.064001083374023;1673389075.2798185;-0.33980411291122437;2.393125534057617;90.77657318115234
136;1673389075.3545609;47.1306425;7.240619499999999;30.470001220703125;1673389075.4418046;-0.28575894236564636;-2.0740067958831787;91.01396179199219
137;1673389075.5385962;47.1306425;7.2406194;30.871002197265625;1673389075.627421;0.01414294634014368;-0.5108300447463989;91.11109924316406
138;1673389075.7266247;47.1306425;7.2406194;31.266000747680664;1673389075.8199735;0.23983892798423767;2.7982194423675537;91.02010345458984
139;1673389075.9225423;47.1306425;7.2406194;31.656002044677734;1673389076.0210273;0.12050500512123108;-0.989186704158783;91.14633178710938
140;1673389076.1229727;47.130642599999995;7.240619499999999;32.04800033569336;1673389076.2119474;0.3212166428565979;-1.4249833822250366;91.09062957763672
141;1673389076.3107538;47.130642599999995;7.2406196;32.444000244140625;1673389076.3915782;-0.07934622466564178;2.692232608795166;90.78453063964844
142;1673389076.4934118;47.1306424;7.2406196;32.842002868652344;1673389076.585127;0.04300110787153244;-0.09529808908700943;91.01121520996094
143;1673389076.6943667;47.1306424;7.2406196;33.24500274658203;1673389076.7932396;-0.21013186872005463;-2.483248233795166;91.25630950927734
144;1673389076.9004765;47.1306424;7.2406197;33.64200210571289;1673389076.9900103;-0.03971242904663086;1.5099101066589355;90.99183654785156
145;1673389077.0936532;47.1306423;7.2406197;34.04500198364258;1673389077.189045;0.10885075479745865;1.5579681396484375;90.83052062988281
146;1673389077.3018875;47.1306424;7.2406197;34.44700241088867;1673389077.3966448;0.4604807198047638;-2.3713018894195557;91.0112075805664
147;1673389077.5013206;47.1306424;7.2406197;34.849002838134766;1673389077.5937192;0.5990197658538818;0.3815997838973999;90.95408630371094
148;1673389077.721234;47.1306423;7.2406196;35.255001068115234;1673389077.8077595;0.44302111864089966;2.086215019226074;90.96070098876953
149;1673389077.9227817;47.1306423;7.2406197;35.659000396728516;1673389078.0122452;0.09117409586906433;-2.3457469940185547;91.2098617553711
150;1673389078.1192408;47.1306423;7.2406197;36.05800247192383;1673389078.2097664;0.05526554957032204;-0.8977819085121155;91.04180908203125
151;1673389078.3218675;47.1306423;7.2406197;36.452003479003906;1673389078.4132593;0.07492291927337646;2.3366026878356934;90.85533905029297
152;1673389078.5155032;47.1306424;7.2406197;36.85100173950195;1673389078.6050537;-0.1341215968132019;-1.1914578676223755;91.03592681884766
153;1673389078.717907;47.1306425;7.2406196;37.249000549316406;1673389078.8102973;-0.11992337554693222;-1.36626398563385;91.22698211669922
154;1673389078.9058628;47.1306425;7.240619499999999;37.65300369262695;1673389078.9976466;-0.08682230114936829;2.6020734310150146;90.89000701904297
155;1673389079.0995722;47.1306425;7.240619499999999;38.057003021240234;1673389079.2004266;0.07972660660743713;0.1598157435655594;90.990478515625
156;1673389079.3140938;47.1306425;7.240619499999999;38.4630012512207;1673389079.4007099;0.2339639514684677;-2.714073896408081;91.08943176269531
157;1673389079.4937887;47.1306425;7.240619499999999;38.85900115966797;1673389079.5959835;0.04057495296001434;1.9186811447143555;90.87354278564453
158;1673389079.6951058;47.1306425;7.240619499999999;39.26000213623047;1673389079.7923229;-0.25007590651512146;0.8785226345062256;90.94890594482422
159;1673389079.9024005;47.130642599999995;7.240619499999999;39.656002044677734;1673389080.003485;-0.2812669575214386;-2.078108072280884;91.26530456542969
160;1673389080.1212003;47.130642599999995;7.240619499999999;40.05400085449219;1673389080.2232952;-0.40838003158569336;1.4175782203674316;90.92046356201172
161;1673389080.336691;47.1306425;7.240619499999999;40.454002380371094;1673389080.4334917;-0.3398545980453491;1.5296143293380737;90.82439422607422
162;1673389080.5355997;47.1306425;7.240619499999999;40.854000091552734;1673389080.623103;0.01440785638988018;-2.742382287979126;91.14364624023438
163;1673389080.7206438;47.1306425;7.2406196;41.25100326538086;1673389080.812305;0.08443869650363922;0.48714250326156616;91.02043151855469
164;1673389080.9159174;47.1306425;7.240619499999999;41.64500045776367;1673389081.0032172;0.09282262623310089;2.4880013465881348;91.0239486694336
165;1673389081.1052604;47.130642699999996;7.2406196;42.04100036621094;1673389081.2093039;0.20399165153503418;-1.7377139329910278;91.0069351196289
166;1673389081.3045278;47.1306428;7.2406196;42.43800354003906;1673389081.4007566;0.16557778418064117;-0.11051901429891586;91.0738525390625
167;1673389081.5140016;47.130642699999996;7.2406197;42.83500289916992;1673389081.61663;0.11705980449914932;2.7450199127197266;90.88231658935547
168;1673389081.7482984;47.130642599999995;7.2406197;43.23600387573242;1673389081.8376565;-0.024839261546730995;-1.1678065061569214;91.10102081298828
169;1673389081.9524584;47.130642599999995;7.2406197;43.63600158691406;1673389082.0581322;-0.20162908732891083;-1.6590616703033447;91.20853424072266
170;1673389082.1553836;47.1306425;7.2406197;44.03200149536133;1673389082.2346685;-0.010271856561303139;2.374737024307251;90.84866333007812
171;1673389082.3259027;47.1306425;7.2406197;44.43300247192383;1673389082.4162757;0.28152018785476685;-0.3362852931022644;91.00413513183594
172;1673389082.511277;47.130642599999995;7.2406196;44.83500289916992;1673389082.6001399;0.33058789372444153;-2.100489616394043;90.95697021484375
173;1673389082.6983628;47.130642599999995;7.240619499999999;45.237003326416016;1673389082.7905037;0.2230314165353775;2.2532808780670166;90.97965240478516
174;1673389082.8987448;47.1306425;7.240619499999999;45.63800048828125;1673389082.991048;0.2113254964351654;0.6083826422691345;91.09065246582031
175;1673389083.1000116;47.1306424;7.240619499999999;46.038002014160156;1673389083.1961288;-0.14534679055213928;-2.8275363445281982;91.20536041259766
176;1673389083.2962599;47.1306425;7.240619499999999;46.43700408935547;1673389083.3926132;-0.11165013164281845;1.0846730470657349;90.88066864013672
177;1673389083.5075157;47.1306425;7.240619499999999;46.832000732421875;1673389083.6044466;-0.3684455454349518;1.6762487888336182;90.87005615234375
178;1673389083.7069938;47.130642599999995;7.240619499999999;47.22800064086914;1673389083.7984543;0.06394648551940918;-1.9928804636001587;91.19074249267578
179;1673389083.9013944;47.130642699999996;7.240619499999999;47.62600326538086;1673389083.994274;0.08912943303585052;0.8551973700523376;91.07523345947266
180;1673389084.0975094;47.130642599999995;7.2406194;48.02300262451172;1673389084.1978376;0.29887333512306213;2.616318702697754;90.82164001464844
181;1673389084.3089402;47.1306425;7.2406194;48.380001068115234;1673389084.4084797;-0.330911248922348;-3.102367401123047;91.04295349121094
182;1673389084.5224342;47.130642599999995;7.2406194;48.68400192260742;1673389084.6229334;-0.2535703480243683;0.6995352506637573;90.82518005371094
183;1673389084.7257206;47.130642599999995;7.2406194;48.932003021240234;1673389084.8239355;-0.30719733238220215;2.5515897274017334;91.01692199707031
184;1673389084.9212072;47.130642599999995;7.2406194;49.1410026550293;1673389085.00667;-0.20416027307510376;-1.6613943576812744;91.2566146850586
185;1673389085.1227012;47.130642699999996;7.2406194;49.316001892089844;1673389085.2204504;8.038837432861328;7.0033345222473145;91.98587036132812
186;1673389085.3257098;47.1306423;7.240619;49.465003967285156;1673389085.42295;23.53026008605957;29.579092025756836;102.66681671142578
187;1673389085.5290492;47.1306411;7.240616999999999;49.59700393676758;1673389085.6128693;27.92189598083496;46.669471740722656;112.94559478759766
188;1673389085.7137995;47.130637899999996;7.240611899999999;49.717002868652344;1673389085.8049634;22.062053680419922;56.271697998046875;121.96128845214844
189;1673389085.909166;47.1306322;7.2406028;49.81100082397461;1673389086.0044985;3.713329553604126;60.62447738647461;132.48019409179688
190;1673389086.1255422;47.130623799999995;7.24059;49.868003845214844;1673389086.2137425;-15.243038177490234;57.67396926879883;143.16749572753906
191;1673389086.3335903;47.1306132;7.2405743;49.89600372314453;1673389086.4318137;-27.994043350219727;50.84931182861328;154.7677001953125
192;1673389086.5252037;47.130600699999995;7.2405563;49.91200256347656;1673389086.6166732;-37.4501838684082;43.151954650878906;165.74560546875
193;1673389086.725812;47.130586699999995;7.2405365999999995;49.91100311279297;1673389086.8246443;-46.96856689453125;40.545528411865234;177.12872314453125
194;1673389086.9288511;47.1305714;7.240514999999999;49.88500213623047;1673389087.0231678;-49.20747375488281;31.187255859375;-171.24061584472656
195;1673389087.1206913;47.130555199999996;7.2404917;49.827003479003906;1673389087.2047672;-44.22874069213867;22.503829956054688;-164.85191345214844
196;1673389087.305025;47.1305384;7.240467499999999;49.75800323486328;1673389087.398276;-45.342159271240234;17.764812469482422;-158.94947814941406
197;1673389087.5093524;47.1305214;7.2404427;49.7030029296875;1673389087.598911;-47.50687789916992;12.980076789855957;-151.27688598632812
198;1673389087.7167463;47.130504099999996;7.2404173;49.6660041809082;1673389087.8129814;-46.17097854614258;6.356500148773193;-143.0094757080078
199;1673389087.9271636;47.130486499999996;7.2403914;49.64200210571289;1673389088.0360208;-47.53668212890625;4.6894659996032715;-137.52294921875
200;1673389088.1390579;47.130468799999996;7.240365199999999;49.62300109863281;1673389088.2246335;-46.50226974487305;-2.4145829677581787;-131.21270751953125
201;1673389088.3451993;47.130451;7.240338599999999;49.62000274658203;1673389088.434085;-47.19215393066406;-6.55141544342041;-132.26724243164062
202;1673389088.5274882;47.130433;7.2403122;49.61900329589844;1673389088.6238592;-47.5312385559082;-5.590145111083984;-135.32797241210938
203;1673389088.719237;47.130414599999995;7.2402862;49.621002197265625;1673389088.8145685;-47.600276947021484;-4.0464959144592285;-136.9508056640625
204;1673389088.9188852;47.130395899999996;7.2402603999999995;49.621002197265625;1673389089.00962;-47.68305587768555;-2.7415575981140137;-137.7003173828125
205;1673389089.1099956;47.130376899999995;7.2402348;49.62700271606445;1673389089.2063916;-47.4517707824707;-1.390649437904358;-138.228271484375
206;1673389089.3143632;47.1303577;7.2402093999999995;49.64500045776367;1673389089.4086483;-48.15983581542969;-0.485009104013443;-138.51699829101562
207;1673389089.511795;47.1303383;7.2401841;49.669002532958984;1673389089.614112;-49.352691650390625;0.2106177657842636;-138.65065002441406
208;1673389089.7245555;47.1303187;7.240158699999999;49.69400405883789;1673389089.8187785;-49.35834503173828;0.572391152381897;-138.57997131347656
209;1673389089.9188042;47.130299;7.2401330999999995;49.71900177001953;1673389090.0071535;-48.78216552734375;0.5917972922325134;-138.32720947265625
210;1673389090.1035817;47.1302793;7.2401075;49.733001708984375;1673389090.1994326;-47.947906494140625;0.626079797744751;-138.14569091796875
211;1673389090.3041606;47.1302595;7.240081699999999;49.750003814697266;1673389090.4083588;-47.76812744140625;0.5552661418914795;-137.95144653320312
212;1673389090.5166228;47.1302398;7.2400559;49.76300048828125;1673389090.6098876;-47.97801208496094;0.3812877833843231;-137.76992797851562
213;1673389090.7142966;47.130220099999995;7.24003;49.7760009765625;1673389090.8051028;-48.12922668457031;0.29817426204681396;-137.61839294433594
214;1673389090.9200408;47.1302004;7.2400039;49.78400421142578;1673389091.0066211;-48.04511260986328;0.22796891629695892;-137.5034942626953
215;1673389091.1011894;47.130180599999996;7.239977799999999;49.794002532958984;1673389091.1969674;-47.829345703125;0.20718783140182495;-137.41705322265625
216;1673389091.2992687;47.1301609;7.2399515999999995;49.797000885009766;1673389091.398143;-47.59366226196289;0.164902463555336;-137.3133544921875
217;1673389091.5064335;47.1301413;7.2399254;49.80500411987305;1673389091.614026;-47.7723274230957;0.13668707013130188;-137.27711486816406
218;1673389091.7122498;47.130121599999995;7.2398991;49.81200408935547;1673389091.8047254;-48.050540924072266;0.09174106270074844;-137.23240661621094
219;1673389091.9202197;47.1301019;7.239872699999999;49.82600402832031;1673389092.0254052;-48.3386116027832;0.0894942656159401;-137.1808624267578
220;1673389092.133599;47.1300822;7.2398463;49.840003967285156;1673389092.2310977;-48.60298538208008;0.08532926440238953;-137.15753173828125
221;1673389092.3400483;47.130062599999995;7.239819799999999;49.85100173950195;1673389092.4404042;-48.40247344970703;-0.020005159080028534;-137.0697021484375
222;1673389092.5470586;47.1300429;7.239793199999999;49.85900115966797;1673389092.6437833;-48.22867202758789;-0.0018609348917379975;-137.074462890625
223;1673389092.742039;47.1300233;7.2397667;49.85700225830078;1673389092.8373263;-47.8696403503418;-0.03078993409872055;-137.04209899902344
224;1673389092.946383;47.130003699999996;7.2397401;49.855003356933594;1673389093.0374527;-47.64834213256836;-0.039064183831214905;-137.0335693359375
225;1673389093.1385398;47.129984099999994;7.2397135;49.85900115966797;1673389093.2231915;-47.87127685546875;-0.07458192110061646;-137.01332092285156
226;1673389093.3088372;47.1299645;7.239686799999999;49.862003326416016;1673389093.4040716;-48.32061767578125;-0.061672989279031754;-137.0140838623047
227;1673389093.5092955;47.1299449;7.239660199999999;49.862003326416016;1673389093.60061;-48.20248031616211;-0.001468003261834383;-137.01412963867188
228;1673389093.7094963;47.1299253;7.2396335;49.86000061035156;1673389093.8049634;-47.85414505004883;-0.0030027495231479406;-137.01075744628906
229;1673389093.9070501;47.129905699999995;7.2396069;49.855003356933594;1673389094.017955;-47.61602020263672;-0.03946051746606827;-136.9713897705078
230;1673389094.1352808;47.1298861;7.2395802;49.85600280761719;1673389094.2270796;-48.028160095214844;0.07866412401199341;-137.01278686523438
231;1673389094.34129;47.1298665;7.2395536;49.86100387573242;1673389094.4312704;-48.436519622802734;0.013118360191583633;-136.9762420654297
232;1673389094.5273314;47.129847;7.2395268999999995;49.86600112915039;1673389094.6197371;-48.46176528930664;0.010207383893430233;-136.9876251220703
233;1673389094.7216313;47.129827399999996;7.239500199999999;49.871002197265625;1673389094.8201687;-48.2451286315918;-0.05296140909194946;-136.9437713623047
234;1673389094.9161665;47.129807799999995;7.2394734;49.87300109863281;1673389095.0090754;-48.21482849121094;0.01677463762462139;-136.96383666992188
235;1673389095.1197975;47.1297882;7.2394466;49.87300109863281;1673389095.2123275;-48.08009719848633;-0.051048196852207184;-136.93661499023438
236;1673389095.3212237;47.1297686;7.239419799999999;49.87200164794922;1673389095.4242563;-47.97991943359375;-0.07276178151369095;-136.94216918945312
237;1673389095.535355;47.129749;7.2393928999999995;49.87600326538086;1673389095.6322818;-48.086307525634766;-0.117941714823246;-136.94114685058594
238;1673389095.7360146;47.129729399999995;7.2393661;49.880001068115234;1673389095.8240013;-48.25428771972656;-0.0944397896528244;-136.9654083251953
239;1673389095.9275265;47.129709899999995;7.2393392;49.884002685546875;1673389096.0159867;-48.26955795288086;-0.09151531010866165;-136.9607696533203
240;1673389096.1226888;47.1296903;7.2393125;49.8910026550293;1673389096.2207458;-48.283992767333984;-0.030692480504512787;-136.9830780029297
241;1673389096.3249238;47.1296707;7.2392856;49.897003173828125;1673389096.4162276;-48.219512939453125;-0.016868434846401215;-136.9974822998047
242;1673389096.5254567;47.1296511;7.2392588;49.89900207519531;1673389096.626666;-47.9483642578125;-0.08587196469306946;-136.95689392089844
243;1673389096.7411737;47.129631499999995;7.2392319;49.90200424194336;1673389096.8355613;-47.83073425292969;-0.09613115340471268;-136.98963928222656
244;1673389096.938285;47.1296119;7.239205;49.90500259399414;1673389097.03174;-48.01414489746094;-0.04884124919772148;-136.9767608642578
245;1673389097.1327722;47.1295923;7.2391782;49.910003662109375;1673389097.2143595;-48.23447036743164;-0.058244142681360245;-136.9592742919922
246;1673389097.315458;47.1295727;7.2391514;49.913002014160156;1673389097.4028935;-48.202049255371094;0.042192570865154266;-136.9882049560547
247;1673389097.4991083;47.129553099999995;7.2391247;49.91400146484375;1673389097.6031446;-48.04343032836914;0.06156514212489128;-136.9885711669922
248;1673389097.7202392;47.129533599999995;7.2390979;49.919002532958984;1673389097.8106315;-48.052608489990234;-0.06884876638650894;-136.9325714111328
249;1673389097.9156423;47.129514;7.239071099999999;49.923004150390625;1673389098.0011294;-48.11701583862305;-0.013755288906395435;-136.98049926757812
250;1673389098.1146855;47.1294945;7.2390441999999995;49.927001953125;1673389098.2021558;-48.19324493408203;-0.1023012027144432;-136.92747497558594
251;1673389098.3150728;47.1294749;7.2390174;49.93300247192383;1673389098.4130335;-48.247196197509766;-0.11577626317739487;-136.96971130371094
252;1673389098.5387468;47.1294554;7.238990599999999;49.93700408935547;1673389098.630803;-48.05574417114258;-0.10069416463375092;-136.94505310058594
253;1673389098.7330537;47.1294359;7.2389638;49.939002990722656;1673389098.8186536;-47.97799301147461;-0.3825337588787079;-136.8856201171875
254;1673389098.9198651;47.129416299999995;7.238937;49.939002990722656;1673389099.0103755;-48.07894515991211;0.9134160876274109;-137.3016357421875
255;1673389099.113471;47.1293967;7.2389101;49.939002990722656;1673389099.2100146;-47.781314849853516;-0.19799047708511353;-136.79063415527344
256;1673389099.324591;47.1293771;7.2388832999999995;49.94000244140625;1673389099.4180477;-47.47233963012695;-0.4712223410606384;-136.84881591796875
257;1673389099.5154712;47.1293576;7.2388565;49.941001892089844;1673389099.602823;-47.95630645751953;-0.12856003642082214;-136.94932556152344
258;1673389099.7060058;47.129338;7.2388297999999995;49.94600296020508;1673389099.8000453;-48.13803482055664;-0.65689617395401;-136.80270385742188
259;1673389099.9012733;47.129318399999995;7.238803;49.95000076293945;1673389099.9972243;-48.311065673828125;0.12343847751617432;-137.0340576171875
260;1673389100.1200783;47.1292988;7.2387763;49.954002380371094;1673389100.2352357;-43.27398681640625;-0.31192833185195923;-136.8759002685547
261;1673389100.3450491;47.1292792;7.238749599999999;49.97700119018555;1673389100.4626737;-31.704769134521484;0.06718257069587708;-136.82640075683594
262;1673389100.5619009;47.1292603;7.2387236999999995;50.00600051879883;1673389100.6454809;-14.351846694946289;0.5811048150062561;-136.70089721679688
263;1673389100.7502925;47.1292425;7.2386995;50.022003173828125;1673389100.841264;-0.38102754950523376;0.7710390686988831;-136.31207275390625
264;1673389100.9462428;47.129226499999994;7.238677699999999;50.02800369262695;1673389101.02879;10.089609146118164;1.4751321077346802;-136.59239196777344
265;1673389101.14176;47.129212599999995;7.2386589;50.0150032043457;1673389101.2347474;18.86663818359375;-0.0406070277094841;-137.00259399414062
266;1673389101.3361773;47.129200999999995;7.238643199999999;49.961002349853516;1673389101.429256;18.976045608520508;-2.1849305629730225;-137.0463104248047
267;1673389101.5369143;47.1291917;7.2386306;49.87200164794922;1673389101.658862;15.308549880981445;0.8828251957893372;-135.72874450683594
268;1673389101.7526698;47.1291845;7.2386208;49.798004150390625;1673389101.8362975;15.383390426635742;3.2004828453063965;-135.7695770263672
269;1673389101.941422;47.129179099999995;7.2386135;49.759002685546875;1673389102.0315356;6.885888576507568;5.2381134033203125;-136.98663330078125
270;1673389102.1514225;47.129175;7.2386078;49.77400207519531;1673389102.240821;0.299578994512558;3.7313411235809326;-136.8916473388672
271;1673389102.3491035;47.129171799999995;7.2386032;49.820003509521484;1673389102.4490178;-5.572638511657715;1.7278294563293457;-136.7190704345703
272;1673389102.564696;47.129168899999996;7.2385988999999995;49.87000274658203;1673389102.653286;-9.71757698059082;-0.9438309073448181;-136.56982421875
273;1673389102.7403045;47.1291662;7.238594699999999;49.915000915527344;1673389102.8313613;-11.094615936279297;-2.4951326847076416;-136.40135192871094
274;1673389102.9529207;47.129163399999996;7.238590299999999;49.95500183105469;1673389103.048174;-10.78218936920166;-1.95991051197052;-136.43569946289062
275;1673389103.1533418;47.1291606;7.238586;49.99100112915039;1673389103.2522674;-7.860854148864746;1.154807686805725;-136.9748077392578
276;1673389103.3638232;47.129157899999996;7.2385817999999995;50.01300048828125;1673389103.4495194;-3.879065752029419;1.7215996980667114;-137.2637481689453
277;1673389103.5515397;47.1291553;7.238577899999999;50.03300094604492;1673389103.6477404;-15.02104663848877;1.3674461841583252;-137.13150024414062
278;1673389103.7464511;47.1291526;7.238574;50.09100341796875;1673389103.8315227;-27.066646575927734;1.0260486602783203;-137.46205139160156
279;1673389103.9324872;47.1291491;7.238569099999999;50.17900085449219;1673389104.0327296;-16.299346923828125;-1.2462480068206787;-137.527587890625
280;1673389104.1425304;47.129145;7.238563399999999;50.33700180053711;1673389104.243969;-16.626174926757812;-0.9328979253768921;-137.54446411132812
281;1673389104.3479269;47.1291405;7.2385573;50.58500289916992;1673389104.4419742;-21.47842025756836;0.4066130220890045;-137.62530517578125
282;1673389104.5371985;47.1291359;7.2385506;50.900001525878906;1673389104.6342204;-31.347301483154297;2.541033983230591;-138.35910034179688
283;1673389104.7359433;47.1291309;7.2385429;51.259002685546875;1673389104.8393385;-45.27992248535156;-2.171755790710449;-137.9438934326172
284;1673389104.9483712;47.1291243;7.238533599999999;51.62200164794922;1673389105.0468361;-43.69657897949219;1.8696502447128296;-137.5774383544922
285;1673389105.1369321;47.129115999999996;7.238522499999999;51.98200225830078;1673389105.2869637;-39.58829116821289;0.8619683384895325;-136.8065948486328
286;1673389105.4283056;47.1291066;7.2385098999999995;52.33100128173828;1673389105.5188708;-34.75431442260742;0.5623995065689087;-137.09951782226562
287;1673389105.6082275;47.129096399999995;7.2384964;52.672000885009766;1673389105.6973498;-30.39059066772461;-0.05795508623123169;-136.7521209716797
288;1673389105.797704;47.1290859;7.2384824;53.01100158691406;1673389105.8877194;-27.598569869995117;-0.9339209794998169;-136.55491638183594
289;1673389105.97534;47.1290753;7.2384680999999995;53.355003356933594;1673389106.065279;-24.95351791381836;-1.593947410583496;-136.36598205566406
290;1673389106.1710532;47.1290647;7.2384537;53.708003997802734;1673389106.2590947;-23.273727416992188;-0.5362527370452881;-136.68576049804688
291;1673389106.3631535;47.1290543;7.238439499999999;54.06700134277344;1673389106.4536726;-22.339067459106445;1.0935759544372559;-137.21743774414062
292;1673389106.556456;47.129044099999994;7.2384255;54.43600082397461;1673389106.6370583;-22.568267822265625;3.017822504043579;-138.06214904785156
293;1673389106.7419245;47.1290341;7.2384116999999994;54.81100082397461;1673389106.8367827;-22.97422981262207;3.490837812423706;-138.60165405273438
294;1673389106.9398127;47.1290243;7.2383980999999995;55.18800354003906;1673389107.0450883;-24.239391326904297;1.8926668167114258;-138.3358612060547
295;1673389107.148956;47.1290146;7.2383847999999995;55.57200241088867;1673389107.2432072;-25.229572296142578;0.45527413487434387;-137.72531127929688
296;1673389107.351478;47.1290049;7.2383716;55.958003997802734;1673389107.4385812;-26.02492904663086;-1.0054209232330322;-137.02972412109375
297;1673389107.5386963;47.1289951;7.2383583;56.345001220703125;1673389107.6410742;-26.59634780883789;-1.1063942909240723;-137.12525939941406
298;1673389107.7430968;47.1289854;7.238345;56.73600387573242;1673389107.8469057;-26.78349494934082;-1.6295186281204224;-137.02439880371094
299;1673389107.9536998;47.1289756;7.2383315999999995;57.131004333496094;1673389108.0762346;-26.716129302978516;-1.1901835203170776;-137.27630615234375
300;1673389108.1904407;47.128965699999995;7.2383181;57.52900314331055;1673389108.3089585;-26.428674697875977;-0.4554944634437561;-137.4371795654297
301;1673389108.3992841;47.1289559;7.2383045;57.922000885009766;1673389108.485337;-26.42526626586914;0.6766692996025085;-137.63687133789062
302;1673389108.5849082;47.128946;7.2382909;58.316001892089844;1673389108.6743224;-26.28116226196289;1.7440762519836426;-137.6417999267578
303;1673389108.7691147;47.128935999999996;7.2382773;58.70700454711914;1673389108.8611326;-26.244054794311523;2.589022636413574;-137.76036071777344
304;1673389108.9618855;47.1289261;7.2382637;59.099002838134766;1673389109.0542681;-26.18675994873047;2.735480546951294;-137.80001831054688
305;1673389109.1535084;47.1289161;7.238250099999999;59.49500274658203;1673389109.244913;-26.2696533203125;2.5266852378845215;-137.7650909423828
306;1673389109.3447251;47.128906199999996;7.2382364;59.8910026550293;1673389109.4329054;-26.132596969604492;1.6215136051177979;-137.64065551757812
307;1673389109.533453;47.1288963;7.2382228;60.28400421142578;1673389109.637234;-26.29178810119629;1.2759103775024414;-137.57089233398438
308;1673389109.7380667;47.1288863;7.2382091;60.68100357055664;1673389109.8415978;-26.320234298706055;0.5920875072479248;-137.2243194580078
309;1673389109.9456584;47.128876399999996;7.2381955;61.07500457763672;1673389110.0351741;-26.373029708862305;-0.19947800040245056;-137.21180725097656
310;1673389110.1395283;47.1288665;7.2381819;61.470001220703125;1673389110.2367065;-26.393829345703125;-0.9126863479614258;-136.92672729492188
311;1673389110.3466146;47.1288565;7.2381682;61.868003845214844;1673389110.432896;-26.30107307434082;-1.2362388372421265;-136.77183532714844
312;1673389110.5275033;47.128846499999995;7.238154499999999;62.26400375366211;1673389110.6243665;-26.32355499267578;-1.6048623323440552;-136.77296447753906
313;1673389110.7295403;47.1288366;7.238140899999999;62.663002014160156;1673389110.840645;-26.47800064086914;-1.62947678565979;-136.7266387939453
314;1673389110.9688814;47.1288266;7.2381272999999995;63.060001373291016;1673389111.0580182;-26.455900192260742;-1.249617099761963;-136.71714782714844
315;1673389111.1522737;47.128816699999994;7.238113599999999;63.45900344848633;1673389111.238761;-26.30765151977539;-1.186039686203003;-136.79405212402344
316;1673389111.3518171;47.1288068;7.2380998;63.85000228881836;1673389111.456851;-26.34108543395996;-0.46046823263168335;-137.01600646972656
317;1673389111.5726314;47.1287969;7.238086;64.24300384521484;1673389111.664238;-26.324264526367188;0.09283889085054398;-137.14479064941406
318;1673389111.7484562;47.128786999999996;7.2380723;64.63800048828125;1673389111.826647;-26.312271118164062;0.5078400373458862;-137.22303771972656
319;1673389111.9255378;47.128777;7.2380586;65.03300476074219;1673389112.0313652;-26.279645919799805;0.9409850835800171;-137.38072204589844
320;1673389112.1379542;47.1287671;7.238045;65.4280014038086;1673389112.2408376;-26.37836265563965;1.1809358596801758;-137.42300415039062
321;1673389112.345756;47.128757;7.2380315;65.81900024414062;1673389112.4411354;-26.617637634277344;1.7848032712936401;-137.40969848632812
322;1673389112.5366488;47.128747;7.238017999999999;66.21400451660156;1673389112.6270885;-26.725141525268555;1.9817357063293457;-137.2963104248047
323;1673389112.7397945;47.128737;7.2380045;66.61300659179688;1673389112.8253477;-26.783926010131836;2.150083303451538;-137.264892578125
324;1673389112.9195776;47.1287269;7.2379909;67.01200103759766;1673389113.014851;-26.845561981201172;2.1732285022735596;-137.19882202148438
325;1673389113.1316051;47.1287169;7.2379773;67.4070053100586;1673389113.232878;-26.727994918823242;2.1619510650634766;-137.13014221191406
326;1673389113.3397005;47.128707;7.2379636;67.802001953125;1673389113.4396813;-26.848644256591797;1.8426122665405273;-137.11520385742188
327;1673389113.5992107;47.1286971;7.237949899999999;68.19700622558594;1673389113.6877544;-26.71965980529785;1.3798917531967163;-137.13539123535156
328;1673389113.7909598;47.1286871;7.2379362;68.59500122070312;1673389113.8776734;-26.861034393310547;1.2477667331695557;-137.10154724121094
329;1673389113.9747908;47.1286771;7.2379223999999995;68.99400329589844;1673389114.0825408;-26.904489517211914;0.8386774659156799;-137.07984924316406
330;1673389114.196869;47.1286671;7.237908699999999;69.38899993896484;1673389114.2870946;-26.92152214050293;0.5476053953170776;-136.93812561035156
331;1673389114.398738;47.1286571;7.237895;69.78300476074219;1673389114.4930248;-27.028005599975586;0.40646249055862427;-136.80929565429688
332;1673389114.5863879;47.128647099999995;7.2378813;70.1780014038086;1673389114.675946;-17.99667739868164;0.8000093698501587;-136.7349090576172
333;1673389114.7748072;47.128637399999995;7.2378678999999995;70.54900360107422;1673389114.8734708;-5.876134395599365;0.4538484811782837;-136.5819549560547
334;1673389114.9750085;47.128628299999995;7.2378554;70.89200592041016;1673389115.0653718;-2.321840286254883;0.37833499908447266;-136.69775390625
335;1673389115.1653523;47.1286202;7.237844099999999;71.19900512695312;1673389115.2566948;3.766857147216797;-0.3423488438129425;-136.67132568359375
336;1673389115.3695662;47.128612999999994;7.237834299999999;71.46300506591797;1673389115.4665627;5.92966890335083;1.2758574485778809;-136.8572235107422
337;1673389115.5735693;47.1286068;7.2378259;71.68800354003906;1673389115.6689088;7.93391752243042;-1.1519378423690796;-136.8286895751953
338;1673389115.7740648;47.1286017;7.2378189;71.88300323486328;1673389115.8702307;7.060592174530029;-0.6583009362220764;-136.7665252685547
339;1673389115.982006;47.1285976;7.237813399999999;72.052001953125;1673389116.0796263;6.34943962097168;-0.7100376486778259;-136.44384765625
340;1673389116.2267172;47.128594299999996;7.2378089999999995;72.19499969482422;1673389116.3108957;4.727502346038818;-1.1064677238464355;-135.8186798095703
341;1673389116.4135382;47.1285917;7.2378053;72.31400299072266;1673389116.5035417;3.790623664855957;15.801952362060547;-131.9142608642578
342;1673389116.6157722;47.1285901;7.2378018;72.42000579833984;1673389116.7158945;3.980250597000122;27.410083770751953;-120.48896789550781
343;1673389116.8127184;47.1285898;7.237798;72.49500274658203;1673389116.931099;-5.251886367797852;21.308889389038086;-108.89620971679688
344;1673389117.0635915;47.1285908;7.2377937;72.54400634765625;1673389117.1331239;-7.460286617279053;13.838595390319824;-98.61393737792969
345;1673389117.2364268;47.128592499999996;7.2377889;72.58700561523438;1673389117.330257;-10.822402954101562;11.098959922790527;-90.03111267089844
346;1673389117.4168284;47.1285947;7.2377837;72.62600708007812;1673389117.4998612;-11.881209373474121;7.53187370300293;-81.39254760742188
347;1673389117.5971735;47.1285971;7.2377782999999996;72.66699981689453;1673389117.679768;-12.661079406738281;3.999171495437622;-72.09988403320312
348;1673389117.7815711;47.1285996;7.2377727;72.70500183105469;1673389117.8729577;-11.961627006530762;0.28025922179222107;-62.63895797729492
349;1673389117.97516;47.128602099999995;7.237767;72.73600006103516;1673389118.0667303;-10.381443977355957;-1.4969428777694702;-53.698673248291016
350;1673389118.1848814;47.1286044;7.2377613;72.76600646972656;1673389118.2610636;-8.784708023071289;-3.5796117782592773;-45.2139892578125
351;1673389118.3652864;47.1286067;7.237755699999999;72.79100036621094;1673389118.4810922;-6.6212568283081055;-4.923662185668945;-39.66510009765625
352;1673389118.5876737;47.128608899999996;7.2377503;72.81100463867188;1673389118.672835;-5.664028644561768;-4.653907775878906;-40.953330993652344
353;1673389118.7810707;47.128611;7.2377449;72.8290023803711;1673389118.8764071;-25.55891227722168;-1.7531039714813232;-43.80413818359375
354;1673389118.9628391;47.128613699999995;7.2377389999999995;72.86300659179688;1673389119.0484536;-46.10383224487305;-0.7054760456085205;-44.8751335144043
355;1673389119.1649783;47.1286177;7.2377315;72.89700317382812;1673389119.2644193;-58.235042572021484;-0.26758161187171936;-45.566837310791016
356;1673389119.3853421;47.1286242;7.2377208;72.9330062866211;1673389119.4911466;-61.78404998779297;-0.6095436811447144;-46.24308395385742
357;1673389119.5920377;47.128633099999995;7.2377063999999995;72.96200561523438;1673389119.6982095;-59.92694854736328;-0.9483879208564758;-46.32790756225586
358;1673389119.8210733;47.1286442;7.2376887;72.97700500488281;1673389119.9110076;-59.03284454345703;-0.8269371390342712;-46.51156234741211
359;1673389120.003938;47.128657;7.2376682;72.9800033569336;1673389120.095163;-57.153289794921875;0.8907606601715088;-46.928260803222656
360;1673389120.2015872;47.1286712;7.237645499999999;72.98100280761719;1673389120.282371;-55.155372619628906;0.5508587956428528;-46.644412994384766
361;1673389120.3783255;47.128686599999995;7.2376213;72.97100067138672;1673389120.4693322;-55.78196716308594;-0.048708222806453705;-46.50769805908203
362;1673389120.583767;47.1287028;7.2375959;72.94700622558594;1673389120.6761057;-49.75690841674805;-0.1067957878112793;-46.581668853759766
363;1673389120.773532;47.128719499999995;7.237569799999999;72.83100128173828;1673389120.8595636;-20.964887619018555;-0.11600010842084885;-46.45835494995117
364;1673389120.9864228;47.1287361;7.237544;72.375;1673389121.0798392;30.186613082885742;-0.3954765200614929;-46.36201477050781
365;1673389121.1838372;47.128752399999996;7.2375184;71.52200317382812;1673389121.2747004;85.88557434082031;-175.3792266845703;138.9987030029297
366;1673389121.386393;47.128768699999995;7.2374925999999995;70.25800323486328;1673389121.4806154;36.115482330322266;179.6197967529297;133.5778350830078
367;1673389121.5915766;47.128785;7.2374671;68.6550064086914;1673389121.6857326;12.578824996948242;178.53152465820312;128.7573699951172
368;1673389121.786426;47.128800999999996;7.237441899999999;66.68500518798828;1673389121.8674712;16.48940658569336;178.5767364501953;128.54493713378906
369;1673389121.9717004;47.128816699999994;7.237417199999999;64.33300018310547;1673389122.0747347;49.19626998901367;177.39321899414062;129.5973663330078
370;1673389122.211581;47.1288322;7.2373929;61.62400436401367;1673389122.3039057;69.65045928955078;1.955230951309204;-44.60386657714844
371;1673389122.4166;47.128847699999994;7.2373685;58.570003509521484;1673389122.5020056;-5.865492343902588;0.31331729888916016;-47.14813232421875
372;1673389122.6164958;47.1288631;7.2373442;55.090003967285156;1673389122.7404466;-59.31252670288086;-0.8393818736076355;-44.78783416748047
373;1673389122.829468;47.128878199999996;7.2373204;51.25200271606445;1673389122.9285302;-72.40550231933594;-3.1384658813476562;-41.786685943603516
374;1673389123.0208979;47.1288931;7.2372969;47.10200119018555;1673389123.1107755;-43.23560333251953;0.7427903413772583;-44.0478515625
375;1673389123.2138066;47.1289077;7.2372738;42.62800216674805;1673389123.3017752;25.150922775268555;1.530470609664917;-41.803260803222656
376;1673389123.4025059;47.1289221;7.237251199999999;37.75800323486328;1673389123.4945316;86.00511169433594;115.70663452148438;73.56439971923828
377;1673389123.5976727;47.128936599999996;7.2372282;32.534000396728516;1673389123.6901557;66.24876403808594;166.97706604003906;125.43731689453125
378;1673389123.7920399;47.128951;7.237205599999999;27.016000747680664;1673389123.9106824;79.07148742675781;36.264923095703125;-4.1557536125183105
379;1673389124.0547678;47.128965199999996;7.237183;21.19700050354004;1673389124.1388724;7.3570756912231445;3.0479722023010254;-36.44102096557617
380;1673389124.2327223;47.128979699999995;7.2371602;15.004000663757324;1673389124.3226607;-54.709232330322266;-1.5058205127716064;-36.00116729736328
381;1673389124.452789;47.128993699999995;7.237138099999999;8.452000617980957;1673389124.5334978;-60.62699508666992;-2.2932612895965576;-34.74075698852539
382;1673389124.6307209;47.1290074;7.237116599999999;1.6180000305175781;1673389124.7176545;-5.311938762664795;-3.290247917175293;-34.42106246948242
383;1673389124.815011;47.129018699999996;7.237106499999999;0.5690000057220459;1673389124.9037673;-4.307098388671875;1.0036303997039795;-42.532196044921875
384;1673389125.0026283;47.129033;7.2370959;0.9120000600814819;1673389125.092598;-3.6959731578826904;-1.4674195051193237;-41.16741943359375
385;1673389125.1927395;47.1290482;7.2370844;1.2910000085830688;1673389125.2886302;-3.496373176574707;-0.7341853976249695;-40.80624008178711
386;1673389125.3945866;47.129062;7.2370741;1.5630000829696655;1673389125.4798899;-3.2225353717803955;-1.4370782375335693;-40.559608459472656
387;1673389125.5777595;47.1290738;7.237065299999999;1.749000072479248;1673389125.6685178;-2.9314801692962646;-2.55374813079834;-40.369544982910156
388;1673389125.7797081;47.1290864;7.237056;1.871000051498413;1673389125.8776417;-2.850308656692505;-3.486957550048828;-40.18221664428711
389;1673389125.982705;47.1290997;7.2370461;1.9520001411437988;1673389126.0806313;-2.7556092739105225;-3.821197271347046;-40.065460205078125
390;1673389126.1959167;47.129113499999995;7.237035799999999;2.011000156402588;1673389126.2928226;-2.630866765975952;-3.961643934249878;-40.020416259765625
391;1673389126.4047158;47.1291277;7.2370252;2.057000160217285;1673389126.5054414;-2.5695395469665527;-3.8248720169067383;-40.01093673706055
392;1673389126.6205475;47.129141999999995;7.2370142;2.1650002002716064;1673389126.7196586;-2.4565036296844482;-3.6333231925964355;-40.03250503540039
393;1673389126.821112;47.1291565;7.237003;2.236999988555908;1673389126.912536;-2.404421329498291;-3.429227352142334;-40.06760025024414
394;1673389127.000701;47.1291711;7.236991799999999;2.2770001888275146;1673389127.0888727;-2.3399221897125244;-3.240812063217163;-40.082969665527344
395;1673389127.1914704;47.129185899999996;7.2369805;2.302000045776367;1673389127.28075;-2.322582721710205;-3.106826066970825;-40.06484603881836
396;1673389127.375726;47.1292008;7.236968999999999;2.312000036239624;1673389127.4645452;-2.2710001468658447;-2.9048614501953125;-40.061767578125
397;1673389127.5645494;47.1292158;7.2369574;2.318000078201294;1673389127.6587627;-2.245222330093384;-2.743910551071167;-40.071434020996094
398;1673389127.7558038;47.129230799999995;7.2369454;2.372000217437744;1673389127.8457172;-2.1965246200561523;-2.588303565979004;-40.04667282104492
399;1673389127.9518986;47.129245999999995;7.2369334;2.3940000534057617;1673389128.0567136;-2.153909206390381;-2.4022915363311768;-40.084293365478516
400;1673389128.1677344;47.129261199999995;7.236921199999999;2.3960001468658447;1673389128.2706296;-2.1338002681732178;-2.2928175926208496;-40.06975555419922
401;1673389128.371649;47.1292766;7.2369088999999995;2.386000156402588;1673389128.4775453;-2.125680685043335;-2.1097397804260254;-40.07950973510742
402;1673389128.5808005;47.1292921;7.2368963;2.370000123977661;1673389128.676667;-2.099597692489624;-1.9398733377456665;-40.08257293701172
403;1673389128.784591;47.1293078;7.236883499999999;2.3470001220703125;1673389128.8748562;-2.0361242294311523;-1.7500916719436646;-40.0767822265625
404;1673389128.9764798;47.1293235;7.2368704;2.319000005722046;1673389129.0637636;-2.033973217010498;-1.602757215499878;-40.07555389404297
405;1673389129.1637993;47.1293392;7.236857199999999;2.324000120162964;1673389129.258609;-1.9854097366333008;-1.41046941280365;-40.08856964111328
406;1673389129.3715804;47.1293551;7.2368437;2.31000018119812;1673389129.4636087;-2.00156307220459;-1.2506474256515503;-40.09576416015625
407;1673389129.5765066;47.1293711;7.2368301;2.2810001373291016;1673389129.6716762;-1.9351730346679688;-1.1352730989456177;-40.100616455078125
408;1673389129.8027873;47.1293872;7.2368162;2.240000009536743;1673389129.8997982;-1.9312621355056763;-1.0413633584976196;-40.09455108642578
409;1673389130.008767;47.1294034;7.2368022;2.193000078201294;1673389130.1536543;-1.8948949575424194;-0.901540219783783;-40.075748443603516
410;1673389130.2406673;47.1294196;7.2367878999999995;2.1440000534057617;1673389130.325498;-1.8716124296188354;-0.779613196849823;-40.08228302001953
411;1673389130.4219658;47.129435799999996;7.236773599999999;2.114000082015991;1673389130.5129986;-1.8971143960952759;-0.6766067147254944;-40.08225631713867
412;1673389130.6130512;47.1294384;7.2367713;2.0850000381469727;1673389130.6944842;-1.8256703615188599;-0.520266056060791;-40.09672546386719
413;;;;;1673389130.8518136;-1.8567345142364502;-0.4484468698501587;-40.10282897949219
414;;;;;1673389131.038522;-1.8050432205200195;-0.33613258600234985;-40.11152648925781
415;;;;;1673389131.2288923;-1.793061375617981;-0.2489500790834427;-40.1291389465332
416;;;;;1673389131.4241443;-1.7852814197540283;-0.1673443615436554;-40.13911056518555
417;;;;;1673389131.6187289;-1.8247560262680054;-0.11423901468515396;-40.15275955200195
