;pos_time;latitude;longitude;altitude;alt_time;pitch;roll;yaw
0;1673390398.0577314;47.1306423;7.2406197;-0.013000000268220901;1673390398.1952112;-0.02093888446688652;-0.20100319385528564;90.19889068603516
1;1673390398.2793467;47.1306423;7.2406197;-0.014000000432133675;1673390398.4251451;0.07371507585048676;-0.17731663584709167;90.20635223388672
2;1673390398.5225556;47.1306423;7.2406197;-0.018000001087784767;1673390398.6604674;0.1263129711151123;-0.15924471616744995;90.05711364746094
3;1673390398.7278626;47.1306423;7.2406197;-0.023000001907348633;1673390398.836733;0.022678840905427933;-0.18012762069702148;90.16293334960938
4;1673390398.9046614;47.1306424;7.2406196;-0.021000001579523087;1673390399.0298464;0.19674693048000336;-0.14799578487873077;90.03665161132812
5;1673390399.101184;47.1306424;7.2406196;-0.017000000923871994;1673390399.2012901;0.11782567948102951;-0.2133485972881317;90.0263671875
6;1673390399.2827685;47.1306424;7.2406197;-0.017000000923871994;1673390399.3976376;-0.05847537890076637;-0.16867072880268097;90.0157241821289
7;1673390399.481043;47.1306424;7.2406197;-0.01600000075995922;1673390399.5997841;-0.061989057809114456;-0.2119511365890503;90.01749420166016
8;1673390399.6833518;47.1306424;7.2406197;-0.014000000432133675;1673390399.8019996;0.2754276394844055;-0.3950664699077606;90.09895324707031
9;1673390399.8757496;47.1306424;7.2406197;0.0020000000949949026;1673390399.998293;0.39180952310562134;-0.7128665447235107;90.25703430175781
10;1673390400.0821226;47.1306424;7.240619799999999;0.005000000353902578;1673390400.2254844;0.004693193361163139;-0.5897283554077148;90.20880126953125
11;1673390400.3023667;47.1306424;7.240619799999999;0.00800000037997961;1673390400.4376063;-0.1846190094947815;-0.5123135447502136;90.19693756103516
12;1673390400.5145257;47.1306423;7.240619799999999;0.01100000087171793;1673390400.630021;-0.0018994328565895557;-0.58930903673172;90.2510986328125
13;1673390400.7034733;47.1306423;7.2406198999999996;0.012000000104308128;1673390400.81654;0.2220277339220047;-0.3257976174354553;90.04464721679688
14;1673390400.8933876;47.1306423;7.2406198999999996;0.01100000087171793;1673390401.0174406;0.3949832618236542;-0.5070931911468506;89.99212646484375
15;1673390401.0894175;47.1306423;7.2406198999999996;0.013000000268220901;1673390401.2075143;-0.09691658616065979;-0.6392524838447571;90.03821563720703
16;1673390401.2836282;47.1306423;7.24062;0.015000000596046448;1673390401.40504;0.0923563688993454;-0.5102443099021912;90.1413345336914
17;1673390401.4785142;47.1306423;7.24062;0.0020000000949949026;1673390401.5955017;0.2765236496925354;-0.8446542620658875;90.3106918334961
18;1673390401.664556;47.1306423;7.2406201;0.0020000000949949026;1673390401.7797773;-0.023803554475307465;-0.7801600694656372;90.10021209716797
19;1673390401.8535702;47.1306423;7.2406201;0.004000000189989805;1673390401.9754968;0.2425456941127777;-0.6380102038383484;90.222900390625
20;1673390402.0565689;47.1306423;7.2406201999999995;0.004000000189989805;1673390402.1772678;0.10788203030824661;-0.3504457175731659;90.1021957397461
21;1673390402.2585733;47.1306423;7.2406201999999995;0.0020000000949949026;1673390402.3858955;0.20615693926811218;-0.5725902915000916;90.04508209228516
22;1673390402.4634798;47.1306423;7.2406201;0.0010000000474974513;1673390402.5895884;0.289334237575531;-0.17847253382205963;90.01441955566406
23;1673390402.667719;47.1306424;7.2406201;0.003000000026077032;1673390402.8005621;0.5867852568626404;-0.6275688409805298;90.17582702636719
24;1673390402.879419;47.1306424;7.24062;0.0020000000949949026;1673390403.0029173;0.6172555685043335;-0.5230301022529602;89.7100601196289
25;1673390403.0826714;47.1306424;7.24062;0.005000000353902578;1673390403.200859;1.040912389755249;-0.5094248652458191;89.47212982177734
26;1673390403.2716413;47.1306425;7.2406198999999996;0.00800000037997961;1673390403.3794694;0.9578487873077393;-0.311800479888916;87.35271453857422
27;1673390403.4545884;47.1306425;7.2406197;0.005000000353902578;1673390403.5875692;-0.10639284551143646;2.2828752994537354;82.31107330322266
28;1673390403.684564;47.130642699999996;7.2406194;0.010000000707805157;1673390403.8043938;-2.3715174198150635;5.214778900146484;84.30874633789062
29;1673390403.8817546;47.1306428;7.240619;0.02800000086426735;1673390404.014404;-8.110121726989746;8.227192878723145;85.58612060546875
30;1673390404.0926464;47.1306428;7.2406185999999995;0.0560000017285347;1673390404.2166467;-8.61868953704834;5.5369954109191895;86.71613311767578
31;1673390404.2972698;47.1306428;7.2406185;0.10400000214576721;1673390404.4373863;-8.13500690460205;8.981557846069336;86.45094299316406
32;1673390404.5534217;47.130642699999996;7.2406185;0.17400000989437103;1673390404.6674662;-7.790654182434082;7.5500922203063965;87.09766387939453
33;1673390404.7359529;47.1306425;7.2406187;0.2590000033378601;1673390404.891126;-7.414941787719727;4.1988844871521;88.27259063720703
34;1673390404.972448;47.1306425;7.240619;0.36100003123283386;1673390405.0936608;-6.097297668457031;8.55172061920166;87.94461822509766
35;1673390405.1576495;47.1306425;7.2406193;0.47700002789497375;1673390405.2736845;-5.943403720855713;8.367325782775879;87.89916229248047
36;1673390405.3403525;47.1306424;7.240619499999999;0.6070000529289246;1673390405.4557798;-6.034588813781738;3.4123809337615967;88.49784851074219
37;1673390405.532554;47.1306423;7.2406197;0.7510000467300415;1673390405.6414595;-5.78463077545166;6.359737396240234;87.98916625976562
38;1673390405.7111535;47.1306422;7.240619799999999;0.909000039100647;1673390405.8261242;-5.803879261016846;8.611222267150879;87.63709259033203
39;1673390405.9004369;47.130642099999996;7.2406198999999996;1.0810000896453857;1673390406.0218787;-6.012875080108643;3.7691245079040527;88.4533920288086
40;1673390406.1212475;47.130642099999996;7.2406198999999996;1.2680000066757202;1673390406.251659;-5.7289252281188965;5.849206447601318;88.52112579345703
41;1673390406.331251;47.1306422;7.2406198999999996;1.4620000123977661;1673390406.541586;-5.761002063751221;9.34075927734375;87.74990844726562
42;1673390406.6192262;47.1306423;7.240619799999999;1.6570000648498535;1673390406.6924334;-6.3138933181762695;4.89194393157959;88.39785766601562
43;1673390406.7573664;47.1306423;7.2406197;1.8540000915527344;1673390406.8555834;-6.698724269866943;4.816718101501465;88.53321075439453
44;1673390406.9264824;47.1306423;7.2406197;2.0500001907348633;1673390407.0424123;-6.638900279998779;9.242375373840332;87.89793395996094
45;1673390407.1362612;47.1306423;7.2406196;2.244000196456909;1673390407.2538543;-6.7333598136901855;5.054239749908447;88.44935607910156
46;1673390407.3441608;47.1306423;7.2406196;2.440000057220459;1673390407.4473786;-6.692244052886963;4.131961345672607;88.59383392333984
47;1673390407.5164115;47.1306424;7.2406196;2.6410000324249268;1673390407.6333737;-6.653630256652832;10.102797508239746;88.0939712524414
48;1673390407.6965573;47.130642599999995;7.2406196;2.8470001220703125;1673390407.806098;-6.452579975128174;7.80156135559082;88.51232147216797
49;1673390407.8809583;47.130642699999996;7.2406196;3.0510001182556152;1673390407.9976804;-6.740729808807373;4.4298272132873535;88.86803436279297
50;1673390408.0685008;47.130642599999995;7.2406197;3.251000165939331;1673390408.182467;-6.71240234375;8.967011451721191;88.24786376953125
51;1673390408.2668083;47.1306425;7.2406197;3.44700026512146;1673390408.385903;-6.432610511779785;6.606546878814697;88.59149932861328
52;1673390408.4665291;47.1306424;7.240619799999999;3.6470000743865967;1673390408.593168;-6.526618003845215;3.8632214069366455;88.96688842773438
53;1673390408.666905;47.1306425;7.2406198999999996;3.8520002365112305;1673390408.7903638;-6.535910129547119;8.232590675354004;88.40619659423828
54;1673390408.8610857;47.130642599999995;7.2406198999999996;4.060000419616699;1673390408.985628;-6.197032451629639;8.922808647155762;88.12272644042969
55;1673390409.06335;47.130642699999996;7.24062;4.267000198364258;1673390409.1852677;-6.155257701873779;4.137009620666504;88.69573974609375
56;1673390409.2671824;47.130642699999996;7.24062;4.4730000495910645;1673390409.3890586;-6.138518333435059;7.484343528747559;88.21522521972656
57;1673390409.4662125;47.130642599999995;7.24062;4.674000263214111;1673390409.5970068;-6.230432510375977;9.397332191467285;88.09778594970703
58;1673390409.6733277;47.1306425;7.2406198999999996;4.873000144958496;1673390409.822033;-6.610583305358887;3.8697266578674316;88.71715545654297
59;1673390409.9190757;47.1306425;7.2406198999999996;5.072000026702881;1673390410.0561042;-6.637294769287109;6.807521343231201;88.43840026855469
60;1673390410.1258209;47.130642599999995;7.2406198999999996;5.273000240325928;1673390410.2339466;-6.6433820724487305;10.048188209533691;88.12803649902344
61;1673390410.3445687;47.130642599999995;7.2406198999999996;5.4770002365112305;1673390410.4487965;-6.765562534332275;5.14546012878418;88.67713165283203
62;1673390410.526511;47.1306425;7.2406198999999996;5.683000087738037;1673390410.6452708;-6.570069789886475;5.411759853363037;88.71392059326172
63;1673390410.7151997;47.1306425;7.2406198999999996;5.890000343322754;1673390410.8321939;-6.410857200622559;9.776912689208984;88.27957916259766
64;1673390410.9383652;47.1306424;7.2406198999999996;6.093000411987305;1673390411.1492345;-6.348067283630371;4.966090679168701;88.76011657714844
65;1673390411.1990778;47.1306423;7.2406198999999996;6.301000118255615;1673390411.315914;-6.711555004119873;4.777337074279785;88.61904907226562
66;1673390411.3725173;47.1306424;7.240619799999999;6.511000156402588;1673390411.4706788;-6.839287757873535;9.684815406799316;88.08454895019531
67;1673390411.5346794;47.1306425;7.240619799999999;6.720000267028809;1673390411.645518;-6.867613792419434;6.567245006561279;88.48006439208984
68;1673390411.7182922;47.1306425;7.240619799999999;6.927000522613525;1673390411.869145;-6.654789447784424;4.74773645401001;88.71109771728516
69;1673390411.9435844;47.1306425;7.240619799999999;7.136000156402588;1673390412.0360708;-6.679121971130371;9.457498550415039;88.0989990234375
70;1673390412.095638;47.1306425;7.240619799999999;7.344000339508057;1673390412.204933;-6.2549309730529785;7.291497230529785;88.29345703125
71;1673390412.2943606;47.1306425;7.240619799999999;7.551000595092773;1673390412.4171984;-6.366641998291016;4.233397960662842;88.7181167602539
72;1673390412.524373;47.1306425;7.240619799999999;7.755000591278076;1673390412.635468;-6.7156805992126465;8.71467399597168;88.2334976196289
73;1673390412.7069237;47.130642599999995;7.2406197;7.956000328063965;1673390412.8242278;-7.003094673156738;8.865363121032715;88.25936889648438
74;1673390412.9003553;47.130642599999995;7.2406197;8.154000282287598;1673390413.0224068;-7.15774393081665;4.331308364868164;88.87190246582031
75;1673390413.0991743;47.1306424;7.2406197;8.35300064086914;1673390413.2068548;-7.1489691734313965;7.5327558517456055;88.30191040039062
76;1673390413.273589;47.1306424;7.2406197;8.552000045776367;1673390413.3923056;-6.786118507385254;8.373568534851074;88.20491790771484
77;1673390413.4631658;47.1306423;7.2406197;8.754000663757324;1673390413.600584;-6.82924747467041;4.115334510803223;88.78413391113281
78;1673390413.6765912;47.1306423;7.240619799999999;8.960000038146973;1673390413.7911997;-6.591913223266602;7.01440954208374;88.52995300292969
79;1673390413.8665445;47.1306424;7.2406198999999996;9.168000221252441;1673390413.9944909;-6.44316291809082;9.440876007080078;88.23397064208984
80;1673390414.0731;47.1306424;7.2406198999999996;9.372000694274902;1673390414.2037182;-6.386618614196777;4.424800872802734;88.72123718261719
81;1673390414.2887447;47.1306424;7.24062;9.57300090789795;1673390414.4257417;-6.706122875213623;5.808873653411865;88.43028259277344
82;1673390414.5049186;47.1306424;7.2406201;9.771000862121582;1673390414.6223285;-6.666316032409668;9.713125228881836;87.88871002197266
83;1673390414.7015812;47.1306425;7.2406201;9.967000007629395;1673390414.8276963;-6.595761299133301;5.089042663574219;88.51939392089844
84;1673390414.9447079;47.130642599999995;7.24062;10.170000076293945;1673390415.0571349;-6.4292426109313965;5.774366855621338;88.82647705078125
85;1673390415.124889;47.130642599999995;7.2406201;10.444000244140625;1673390415.2307231;-7.397708415985107;10.672364234924316;88.38247680664062
86;1673390415.3388183;47.1306425;7.2406201999999995;10.802000045776367;1673390415.462693;-7.3819580078125;8.238565444946289;88.54122161865234
87;1673390415.535398;47.1306423;7.2406204;11.182000160217285;1673390415.6510308;-6.922182083129883;3.8855478763580322;88.97198486328125
88;1673390415.7386816;47.130641999999995;7.2406207;11.577000617980957;1673390415.8935373;-6.291453838348389;7.479026794433594;88.1618881225586
89;1673390415.966403;47.1306418;7.2406209;11.97800064086914;1673390416.0712326;-5.63870096206665;6.54171085357666;88.197265625
90;1673390416.1421428;47.1306417;7.240621099999999;12.378000259399414;1673390416.2507522;-5.438852787017822;3.032094717025757;88.81770324707031
91;1673390416.32217;47.1306417;7.2406212;12.777000427246094;1673390416.4322565;-5.519731521606445;6.802109718322754;88.54865264892578
92;1673390416.5075765;47.1306418;7.240621099999999;13.177000999450684;1673390416.6706176;-5.3426032066345215;8.08633804321289;88.32762908935547
93;1673390416.7477584;47.1306418;7.240621099999999;13.574000358581543;1673390416.8517532;-5.844294548034668;3.7538845539093018;88.64102172851562
94;1673390416.9227753;47.1306419;7.2406209;13.972001075744629;1673390417.0474617;-6.378509044647217;6.077216625213623;88.41372680664062
95;1673390417.1262465;47.130641999999995;7.240620799999999;14.370000839233398;1673390417.2391472;-6.446722507476807;9.671844482421875;88.1871566772461
96;1673390417.3202467;47.130642099999996;7.2406207;14.76400089263916;1673390417.4336457;-6.8770270347595215;5.226393222808838;88.84864807128906
97;1673390417.5097938;47.1306423;7.2406204999999995;15.154000282287598;1673390417.608102;-6.615943431854248;5.776310920715332;88.85208892822266
98;1673390417.6867843;47.1306424;7.2406204999999995;15.544000625610352;1673390417.790886;-6.574941635131836;9.923949241638184;88.0467758178711
99;1673390417.8712435;47.1306424;7.2406204;15.934000968933105;1673390418.02243;-6.3170552253723145;6.213503837585449;88.470703125
100;1673390418.10333;47.1306424;7.2406204;16.322999954223633;1673390418.223035;-6.437932014465332;4.815884590148926;88.80267333984375
101;1673390418.3413532;47.1306423;7.2406204999999995;16.7189998626709;1673390418.452673;-6.489119529724121;9.000091552734375;88.30715942382812
102;1673390418.526211;47.1306423;7.2406204999999995;17.115001678466797;1673390418.642095;-6.536443710327148;6.867010593414307;88.37144470214844
103;1673390418.720334;47.1306423;7.2406204999999995;17.512001037597656;1673390418.8378162;-6.351131439208984;4.216152191162109;88.7833480834961
104;1673390418.9106147;47.1306423;7.2406206;17.910001754760742;1673390419.0460482;-6.072076797485352;7.999515533447266;88.40090942382812
105;1673390419.1194198;47.1306423;7.2406206;18.3070011138916;1673390419.2289326;-6.108383655548096;8.062886238098145;88.3456039428711
106;1673390419.3079984;47.1306423;7.2406206;18.701000213623047;1673390419.4282744;-6.318512916564941;3.820316791534424;88.85130310058594
107;1673390419.5094643;47.1306422;7.2406204999999995;19.093000411987305;1673390419.6212873;-6.403754711151123;7.728795051574707;88.21085357666016
108;1673390419.698934;47.1306422;7.2406204;19.48400115966797;1673390419.8196423;-6.265771389007568;8.192076683044434;87.99393463134766
109;1673390419.905172;47.1306423;7.2406203;19.87200164794922;1673390420.0220861;-6.657106399536133;4.472701072692871;88.69215393066406
110;1673390420.099809;47.1306423;7.2406203;20.261001586914062;1673390420.2107754;-6.530369758605957;6.896401882171631;88.56741333007812
111;1673390420.2811384;47.1306424;7.2406201999999995;20.654001235961914;1673390420.4369938;-6.379186153411865;9.617928504943848;88.24641418457031
112;1673390420.5270476;47.1306424;7.2406201999999995;21.04800033569336;1673390420.67478;-6.410001754760742;4.845514297485352;88.67924499511719
113;1673390420.7485347;47.1306423;7.2406201999999995;21.440000534057617;1673390420.874098;-6.693688869476318;5.654558181762695;88.47467803955078
114;1673390420.9393594;47.1306423;7.2406201999999995;21.836000442504883;1673390421.0469983;-6.43105936050415;9.751740455627441;88.13106536865234
115;1673390421.117483;47.1306424;7.2406201999999995;22.229001998901367;1673390421.2253642;-6.520190238952637;6.538215160369873;88.60662841796875
116;1673390421.2981303;47.1306424;7.2406201;22.62200164794922;1673390421.4131293;-6.655460834503174;4.340703964233398;88.84846496582031
117;1673390421.4802213;47.1306425;7.2406201;23.019001007080078;1673390421.608395;-6.398548126220703;8.965989112854004;88.16926574707031
118;1673390421.7129302;47.1306425;7.2406201;23.417001724243164;1673390421.854315;-6.0176239013671875;8.105864524841309;88.16064453125
119;1673390421.946948;47.1306425;7.2406201;23.816001892089844;1673390422.051108;-6.29111909866333;4.1746320724487305;88.67475891113281
120;1673390422.12843;47.1306424;7.24062;24.216001510620117;1673390422.2478414;-6.263067722320557;8.103875160217285;88.392578125
121;1673390422.3269303;47.1306424;7.24062;24.617000579833984;1673390422.4490786;-6.502933979034424;8.50294017791748;88.37617492675781
122;1673390422.5492826;47.1306425;7.2406198999999996;25.012001037597656;1673390422.679081;-6.697666168212891;4.432619571685791;88.73014068603516
123;1673390422.7459836;47.1306425;7.2406198999999996;25.407001495361328;1673390422.8694541;-6.658572673797607;7.340490818023682;88.34229278564453
124;1673390422.9331546;47.1306425;7.2406198999999996;25.804000854492188;1673390423.049912;-6.426497936248779;9.597063064575195;88.15281677246094
125;1673390423.1250997;47.1306425;7.2406198999999996;26.19900131225586;1673390423.2756853;-6.552218914031982;4.327381134033203;88.74516296386719
126;1673390423.3364973;47.1306424;7.240619799999999;26.59600067138672;1673390423.44947;-6.414089202880859;5.809882164001465;88.54317474365234
127;1673390423.5217326;47.1306423;7.240619799999999;26.998001098632812;1673390423.6326003;-6.078547477722168;9.48641300201416;88.09078216552734
128;1673390423.7201173;47.1306423;7.240619799999999;27.395000457763672;1673390423.8364189;-6.374030590057373;5.1474199295043945;88.56947326660156
129;1673390423.9115763;47.1306424;7.240619799999999;27.793001174926758;1673390424.0225372;-6.455219745635986;4.957253932952881;88.67428588867188
130;1673390424.1031096;47.1306424;7.240619799999999;28.19500160217285;1673390424.213399;-6.350915431976318;9.624924659729004;88.1724853515625
131;1673390424.2989225;47.1306425;7.240619799999999;28.59800148010254;1673390424.4575424;-6.462982654571533;6.629798412322998;88.64535522460938
132;1673390424.5381563;47.1306425;7.240619799999999;28.998001098632812;1673390424.6510944;-6.528259754180908;4.640430927276611;88.6852035522461
133;1673390424.7226205;47.1306424;7.240619799999999;29.399002075195312;1673390424.8474455;-6.451155185699463;9.284859657287598;88.08240509033203
134;1673390424.9276345;47.1306425;7.2406197;29.803001403808594;1673390425.0478868;-6.314014911651611;7.808927536010742;88.36486053466797
135;1673390425.1242797;47.130642599999995;7.2406197;30.202001571655273;1673390425.2408504;-6.464076042175293;4.715876579284668;88.79337310791016
136;1673390425.3172784;47.130642599999995;7.2406197;30.60000228881836;1673390425.4488926;-6.518989562988281;7.85751485824585;88.37223052978516
137;1673390425.5460932;47.130642599999995;7.2406196;30.999000549316406;1673390425.670677;-6.301207542419434;8.932731628417969;88.13735961914062
138;1673390425.73711;47.1306425;7.2406196;31.397001266479492;1673390425.8631375;-6.773891925811768;3.9975156784057617;88.59636688232422
139;1673390425.9400208;47.1306423;7.2406196;31.795001983642578;1673390426.0626457;-6.824821472167969;7.021541118621826;88.39093017578125
140;1673390426.123461;47.1306423;7.240619499999999;32.19700241088867;1673390426.2442572;-6.447231292724609;8.892507553100586;88.15889739990234
141;1673390426.3087733;47.1306423;7.240619499999999;32.59700012207031;1673390426.417737;-6.567198753356934;4.881193161010742;88.73062896728516
142;1673390426.4944518;47.1306424;7.2406196;32.99300003051758;1673390426.6133955;-6.604788303375244;6.418153285980225;88.49040985107422
143;1673390426.6852906;47.1306424;7.2406196;33.388999938964844;1673390426.804026;-6.5503339767456055;9.685952186584473;87.98137664794922
144;1673390426.8856602;47.1306424;7.2406196;33.78300094604492;1673390427.0218346;-6.561842441558838;5.415261745452881;88.65046691894531
145;1673390427.0994678;47.1306423;7.2406196;34.18000030517578;1673390427.2259166;-6.647701740264893;5.2268877029418945;88.77212524414062
146;1673390427.3096583;47.1306423;7.2406197;34.579002380371094;1673390427.430331;-6.113364219665527;9.487432479858398;88.246826171875
147;1673390427.5089378;47.1306423;7.240619799999999;34.98100280761719;1673390427.6434011;-6.075202465057373;6.840022563934326;88.39283752441406
148;1673390427.721705;47.1306424;7.240619799999999;35.37900161743164;1673390427.8326368;-6.28233003616333;4.862022399902344;88.61901092529297
149;1673390427.8996158;47.1306425;7.2406198999999996;35.7760009765625;1673390428.019632;-6.43485689163208;9.02856159210205;88.12181854248047
150;1673390428.1010392;47.1306425;7.240619799999999;36.17500305175781;1673390428.2177987;-6.470222473144531;7.943974018096924;88.4209213256836
151;1673390428.2921343;47.1306424;7.240619799999999;36.57400131225586;1673390428.4183583;-6.558314323425293;3.9708118438720703;88.84996795654297
152;1673390428.4941266;47.1306424;7.240619799999999;36.97800064086914;1673390428.6227787;-6.499689102172852;8.050199508666992;88.27064514160156
153;1673390428.6858888;47.1306424;7.2406198999999996;37.38100051879883;1673390428.8014412;-6.250940322875977;8.650474548339844;88.09869384765625
154;1673390428.8746712;47.1306424;7.2406198999999996;37.77800369262695;1673390428.9984477;-6.374266624450684;4.882979869842529;88.65506744384766
155;1673390429.0846295;47.1306425;7.240619799999999;38.17300033569336;1673390429.2213614;-6.453310489654541;7.078503131866455;88.66622161865234
156;1673390429.3060045;47.130642599999995;7.240619799999999;38.57200241088867;1673390429.4623995;-6.412446022033691;9.91799259185791;88.31951904296875
157;1673390429.5425432;47.130642599999995;7.240619799999999;38.974002838134766;1673390429.6926076;-6.643603324890137;5.196465492248535;88.58858489990234
158;1673390429.764448;47.130642599999995;7.2406197;39.375;1673390429.868572;-6.9045634269714355;5.753313064575195;88.41694641113281
159;1673390429.944859;47.130642599999995;7.2406197;39.777000427246094;1673390430.0601506;-6.766840934753418;9.910856246948242;88.10494232177734
160;1673390430.1353705;47.130642599999995;7.2406197;40.182003021240234;1673390430.2510324;-6.6864013671875;6.3395676612854;88.577880859375
161;1673390430.3183687;47.130642699999996;7.2406197;40.582000732421875;1673390430.4380622;-6.7047505378723145;5.282262802124023;88.76216888427734
162;1673390430.5206707;47.130642699999996;7.240619799999999;40.97800064086914;1673390430.642328;-6.261869430541992;9.599092483520508;88.09687042236328
163;1673390430.7103288;47.130642699999996;7.240619799999999;41.37800216674805;1673390430.8271663;-6.29642915725708;7.335353851318359;88.33927154541016
164;1673390430.906966;47.130642599999995;7.240619799999999;41.78000259399414;1673390431.033487;-6.723733425140381;4.3982367515563965;88.74668884277344
165;1673390431.1123276;47.1306425;7.240619799999999;42.182003021240234;1673390431.2448633;-6.550702095031738;8.34477710723877;88.21619415283203
166;1673390431.362176;47.1306425;7.240619799999999;42.586002349853516;1673390431.4829955;-6.432669162750244;8.331103324890137;88.2369155883789
167;1673390431.5930605;47.130642599999995;7.240619799999999;42.98500061035156;1673390431.7205465;-6.495966911315918;4.533246040344238;88.69031524658203
168;1673390431.7786748;47.130642599999995;7.240619799999999;43.38200378417969;1673390431.9714077;-6.474521636962891;8.00802993774414;88.25587463378906
169;1673390432.0202403;47.130642699999996;7.240619799999999;43.784000396728516;1673390432.1154547;-6.239536762237549;9.430155754089355;88.08562469482422
170;1673390432.2080173;47.130642599999995;7.240619799999999;44.18800354003906;1673390432.330795;-6.391679763793945;4.765411853790283;88.82123565673828
171;1673390432.4070854;47.130642599999995;7.240619799999999;44.592002868652344;1673390432.5435967;-6.6053690910339355;6.591777801513672;88.63936614990234
172;1673390432.6047435;47.130642599999995;7.240619799999999;44.99500274658203;1673390432.7097874;-6.328117370605469;9.571676254272461;88.15393829345703
173;1673390432.7757251;47.130642599999995;7.240619799999999;45.39800262451172;1673390432.9053638;-6.32957649230957;5.691844940185547;88.58799743652344
174;1673390432.968996;47.130642599999995;7.240619799999999;45.79600143432617;1673390433.0800052;-6.402559757232666;5.027874946594238;88.56266784667969
175;1673390433.170092;47.130642599999995;7.240619799999999;46.19000244140625;1673390433.2761886;-6.394672393798828;9.626612663269043;88.03890228271484
176;1673390433.3514056;47.130642599999995;7.2406197;46.58500289916992;1673390433.4676113;-6.5458831787109375;6.196798324584961;88.5946044921875
177;1673390433.5340416;47.1306425;7.2406197;46.98200225830078;1673390433.646869;-6.750662803649902;4.608193874359131;88.6614761352539
178;1673390433.718833;47.1306425;7.2406197;47.38200378417969;1673390433.8482943;-6.621303558349609;9.062976837158203;88.1965103149414
179;1673390433.9379036;47.130642599999995;7.2406197;47.78200149536133;1673390434.0783153;-6.476108074188232;6.121370792388916;88.69793701171875
180;1673390434.1575203;47.130642699999996;7.2406197;48.15800094604492;1673390434.302973;-6.686009883880615;6.453128337860107;88.8254165649414
181;1673390434.402911;47.130642699999996;7.2406197;48.48600387573242;1673390434.507999;-6.654629230499268;9.135956764221191;88.37903594970703
182;1673390434.577985;47.1306428;7.2406196;48.77100372314453;1673390434.6996143;-6.797412395477295;7.26763916015625;88.47351837158203
183;1673390434.7636027;47.130642699999996;7.240619499999999;49.012001037597656;1673390434.883257;-7.0491204261779785;4.5675177574157715;88.7679443359375
184;1673390434.9536426;47.130642699999996;7.2406194;49.2130012512207;1673390435.0572507;-4.601863384246826;11.130566596984863;88.10166931152344
185;1673390435.1314962;47.1306428;7.240619199999999;49.37800216674805;1673390435.2568471;12.884111404418945;29.173885345458984;95.64861297607422
186;1673390435.3659375;47.1306423;7.2406181;49.522003173828125;1673390435.4807749;21.763450622558594;45.72944641113281;107.83897399902344
187;1673390435.548136;47.130640199999995;7.240614399999999;49.643001556396484;1673390435.6575627;21.543567657470703;56.97606658935547;116.88565063476562
188;1673390435.7366807;47.130635999999996;7.240607;49.73400115966797;1673390435.857102;5.499766826629639;56.775360107421875;125.28563690185547
189;1673390435.9348304;47.1306294;7.2405959;49.78600311279297;1673390436.0490596;-9.593642234802246;53.77265167236328;135.82452392578125
190;1673390436.123028;47.130620699999994;7.2405819;49.82400131225586;1673390436.2517834;-23.271867752075195;52.63969039916992;145.12368774414062
191;1673390436.325686;47.1306102;7.2405653999999995;49.84800338745117;1673390436.4552572;-36.24836349487305;46.241703033447266;157.6067657470703
192;1673390436.5389082;47.1305981;7.2405466999999994;49.85000228881836;1673390436.6688483;-46.88802719116211;41.33534240722656;171.32626342773438
193;1673390436.743062;47.1305845;7.2405257;49.833003997802734;1673390436.8740928;-50.22970199584961;31.29417610168457;-177.38848876953125
194;1673390436.9573143;47.130569799999996;7.2405025;49.78400421142578;1673390437.0805836;-45.50270462036133;22.54608726501465;-171.8453369140625
195;1673390437.1549466;47.1305544;7.2404779999999995;49.71900177001953;1673390437.2772083;-46.688079833984375;16.601524353027344;-164.96188354492188
196;1673390437.358446;47.1305384;7.2404528;49.663002014160156;1673390437.4608243;-48.45782470703125;11.097192764282227;-157.00685119628906
197;1673390437.5274055;47.130522;7.2404269;49.624000549316406;1673390437.6501114;-47.029029846191406;6.369416236877441;-149.80789184570312
198;1673390437.72491;47.130505299999996;7.2404005;49.595001220703125;1673390437.8447819;-46.37388610839844;0.05342044308781624;-142.82408142089844
199;1673390437.9225793;47.1304884;7.2403737999999995;49.5780029296875;1673390438.0504713;-48.176490783691406;-3.135798692703247;-136.48101806640625
200;1673390438.1446254;47.1304715;7.240346799999999;49.57200241088867;1673390438.261516;-46.79632568359375;-11.636733055114746;-132.15931701660156
201;1673390438.3505087;47.1304543;7.2403197;49.577003479003906;1673390438.4639482;-46.539371490478516;-11.501174926757812;-136.10398864746094
202;1673390438.5381322;47.1304368;7.2402929;49.5890007019043;1673390438.6588876;-47.51008605957031;-10.944050788879395;-138.26678466796875
203;1673390438.7336254;47.130418999999996;7.2402665;49.60300064086914;1673390438.8484404;-47.81715393066406;-9.608829498291016;-139.4932403564453
204;1673390438.9176292;47.1304008;7.2402406;49.61900329589844;1673390439.029515;-48.49179458618164;-8.067886352539062;-140.2963104248047
205;1673390439.1013112;47.1303823;7.2402150999999995;49.643001556396484;1673390439.218078;-49.104652404785156;-6.711467266082764;-140.7626190185547
206;1673390439.2997224;47.1303634;7.2401899;49.663002014160156;1673390439.4174538;-48.976802825927734;-5.5229668617248535;-140.93516540527344
207;1673390439.497081;47.1303444;7.2401648;49.68300247192383;1673390439.6304917;-48.505409240722656;-5.267526149749756;-140.6943359375
208;1673390439.7054367;47.130325299999996;7.2401396;49.702003479003906;1673390439.832898;-47.77951431274414;-5.408210277557373;-140.3263397216797
209;1673390439.9105558;47.1303061;7.2401143999999995;49.71600341796875;1673390440.038496;-47.469139099121094;-5.662015438079834;-140.00550842285156
210;1673390440.1217377;47.130286899999994;7.2400891;49.72500228881836;1673390440.2451277;-47.24808883666992;-5.767135143280029;-139.76329040527344
211;1673390440.321107;47.130267599999996;7.2400639;49.73400115966797;1673390440.4575753;-47.25737380981445;-5.923279285430908;-139.5321502685547
212;1673390440.5308208;47.1302483;7.2400386;49.742000579833984;1673390440.6405632;-47.35200881958008;-6.007108688354492;-139.36041259765625
213;1673390440.712994;47.1302291;7.240013299999999;49.746002197265625;1673390440.8465595;-47.189605712890625;-5.945834636688232;-139.2239227294922
214;1673390440.929173;47.1302099;7.2399881;49.74800109863281;1673390441.059879;-46.92815399169922;-5.970381736755371;-139.10984802246094
215;1673390441.1348557;47.1301907;7.2399629;49.75100326538086;1673390441.2565105;-46.777652740478516;-5.988674163818359;-139.01034545898438
216;1673390441.336218;47.1301716;7.239937599999999;49.75300216674805;1673390441.4522045;-47.01668930053711;-6.081955909729004;-138.93157958984375
217;1673390441.5230212;47.130152599999995;7.2399122;49.75800323486328;1673390441.638818;-47.32759094238281;-6.161557674407959;-138.8859405517578
218;1673390441.7342434;47.1301335;7.2398868;49.7660026550293;1673390441.8627906;-47.59086608886719;-6.167190074920654;-138.86376953125
219;1673390441.9502316;47.1301145;7.2398615;49.772003173828125;1673390442.0803456;-47.509552001953125;-6.081315994262695;-138.80181884765625
220;1673390442.153545;47.130095399999995;7.2398361;49.77700424194336;1673390442.2796688;-47.13108825683594;-6.0666728019714355;-138.7338104248047
221;1673390442.3540392;47.1300764;7.239810599999999;49.78300094604492;1673390442.4682877;-47.396148681640625;-6.054000377655029;-138.7576141357422
222;1673390442.544014;47.1300573;7.2397851;49.78900146484375;1673390442.6649613;-47.66582489013672;-6.1439971923828125;-138.70115661621094
223;1673390442.7345743;47.130038299999995;7.2397595;49.794002532958984;1673390442.8540413;-47.60163497924805;-6.103249549865723;-138.7341766357422
224;1673390442.933751;47.1300193;7.2397338;49.79600143432617;1673390443.0540662;-47.366371154785156;-6.088654041290283;-138.7244415283203
225;1673390443.122161;47.1300002;7.2397081;49.801002502441406;1673390443.2483299;-47.41353988647461;-6.120419979095459;-138.6953125
226;1673390443.3292475;47.129981199999996;7.2396823999999995;49.807003021240234;1673390443.4537926;-47.722999572753906;-6.121958255767822;-138.68362426757812
227;1673390443.533469;47.1299622;7.239656699999999;49.810001373291016;1673390443.6454134;-47.68453598022461;-6.067440032958984;-138.7223663330078
228;1673390443.7259023;47.1299432;7.2396309;49.81200408935547;1673390443.852705;-47.341426849365234;-6.019718647003174;-138.71192932128906
229;1673390443.9495897;47.1299242;7.2396052;49.81100082397461;1673390444.0589714;-47.26865005493164;-5.968165397644043;-138.6898651123047
230;1673390444.1220505;47.129905199999996;7.239579399999999;49.80900192260742;1673390444.2576566;-47.384456634521484;-5.986043453216553;-138.661376953125
231;1673390444.3512132;47.1298862;7.2395537;49.80600357055664;1673390444.5191534;-47.36658477783203;-5.927258014678955;-138.7157440185547
232;1673390444.5837367;47.1298672;7.2395279;49.80500411987305;1673390444.6953573;-47.38264465332031;-5.960822105407715;-138.70675659179688
233;1673390444.7647336;47.1298483;7.239502099999999;49.80500411987305;1673390444.871739;-47.424293518066406;-5.9737653732299805;-138.73550415039062
234;1673390444.9544678;47.1298294;7.2394761999999995;49.80400085449219;1673390445.0727956;-47.43594741821289;-6.00190544128418;-138.7321319580078
235;1673390445.15288;47.1298104;7.2394504;49.80500411987305;1673390445.253839;-47.56976318359375;-5.982400417327881;-138.75192260742188
236;1673390445.3297572;47.129791499999996;7.239424499999999;49.81100082397461;1673390445.4493856;-47.68258285522461;-6.031641006469727;-138.74105834960938
237;1673390445.5270307;47.1297725;7.2393987;49.81700134277344;1673390445.64473;-47.739845275878906;-5.978435516357422;-138.787353515625
238;1673390445.7256017;47.1297536;7.2393728;49.82400131225586;1673390445.8540487;-47.718082427978516;-5.932259559631348;-138.8257293701172
239;1673390445.9298804;47.1297346;7.239346899999999;49.832000732421875;1673390446.0594034;-47.61274337768555;-5.889888763427734;-138.83412170410156
240;1673390446.1362474;47.1297156;7.2393209999999995;49.8380012512207;1673390446.2542639;-47.542381286621094;-5.829005718231201;-138.86451721191406
241;1673390446.3388562;47.129696599999995;7.239294999999999;49.84600067138672;1673390446.454055;-47.5728645324707;-5.86626672744751;-138.8903350830078
242;1673390446.5374851;47.1296776;7.239268999999999;49.855003356933594;1673390446.6668062;-47.571956634521484;-5.834676265716553;-138.91688537597656
243;1673390446.7395468;47.1296586;7.239243;49.86300277709961;1673390446.8662796;-47.715084075927734;-5.82819128036499;-138.96778869628906
244;1673390446.9406347;47.1296396;7.239217;49.86900329589844;1673390447.062934;-47.61967468261719;-5.758273601531982;-139.01455688476562
245;1673390447.1369581;47.129620599999996;7.239191;49.87300109863281;1673390447.2495575;-47.52891159057617;-5.715820789337158;-139.0452880859375
246;1673390447.32437;47.1296016;7.239165;49.875003814697266;1673390447.4608827;-47.404380798339844;-5.6862053871154785;-139.08016967773438
247;1673390447.5396712;47.1295826;7.239139;49.87700271606445;1673390447.6614022;-47.38258361816406;-5.667171478271484;-139.1082763671875
248;1673390447.7283864;47.1295637;7.239113;49.88200378417969;1673390447.8490345;-47.60024642944336;-5.67954158782959;-139.1489715576172
249;1673390447.9218686;47.1295447;7.239087;49.88900375366211;1673390448.0570738;-47.848289489746094;-5.609605312347412;-139.23460388183594
250;1673390448.1264534;47.1295256;7.2390609999999995;49.897003173828125;1673390448.2526748;-47.91863250732422;-5.582583904266357;-139.29493713378906
251;1673390448.3349342;47.1295066;7.2390349;49.90300369262695;1673390448.4499273;-47.735347747802734;-5.455447673797607;-139.4019012451172
252;1673390448.5224433;47.129487499999996;7.2390089;49.90900421142578;1673390448.6452928;-47.52521896362305;-5.417447566986084;-139.4318084716797
253;1673390448.7254298;47.129468499999994;7.2389828;49.9170036315918;1673390448.850083;-47.758331298828125;-5.373405933380127;-139.51722717285156
254;1673390448.9279072;47.1294494;7.2389566;49.922000885009766;1673390449.0505462;-47.67524337768555;-5.9632887840271;-139.43687438964844
255;1673390449.1379693;47.129430299999996;7.2389304999999995;49.926002502441406;1673390449.2666163;-47.58186340332031;-6.15881872177124;-139.76705932617188
256;1673390449.341599;47.1294111;7.2389046;49.93100357055664;1673390449.501958;-47.45970916748047;-7.2917304039001465;-139.5724639892578
257;1673390449.5903337;47.129391899999995;7.2388787;49.939002990722656;1673390449.737319;-47.46714401245117;-7.881990909576416;-139.94017028808594
258;1673390449.798364;47.129372599999996;7.2388528999999995;49.94900131225586;1673390449.9074821;-48.001502990722656;-7.909478187561035;-140.2289581298828
259;1673390449.9769251;47.129353099999996;7.2388274;49.95600128173828;1673390450.0874035;-47.68363952636719;-8.77618408203125;-140.3411865234375
260;1673390450.1587124;47.1293335;7.2388021;49.96000289916992;1673390450.2813423;-47.436397552490234;-8.56415843963623;-140.7357177734375
261;1673390450.3453727;47.1293138;7.2387771999999995;49.9640007019043;1673390450.462102;-46.82319259643555;-10.05115032196045;-140.62887573242188
262;1673390450.5383976;47.129293999999994;7.2387526;49.96900177001953;1673390450.6903648;-41.736751556396484;-9.302101135253906;-141.3171844482422
263;1673390450.7632215;47.1292742;7.2387285;49.99100112915039;1673390450.8799925;-27.34738540649414;-9.781646728515625;-140.37147521972656
264;1673390450.9536204;47.1292548;7.2387052999999995;50.02900314331055;1673390451.0739698;-9.10878849029541;-8.194226264953613;-139.00698852539062
265;1673390451.1497102;47.1292368;7.2386838;50.05500411987305;1673390451.2622647;4.360055446624756;-6.555232048034668;-137.14627075195312
266;1673390451.3417304;47.1292207;7.2386645;50.06500244140625;1673390451.468987;13.038078308105469;-5.685337543487549;-136.4759521484375
267;1673390451.54631;47.129207199999996;7.2386478;50.060001373291016;1673390451.6779485;17.10720443725586;-3.891026735305786;-137.2479248046875
268;1673390451.7551234;47.129196199999996;7.238633999999999;50.03900146484375;1673390451.875767;21.126495361328125;-6.443258762359619;-136.95289611816406
269;1673390451.9527888;47.129187699999996;7.2386228;50.00100326538086;1673390452.0673563;20.100692749023438;-9.91650104522705;-137.0609130859375
270;1673390452.1373756;47.1291813;7.238614;49.95000076293945;1673390452.2637527;11.96390438079834;-15.391757011413574;-136.0865478515625
271;1673390452.3373485;47.1291766;7.2386075;49.89900207519531;1673390452.4665895;3.240896701812744;-15.23497200012207;-135.8545379638672
272;1673390452.5433714;47.1291728;7.2386028;49.87300109863281;1673390452.6679964;-3.5305984020233154;-12.75655746459961;-136.3988800048828
273;1673390452.7446868;47.129169399999995;7.2385991999999995;49.880001068115234;1673390452.86889;-7.911645889282227;-9.70736312866211;-137.05152893066406
274;1673390452.9433918;47.1291662;7.2385962;49.9160041809082;1673390453.062544;-10.040128707885742;-8.450752258300781;-136.55259704589844
275;1673390453.1443713;47.129163;7.2385931999999995;49.957000732421875;1673390453.2738237;-10.328217506408691;-7.21214485168457;-134.8156280517578
276;1673390453.361498;47.1291598;7.2385899;49.993003845214844;1673390453.487667;-9.559049606323242;-5.229338645935059;-132.77880859375
277;1673390453.5657792;47.1291568;7.238586199999999;50.022003173828125;1673390453.6884978;-6.87916374206543;-3.7080626487731934;-131.32858276367188
278;1673390453.7612574;47.1291541;7.2385822;50.047000885009766;1673390453.8809514;-12.342144012451172;-5.817759990692139;-132.24359130859375
279;1673390453.9576247;47.1291516;7.238577899999999;50.08500289916992;1673390454.0966556;-26.441326141357422;-2.995514154434204;-137.07351684570312
280;1673390454.1661625;47.129148699999995;7.2385725999999995;50.15500259399414;1673390454.2924967;-18.897043228149414;-1.599440574645996;-139.64797973632812
281;1673390454.3598368;47.1291453;7.2385661;50.294002532958984;1673390454.469762;-18.29122543334961;-2.792271614074707;-139.3646240234375
282;1673390454.5425186;47.1291418;7.2385587;50.5260009765625;1673390454.6583388;-21.46670913696289;-1.3147921562194824;-138.7840576171875
283;1673390454.7351317;47.1291381;7.238550699999999;50.8380012512207;1673390454.8787239;-26.195598602294922;-2.333921432495117;-138.70375061035156
284;1673390454.9639933;47.129134099999995;7.2385418999999995;51.189002990722656;1673390455.0829663;-43.433414459228516;-15.216106414794922;-138.49172973632812
285;1673390455.1559172;47.129128699999995;7.238531999999999;51.55400085449219;1673390455.2734647;-44.485443115234375;-12.964184761047363;-139.4273223876953
286;1673390455.3614147;47.1291211;7.2385211;51.91800308227539;1673390455.5572243;-40.02772903442383;-14.048293113708496;-137.75132751464844
287;1673390455.6241336;47.129112;7.238509199999999;52.2650032043457;1673390455.730023;-34.8016471862793;-12.486739158630371;-138.42315673828125
288;1673390455.7988827;47.1291018;7.2384965999999995;52.599002838134766;1673390455.913716;-30.811702728271484;-10.720219612121582;-137.87046813964844
289;1673390455.9824169;47.129090999999995;7.2384837;52.932003021240234;1673390456.0909946;-28.5601749420166;-7.773092746734619;-137.73452758789062
290;1673390456.155126;47.129080099999996;7.2384705;53.27300262451172;1673390456.2680948;-26.030548095703125;-5.716095924377441;-137.71630859375
291;1673390456.3409357;47.129069199999996;7.2384571;53.62400436401367;1673390456.4568648;-24.806180953979492;-4.158580303192139;-137.63107299804688
292;1673390456.5306854;47.1290585;7.2384436;53.98100280761719;1673390456.6619954;-23.834781646728516;-4.420379638671875;-137.64273071289062
293;1673390456.7410338;47.1290481;7.238429999999999;54.345001220703125;1673390456.8612833;-23.82097053527832;-5.087552070617676;-137.57907104492188
294;1673390456.940892;47.1290379;7.238416399999999;54.71600341796875;1673390457.0617716;-23.941936492919922;-7.682290077209473;-137.13323974609375
295;1673390457.1492383;47.129028;7.238402799999999;55.09400177001953;1673390457.2836714;-24.400768280029297;-9.151244163513184;-136.9185028076172
296;1673390457.3629258;47.1290183;7.238389199999999;55.47500228881836;1673390457.5043206;-24.986160278320312;-9.394909858703613;-137.01368713378906
297;1673390457.6174839;47.1290087;7.2383757;55.85900115966797;1673390457.7117844;-25.88959503173828;-8.801525115966797;-137.3881378173828
298;1673390457.7772403;47.128999099999994;7.2383622;56.25100326538086;1673390457.8849216;-26.39488410949707;-8.031990051269531;-137.54798889160156
299;1673390457.9635305;47.128989499999996;7.2383486999999995;56.64600372314453;1673390458.0812771;-27.02385711669922;-7.458033561706543;-137.72193908691406
300;1673390458.1557317;47.128979799999996;7.2383351;57.0420036315918;1673390458.2857192;-27.05707359313965;-7.467411041259766;-137.63861083984375
301;1673390458.3617556;47.128969999999995;7.2383216;57.43700408935547;1673390458.4927561;-26.73073387145996;-8.098977088928223;-137.5005340576172
302;1673390458.5705588;47.128960199999995;7.238308;57.829002380371094;1673390458.7031064;-26.414064407348633;-9.166165351867676;-137.07261657714844
303;1673390458.7773848;47.1289503;7.2382946;58.221004486083984;1673390458.8855171;-26.404863357543945;-9.829322814941406;-136.82052612304688
304;1673390458.9583023;47.1289403;7.238281199999999;58.61100387573242;1673390459.0771382;-26.102277755737305;-10.384134292602539;-136.6757049560547
305;1673390459.163561;47.128930399999994;7.238267899999999;59.00300216674805;1673390459.2903373;-26.328311920166016;-9.344622611999512;-136.92013549804688
306;1673390459.3689628;47.1289204;7.238254599999999;59.397003173828125;1673390459.4901052;-26.249217987060547;-8.621631622314453;-137.05458068847656
307;1673390459.5658443;47.128910399999995;7.238241299999999;59.7920036315918;1673390459.6837227;-26.354576110839844;-7.765871524810791;-137.0863494873047
308;1673390459.7743702;47.1289004;7.2382279;60.189002990722656;1673390459.8863308;-26.675575256347656;-6.884725570678711;-137.06002807617188
309;1673390459.9617145;47.1288905;7.2382143999999995;60.58500289916992;1673390460.086406;-26.868669509887695;-6.504313945770264;-137.2421112060547
310;1673390460.1602445;47.128880599999995;7.2382007999999995;60.980003356933594;1673390460.2869866;-26.991018295288086;-6.15455961227417;-137.3919677734375
311;1673390460.368291;47.1288707;7.238187099999999;61.37300109863281;1673390460.4939866;-26.731800079345703;-6.585211753845215;-137.36410522460938
312;1673390460.5756426;47.1288608;7.2381733;61.7650032043457;1673390460.6925228;-26.69066047668457;-6.923874855041504;-137.36572265625
313;1673390460.7682235;47.128850899999996;7.2381595;62.15800476074219;1673390460.8840559;-26.448387145996094;-7.6785888671875;-137.14581298828125
314;1673390460.953956;47.128841;7.2381458;62.55500411987305;1673390461.0727882;-26.494054794311523;-8.360554695129395;-137.0143585205078
315;1673390461.1502237;47.1288311;7.238131999999999;62.952003479003906;1673390461.2766447;-26.40934944152832;-9.087865829467773;-136.88433837890625
316;1673390461.359158;47.128821099999996;7.238118399999999;63.34700393676758;1673390461.473931;-26.523836135864258;-9.460323333740234;-136.81639099121094
317;1673390461.547664;47.1288112;7.2381047999999995;63.7400016784668;1673390461.6692233;-26.526926040649414;-9.865243911743164;-136.81060791015625
318;1673390461.7440026;47.1288012;7.2380911999999995;64.13200378417969;1673390461.8811793;-26.637487411499023;-9.846177101135254;-136.60736083984375
319;1673390461.962963;47.128791199999995;7.238077799999999;64.5260009765625;1673390462.0744987;-26.765893936157227;-9.595824241638184;-136.67359924316406
320;1673390462.1443663;47.1287812;7.2380643;64.92100524902344;1673390462.2866726;-26.82757568359375;-9.101945877075195;-136.83663940429688
321;1673390462.399423;47.128771199999996;7.2380508;65.31500244140625;1673390462.5335736;-26.945680618286133;-8.768205642700195;-136.80010986328125
322;1673390462.609485;47.1287612;7.238037299999999;65.70800018310547;1673390462.7497458;-27.1768856048584;-8.316601753234863;-136.8223876953125
323;1673390462.8201296;47.128751199999996;7.2380238;66.10000610351562;1673390462.9270399;-27.225807189941406;-7.986715793609619;-136.946533203125
324;1673390463.0293071;47.128741299999994;7.2380100999999994;66.49200439453125;1673390463.128411;-27.38608741760254;-8.096102714538574;-136.99803161621094
325;1673390463.234109;47.1287314;7.2379963;66.88700103759766;1673390463.360942;-27.348846435546875;-8.00485610961914;-137.1007843017578
326;1673390463.46118;47.128721399999996;7.237982499999999;67.281005859375;1673390463.5808094;-27.295480728149414;-8.11074161529541;-137.08363342285156
327;1673390463.669201;47.1287114;7.237968599999999;67.677001953125;1673390463.7696228;-26.87653350830078;-7.992551803588867;-137.2410888671875
328;1673390463.8253102;47.128701299999996;7.2379549;68.07300567626953;1673390463.9225261;-27.17749786376953;-7.607040882110596;-137.24510192871094
329;1673390463.9918952;47.1286913;7.2379411;68.46700286865234;1673390464.1018348;-27.114498138427734;-7.341550350189209;-137.28399658203125
330;1673390464.1668808;47.128681199999995;7.237927399999999;68.86199951171875;1673390464.277301;-27.007789611816406;-7.193288326263428;-137.30731201171875
331;1673390464.3671346;47.1286712;7.2379137;69.25800323486328;1673390464.496525;-27.179962158203125;-7.102099895477295;-137.3114471435547
332;1673390464.5752065;47.128661199999996;7.2379;69.65400695800781;1673390464.698129;-27.13406753540039;-7.22578239440918;-137.20932006835938
333;1673390464.7709985;47.1286511;7.237886199999999;70.04800415039062;1673390464.888678;-22.119625091552734;-8.322958946228027;-137.3015899658203
334;1673390464.9586535;47.1286412;7.2378725;70.4330062866211;1673390465.07947;-7.4535417556762695;-9.148416519165039;-137.44850158691406
335;1673390465.1649816;47.1286318;7.237859599999999;70.781005859375;1673390465.3052013;-4.111330986022949;-9.479022979736328;-136.91229248046875
336;1673390465.3775966;47.1286233;7.237848;71.08700561523438;1673390465.4939244;1.3565402030944824;-9.428498268127441;-136.8772735595703
337;1673390465.571563;47.1286157;7.2378377;71.35700225830078;1673390465.6854277;4.504881381988525;-8.237706184387207;-136.87429809570312
338;1673390465.7603755;47.1286092;7.237828899999999;71.59400177001953;1673390465.8877163;6.381783485412598;-7.522882461547852;-136.12440490722656
339;1673390465.9786656;47.1286037;7.2378214;71.80000305175781;1673390466.0881698;7.707615375518799;-8.582371711730957;-135.06761169433594
340;1673390466.1609442;47.1285992;7.2378152;71.98300170898438;1673390466.273104;7.265113830566406;-9.2933988571167;-135.24041748046875
341;1673390466.3548005;47.1285957;7.2378103;72.14000701904297;1673390466.4716973;6.136976718902588;-10.474352836608887;-136.0003662109375
342;1673390466.5464196;47.1285928;7.2378063;72.27300262451172;1673390466.6699672;4.074709415435791;1.4929444789886475;-134.4033203125
343;1673390466.746709;47.1285908;7.2378028;72.38200378417969;1673390466.878117;7.388952255249023;20.703393936157227;-122.7906723022461
344;1673390466.9657202;47.128589899999994;7.2377991999999995;72.47400665283203;1673390467.0960882;-1.8597208261489868;13.612248420715332;-113.27381134033203
345;1673390467.1737268;47.1285904;7.2377949;72.53900146484375;1673390467.3027704;-5.828949451446533;8.678953170776367;-104.01834869384766
346;1673390467.3838878;47.128592;7.2377901;72.59200286865234;1673390467.5292933;-7.601827621459961;3.831357717514038;-95.91705322265625
347;1673390467.6103444;47.1285941;7.237784899999999;72.63600158691406;1673390467.729604;-5.184557914733887;4.394359588623047;-87.84033966064453
348;1673390467.8058026;47.128596599999995;7.237779199999999;72.67400360107422;1673390467.9201448;-1.588079571723938;-0.26377031207084656;-78.83411407470703
349;1673390468.0154505;47.1285992;7.2377733;72.70500183105469;1673390468.1265147;1.4232360124588013;-2.5737199783325195;-69.10462951660156
350;1673390468.199754;47.1286019;7.2377673;72.73300170898438;1673390468.3221762;2.9746222496032715;-3.2943060398101807;-58.92072677612305
351;1673390468.4044375;47.1286044;7.237761399999999;72.76000213623047;1673390468.517777;2.8000426292419434;-3.470181703567505;-49.02250671386719
352;1673390468.618104;47.1286069;7.2377557999999995;72.78400421142578;1673390468.7153668;1.4735264778137207;-4.396008014678955;-41.00941467285156
353;1673390468.7817667;47.1286093;7.2377500999999995;72.80599975585938;1673390468.9214787;-0.17983393371105194;-2.5493674278259277;-40.324893951416016
354;1673390469.0237212;47.1286116;7.2377445;72.82600402832031;1673390469.164291;-18.28947639465332;-2.1377415657043457;-43.10603332519531
355;1673390469.2472472;47.1286142;7.237738599999999;72.85200500488281;1673390469.3526635;-42.56246566772461;0.46417856216430664;-45.368186950683594
356;1673390469.4273841;47.128617899999995;7.2377309;72.88899993896484;1673390469.5343153;-55.66965103149414;0.9411736726760864;-45.48250961303711
357;1673390469.6016753;47.1286237;7.2377204;72.906005859375;1673390469.711712;-54.35731506347656;-0.34324997663497925;-45.31888198852539
358;1673390469.7914135;47.128631999999996;7.2377066;72.91500091552734;1673390469.9332027;-57.323631286621094;-0.3818638026714325;-46.45887756347656
359;1673390470.0046291;47.1286426;7.2376894;72.94100189208984;1673390470.110104;-60.33640670776367;-0.7879732251167297;-46.3309211730957
360;1673390470.1775017;47.128655599999995;7.237668599999999;72.97300720214844;1673390470.3004067;-59.90471649169922;-0.5539541244506836;-45.58082580566406
361;1673390470.3873358;47.1286707;7.237644599999999;72.99300384521484;1673390470.535763;-58.296356201171875;-0.5602616667747498;-45.65692901611328
362;1673390470.6104963;47.1286874;7.2376181;72.99800109863281;1673390470.7340527;-55.92058563232422;-0.5097158551216125;-46.00636291503906
363;1673390470.8135517;47.1287053;7.2375899;72.98200225830078;1673390470.936489;-54.6312255859375;-0.23937244713306427;-46.117576599121094
364;1673390471.0072901;47.1287235;7.2375612;72.71500396728516;1673390471.1406922;-36.558536529541016;0.0556853748857975;-46.239097595214844
365;1673390471.2729373;47.1287418;7.2375326;72.09400177001953;1673390471.3704019;2.2746951580047607;0.07793732732534409;-45.85518264770508
366;1673390471.440652;47.128759699999996;7.2375042999999994;71.09500122070312;1673390471.572955;60.7282600402832;0.5761414766311646;-45.03200149536133
367;1673390471.649547;47.1287776;7.2374762;69.68500518798828;1673390471.7624507;66.50753021240234;179.41110229492188;133.94015502929688
368;1673390471.834438;47.128795499999995;7.237448;67.89900207519531;1673390471.9446743;35.93422317504883;178.4490509033203;132.35682678222656
369;1673390472.0355592;47.128813199999996;7.237419999999999;65.7550048828125;1673390472.1475182;33.79602813720703;176.7703094482422;129.12466430664062
370;1673390472.2235377;47.1288305;7.2373924999999995;63.24700164794922;1673390472.3453586;61.57838821411133;171.2052764892578;124.34378814697266
371;1673390472.420778;47.128847699999994;7.2373654;60.39400100708008;1673390472.541707;60.06206512451172;2.4381215572357178;-43.60887145996094
372;1673390472.6213872;47.128864899999996;7.2373382;57.20000457763672;1673390472.7430313;-10.576189041137695;1.1430306434631348;-45.965675354003906
373;1673390472.8194587;47.1288821;7.237311;53.60200119018555;1673390472.9434416;-55.937198638916016;-0.5735198259353638;-44.05732727050781
374;1673390473.0147295;47.128899;7.2372843;49.63500213623047;1673390473.1236148;-61.964168548583984;-1.7837198972702026;-42.50715255737305
375;1673390473.1993725;47.1289155;7.237258;45.345001220703125;1673390473.3195224;-24.591955184936523;-0.022265098989009857;-43.574188232421875
376;1673390473.3973048;47.128931699999995;7.2372323;40.71800231933594;1673390473.5219917;43.018863677978516;1.625916838645935;-41.0667724609375
377;1673390473.6036277;47.1289478;7.2372067;35.695003509521484;1673390473.7073905;84.64261627197266;144.16465759277344;101.62155151367188
378;1673390473.7774475;47.128963999999996;7.237181;30.330001831054688;1673390473.9153934;82.31769561767578;147.48602294921875;104.85070037841797
379;1673390474.0007796;47.128980299999995;7.2371552999999995;24.670001983642578;1673390474.1337397;48.44729232788086;6.143226146697998;-36.04087448120117
380;1673390474.2145498;47.1289966;7.2371295;18.69900131225586;1673390474.334589;-21.83452606201172;1.760359764099121;-39.7591552734375
381;1673390474.4083045;47.129013099999995;7.2371037;12.330000877380371;1673390474.5235076;-57.437477111816406;-2.5385396480560303;-37.03682327270508
382;1673390474.5894547;47.129028899999994;7.2370785;5.619000434875488;1673390474.6994793;-34.695213317871094;-0.26821863651275635;-37.65779113769531
383;1673390474.774807;47.1290404;7.2370603;0.3540000021457672;1673390474.9283552;2.3469810485839844;0.8604491353034973;-37.68338394165039
384;1673390475.0247383;47.1290444;7.237057699999999;1.1390000581741333;1673390475.1466625;-0.4362446367740631;4.727696418762207;-39.59621810913086
385;1673390475.2206676;47.1290506;7.2370528;1.971000075340271;1673390475.3397782;0.2039158195257187;2.8734114170074463;-38.90125274658203
386;1673390475.447759;47.129056899999995;7.237048199999999;2.869000196456909;1673390475.5815308;0.4024428427219391;1.859683871269226;-38.66238784790039
387;1673390475.637471;47.129062499999996;7.2370442;3.747000217437744;1673390475.7365785;0.5495989322662354;0.9840832352638245;-38.47539138793945
388;1673390475.7973897;47.1290677;7.2370408;4.5970001220703125;1673390475.9496486;0.6854028105735779;0.44802895188331604;-38.3090934753418
389;1673390476.0488334;47.129072;7.2370383;5.4150004386901855;1673390476.1608863;0.9062063097953796;0.22073066234588623;-38.227439880371094
390;1673390476.25759;47.1290748;7.237037099999999;6.188000202178955;1673390476.3784487;1.1750962734222412;0.10929547995328903;-38.17738342285156
391;1673390476.4475214;47.129076399999995;7.2370369;6.908000469207764;1673390476.5595977;1.464553713798523;0.1383337825536728;-38.115291595458984
392;1673390476.6315851;47.1290768;7.2370376;7.580000400543213;1673390476.732549;1.7175803184509277;0.09350267052650452;-38.07292175292969
393;1673390476.8019009;47.129076399999995;7.2370391;8.194000244140625;1673390476.928526;2.002803325653076;0.08008339256048203;-38.000518798828125
394;1673390477.007597;47.129075099999994;7.2370411;8.756000518798828;1673390477.1335955;2.2705771923065186;0.08123574405908585;-37.94351577758789
395;1673390477.2096863;47.1290744;7.237043;9.276000022888184;1673390477.32279;2.4670472145080566;0.08575607091188431;-37.86482238769531
396;1673390477.4006793;47.1290695;7.2370448;9.736000061035156;1673390477.5099707;2.989511013031006;-0.17558425664901733;-37.52199172973633
397;1673390477.5805607;47.1290623;7.237046299999999;10.145000457763672;1673390477.7056272;3.1863338947296143;-0.24729402363300323;-37.35869598388672
398;1673390477.77877;47.129056399999996;7.2370474;10.528000831604004;1673390477.914027;3.281360387802124;-0.22895555198192596;-37.27324676513672
399;1673390477.9885504;47.1290522;7.237048199999999;10.882000923156738;1673390478.1001832;3.2948386669158936;-0.2151755541563034;-37.20658493041992
400;1673390478.17685;47.1290494;7.237048799999999;11.205000877380371;1673390478.2931159;3.3694117069244385;-0.11960023641586304;-37.15830612182617
401;1673390478.3712206;47.1290477;7.2370494999999995;11.496000289916992;1673390478.4909332;3.358715534210205;-0.020425226539373398;-37.14793395996094
402;1673390478.565793;47.129046599999995;7.2370502;11.757000923156738;1673390478.6969688;3.372206687927246;0.1364378035068512;-37.08881378173828
403;1673390478.782501;47.1290459;7.2370506;11.986001014709473;1673390478.9154453;3.407365083694458;0.219946950674057;-37.06354522705078
404;1673390478.9962928;47.129045399999995;7.2370509;12.18600082397461;1673390479.1165037;3.339946985244751;0.3085367679595947;-37.02005386352539
405;1673390479.1867564;47.1290451;7.2370512;12.355000495910645;1673390479.3083107;3.305304765701294;0.3495382070541382;-37.00822067260742
406;1673390479.389426;47.129044799999996;7.2370515;12.492000579833984;1673390479.5155778;3.3081727027893066;0.4182335138320923;-36.96446228027344
407;1673390479.5909393;47.1290446;7.2370519;12.599000930786133;1673390479.7114997;3.202335834503174;0.5094055533409119;-36.93095397949219
408;1673390479.7823882;47.1290443;7.2370527;12.67300033569336;1673390479.9080048;3.22841739654541;0.6102140545845032;-36.916175842285156
409;1673390479.982812;47.129044;7.2370535;12.714000701904297;1673390480.0996177;3.182171106338501;0.6548951268196106;-36.88438415527344
410;1673390480.1814888;47.1290439;7.237054;12.732000350952148;1673390480.2962;3.1293702125549316;0.7018663287162781;-36.86452865600586
411;1673390480.3712645;47.1290438;7.2370544;12.721000671386719;1673390480.500865;3.0191071033477783;0.7688449025154114;-36.84672546386719
412;1673390480.5863888;47.1290437;7.2370547;12.682000160217285;1673390480.7136521;2.9223804473876953;0.8042750358581543;-36.828086853027344
413;1673390480.7890315;47.129043599999996;7.2370548999999995;12.61500072479248;1673390480.9009178;2.8650963306427;0.8857265710830688;-36.81737518310547
414;1673390480.986379;47.1290433;7.2370556;12.521000862121582;1673390481.135152;2.8500635623931885;0.9309542179107666;-36.803001403808594
415;1673390481.2045083;47.129042999999996;7.2370563;16.81599998474121;1673390481.3209863;2.850429058074951;0.98391193151474;-36.77923583984375
416;1673390481.3962035;47.1290428;7.237056699999999;16.920000076293945;1673390481.5230026;2.728800058364868;1.0291532278060913;-36.76465606689453
417;1673390481.597192;47.1290428;7.2370569;16.999000549316406;1673390481.7166023;2.631396532058716;1.0407371520996094;-36.74492263793945
418;1673390481.7885995;47.1290427;7.2370570999999995;16.854000091552734;;;;
