;pos_time;latitude;longitude;altitude;alt_time;pitch;roll;yaw
0;1673393034.9758964;47.1306425;7.2406204;-0.01900000125169754;1673393035.1521208;-0.15450012683868408;-0.27000540494918823;90.48126983642578
1;1673393035.1907165;47.1306425;7.2406204;-0.017000000923871994;1673393035.349508;-0.30656248331069946;-0.3804953694343567;90.46675872802734
2;1673393035.4068859;47.1306425;7.2406204;-0.01600000075995922;1673393035.5729234;-0.14410589635372162;-0.19418570399284363;90.25444793701172
3;1673393035.612949;47.1306424;7.2406204;-0.01900000125169754;1673393035.763024;-0.09872312843799591;-0.30226626992225647;90.4398422241211
4;1673393035.7987018;47.1306424;7.2406204;-0.020000001415610313;1673393035.9584265;0.015255880542099476;-0.3080355226993561;90.44042205810547
5;1673393035.9951372;47.1306423;7.2406203;-0.021000001579523087;1673393036.1626034;-0.14355060458183289;-0.29860472679138184;90.32637786865234
6;1673393036.1974666;47.1306423;7.2406203;-0.024000000208616257;1673393036.363867;-0.27489542961120605;-0.38625600934028625;90.52590942382812
7;1673393036.4086015;47.1306423;7.2406201999999995;-0.026000000536441803;1673393036.5563467;-0.21469122171401978;-0.125282421708107;90.31697845458984
8;1673393036.589092;47.1306423;7.2406201;-0.030000001192092896;1673393036.7528534;-0.051537636667490005;-0.40911391377449036;90.41717529296875
9;1673393036.7866693;47.1306423;7.2406201;-0.03100000135600567;1673393036.952024;-0.14656369388103485;-0.24037452042102814;90.40824127197266
10;1673393036.9894676;47.1306423;7.2406201;-0.030000001192092896;1673393037.1635091;-0.16570399701595306;-0.29263290762901306;90.43600463867188
11;1673393037.1952856;47.1306424;7.2406201;-0.02800000086426735;1673393037.3704612;-0.26772210001945496;-0.2630573511123657;90.50724029541016
12;1673393037.4057298;47.1306424;7.2406201;-0.026000000536441803;1673393037.582528;-0.1603662371635437;-0.14000636339187622;90.24493408203125
13;1673393037.6197946;47.1306424;7.2406201;-0.026000000536441803;1673393037.7778347;-0.11048178374767303;-0.280744731426239;90.4749526977539
14;1673393037.8120735;47.1306424;7.2406201;-0.027000000700354576;1673393037.9610085;-0.358696848154068;-0.2247515469789505;90.38582611083984
15;1673393037.994745;47.1306424;7.2406201;0.0;1673393038.1657903;-0.3410020172595978;-0.3492620289325714;90.44083404541016
16;1673393038.238159;47.1306423;7.2406201;0.0020000000949949026;1673393038.3968873;-0.0045931083150208;-0.1329445242881775;90.37242889404297
17;1673393038.4329948;47.1306423;7.2406201;0.004000000189989805;1673393038.5941935;-0.11018181592226028;-0.3813251852989197;90.55278778076172
18;1673393038.6294353;47.1306423;7.2406201;0.005000000353902578;1673393038.7899792;-0.3472006022930145;-0.32039016485214233;90.37771606445312
19;1673393038.8229055;47.1306423;7.2406201;0.00800000037997961;1673393038.958993;-0.36574262380599976;-0.16207528114318848;90.50741577148438
20;1673393038.9909685;47.1306423;7.2406201;0.009000000543892384;1673393039.1590993;-0.3135550618171692;-0.24078331887722015;90.43988037109375
21;1673393039.1969173;47.1306423;7.2406201999999995;0.006000000052154064;1673393039.3636978;-0.6371288895606995;0.2521460950374603;90.31334686279297
22;1673393039.403039;47.1306423;7.2406201999999995;0.0010000000474974513;1673393039.5780997;-0.645569384098053;-0.041872065514326096;90.36112213134766
23;1673393039.6168823;47.1306423;7.2406201;0.0;1673393039.7768636;-0.6917624473571777;-0.2234659343957901;90.35289001464844
24;1673393039.814833;47.1306423;7.2406201;0.0010000000474974513;1673393039.9759843;-0.7598945498466492;-0.31496289372444153;90.3810043334961
25;1673393040.0188677;47.1306423;7.2406201;0.003000000026077032;1673393040.1890154;-0.6059798002243042;-0.17282789945602417;90.21057891845703
26;1673393040.2291162;47.1306423;7.2406201;0.007000000216066837;1673393040.3879955;-0.6037893295288086;-0.1839369684457779;90.43794250488281
27;1673393040.4204292;47.1306423;7.2406201;0.007000000216066837;1673393040.5718565;-0.8472420573234558;-0.09273599088191986;90.5445556640625
28;1673393040.606048;47.1306423;7.2406201;0.009000000543892384;1673393040.767855;-0.8629369139671326;-0.12036222964525223;90.70929718017578
29;1673393040.803048;47.1306423;7.2406201;0.009000000543892384;1673393040.9770608;-1.1812684535980225;-0.1431673765182495;90.41924285888672
30;1673393041.0119152;47.1306423;7.2406201;0.00800000037997961;1673393041.1721513;-1.2991372346878052;-0.2286265641450882;90.37268829345703
31;1673393041.2048073;47.1306423;7.2406201;0.00800000037997961;1673393041.3657603;0.4563791751861572;-0.11433426290750504;86.83108520507812
32;1673393041.401572;47.1306423;7.2406206;0.012000000104308128;1673393041.5529513;6.094001293182373;0.022856399416923523;85.99769592285156
33;1673393041.5960152;47.1306423;7.2406216;0.02500000037252903;1673393041.789917;13.961772918701172;-0.3850058913230896;86.33222961425781
34;1673393041.8234463;47.1306423;7.240622999999999;0.04000000283122063;1673393042.0008895;15.302557945251465;0.8366918563842773;87.42341613769531
35;1673393042.035875;47.1306424;7.2406248;0.0650000050663948;1673393042.207925;15.906874656677246;-1.5592659711837769;87.87689208984375
36;1673393042.267987;47.1306425;7.2406267;0.10700000822544098;1673393042.4310534;17.273752212524414;-1.996363878250122;88.19515228271484
37;1673393042.481927;47.130642599999995;7.2406286;0.16900001466274261;1673393042.611911;19.03391456604004;1.5724122524261475;89.05440521240234
38;1673393042.6394632;47.130642699999996;7.2406304;0.24500000476837158;1673393042.772789;20.95744514465332;0.48571744561195374;89.3455810546875
39;1673393042.80258;47.130642699999996;7.2406318999999995;0.33500000834465027;1673393042.9438486;22.961301803588867;-1.8130125999450684;89.32611846923828
40;1673393042.9770517;47.130642699999996;7.240633;0.43800002336502075;1673393043.1414778;25.075647354125977;1.1291829347610474;89.93600463867188
41;1673393043.177601;47.130642699999996;7.2406336;0.5570000410079956;1673393043.343685;27.122621536254883;1.4805901050567627;90.33250427246094
42;1673393043.3914428;47.130642599999995;7.2406334;0.690000057220459;1673393043.5555742;28.40084457397461;-1.4364343881607056;89.99954223632812
43;1673393043.5956259;47.130642699999996;7.2406324;0.8390000462532043;1673393043.7482514;26.175512313842773;0.9356043934822083;90.35445404052734
44;1673393043.7825077;47.130642699999996;7.2406305;1.0010000467300415;1673393043.9434416;23.620786666870117;1.8715662956237793;90.92669677734375
45;1673393043.9887319;47.130642599999995;7.2406283;1.1730000972747803;1673393044.198326;20.798730850219727;-1.9563218355178833;90.10491943359375
46;1673393044.2602527;47.1306425;7.2406258;1.3510000705718994;1673393044.4015682;18.2149715423584;0.10424795746803284;90.38176727294922
47;1673393044.4372509;47.1306425;7.240623599999999;1.5350000858306885;1673393044.591993;16.332780838012695;2.1875545978546143;95.92267608642578
48;1673393044.6276822;47.1306425;7.240621699999999;1.718000054359436;1673393044.7769456;15.267375946044922;-2.281895160675049;93.86454010009766
49;1673393044.8073153;47.1306425;7.2406201999999995;1.9040000438690186;1673393044.9593096;14.706530570983887;-0.036580510437488556;93.37979125976562
50;1673393044.9953458;47.1306425;7.2406193;2.0900001525878906;1673393045.1813197;14.951642036437988;1.77982759475708;93.42897033691406
51;1673393045.2128663;47.1306425;7.2406188;2.2780001163482666;1673393045.489353;15.896728515625;-1.550061583518982;92.53026580810547
52;1673393045.5147753;47.1306424;7.2406187;2.4670000076293945;1673393045.619314;16.90000343322754;-1.1370015144348145;92.20664978027344
53;1673393045.6471784;47.1306425;7.240618899999999;2.6570000648498535;1673393045.7869287;17.9996280670166;2.855660915374756;92.63560485839844
54;1673393045.8193524;47.130642599999995;7.240619199999999;2.8470001220703125;1673393045.9695575;18.67057228088379;0.29353636503219604;92.35945129394531
55;1673393046.0077405;47.130642699999996;7.2406196;3.0400002002716064;1673393046.1707637;19.201065063476562;-0.6736518740653992;92.20936584472656
56;1673393046.2089846;47.1306428;7.24062;3.2340002059936523;1673393046.38858;19.49500846862793;3.1817879676818848;92.74569702148438
57;1673393046.4256716;47.130642699999996;7.2406203;3.4250001907348633;1673393046.580023;19.711341857910156;1.0810465812683105;92.56855773925781
58;1673393046.6132224;47.130642599999995;7.2406204999999995;3.617000102996826;1673393046.7769144;19.791324615478516;-1.7415231466293335;91.9786605834961
59;1673393046.8201554;47.1306425;7.2406206;3.81000018119812;1673393046.980669;19.788822174072266;2.6160309314727783;92.76029205322266
60;1673393047.0129943;47.130642599999995;7.2406207;4.004000186920166;1673393047.1698654;19.5396671295166;1.9296412467956543;92.62584686279297
61;1673393047.2049966;47.130642599999995;7.2406207;4.199000358581543;1673393047.3614283;19.413354873657227;-1.3397129774093628;92.15863037109375
62;1673393047.39376;47.130642599999995;7.2406207;4.398000240325928;1673393047.5512588;19.412172317504883;2.01216459274292;92.53268432617188
63;1673393047.596242;47.1306425;7.2406206;4.599000453948975;1673393047.774294;19.203886032104492;1.9055442810058594;92.72801971435547
64;1673393047.8142946;47.1306423;7.2406206;4.800000190734863;1673393047.9745827;19.002593994140625;-2.0400116443634033;92.114990234375
65;1673393048.0106945;47.130641999999995;7.2406204999999995;4.999000072479248;1673393048.172004;19.043010711669922;0.1426510214805603;92.56523895263672
66;1673393048.2110353;47.130641999999995;7.2406204999999995;5.196000099182129;1673393048.3847048;18.82280921936035;2.5766124725341797;92.99813079833984
67;1673393048.4178915;47.1306419;7.2406204;5.390000343322754;1673393048.5762124;18.832775115966797;-1.2987614870071411;92.35824584960938
68;1673393048.6114419;47.130641999999995;7.2406204;5.583000183105469;1673393048.7646964;18.992511749267578;0.1836080104112625;92.42022705078125
69;1673393048.798905;47.130641999999995;7.2406204;5.777000427246094;1673393048.9512582;18.952138900756836;2.8873116970062256;92.89926147460938
70;1673393048.9851065;47.1306419;7.2406204;5.969000339508057;1673393049.1367068;19.02470588684082;-0.7663236260414124;92.39409637451172
71;1673393049.1728184;47.1306419;7.2406204999999995;6.1610002517700195;1673393049.347915;19.090463638305664;-0.6981639862060547;92.39350891113281
72;1673393049.3859742;47.1306419;7.2406204999999995;6.3520002365112305;1673393049.5599313;19.002704620361328;3.2148597240448;92.93722534179688
73;1673393049.5999472;47.130641999999995;7.2406204999999995;6.5420002937316895;1673393049.7668056;18.920034408569336;0.6102384924888611;92.68489837646484
74;1673393049.800136;47.130642099999996;7.2406204999999995;6.734000205993652;1673393049.9656732;19.02519989013672;-0.8109932541847229;92.35018920898438
75;1673393050.0047128;47.130642099999996;7.2406204999999995;6.924000263214111;1673393050.159789;19.094573974609375;3.0145554542541504;92.93218231201172
76;1673393050.196946;47.130642099999996;7.2406204999999995;7.11400032043457;1673393050.368249;19.11176109313965;1.0517244338989258;92.66759490966797
77;1673393050.407449;47.130641999999995;7.2406206;7.307000160217285;1673393050.5718277;19.0839786529541;-1.624857783317566;92.19857788085938
78;1673393050.6099658;47.130641999999995;7.2406206;7.499000549316406;1673393050.7682276;19.32783317565918;2.4121878147125244;92.78550720214844
79;1673393050.7996395;47.130641999999995;7.2406207;7.692000389099121;1673393050.9485943;18.993305206298828;1.7187700271606445;92.8421630859375
80;1673393050.982827;47.130642099999996;7.2406207;7.887000560760498;1673393051.1465893;19.201366424560547;-1.1258119344711304;92.2670669555664
81;1673393051.1885445;47.130642099999996;7.2406207;8.088000297546387;1673393051.3643491;19.164701461791992;2.2939014434814453;92.65418243408203
82;1673393051.4034042;47.130642099999996;7.2406207;8.288000106811523;1673393051.5871663;19.124500274658203;1.9264572858810425;92.80498504638672
83;1673393051.6232893;47.130641999999995;7.2406207;8.484000205993652;1673393051.7819135;18.96842384338379;-1.8788323402404785;92.21520233154297
84;1673393051.81222;47.130641999999995;7.2406207;8.681000709533691;1673393051.9627025;19.083145141601562;1.1678355932235718;92.63427734375
85;1673393051.9988158;47.130641999999995;7.240620799999999;8.87600040435791;1673393052.164029;19.053211212158203;2.6149017810821533;93.0160140991211
86;1673393052.2021387;47.130641999999995;7.240620799999999;9.071000099182129;1673393052.3636413;19.021705627441406;-1.165686845779419;92.35054016113281
87;1673393052.4057658;47.130642099999996;7.240620799999999;9.266000747680664;1673393052.5666478;19.180816650390625;0.47603923082351685;92.45075988769531
88;1673393052.6047618;47.130642099999996;7.240620799999999;9.463000297546387;1673393052.7785218;19.394954681396484;3.163647174835205;93.04080963134766
89;1673393052.81389;47.130642099999996;7.2406209;9.656000137329102;1673393052.9782765;19.24246597290039;-0.9347426891326904;92.41077423095703
90;1673393053.017348;47.130642099999996;7.2406209;9.848000526428223;1673393053.184789;19.50478172302246;0.2779345214366913;92.50117492675781
91;1673393053.223039;47.130642099999996;7.240621;10.039000511169434;1673393053.3818264;19.711551666259766;3.2320444583892822;92.91275787353516
92;1673393053.4180903;47.1306422;7.240621;10.250000953674316;1673393053.5816505;19.920385360717773;0.9790976643562317;92.78682708740234
93;1673393053.6188745;47.1306423;7.2406206;10.565000534057617;1673393053.7835786;20.52734375;0.3264615535736084;92.60704803466797
94;1673393053.8235998;47.1306423;7.24062;10.947000503540039;1673393053.9857123;18.48097038269043;3.1439387798309326;93.09879302978516
95;1673393054.026543;47.1306422;7.2406194;11.338000297546387;1673393054.1826441;17.4967041015625;0.33340924978256226;92.68080139160156
96;1673393054.2187562;47.130642099999996;7.240618899999999;11.735000610351562;1673393054.3595123;16.836380004882812;-0.7268845438957214;92.46015930175781
97;1673393054.3926961;47.130642099999996;7.2406185;12.13800048828125;1673393054.553997;16.53487205505371;2.5669615268707275;92.98658752441406
98;1673393054.5933397;47.130642099999996;7.2406182999999995;12.543000221252441;1673393054.7614942;16.452388763427734;0.41288474202156067;92.67334747314453
99;1673393054.8016021;47.130641999999995;7.2406182999999995;12.947000503540039;1673393054.9678845;17.106809616088867;-0.8298256397247314;92.36517333984375
100;1673393055.00496;47.130642099999996;7.2406185;13.351000785827637;1673393055.1865902;17.628753662109375;2.6501879692077637;92.85020446777344
101;1673393055.2254124;47.130641999999995;7.2406187;13.759000778198242;1673393055.381739;18.06576919555664;0.9792808890342712;92.7641830444336
102;1673393055.417946;47.130641999999995;7.2406191;14.168000221252441;1673393055.5851576;18.45240592956543;-1.0757031440734863;92.3296127319336
103;1673393055.6193082;47.130642099999996;7.2406193;14.576001167297363;1673393055.7822616;18.752527236938477;2.697723627090454;92.81525421142578
104;1673393055.8175294;47.130642099999996;7.2406196;14.984001159667969;1673393055.972274;18.989992141723633;2.1052663326263428;92.89360809326172
105;1673393056.004491;47.130642099999996;7.240619799999999;15.390000343322754;1673393056.1598043;18.74750518798828;-0.8668447136878967;92.3907470703125
106;1673393056.1959205;47.130642099999996;7.2406198999999996;15.79900074005127;1673393056.3599784;18.90567970275879;1.702406883239746;92.72616577148438
107;1673393056.397799;47.130642099999996;7.2406198999999996;16.211000442504883;1673393056.5565538;18.55662727355957;2.1744353771209717;92.98159790039062
108;1673393056.5936415;47.130642099999996;7.2406198999999996;16.624000549316406;1673393056.7610447;18.549896240234375;-0.8484535217285156;92.45116424560547
109;1673393056.8002486;47.130642099999996;7.240619799999999;17.038000106811523;1673393056.9607189;18.404726028442383;1.4803355932235718;92.70046997070312
110;1673393056.9978273;47.1306422;7.240619799999999;17.447999954223633;1673393057.1728168;18.299341201782227;2.7257204055786133;92.9685287475586
111;1673393057.2080374;47.1306422;7.240619799999999;17.856000900268555;1673393057.3782437;18.33643913269043;-0.4406878650188446;92.5424575805664
112;1673393057.412564;47.1306422;7.240619799999999;18.263999938964844;1673393057.5600796;18.382322311401367;0.9454919099807739;92.62000274658203
113;1673393057.5971212;47.1306422;7.240619799999999;18.665000915527344;1673393057.7750592;18.177257537841797;2.777266502380371;92.98066711425781
114;1673393057.8093805;47.1306422;7.240619799999999;19.06800079345703;1673393057.9628036;18.395002365112305;-0.6572458148002625;92.56449890136719
115;1673393057.9969857;47.1306422;7.240619799999999;19.47300148010254;1673393058.1728487;18.467222213745117;0.5212528109550476;92.535400390625
116;1673393058.208961;47.1306423;7.240619799999999;19.880001068115234;1673393058.3721287;18.51290512084961;3.2943813800811768;92.93092346191406
117;1673393058.411234;47.1306424;7.2406198999999996;20.286001205444336;1673393058.5764737;18.397926330566406;-0.14657332003116608;92.50730895996094
118;1673393058.61161;47.1306424;7.2406198999999996;20.687000274658203;1673393058.7761116;18.717445373535156;0.23236891627311707;92.49493408203125
119;1673393058.8116071;47.1306424;7.2406198999999996;21.089000701904297;1673393058.9583805;18.44080924987793;3.1837575435638428;93.00362396240234
120;1673393058.9959915;47.1306424;7.2406198999999996;21.496000289916992;1673393059.165131;18.605518341064453;-0.13998840749263763;92.54024505615234
121;1673393059.2023563;47.1306425;7.2406198999999996;21.902000427246094;1673393059.3724139;18.44893455505371;0.26856353878974915;92.48323822021484
122;1673393059.4134848;47.130642599999995;7.240619799999999;22.3070011138916;1673393059.5682096;18.40464973449707;3.599442481994629;92.95014190673828
123;1673393059.6036084;47.130642699999996;7.240619799999999;22.71000099182129;1673393059.766996;18.29094123840332;0.8231226801872253;92.5864028930664
124;1673393059.8031688;47.130642699999996;7.2406197;23.113000869750977;1673393059.9636939;18.310680389404297;-0.2305014431476593;92.33049774169922
125;1673393060.0056562;47.130642699999996;7.2406197;23.511001586914062;1673393060.167707;18.372312545776367;3.1742825508117676;92.87966918945312
126;1673393060.2038586;47.130642699999996;7.2406197;23.908000946044922;1673393060.3678427;18.337764739990234;1.312958002090454;92.73261260986328
127;1673393060.4039464;47.130642699999996;7.2406197;24.312000274658203;1673393060.5786057;18.5096435546875;-0.3764302730560303;92.36896514892578
128;1673393060.6176453;47.1306428;7.2406197;24.71900177001953;1673393060.7778203;18.49563980102539;2.822833299636841;92.80963897705078
129;1673393060.8149536;47.1306428;7.2406197;25.124000549316406;1673393060.9799912;18.44655990600586;1.9673120975494385;92.75596618652344
130;1673393061.0122316;47.130642699999996;7.2406197;25.52800178527832;1673393061.1895785;18.539073944091797;-0.7284332513809204;92.29228973388672
131;1673393061.2424483;47.130642699999996;7.2406197;25.928001403808594;1673393061.3948448;18.440868377685547;2.320594072341919;92.77303314208984
132;1673393061.4319258;47.130642599999995;7.2406197;26.325000762939453;1673393061.5792046;18.565597534179688;2.2316195964813232;92.8374252319336
133;1673393061.6117418;47.130642599999995;7.2406197;26.724000930786133;1673393061.7532322;18.413705825805664;-0.6602805256843567;92.281982421875
134;1673393061.7869596;47.130642699999996;7.240619799999999;27.126001358032227;1673393061.9708097;18.572158813476562;2.3571770191192627;92.66033935546875
135;1673393062.0079372;47.130642699999996;7.240619799999999;27.531002044677734;1673393062.1838522;18.430147171020508;2.819502115249634;92.86647033691406
136;1673393062.222074;47.130642699999996;7.240619799999999;27.934001922607422;1673393062.4000523;18.54926872253418;-0.374617338180542;92.36841583251953
137;1673393062.4337807;47.130642699999996;7.2406198999999996;28.3330020904541;1673393062.5936298;18.753868103027344;1.9413965940475464;92.58354949951172
138;1673393062.6307242;47.130642699999996;7.2406198999999996;28.729001998901367;1673393062.7785332;18.510303497314453;3.204972743988037;92.97761535644531
139;1673393062.8070424;47.130642699999996;7.2406198999999996;29.124000549316406;1673393062.9671247;18.43356704711914;-0.3954695761203766;92.39639282226562
140;1673393063.0043697;47.130642699999996;7.2406198999999996;29.524002075195312;1673393063.1487236;18.552610397338867;1.6356830596923828;92.5951156616211
141;1673393063.1815443;47.130642699999996;7.240619799999999;29.927001953125;1673393063.3452594;18.391698837280273;3.447913408279419;92.96781158447266
142;1673393063.3828967;47.130642599999995;7.240619799999999;30.330001831054688;1673393063.5522692;18.491140365600586;-0.03807252272963524;92.48905181884766
143;1673393063.5869625;47.1306425;7.240619799999999;30.73200225830078;1673393063.7505949;18.46953582763672;0.09035856276750565;92.45497131347656
144;1673393063.7868826;47.1306425;7.240619799999999;31.132001876831055;1673393063.9521909;18.350969314575195;3.6196508407592773;92.99555969238281
145;1673393063.9878538;47.1306425;7.2406198999999996;31.53400230407715;1673393064.1599815;18.31061553955078;0.6822671890258789;92.62721252441406
146;1673393064.1980443;47.1306425;7.2406198999999996;31.941001892089844;1673393064.361621;18.58584213256836;-0.04780101776123047;92.3389892578125
147;1673393064.3957806;47.1306425;7.2406198999999996;32.34800338745117;1673393064.5580323;18.51130485534668;3.4950685501098633;92.8490982055664
148;1673393064.5970895;47.1306425;7.24062;32.75200271606445;1673393064.7775414;18.548612594604492;1.185075283050537;92.60498046875
149;1673393064.8148518;47.1306424;7.24062;33.156002044677734;1673393064.9694796;18.608762741088867;-0.49029266834259033;92.33907318115234
150;1673393065.0055907;47.1306425;7.2406201;33.560001373291016;1673393065.1745124;18.669681549072266;3.1643292903900146;92.85407257080078
151;1673393065.2174563;47.1306425;7.2406201;33.961002349853516;1673393065.3889122;18.519548416137695;1.813232183456421;92.8152084350586
152;1673393065.4172006;47.1306425;7.2406201;34.35900115966797;1673393065.5655942;18.614397048950195;-0.3935834765434265;92.3100814819336
153;1673393065.5989428;47.130642599999995;7.2406201;34.76100158691406;1673393065.7527416;18.629640579223633;2.8614065647125244;92.79513549804688
154;1673393065.788535;47.130642599999995;7.2406201;35.163002014160156;1673393065.9568205;18.409427642822266;2.2848689556121826;92.84001159667969
155;1673393065.996362;47.1306425;7.2406201;35.56700134277344;1673393066.1866598;18.706602096557617;-0.5527578592300415;92.34785461425781
156;1673393066.2208197;47.130642599999995;7.2406201999999995;35.970001220703125;1673393066.3810856;18.661060333251953;2.9592833518981934;92.84272766113281
157;1673393066.4506125;47.130642599999995;7.2406201999999995;36.36800003051758;1673393066.6113403;18.517873764038086;2.6758246421813965;92.80497741699219
158;1673393066.6406121;47.130642699999996;7.2406201999999995;36.763999938964844;1673393066.8075023;18.63680648803711;-0.11599019914865494;92.3614730834961
159;1673393066.838715;47.130642699999996;7.2406201999999995;37.16600036621094;1673393066.988519;18.675554275512695;2.374579906463623;92.63606262207031
160;1673393067.021251;47.130642699999996;7.2406201999999995;37.57100296020508;1673393067.178407;18.589759826660156;2.8863885402679443;92.82095336914062
161;1673393067.2127388;47.130642599999995;7.2406201999999995;37.974002838134766;1673393067.3698518;18.59151268005371;-0.0718894898891449;92.41141510009766
162;1673393067.405134;47.130642599999995;7.2406201999999995;38.37700271606445;1673393067.5878968;18.63553237915039;1.8335778713226318;92.6348648071289
163;1673393067.6309218;47.130642599999995;7.2406201999999995;38.781002044677734;1673393067.8028817;18.599767684936523;3.232109785079956;92.95360565185547
164;1673393067.83824;47.130642599999995;7.2406201999999995;39.18000030517578;1673393067.9877672;18.55148696899414;-0.13356348872184753;92.47389221191406
165;1673393068.0347393;47.130642599999995;7.2406201999999995;39.57500076293945;1673393068.193236;18.751136779785156;1.511925458908081;92.59519958496094
166;1673393068.2267087;47.130642599999995;7.2406201999999995;39.97600173950195;1673393068.3708742;18.557292938232422;3.296616792678833;92.96725463867188
167;1673393068.4040844;47.1306425;7.2406201;40.37900161743164;1673393068.571291;18.49890899658203;0.26543042063713074;92.3927230834961
168;1673393068.6075964;47.1306425;7.2406201;40.784000396728516;1673393068.7796512;18.46726417541504;1.0647083520889282;92.39978790283203
169;1673393068.8108823;47.1306425;7.24062;41.191001892089844;1673393068.9730144;18.48076820373535;3.5104737281799316;92.91729736328125
170;1673393069.017099;47.1306425;7.24062;41.59100341796875;1673393069.1861444;18.37626838684082;0.5179785490036011;92.56732177734375
171;1673393069.2282457;47.1306425;7.24062;41.99100112915039;1673393069.3962007;18.586299896240234;0.5480992197990417;92.5140609741211
172;1673393069.4342492;47.1306425;7.24062;42.393001556396484;1673393069.601099;18.574111938476562;3.672295093536377;93.02137756347656
173;1673393069.635259;47.1306424;7.2406201;42.797000885009766;1673393069.795853;18.63121223449707;0.5656843185424805;92.6285400390625
174;1673393069.830011;47.1306423;7.2406201;43.20100021362305;1673393069.982204;18.71579933166504;0.05033642426133156;92.4002685546875
175;1673393070.0175102;47.1306424;7.2406201;43.60400390625;1673393070.1772375;18.55167579650879;3.420858144760132;92.9494400024414
176;1673393070.2133474;47.1306424;7.24062;44.00600051879883;1673393070.3891873;18.56093978881836;1.0357624292373657;92.58964538574219
177;1673393070.4254918;47.1306424;7.24062;44.402000427246094;1673393070.5868735;18.6320743560791;-0.20239724218845367;92.2916259765625
178;1673393070.624202;47.1306424;7.2406198999999996;44.797000885009766;1673393070.7892952;18.526092529296875;3.0982110500335693;92.84481811523438
179;1673393070.8284743;47.1306425;7.2406198999999996;45.198001861572266;1673393070.9935894;18.501724243164062;2.182839870452881;92.76779174804688
180;1673393071.0277498;47.1306424;7.2406198999999996;45.60200119018555;1673393071.189333;18.46822166442871;-0.3290275037288666;92.25550842285156
181;1673393071.2215743;47.1306425;7.2406198999999996;46.00600051879883;1673393071.392455;18.458498001098633;3.2141802310943604;92.83097076416016
182;1673393071.4334562;47.130642599999995;7.2406198999999996;46.413002014160156;1673393071.60077;18.35986328125;2.6058788299560547;92.80215454101562
183;1673393071.632977;47.130642599999995;7.2406198999999996;46.81300354003906;1673393071.783575;18.4295711517334;-0.31133711338043213;92.34915924072266
184;1673393071.8179312;47.130642599999995;7.2406198999999996;47.207000732421875;1673393071.981878;18.433794021606445;2.5453152656555176;92.70114135742188
185;1673393072.0228834;47.1306425;7.240619799999999;47.605003356933594;1673393072.187843;18.322242736816406;2.909130096435547;92.91777038574219
186;1673393072.2259645;47.1306425;7.240619799999999;48.005001068115234;1673393072.384472;18.47495460510254;-0.3941129446029663;92.41320037841797
187;1673393072.419183;47.1306425;7.2406198999999996;48.37600326538086;1673393072.584796;18.51675033569336;2.1164679527282715;92.6810073852539
188;1673393072.6211636;47.130642599999995;7.24062;48.69900131225586;1673393072.7858984;18.50168800354004;3.545958995819092;92.84607696533203
189;1673393072.8193283;47.130642599999995;7.2406203;48.97200393676758;1673393072.9834523;18.9726619720459;-0.46034133434295654;92.07464599609375
190;1673393073.0241923;47.130642599999995;7.2406207;49.195003509521484;1673393073.1877635;21.725444793701172;3.4422106742858887;92.62992858886719
191;1673393073.2336266;47.130642599999995;7.240621099999999;49.37600326538086;1673393073.3941193;34.067649841308594;22.96499252319336;100.90026092529297
192;1673393073.430162;47.1306422;7.2406209;49.5410041809082;1673393073.5952325;38.83073425292969;41.209266662597656;112.37034606933594
193;1673393073.6323795;47.1306407;7.2406188;49.69300079345703;1673393073.7964005;36.8630256652832;52.38027572631836;120.81673431396484
194;1673393073.8295934;47.1306373;7.240613799999999;49.816001892089844;1673393073.9753647;24.534242630004883;59.6110954284668;128.80027770996094
195;1673393074.0118835;47.1306316;7.2406057;49.900001525878906;1673393074.18037;6.493562698364258;54.822410583496094;141.2724609375
196;1673393074.2164836;47.130624;7.240595099999999;49.93400192260742;1673393074.3803794;-10.483407020568848;47.85211181640625;153.70755004882812
197;1673393074.4174664;47.1306151;7.240583;49.94000244140625;1673393074.5779884;-23.399978637695312;43.86475372314453;163.1191864013672
198;1673393074.6152472;47.130605499999994;7.2405702;49.94600296020508;1673393074.7784052;-34.983970642089844;40.03921127319336;173.4723358154297
199;1673393074.8154926;47.1305949;7.240556799999999;49.954002380371094;1673393074.9758384;-45.293025970458984;37.87666320800781;-175.47537231445312
200;1673393075.0114694;47.1305833;7.2405427;49.95600128173828;1673393075.1673026;-49.11518478393555;30.603412628173828;-162.16278076171875
201;1673393075.2121437;47.1305708;7.2405273;49.94900131225586;1673393075.3787231;-47.69131088256836;23.922693252563477;-154.5633544921875
202;1673393075.4184296;47.1305577;7.240511;49.923004150390625;1673393075.58059;-47.3690299987793;19.551198959350586;-149.24630737304688
203;1673393075.6159158;47.130544199999996;7.2404942;49.88200378417969;1673393075.7753341;-47.686065673828125;15.416075706481934;-142.50990295410156
204;1673393075.8114622;47.1305305;7.2404768;49.840003967285156;1673393075.9697857;-47.061119079589844;11.473917961120605;-135.07565307617188
205;1673393076.012037;47.130516799999995;7.2404589999999995;49.81300354003906;1673393076.1832006;-47.56962585449219;5.2621588706970215;-128.2228546142578
206;1673393076.2204034;47.1305032;7.2404408;49.794002532958984;1673393076.3775778;-46.31283187866211;1.311314582824707;-129.43731689453125
207;1673393076.4117985;47.130489499999996;7.2404226;49.77400207519531;1673393076.5542176;-45.91162872314453;2.708052635192871;-133.2112274169922
208;1673393076.5899336;47.1304757;7.2404044999999995;49.76000213623047;1673393076.7527509;-47.65901565551758;3.645674705505371;-134.3785858154297
209;1673393076.7953346;47.1304616;7.2403868;49.75100326538086;1673393076.9514825;-48.06622314453125;4.897552967071533;-135.00611877441406
210;1673393076.9863048;47.1304471;7.240369299999999;49.742000579833984;1673393077.1439834;-47.851646423339844;5.860821723937988;-135.19435119628906
211;1673393077.1796596;47.1304325;7.2403517;49.74400329589844;1673393077.344338;-47.94032669067383;6.846149444580078;-135.3413543701172
212;1673393077.383006;47.130417699999995;7.2403341;49.75300216674805;1673393077.561463;-48.29383850097656;7.783928394317627;-135.4239501953125
213;1673393077.6054337;47.1304028;7.240316399999999;49.76300048828125;1673393077.7670789;-48.31103515625;8.162477493286133;-135.3368377685547
214;1673393077.8092241;47.130387899999995;7.2402985;49.775001525878906;1673393077.9745073;-48.18996810913086;8.187176704406738;-135.1390838623047
215;1673393078.0128102;47.1303729;7.2402804;49.78900146484375;1673393078.1723351;-48.104942321777344;8.247091293334961;-135.01866149902344
216;1673393078.2109318;47.1303579;7.2402622;49.79900360107422;1673393078.3726597;-47.75157165527344;8.154520988464355;-134.8285369873047
217;1673393078.411413;47.130342899999995;7.240243899999999;49.803001403808594;1673393078.575245;-47.44026565551758;8.168766021728516;-134.7908935546875
218;1673393078.6094568;47.130328;7.2402253;49.810001373291016;1673393078.7733693;-47.48638916015625;8.198709487915039;-134.73435974121094
219;1673393078.806698;47.130313099999995;7.2402067;49.81700134277344;1673393078.9648325;-47.67646789550781;8.3233060836792;-134.7184600830078
220;1673393079.001999;47.1302984;7.2401879;49.82500076293945;1673393079.1688602;-47.88221740722656;8.158652305603027;-134.56982421875
221;1673393079.2103827;47.1302836;7.240169;49.832000732421875;1673393079.3791819;-47.72566223144531;8.151324272155762;-134.5337371826172
222;1673393079.418066;47.1302689;7.24015;49.83400344848633;1673393079.5734417;-47.404380798339844;8.113189697265625;-134.45840454101562
223;1673393079.6139965;47.130254199999996;7.240131099999999;49.832000732421875;1673393079.758542;-47.08937072753906;8.219125747680664;-134.51150512695312
224;1673393079.796764;47.130239499999995;7.240112;49.83500289916992;1673393079.9605777;-47.3619270324707;8.354923248291016;-134.5353546142578
225;1673393080.0011525;47.130224899999995;7.2400929;49.84300231933594;1673393080.1688461;-48.026214599609375;8.474786758422852;-134.53350830078125
226;1673393080.202565;47.130210299999995;7.2400736;49.85400390625;1673393080.3770323;-48.23965835571289;8.392130851745605;-134.4110565185547
227;1673393080.4136827;47.130195699999994;7.2400543;49.86100387573242;1673393080.5775383;-47.966217041015625;8.20804214477539;-134.2987518310547
228;1673393080.615397;47.130181199999996;7.2400348999999995;49.8640022277832;1673393080.7652872;-47.55778503417969;8.052042007446289;-134.29678344726562
229;1673393080.8009958;47.1301667;7.240015499999999;49.86000061035156;1673393080.9678462;-47.1536750793457;8.149292945861816;-134.34426879882812
230;1673393081.003537;47.1301522;7.239996;49.85300064086914;1673393081.1750336;-47.250274658203125;8.249659538269043;-134.38522338867188
231;1673393081.2186558;47.1301377;7.239976599999999;49.85100173950195;1673393081.37313;-47.58348083496094;8.394637107849121;-134.4255828857422
232;1673393081.4083147;47.1301233;7.2399572;49.855003356933594;1673393081.5770419;-48.05288314819336;8.460113525390625;-134.42298889160156
233;1673393081.6167634;47.130108899999996;7.2399377;49.86100387573242;1673393081.7715864;-48.196964263916016;8.32726764678955;-134.32162475585938
234;1673393081.8083448;47.1300945;7.2399181;49.8640022277832;1673393081.9719512;-47.962642669677734;8.15001106262207;-134.2786102294922
235;1673393082.0125122;47.1300801;7.2398985;49.86100387573242;1673393082.1771927;-47.49293899536133;8.011333465576172;-134.233642578125
236;1673393082.2138512;47.130065699999996;7.2398789;49.85400390625;1673393082.367933;-47.169952392578125;8.002514839172363;-134.28355407714844
237;1673393082.4042845;47.1300513;7.2398593;49.84700393676758;1673393082.5758927;-47.15916061401367;8.150732040405273;-134.3494415283203
238;1673393082.6165094;47.1300369;7.2398397999999995;49.842002868652344;1673393082.7807992;-47.40903091430664;8.305403709411621;-134.38478088378906
239;1673393082.8141847;47.1300226;7.2398202;49.8380012512207;1673393083.0022883;-47.64723205566406;8.26402759552002;-134.3082733154297
240;1673393083.0346596;47.1300082;7.2398006;49.836002349853516;1673393083.205617;-47.577232360839844;8.2296781539917;-134.28465270996094
241;1673393083.3033226;47.129993899999995;7.239781;49.832000732421875;1673393083.440394;-47.353641510009766;8.097908020019531;-134.24566650390625
242;1673393083.514254;47.1299795;7.239761499999999;49.827003479003906;1673393083.660941;-47.08827209472656;8.075927734375;-134.26490783691406
243;1673393083.7013323;47.1299652;7.239741899999999;49.823001861572266;1673393083.8271163;-47.2247200012207;8.16521167755127;-134.32069396972656
244;1673393083.8554194;47.129951;7.2397222999999995;49.82500076293945;1673393084.0097008;-47.6702880859375;8.305928230285645;-134.3359375
245;1673393084.0448415;47.129936699999995;7.2397028;49.83000183105469;1673393084.2092137;-48.00831985473633;8.23799991607666;-134.25848388671875
246;1673393084.2424755;47.1299224;7.2396832;49.833003997802734;1673393084.4665098;-47.736934661865234;8.13068962097168;-134.19715881347656
247;1673393084.5012212;47.129908099999994;7.2396635;49.836002349853516;1673393084.6404703;-47.622314453125;8.065133094787598;-134.1573028564453
248;1673393084.66877;47.1298937;7.2396439;49.840003967285156;1673393084.8134756;-47.5750732421875;8.062639236450195;-134.15353393554688
249;1673393084.8427496;47.1298794;7.2396243;49.8380012512207;1673393084.9933295;-47.442081451416016;8.078651428222656;-134.1258544921875
250;1673393085.0314634;47.129864999999995;7.2396047;49.83700180053711;1673393085.1984117;-47.41746139526367;8.02991771697998;-134.09725952148438
251;1673393085.2357614;47.1298507;7.239585099999999;49.83500289916992;1673393085.3996725;-47.378448486328125;8.108166694641113;-134.12864685058594
252;1673393085.4416387;47.129836399999995;7.239565499999999;49.83400344848633;1673393085.6108541;-47.35369110107422;8.033443450927734;-134.05796813964844
253;1673393085.645015;47.129822;7.2395458999999995;49.833003997802734;1673393085.8036172;-47.41343688964844;8.006074905395508;-134.01853942871094
254;1673393085.839762;47.1298077;7.2395263;49.83100128173828;1673393086.0266325;-47.371498107910156;7.9411396980285645;-133.98260498046875
255;1673393086.0771163;47.1297934;7.2395065999999995;49.832000732421875;1673393086.2336354;-47.33115005493164;7.963207721710205;-133.98025512695312
256;1673393086.2746208;47.1297791;7.239487;49.83400344848633;1673393086.4176524;-47.4031982421875;8.023770332336426;-133.97438049316406
257;1673393086.4469383;47.1297648;7.2394675;49.836002349853516;1673393086.6200275;-47.460262298583984;7.977746963500977;-133.9195556640625
258;1673393086.652221;47.1297505;7.2394478;49.8380012512207;1673393086.8095226;-47.46107482910156;7.936002254486084;-133.88003540039062
259;1673393086.8534431;47.129736199999996;7.2394282;49.840003967285156;1673393086.9868815;-47.462738037109375;7.846852779388428;-133.79478454589844
260;1673393087.0167184;47.1297218;7.2394086;49.842002868652344;1673393087.1724184;-47.22364807128906;7.838849067687988;-133.7763671875
261;1673393087.2274015;47.129707499999995;7.239389;49.84400177001953;1673393087.3782234;-47.28012466430664;7.872905254364014;-133.7707977294922
262;1673393087.413897;47.1296932;7.2393695;49.84800338745117;1673393087.5815063;-47.50979995727539;7.909911155700684;-133.73524475097656
263;1673393087.619134;47.129678899999995;7.2393499;49.85100173950195;1673393087.78601;-47.49303436279297;7.856966018676758;-133.683837890625
264;1673393087.8223236;47.1296646;7.2393303;49.85600280761719;1673393087.9989784;-47.449668884277344;7.820469856262207;-133.63218688964844
265;1673393088.0404289;47.129650299999994;7.2393107;49.862003326416016;1673393088.2070167;-47.47282409667969;7.783048152923584;-133.5658416748047
266;1673393088.2364118;47.129636;7.2392911;49.86900329589844;1673393088.3804402;-47.66333770751953;7.80294942855835;-133.51602172851562
267;1673393088.4230895;47.1296216;7.2392715;49.87800216674805;1673393088.5867553;-47.82175827026367;7.8232855796813965;-133.4472198486328
268;1673393088.6235297;47.129607299999996;7.239251899999999;49.88500213623047;1673393088.788122;-47.67115783691406;7.621338844299316;-133.32080078125
269;1673393088.820864;47.129593;7.2392322;49.88800048828125;1673393089.0018392;-47.43246078491211;7.5300092697143555;-133.29302978515625
270;1673393089.0359995;47.129578599999995;7.2392125;49.89200210571289;1673393089.199383;-47.335426330566406;7.513078689575195;-133.23062133789062
271;1673393089.2337468;47.1295643;7.2391928;49.900001525878906;1673393089.3972027;-47.73779296875;7.5981035232543945;-133.1956787109375
272;1673393089.434827;47.1295499;7.2391730999999995;49.90800094604492;1673393089.5935612;-47.97510528564453;7.544430255889893;-133.0699462890625
273;1673393089.6285546;47.1295356;7.239153399999999;49.91400146484375;1673393089.7845423;-47.77956771850586;7.435702800750732;-132.9596710205078
274;1673393089.8160424;47.1295212;7.2391336;49.91800308227539;1673393089.9915955;-47.6229362487793;7.256650447845459;-132.85858154296875
275;1673393090.0296817;47.129506899999996;7.2391138999999995;49.919002532958984;1673393090.1864047;-47.358829498291016;7.150994777679443;-132.7671356201172
276;1673393090.2154884;47.1294926;7.2390941;49.92100143432617;1673393090.3749325;-47.39638137817383;7.051279544830322;-132.68911743164062
277;1673393090.4141955;47.1294782;7.2390742999999995;49.92400360107422;1673393090.5977693;-47.55418395996094;7.234306335449219;-132.68792724609375
278;1673393090.6348963;47.129463799999996;7.239054599999999;49.93100357055664;1673393090.7930624;-47.837074279785156;7.073528289794922;-132.47463989257812
279;1673393090.8254597;47.1294494;7.2390349;49.93800354003906;1673393090.97258;-47.924564361572266;6.908608436584473;-132.33499145507812
280;1673393091.0072913;47.129435099999995;7.2390151;49.94300079345703;1673393091.1668396;-47.70696258544922;6.891321659088135;-132.22850036621094
281;1673393091.2034853;47.1294207;7.2389953;49.948001861572266;1673393091.3669374;-47.51980209350586;7.432379245758057;-132.1988067626953
282;1673393091.402761;47.1294063;7.2389756;49.9530029296875;1673393091.5624552;-47.43025588989258;8.370146751403809;-132.1306915283203
283;1673393091.606912;47.129391999999996;7.2389557;49.957000732421875;1673393091.7865736;-47.30461883544922;8.858942031860352;-131.74807739257812
284;1673393091.826304;47.1293778;7.238935799999999;49.9630012512207;1673393091.9966667;-47.99519348144531;7.662892818450928;-131.0948944091797
285;1673393092.0606098;47.1293637;7.2389157;49.967002868652344;1673393092.2298675;-47.839237213134766;7.935155391693115;-131.01797485351562
286;1673393092.272906;47.1293497;7.2388954;49.970001220703125;1673393092.4263437;-47.2300910949707;8.329068183898926;-130.8779296875
287;1673393092.49674;47.1293358;7.2388752;49.97200393676758;1673393092.6415694;-47.23894500732422;8.580099105834961;-130.6009063720703
288;1673393092.7088678;47.129322099999996;7.2388547999999995;49.97800064086914;1673393092.851042;-47.97942352294922;8.623154640197754;-130.31324768066406
289;1673393092.88329;47.1293084;7.238834199999999;49.983001708984375;1673393093.0369468;-47.68666076660156;8.951422691345215;-130.05406188964844
290;1673393093.0701451;47.1292949;7.2388135;49.98500061035156;1673393093.2206106;-47.36410903930664;9.412809371948242;-129.82310485839844
291;1673393093.2549884;47.1292815;7.2387926;49.9890022277832;1673393093.4074426;-47.61017990112305;9.356267929077148;-129.56166076660156
292;1673393093.4446616;47.1292683;7.2387716;49.99400329589844;1673393093.5984335;-47.191741943359375;10.049028396606445;-129.42918395996094
293;1673393093.6391342;47.1292553;7.2387505;50.00100326538086;1673393093.7970734;-47.08895492553711;11.003525733947754;-129.17044067382812
294;1673393093.8339562;47.1292425;7.2387292;50.01000213623047;1673393093.9848735;-44.72919845581055;9.240421295166016;-128.373291015625
295;1673393094.0196195;47.1292301;7.238707799999999;50.022003173828125;1673393094.1841853;-35.391990661621094;10.48040771484375;-129.4757537841797
296;1673393094.2189975;47.1292179;7.2386867;50.04900360107422;1673393094.3858898;-22.88396644592285;10.817407608032227;-131.15496826171875
297;1673393094.4171672;47.1292063;7.238666599999999;50.06900405883789;1673393094.5660284;-11.998762130737305;9.99902629852295;-132.80068969726562
298;1673393094.6012857;47.1291958;7.2386485;50.08000183105469;1673393094.7664096;-4.2581706047058105;9.450423240661621;-133.3555908203125
299;1673393094.806171;47.129186499999996;7.2386329;50.083003997802734;1673393094.9882846;-1.0663244724273682;9.961461067199707;-133.69680786132812
300;1673393095.0285516;47.129178599999996;7.23862;50.082000732421875;1673393095.1909873;0.7172083854675293;9.630440711975098;-133.50714111328125
301;1673393095.2360406;47.1291722;7.2386098;50.08500289916992;1673393095.3794107;-0.10685323923826218;12.716808319091797;-136.47964477539062
302;1673393095.4219472;47.1291669;7.238601999999999;50.09600067138672;1673393095.591334;-2.5823259353637695;14.79719066619873;-137.661376953125
303;1673393095.6328664;47.129162699999995;7.2385961;50.10300064086914;1673393095.7841415;-5.939072132110596;15.682683944702148;-136.01795959472656
304;1673393095.8183627;47.1291594;7.2385917;50.10700225830078;1673393095.9958143;-10.360706329345703;15.699241638183594;-133.70907592773438
305;1673393096.0295396;47.129156699999996;7.2385883;50.108001708984375;1673393096.1841822;-15.109931945800781;14.460043907165527;-131.77410888671875
306;1673393096.2228038;47.1291547;7.2385854;50.11000061035156;1673393096.3739376;-21.42176628112793;14.246816635131836;-131.73780822753906
307;1673393096.4125526;47.129152999999995;7.238582699999999;50.11900329589844;1673393096.5794072;-41.15127182006836;10.3380765914917;-139.07806396484375
308;1673393096.6312804;47.129151199999995;7.238579199999999;50.19200134277344;1673393096.7842786;-41.98007583618164;8.471000671386719;-137.6677703857422
309;1673393096.8209746;47.129148099999995;7.2385743;50.31800079345703;1673393096.9700499;-31.593830108642578;3.811253070831299;-134.9881591796875
310;1673393097.0052266;47.1291438;7.2385684999999995;50.505001068115234;1673393097.186192;-29.399038314819336;6.404667377471924;-134.51693725585938
311;1673393097.225536;47.1291387;7.2385625;50.788002014160156;1673393097.3956597;-44.26608657836914;10.219474792480469;-135.31199645996094
312;1673393097.4315593;47.129132899999995;7.2385556;51.15500259399414;1673393097.5835013;-51.308597564697266;11.858986854553223;-135.5811767578125
313;1673393097.6208005;47.1291259;7.2385468;51.52700424194336;1673393097.7916627;-47.87950897216797;12.264252662658691;-135.41043090820312
314;1673393097.8285809;47.129117799999996;7.238536;51.87600326538086;1673393097.9960706;-45.166873931884766;11.704280853271484;-135.12286376953125
315;1673393098.0346775;47.1291091;7.2385239;52.20900344848633;1673393098.1748233;-41.25776290893555;11.861445426940918;-135.4694061279297
316;1673393098.212463;47.1290999;7.238510799999999;52.53200149536133;1673393098.367465;-39.09608459472656;11.547768592834473;-135.7278289794922
317;1673393098.4036083;47.1290905;7.2384971;52.855003356933594;1673393098.6027153;-37.84523010253906;11.141071319580078;-136.11831665039062
318;1673393098.6365807;47.129081;7.238483199999999;53.18600082397461;1673393098.816822;-36.935829162597656;10.986175537109375;-136.49365234375
319;1673393098.856972;47.1290713;7.2384691;53.52700424194336;1673393098.9998307;-36.578208923339844;10.763551712036133;-136.7145538330078
320;1673393099.035519;47.1290617;7.2384550999999995;53.87600326538086;1673393099.1900828;-36.16096496582031;10.6140775680542;-136.82785034179688
321;1673393099.2248569;47.129051999999994;7.2384412;54.23200225830078;1673393099.3994586;-35.92717361450195;10.730121612548828;-136.8925018310547
322;1673393099.4399455;47.129042299999995;7.2384274;54.59300231933594;1673393099.6062708;-36.044395446777344;10.706695556640625;-136.91810607910156
323;1673393099.641059;47.129032599999995;7.2384137;54.95900344848633;1673393099.7954748;-35.933815002441406;10.771170616149902;-136.905029296875
324;1673393099.8312469;47.1290228;7.2384001;55.3280029296875;1673393100.0029852;-36.19380569458008;11.052729606628418;-136.94081115722656
325;1673393100.0402467;47.129013099999995;7.2383866;55.7030029296875;1673393100.2098172;-36.266693115234375;11.041167259216309;-136.86585998535156
326;1673393100.2435398;47.129003399999995;7.2383732;56.08100128173828;1673393100.4049227;-36.43184280395508;11.05499267578125;-136.87051391601562
327;1673393100.443993;47.128993699999995;7.2383599;56.461002349853516;1673393100.6080036;-36.376373291015625;11.140443801879883;-136.86581420898438
328;1673393100.6500108;47.128983999999996;7.2383465;56.84300231933594;1673393100.8448088;-36.48341751098633;11.163553237915039;-136.79103088378906
329;1673393100.8790712;47.128974299999996;7.238333099999999;57.224002838134766;1673393101.0380983;-36.59675216674805;11.203349113464355;-136.8157501220703
330;1673393101.0694706;47.128964599999996;7.238319799999999;57.60900115966797;1673393101.2217987;-36.638710021972656;11.130274772644043;-136.78854370117188
331;1673393101.2560046;47.1289549;7.2383064;57.99700164794922;1673393101.4190812;-36.76420211791992;11.264778137207031;-136.81947326660156
332;1673393101.4551897;47.1289452;7.238293;58.384002685546875;1673393101.603829;-36.654296875;11.293428421020508;-136.80258178710938
333;1673393101.6341429;47.1289355;7.2382797;58.76900100708008;1673393101.7794793;-36.8232421875;11.181392669677734;-136.78590393066406
334;1673393101.8119013;47.1289258;7.238266299999999;59.15300369262695;1673393101.9794543;-36.75453186035156;11.133866310119629;-136.7877655029297
335;1673393102.0265932;47.1289161;7.2382528;59.538002014160156;1673393102.193303;-36.8019905090332;11.045818328857422;-136.7822723388672
336;1673393102.2270353;47.1289063;7.238239399999999;59.923004150390625;1673393102.4056773;-36.802764892578125;11.135880470275879;-136.81283569335938
337;1673393102.442389;47.1288966;7.2382259;60.31200408935547;1673393102.6042638;-36.88565444946289;11.077731132507324;-136.8057403564453
338;1673393102.6377282;47.1288869;7.2382124;60.69900131225586;1673393102.794543;-36.83152770996094;10.91391658782959;-136.80076599121094
339;1673393102.835794;47.1288772;7.2381988999999995;61.08400344848633;1673393103.0151496;-36.97475051879883;10.952089309692383;-136.84092712402344
340;1673393103.0528493;47.1288674;7.2381854;61.471004486083984;1673393103.2137573;-36.897552490234375;11.02241039276123;-136.81129455566406
341;1673393103.2565615;47.128857599999996;7.238171899999999;61.85900115966797;1673393103.412097;-36.828529357910156;10.945542335510254;-136.8075408935547
342;1673393103.4546123;47.128847799999996;7.238158299999999;62.246002197265625;1673393103.625812;-36.90378189086914;11.117537498474121;-136.83372497558594
343;1673393103.659973;47.128837999999995;7.2381448;62.638004302978516;1673393103.8074703;-36.86857223510742;11.168110847473145;-136.80035400390625
344;1673393103.8416746;47.1288281;7.2381313;63.031002044677734;1673393104.0078468;-36.8455696105957;11.115923881530762;-136.7890167236328
345;1673393104.044997;47.1288183;7.2381177999999995;63.42000198364258;1673393104.211931;-36.99891662597656;11.070240020751953;-136.7901611328125
346;1673393104.251154;47.1288085;7.2381043;63.80800247192383;1673393104.4188986;-36.984073638916016;11.096766471862793;-136.78395080566406
347;1673393104.4568334;47.128798599999996;7.238090799999999;64.19499969482422;1673393104.6233943;-36.79859161376953;11.191540718078613;-136.7774200439453
348;1673393104.664739;47.128788799999995;7.2380773;64.58399963378906;1673393104.8321667;-36.92481231689453;11.101289749145508;-136.7752227783203
349;1673393104.8731596;47.1287789;7.2380637;64.9729995727539;1673393105.0215886;-36.89175033569336;11.153083801269531;-136.7993927001953
350;1673393105.0529296;47.1287691;7.2380501;65.36400604248047;1673393105.2212534;-36.96659469604492;11.0586519241333;-136.74266052246094
351;1673393105.2644086;47.1287592;7.2380366;65.7560043334961;1673393105.4168773;-36.96399688720703;11.077722549438477;-136.75201416015625
352;1673393105.4511018;47.1287494;7.238023;66.14800262451172;1673393105.61677;-36.98590087890625;11.166271209716797;-136.75999450683594
353;1673393105.6563342;47.128739499999995;7.2380094999999995;66.54199981689453;1673393105.8160458;-36.9567985534668;11.143264770507812;-136.7235565185547
354;1673393105.8508053;47.1287297;7.2379959;66.93800354003906;1673393106.0089915;-36.9125862121582;11.027815818786621;-136.72959899902344
355;1673393106.0442488;47.1287198;7.2379824;67.33100128173828;1673393106.213707;-37.06279754638672;11.157831192016602;-136.7692108154297
356;1673393106.2484148;47.12871;7.2379688;67.72100067138672;1673393106.4051278;-37.08383560180664;11.055174827575684;-136.6921844482422
357;1673393106.4408126;47.128700099999996;7.2379552;68.11100006103516;1673393106.605374;-37.080902099609375;11.144107818603516;-136.7119598388672
358;1673393106.6459398;47.128690299999995;7.2379416999999995;68.5009994506836;1673393106.8134422;-36.991600036621094;11.014098167419434;-136.68450927734375
359;1673393106.852054;47.1286804;7.2379280999999995;68.89200592041016;1673393106.9990282;-37.09524154663086;11.090601921081543;-136.67587280273438
360;1673393107.031781;47.1286705;7.2379145;69.28300476074219;1673393107.2041056;-37.11295700073242;11.110949516296387;-136.69161987304688
361;1673393107.243679;47.1286607;7.237900799999999;69.677001953125;1673393107.413185;-37.07624435424805;11.038869857788086;-136.62335205078125
362;1673393107.4527702;47.128650799999996;7.237887199999999;70.07300567626953;1673393107.6164618;-29.779294967651367;12.242749214172363;-136.52630615234375
363;1673393107.6540856;47.128640999999995;7.2378737;70.45500183105469;1673393107.8067467;-18.598451614379883;12.713234901428223;-135.9739990234375
364;1673393107.8399687;47.1286317;7.237860899999999;70.8010025024414;1673393108.0153604;-16.07260513305664;13.236108779907227;-136.65350341796875
365;1673393108.0539763;47.1286232;7.2378494;71.10100555419922;1673393108.196355;-11.026204109191895;14.184026718139648;-136.79470825195312
366;1673393108.2316017;47.1286157;7.2378390999999995;71.35400390625;1673393108.3984191;-8.755390167236328;15.088783264160156;-136.6951141357422
367;1673393108.4355094;47.1286093;7.2378303;71.56500244140625;1673393108.604906;-7.02203893661499;15.173344612121582;-136.7537841796875
368;1673393108.6493711;47.1286038;7.2378227;71.74500274658203;1673393108.8141513;-7.156945705413818;15.91788101196289;-136.87864685058594
369;1673393108.8429983;47.1285994;7.2378165;71.9070053100586;1673393109.0056827;-7.807720184326172;16.259506225585938;-136.9805908203125
370;1673393109.0484557;47.1285959;7.2378114;72.0510025024414;1673393109.2178683;-8.574461936950684;15.861780166625977;-137.16372680664062
371;1673393109.258575;47.128593099999996;7.2378072;72.17900085449219;1673393109.4146528;-13.951539039611816;14.883212089538574;-137.67498779296875
372;1673393109.447473;47.1285909;7.2378038;72.30400085449219;1673393109.6190774;-23.59798240661621;31.15305519104004;-131.713134765625
373;1673393109.655412;47.128589;7.2378005;72.44300079345703;1673393109.826157;-29.227142333984375;43.546756744384766;-117.0772476196289
374;1673393109.8618445;47.1285883;7.2377958;72.57500457763672;1673393110.0225303;-41.62759017944336;34.71710968017578;-107.21281433105469
375;1673393110.0582469;47.1285896;7.237789299999999;72.6820068359375;1673393110.2259834;-42.31888198852539;22.928247451782227;-95.65437316894531
376;1673393110.2616823;47.128592499999996;7.237781099999999;72.76600646972656;1673393110.4216447;-36.32886505126953;14.253662109375;-86.34693908691406
377;1673393110.4681835;47.1285965;7.2377718;72.82200622558594;1673393110.6151867;-39.34575271606445;5.59173059463501;-78.64645385742188
378;1673393110.6459923;47.1286011;7.237762;72.86200714111328;1673393110.8018837;-45.59400177001953;7.308944225311279;-70.72686767578125
379;1673393110.8394308;47.1286062;7.2377515;72.9020004272461;1673393111.009084;-55.18239212036133;7.271420478820801;-61.58391189575195
380;1673393111.050135;47.128612499999996;7.23774;72.94300079345703;1673393111.2091038;-61.850467681884766;4.548446178436279;-53.278873443603516
381;1673393111.247373;47.1286208;7.2377271;72.96200561523438;1673393111.4053788;-54.640621185302734;-2.8538482189178467;-43.55665969848633
382;1673393111.4401133;47.128631;7.2377129;72.95000457763672;1673393111.5979934;-51.42333984375;-7.011384010314941;-42.33565139770508
383;1673393111.6348503;47.1286427;7.237698099999999;72.94100189208984;1673393111.7973757;-55.07175064086914;-7.754055500030518;-45.31222915649414
384;1673393111.8350358;47.1286553;7.2376824;72.93000030517578;1673393111.997633;-52.68279266357422;-8.629637718200684;-46.624820709228516
385;1673393112.0327647;47.1286686;7.2376657;72.91000366210938;1673393112.2047765;-49.56048583984375;-9.21589469909668;-47.43022155761719
386;1673393112.237685;47.1286823;7.2376480999999995;72.89100646972656;1673393112.3954537;-49.456172943115234;-9.211923599243164;-47.96549987792969
387;1673393112.4335291;47.1286961;7.237629999999999;72.8740005493164;1673393112.6125846;-49.4469108581543;-8.417094230651855;-48.54946517944336
388;1673393112.64972;47.12871;7.237611299999999;72.86700439453125;1673393112.8277466;-50.11940002441406;-8.263720512390137;-48.77085876464844
389;1673393112.8678222;47.128724;7.2375922;72.86400604248047;1673393113.03156;-49.74270248413086;-8.248932838439941;-48.9862060546875
390;1673393113.0701265;47.128738;7.2375726;72.85800170898438;1673393113.2109475;-48.71116256713867;-8.176021575927734;-49.27949142456055
391;1673393113.2492876;47.128752;7.2375526;72.85100555419922;1673393113.416282;-36.13169860839844;-4.497666358947754;-51.582462310791016
392;1673393113.4553003;47.1287658;7.2375327;72.677001953125;1673393113.6113415;0.2656645178794861;0.49241504073143005;-53.26215744018555
393;1673393113.65137;47.1287794;7.2375131999999995;72.14800262451172;1673393113.8162746;58.775760650634766;10.02092170715332;-47.91297912597656
394;1673393113.8533804;47.1287928;7.237494099999999;71.21900177001953;1673393114.021173;60.24436950683594;172.12582397460938;111.81912231445312
395;1673393114.071296;47.1288063;7.2374749;69.90400695800781;1673393114.2333844;23.68482780456543;178.50674438476562;117.11798858642578
396;1673393114.2691867;47.1288197;7.2374559;68.24300384521484;1673393114.4222476;16.242549896240234;178.6474609375;116.66544342041016
397;1673393114.461549;47.1288328;7.2374376;66.21200561523438;1673393114.63041;37.18549346923828;172.97418212890625;111.35601043701172
398;1673393114.664381;47.1288456;7.2374198;63.802001953125;1673393114.8082085;82.57412719726562;86.15914916992188;29.69841957092285
399;1673393114.8393154;47.128858199999996;7.2374025;61.03900146484375;1673393114.9913087;16.088134765625;0.4981452524662018;-53.47384262084961
400;1673393115.0268238;47.128871;7.2373848999999995;57.910003662109375;1673393115.2065427;-43.95221710205078;-3.7130353450775146;-52.28047561645508
401;1673393115.2512882;47.128883599999995;7.2373677;54.37700271606445;1673393115.4305124;-65.9561767578125;-6.115787506103516;-50.23486328125
402;1673393115.4855587;47.128896;7.2373512;50.509002685546875;1673393115.6364386;-44.706756591796875;0.4320656955242157;-55.42814636230469
403;1673393115.670246;47.1289082;7.237335099999999;46.32200241088867;1673393115.8234165;15.728778839111328;2.6620864868164062;-53.97494888305664
404;1673393115.8644497;47.12892;7.237319599999999;41.76700210571289;1673393116.020403;82.07881927490234;33.12291717529297;-22.740921020507812
405;1673393116.0534995;47.1289318;7.2373042;36.81100082397461;1673393116.2076044;68.95716857910156;167.18630981445312;111.90930938720703
406;1673393116.2483432;47.1289437;7.237288599999999;31.55000114440918;1673393116.4153094;83.18980407714844;47.295692443847656;-7.041056156158447
407;1673393116.4545674;47.1289555;7.2372735;25.996000289916992;1673393116.6174982;17.481395721435547;4.307439804077148;-50.3369140625
408;1673393116.6505845;47.128967599999996;7.237258;20.110000610351562;1673393116.8244615;-45.08594512939453;-0.5442938804626465;-49.3501091003418
409;1673393116.8624587;47.1289794;7.2372428;13.822000503540039;1673393117.0205505;-55.39352798461914;-3.1659491062164307;-46.30585861206055
410;1673393117.060265;47.1289909;7.237228399999999;7.220000267028809;1673393117.2190866;-6.515170097351074;1.4505175352096558;-45.124637603759766
411;1673393117.2537684;47.1290019;7.2372149;0.2990000247955322;1673393117.4163182;-9.1663236618042;7.164834976196289;-36.61005401611328
412;1673393117.4463997;47.129004099999996;7.237214;0.5220000147819519;1673393117.596599;-1.7615447044372559;2.19583797454834;-29.7480411529541
413;1673393117.636535;47.1290051;7.2372133;0.5530000329017639;1673393117.8072042;-1.7573515176773071;5.8548903465271;-29.096637725830078
414;1673393117.8463645;47.1290054;7.237213499999999;0.5720000267028809;1673393118.017347;-1.5605995655059814;5.1877336502075195;-28.569095611572266
415;1673393118.058373;47.129005299999996;7.2372141;0.5700000524520874;1673393118.2212615;-1.435115098953247;4.802538871765137;-28.11376190185547
416;1673393118.2553623;47.1290051;7.2372146;0.5610000491142273;1673393118.418444;-1.3336474895477295;4.6578216552734375;-27.797555923461914
417;1673393118.456264;47.1290051;7.2372152;0.5540000200271606;1673393118.6194575;-1.2626615762710571;4.629976272583008;-27.637876510620117
418;1673393118.6564555;47.129005299999996;7.2372156;0.5540000200271606;1673393118.8211763;-1.19780433177948;4.519237041473389;-27.448030471801758
