;pos_time;latitude;longitude;altitude;alt_time;pitch;roll;yaw
0;1673389153.103181;47.1306424;7.2406201;-0.012000000104308128;1673389153.2614713;-0.008704328909516335;-0.5570954084396362;90.26103973388672
1;1673389153.312231;47.1306424;7.2406201999999995;-0.013000000268220901;1673389153.45915;0.19628232717514038;-0.48975029587745667;90.12944030761719
2;1673389153.5022266;47.1306424;7.2406201999999995;-0.015000000596046448;1673389153.654082;0.1452820897102356;-0.47413313388824463;90.1988754272461
3;1673389153.6998217;47.1306424;7.2406201999999995;-0.013000000268220901;1673389153.8656251;0.32195791602134705;-0.6098985075950623;90.03434753417969
4;1673389153.9115717;47.1306424;7.24062;-0.009000000543892384;1673389154.1017444;0.27202314138412476;-0.5326136350631714;90.27204132080078
5;1673389154.1403801;47.1306424;7.240619799999999;-0.005000000353902578;1673389154.2679124;0.22536788880825043;-0.7037844061851501;90.265380859375
6;1673389154.311577;47.1306424;7.2406197;-0.005000000353902578;1673389154.455552;0.01263969112187624;-0.5001809597015381;90.06298065185547
7;1673389154.497923;47.1306424;7.240619499999999;-0.007000000216066837;1673389154.6480486;-0.039383139461278915;-0.5714999437332153;89.97318267822266
8;1673389154.6902204;47.1306424;7.240619499999999;-0.006000000052154064;1673389154.8430846;-0.13608163595199585;-0.5322385430335999;90.03158569335938
9;1673389154.886681;47.1306424;7.240619499999999;-0.005000000353902578;1673389155.040582;0.04452408477663994;-0.6013674139976501;89.97693634033203
10;1673389155.08847;47.1306424;7.2406196;0.0;1673389155.2591;0.10687748342752457;-0.5063983798027039;89.9354019165039
11;1673389155.3040833;47.1306425;7.2406196;0.006000000052154064;1673389155.4680426;0.0818004459142685;-0.6575266718864441;90.11693572998047
12;1673389155.5139642;47.1306425;7.2406196;0.010000000707805157;1673389155.6654384;-0.14206460118293762;-0.4027819335460663;90.11593627929688
13;1673389155.7164538;47.1306425;7.2406196;0.01100000087171793;1673389155.8791108;0.020441394299268723;-0.518595814704895;90.1458511352539
14;1673389155.922699;47.1306425;7.2406196;0.013000000268220901;1673389156.076592;0.10494618117809296;-0.49214455485343933;90.21788024902344
15;1673389156.121525;47.1306425;7.2406196;0.0;1673389156.2797604;-0.08907357603311539;-0.44981685280799866;90.03060150146484
16;1673389156.3238745;47.1306425;7.2406197;0.0010000000474974513;1673389156.4800568;0.0843021422624588;-0.5295959711074829;89.92710876464844
17;1673389156.5264723;47.1306425;7.2406197;0.0020000000949949026;1673389156.6862953;0.15432342886924744;-0.531343936920166;89.87519836425781
18;1673389156.729386;47.1306425;7.240619799999999;0.006000000052154064;1673389156.88187;0.09664261341094971;-0.5380470752716064;90.20841979980469
19;1673389156.9249227;47.1306425;7.240619799999999;0.00800000037997961;1673389157.0796933;-0.0056997123174369335;-0.42733263969421387;90.07569122314453
20;1673389157.1247222;47.1306425;7.240619799999999;0.006000000052154064;1673389157.2787926;0.008549708873033524;-0.12437712401151657;90.2172622680664
21;1673389157.3228326;47.1306425;7.240619799999999;0.0020000000949949026;1673389157.4811387;0.279623806476593;-0.5393728613853455;89.96292114257812
22;1673389157.5196795;47.130642599999995;7.240619799999999;-0.0010000000474974513;1673389157.6676207;-0.10058377683162689;0.023108456283807755;89.99797821044922
23;1673389157.708967;47.130642599999995;7.2406198999999996;-0.0010000000474974513;1673389157.8633735;-0.156723290681839;0.5860294103622437;90.01567840576172
24;1673389157.9119396;47.130642599999995;7.2406198999999996;-0.004000000189989805;1673389158.068679;-0.057414352893829346;-0.20368120074272156;90.05476379394531
25;1673389158.117794;47.1306425;7.2406198999999996;-0.003000000026077032;1673389158.2695465;0.006990818306803703;-0.32532787322998047;89.83845520019531
26;1673389158.3258758;47.1306425;7.2406198999999996;-0.004000000189989805;1673389158.4773173;0.08590736985206604;-0.16064980626106262;90.19950866699219
27;1673389158.5227466;47.1306425;7.24062;-0.0020000000949949026;1673389158.667903;0.2660660147666931;-0.06514260917901993;90.1818618774414
28;1673389158.708907;47.1306424;7.24062;-0.0010000000474974513;1673389158.8597198;-0.033305857330560684;-0.09289367496967316;90.01839447021484
29;1673389158.905574;47.1306424;7.24062;-0.0010000000474974513;1673389159.0618281;0.007506844587624073;-0.32355546951293945;90.19928741455078
30;1673389159.1067529;47.1306424;7.24062;0.004000000189989805;1673389159.2617836;0.0869884118437767;-0.025385839864611626;90.04232025146484
31;1673389159.3047638;47.1306424;7.2406201;0.005000000353902578;1673389159.4558215;0.16181336343288422;-0.10701747983694077;90.0649185180664
32;1673389159.5000498;47.1306424;7.2406201;0.0020000000949949026;1673389159.6612265;0.5759378671646118;-0.256881982088089;90.04191589355469
33;1673389159.7071998;47.1306424;7.2406201;0.0010000000474974513;1673389159.8641942;2.1371099948883057;-0.4205244183540344;90.53350830078125
34;1673389159.9117997;47.1306424;7.24062;0.006000000052154064;1673389160.076744;1.7991031408309937;-1.893660068511963;90.87059783935547
35;1673389160.120746;47.1306424;7.2406198999999996;0.030000001192092896;1673389160.2816856;0.48239436745643616;2.208995819091797;90.65621948242188
36;1673389160.3206618;47.1306425;7.2406198999999996;0.07600000500679016;1673389160.4648757;-0.36808380484580994;-1.2657275199890137;91.16362762451172
37;1673389160.5074933;47.1306425;7.2406198999999996;0.13500000536441803;1673389160.6567225;-0.20540225505828857;-2.3695273399353027;91.33372497558594
38;1673389160.697834;47.130642599999995;7.2406198999999996;0.20400001108646393;1673389160.8499894;0.38926559686660767;2.6652848720550537;91.11078643798828
39;1673389160.8934536;47.130642699999996;7.2406198999999996;0.2900000214576721;1673389161.0452816;0.9764800667762756;-0.3296068012714386;91.20667266845703
40;1673389161.0883014;47.130642699999996;7.240619799999999;0.39500001072883606;1673389161.2409456;0.6607401967048645;-2.9223690032958984;91.10529327392578
41;1673389161.2841055;47.130642699999996;7.240619799999999;0.5110000371932983;1673389161.439155;0.4513280391693115;1.7784632444381714;90.66494750976562
42;1673389161.4831154;47.130642599999995;7.2406197;0.6390000581741333;1673389161.6356654;-0.04747385531663895;0.25027063488960266;90.73976135253906
43;1673389161.6795857;47.130642599999995;7.2406197;0.7850000262260437;1673389161.83985;-0.13298581540584564;-3.054593324661255;90.9011459350586
44;1673389161.8876784;47.130642599999995;7.2406197;0.9480000734329224;1673389162.0449476;-0.352826327085495;1.2471641302108765;90.49546813964844
45;1673389162.0908437;47.1306428;7.2406197;1.124000072479248;1673389162.2549174;0.6405087113380432;1.7998919486999512;90.32794952392578
46;1673389162.3007953;47.1306428;7.2406197;1.3140000104904175;1673389162.4688616;0.8274001479148865;-2.937730312347412;90.05400848388672
47;1673389162.5113788;47.1306428;7.2406196;1.5080000162124634;1673389162.6680818;0.7565262317657471;0.1509123146533966;89.7579345703125
48;1673389162.7154748;47.130642699999996;7.2406196;1.6980000734329224;1673389162.876128;0.5447591543197632;1.7278754711151123;89.76936340332031
49;1673389162.9186373;47.130642599999995;7.2406196;1.8940000534057617;1673389163.0694828;0.09525471180677414;-2.897566795349121;90.08326721191406
50;1673389163.1110144;47.130642599999995;7.2406196;2.0880000591278076;1673389163.2628634;0.011074136942625046;-0.8925727605819702;90.1249771118164
51;1673389163.3053765;47.130642699999996;7.2406196;2.2810001373291016;1673389163.4572096;-0.07603123039007187;3.2196383476257324;89.87845611572266
52;1673389163.5001638;47.1306428;7.2406196;2.4760000705718994;1673389163.6506429;-0.04704378545284271;-1.5455522537231445;90.095947265625
53;1673389163.6935842;47.1306428;7.2406196;2.6760001182556152;1673389163.849981;0.08773722499608994;-1.8932994604110718;90.04199981689453
54;1673389163.8978152;47.130642699999996;7.2406196;2.871000051498413;1673389164.063842;0.6014712452888489;2.166323184967041;89.75953674316406
55;1673389164.1123133;47.1306425;7.2406196;3.069000244140625;1673389164.269002;0.7863622307777405;-1.8316459655761719;89.95856475830078
56;1673389164.3105538;47.1306423;7.2406196;3.2720000743865967;1673389164.4574952;0.1929074078798294;-3.173877239227295;89.83598327636719
57;1673389164.5004423;47.1306424;7.240619499999999;3.4770002365112305;1673389164.650012;-0.3053489923477173;2.1949222087860107;89.59687805175781
58;1673389164.6949532;47.130642599999995;7.240619499999999;3.6770002841949463;1673389164.8464265;-0.36899277567863464;1.5994685888290405;89.77627563476562
59;1673389164.8883927;47.130642599999995;7.2406196;3.875000238418579;1673389165.0427253;-0.2907453179359436;-2.9136791229248047;90.20124053955078
60;1673389165.0846891;47.130642599999995;7.2406196;4.073000431060791;1673389165.2380385;-0.14252057671546936;-0.023811232298612595;89.91075134277344
61;1673389165.2829459;47.1306425;7.2406197;4.266000270843506;1673389165.43644;0.09113135188817978;1.2721463441848755;89.60807800292969
62;1673389165.4793832;47.1306424;7.2406197;4.469000339508057;1673389165.644455;0.3308880031108856;-2.6292450428009033;89.86599731445312
63;1673389165.6980555;47.1306424;7.2406196;4.675000190734863;1673389165.8681102;0.48952516913414;-0.9864030480384827;89.97459411621094
64;1673389165.9213586;47.1306425;7.2406196;4.879000186920166;1673389166.0664299;0.355514794588089;2.396787405014038;89.84540557861328
65;1673389166.1141746;47.130642599999995;7.240619499999999;5.088000297546387;1673389166.2709048;-0.018837394192814827;-0.3899294435977936;90.01225280761719
66;1673389166.3133538;47.130642599999995;7.240619499999999;5.297000408172607;1673389166.4627423;-0.8379266858100891;-2.4250895977020264;90.1487808227539
67;1673389166.5056665;47.1306425;7.240619499999999;5.50100040435791;1673389166.6585462;-0.7617080807685852;2.061208724975586;89.58796691894531
68;1673389166.702507;47.1306424;7.240619499999999;5.708000183105469;1673389166.8519714;-0.18111132085323334;-0.6411110162734985;89.65852355957031
69;1673389166.8959033;47.1306423;7.2406196;5.9150004386901855;1673389167.044385;0.2079048901796341;-3.4498462677001953;89.84928894042969
70;1673389167.0873282;47.1306423;7.2406196;6.124000072479248;1673389167.2397294;0.4856173098087311;1.6970590353012085;89.80427551269531
71;1673389167.281696;47.1306425;7.2406197;6.331000328063965;1673389167.4478652;0.30312636494636536;1.3500388860702515;89.88773345947266
72;1673389167.514804;47.1306425;7.2406197;6.5370001792907715;1673389167.6629014;0.10798119008541107;-2.928971290588379;90.03060913085938
73;1673389167.705258;47.1306425;7.2406197;6.743000507354736;1673389167.871752;-0.46162620186805725;0.7749847173690796;89.76207733154297
74;1673389167.9152603;47.1306424;7.2406197;6.944000244140625;1673389168.0758214;-0.4890592396259308;1.1428899765014648;89.52225494384766
75;1673389168.1241987;47.1306423;7.240619799999999;7.140000343322754;1673389168.2755685;0.16415655612945557;-3.442659854888916;90.07649230957031
76;1673389168.3191063;47.1306423;7.2406198999999996;7.337000370025635;1673389168.464101;0.4989922344684601;0.3610166311264038;90.010986328125
77;1673389168.5070987;47.1306424;7.24062;7.538000583648682;1673389168.6624606;0.6279042959213257;2.1565065383911133;89.9649658203125
78;1673389168.7108414;47.1306424;7.24062;7.73900032043457;1673389168.86398;0.5856006741523743;-2.998155355453491;89.9288101196289
79;1673389168.906987;47.1306423;7.24062;7.939000606536865;1673389169.0593572;0.26600393652915955;-1.454627513885498;89.73055267333984
80;1673389169.1023023;47.1306423;7.2406198999999996;8.136000633239746;1673389169.2536802;-0.09040281921625137;2.2614407539367676;89.6462173461914
81;1673389169.2972884;47.1306422;7.2406198999999996;8.337000846862793;1673389169.4526052;-0.3884628117084503;-2.2859432697296143;90.02175903320312
82;1673389169.4957643;47.1306422;7.24062;8.538000106811523;1673389169.6479259;-0.1797572523355484;-1.6431893110275269;90.06597137451172
83;1673389169.6910698;47.1306423;7.2406201;8.738000869750977;1673389169.8446865;0.3844071924686432;2.5929760932922363;89.73236083984375
84;1673389169.8886483;47.1306424;7.2406201999999995;8.943000793457031;1673389170.0439494;0.9686515927314758;-1.904907464981079;89.94342041015625
85;1673389170.0868924;47.1306424;7.2406201999999995;9.15000057220459;1673389170.2441473;0.629368007183075;-2.478022336959839;89.8382339477539
86;1673389170.2890525;47.1306424;7.2406201999999995;9.354000091552734;1673389170.443418;0.3812621235847473;2.4525856971740723;89.69642639160156
87;1673389170.48831;47.1306424;7.2406201999999995;9.554000854492188;1673389170.6436079;-0.05255702883005142;-1.0310343503952026;89.95308685302734
88;1673389170.6885228;47.1306424;7.2406203;9.759000778198242;1673389170.8429308;-0.22011864185333252;-2.2890710830688477;90.08000946044922
89;1673389170.8888042;47.1306425;7.2406203;9.960000038146973;1673389171.0412447;0.1685093194246292;2.6078672409057617;89.8946762084961
90;1673389171.084189;47.130642599999995;7.2406204;10.167000770568848;1673389171.2385116;0.8416526317596436;0.4513048231601715;89.61968231201172
91;1673389171.2824306;47.130642599999995;7.2406204;10.432000160217285;1673389171.439695;0.9727550745010376;-3.2105791568756104;89.71717834472656
92;1673389171.4836142;47.1306425;7.2406203;10.777000427246094;1673389171.637947;0.7332091927528381;0.2625821828842163;89.79905700683594
93;1673389171.6808903;47.1306425;7.2406201999999995;11.154000282287598;1673389171.8343017;0.15051010251045227;1.494887351989746;89.81836700439453
94;1673389171.8772306;47.1306424;7.2406201999999995;11.542000770568848;1673389172.0345607;0.059589140117168427;-2.8673248291015625;90.03140258789062
95;1673389172.0794497;47.1306423;7.2406201999999995;11.938000679016113;1673389172.231831;-0.09255291521549225;-0.41543343663215637;89.97633361816406
96;1673389172.2747736;47.1306425;7.2406201999999995;12.334000587463379;1673389172.4293516;0.11885176599025726;2.417140483856201;89.76869201660156
97;1673389172.4742494;47.1306425;7.2406201999999995;12.736001014709473;1673389172.627629;0.39809733629226685;-2.3024137020111084;89.82288360595703
98;1673389172.670555;47.1306424;7.2406201999999995;13.141000747680664;1673389172.8259118;0.5763306617736816;-1.9945974349975586;89.81558227539062
99;1673389172.871921;47.1306424;7.2406201999999995;13.54900074005127;1673389173.0262654;0.7772308588027954;2.2996208667755127;89.83805847167969
100;1673389173.069227;47.1306424;7.2406201;13.955000877380371;1673389173.2286053;0.44473016262054443;-1.0937193632125854;89.99195861816406
101;1673389173.2715387;47.1306424;7.2406201;14.363000869750977;1673389173.4270518;0.25796130299568176;-2.2695484161376953;89.99870300292969
102;1673389173.4701355;47.1306425;7.2406201;14.773000717163086;1673389173.6262276;0.07516774535179138;2.2884318828582764;89.69274139404297
103;1673389173.6701329;47.1306425;7.2406201;15.182001113891602;1673389173.8265805;0.08054028451442719;0.11918124556541443;89.83281707763672
104;1673389173.8716583;47.1306425;7.2406201;15.5910005569458;1673389174.0249875;-0.028181785717606544;-2.7695329189300537;90.11138916015625
105;1673389174.0702233;47.1306424;7.2406201;15.998001098632812;1673389174.226841;-0.05509524792432785;1.4923970699310303;89.85834503173828
106;1673389174.2720232;47.1306424;7.24062;16.402000427246094;1673389174.4260073;0.1679016798734665;0.6405704021453857;89.78170013427734
107;1673389174.4699254;47.1306423;7.2406198999999996;16.804000854492188;1673389174.6261406;0.08881159126758575;-3.257007360458374;89.9962387084961
108;1673389174.6700938;47.1306423;7.2406198999999996;17.211000442504883;1673389174.8267024;0.07412870228290558;0.7473468780517578;89.81719207763672
109;1673389174.8706677;47.1306425;7.240619799999999;17.62200164794922;1673389175.0257704;0.024225398898124695;2.127631187438965;89.80728149414062
110;1673389175.0694377;47.1306425;7.240619799999999;18.036001205444336;1673389175.2233553;0.11434576660394669;-2.0170416831970215;89.9843978881836
111;1673389175.2665586;47.1306424;7.240619799999999;18.44500160217285;1673389175.4247136;-0.21258777379989624;-1.1888759136199951;89.95653533935547
112;1673389175.4689124;47.1306424;7.240619799999999;18.849000930786133;1673389175.6261513;-0.1549336314201355;2.1990699768066406;89.64286041259766
113;1673389175.6692317;47.1306425;7.240619799999999;19.2450008392334;1673389175.8268738;-0.30271050333976746;-1.0905168056488037;89.88255310058594
114;1673389175.8699832;47.1306425;7.240619799999999;19.648000717163086;1673389176.0237515;0.10237065702676773;-1.5258070230484009;89.95748138427734
115;1673389176.0698175;47.130642599999995;7.240619799999999;20.052000045776367;1673389176.2243276;0.10035046935081482;2.6367368698120117;89.83958435058594
116;1673389176.269963;47.130642699999996;7.2406197;20.45400047302246;1673389176.4248886;0.4011273980140686;-0.15919186174869537;89.8214340209961
117;1673389176.467827;47.130642599999995;7.2406197;20.85500144958496;1673389176.6246896;0.48857828974723816;-2.7422678470611572;89.8694839477539
118;1673389176.668693;47.130642599999995;7.2406197;21.25400161743164;1673389176.8279765;0.468377947807312;1.506569266319275;89.70796203613281
119;1673389176.874256;47.130642599999995;7.2406197;21.647001266479492;1673389177.0283096;0.25159531831741333;0.564426839351654;89.9294204711914
120;1673389177.0722198;47.1306425;7.2406197;22.043001174926758;1673389177.2284446;-0.06777181476354599;-3.163609027862549;90.07990264892578
121;1673389177.2743158;47.1306425;7.2406196;22.44300079345703;1673389177.4277446;-0.3046572208404541;0.835174560546875;89.7210922241211
122;1673389177.4732063;47.130642599999995;7.2406196;22.84600067138672;1673389177.628813;-0.2169763594865799;1.8057787418365479;89.76351165771484
123;1673389177.6727316;47.130642599999995;7.2406196;23.249000549316406;1673389177.8281386;0.1335027813911438;-2.7610974311828613;89.9793472290039
124;1673389177.8731315;47.130642599999995;7.240619499999999;23.650001525878906;1673389178.028395;0.3005354106426239;-0.196320042014122;89.89280700683594
125;1673389178.0725296;47.130642599999995;7.240619499999999;24.049001693725586;1673389178.2284117;0.4708179235458374;2.252239942550659;89.84366607666016
126;1673389178.272495;47.130642599999995;7.240619499999999;24.44300079345703;1673389178.4287035;0.4511928856372833;-1.955312967300415;89.99159240722656
127;1673389178.4726245;47.130642699999996;7.240619499999999;24.843000411987305;1673389178.6281707;0.2170563042163849;-0.5807784199714661;89.81379699707031
128;1673389178.6718094;47.1306428;7.2406196;25.240001678466797;1673389178.8270833;-0.06406718492507935;2.7151947021484375;89.64569854736328
129;1673389178.8729563;47.1306428;7.2406197;25.641000747680664;1673389179.027166;-0.08749955147504807;-1.5365592241287231;90.10154724121094
130;1673389179.07165;47.130642699999996;7.2406197;26.043001174926758;1673389179.2282267;0.2106301635503769;-1.8073464632034302;90.06060028076172
131;1673389179.272146;47.130642699999996;7.240619799999999;26.44500160217285;1673389179.4373136;0.34711551666259766;2.4799554347991943;89.78543853759766
132;1673389179.4802556;47.130642699999996;7.240619799999999;26.838001251220703;1673389179.6327643;0.7005831599235535;-0.4214557707309723;89.81356048583984
133;1673389179.67587;47.130642599999995;7.2406197;27.238000869750977;1673389179.8312442;0.5455284714698792;-2.453160047531128;89.99830627441406
134;1673389179.8752503;47.130642699999996;7.2406196;27.645000457763672;1673389180.0324697;0.36183783411979675;1.1227664947509766;89.68767547607422
135;1673389180.0755894;47.130642699999996;7.240619499999999;28.04400062561035;1673389180.2314525;-0.22047904133796692;1.717336654663086;89.85474395751953
136;1673389180.2745066;47.130642699999996;7.240619499999999;28.44300079345703;1673389180.4314632;-0.45075345039367676;-2.664736270904541;90.2524642944336
137;1673389180.4757226;47.1306425;7.240619499999999;28.840002059936523;1673389180.6317441;-0.46933844685554504;-0.44549140334129333;89.90225219726562
138;1673389180.677648;47.1306425;7.240619499999999;29.235000610351562;1673389180.8360088;-0.43560728430747986;1.9047768115997314;89.59541320800781
139;1673389180.8790944;47.1306425;7.240619499999999;29.626001358032227;1673389181.0362;-0.20105892419815063;-1.929352045059204;89.96177673339844
140;1673389181.0792398;47.1306424;7.240619499999999;30.022001266479492;1673389181.2357025;-0.1409013420343399;-0.9366044998168945;89.9476547241211
141;1673389181.2786462;47.1306425;7.2406194;30.417001724243164;1673389181.434863;0.23251008987426758;2.5360560417175293;89.84539031982422
142;1673389181.4780385;47.1306425;7.240619499999999;30.81100082397461;1673389181.6352186;0.2733853757381439;-1.5281038284301758;89.99296569824219
143;1673389181.6781552;47.1306424;7.240619499999999;31.209001541137695;1673389181.8345551;0.0020537523087114096;-2.311135768890381;89.89382934570312
144;1673389181.8784745;47.1306423;7.240619499999999;31.60900115966797;1673389182.033804;-0.15052099525928497;2.2607312202453613;89.64573669433594
145;1673389182.0777202;47.1306423;7.240619499999999;32.005001068115234;1673389182.2359626;-0.057106681168079376;-0.4854019284248352;89.9261245727539
146;1673389182.279893;47.1306423;7.240619499999999;32.406002044677734;1673389182.4363573;-0.07655064016580582;-2.553632974624634;90.09618377685547
147;1673389182.4783463;47.1306424;7.2406196;32.80900192260742;1673389182.635587;-0.009782644920051098;2.1598458290100098;89.76018524169922
148;1673389182.679507;47.1306425;7.2406196;33.211002349853516;1673389182.8358226;0.1543065309524536;0.7079674005508423;89.81979370117188
149;1673389182.8797603;47.1306425;7.2406196;33.6140022277832;1673389183.0340946;0.21945993602275848;-2.9743456840515137;89.91683197021484
150;1673389183.078015;47.1306424;7.2406196;34.0160026550293;1673389183.2333102;0.4110161066055298;0.7722036242485046;89.76500701904297
151;1673389183.2762537;47.1306425;7.2406196;34.42000198364258;1673389183.4335332;0.344877153635025;1.6151762008666992;89.86180877685547
152;1673389183.4764686;47.1306425;7.2406196;34.81700134277344;1673389183.6327538;0.23514559864997864;-2.6705315113067627;89.98126983642578
153;1673389183.6776795;47.130642599999995;7.2406196;35.217002868652344;1673389183.8321502;-0.0460098497569561;0.31807321310043335;89.80097198486328
154;1673389183.8770463;47.130642699999996;7.2406197;35.617000579833984;1673389184.03334;-0.09509506076574326;2.4935545921325684;89.65013122558594
155;1673389184.0762794;47.130642699999996;7.2406197;36.013999938964844;1673389184.2300684;0.0363338328897953;-2.0367486476898193;90.08653259277344
156;1673389184.2745287;47.130642699999996;7.2406197;36.41400146484375;1673389184.43669;0.08092431724071503;-1.403577208518982;90.0059585571289
157;1673389184.4923978;47.130642699999996;7.2406197;36.816001892089844;1673389184.6447892;0.04690120741724968;2.7339234352111816;89.71603393554688
158;1673389184.687743;47.130642699999996;7.2406197;37.21000289916992;1673389184.8441124;0.22912798821926117;-0.7330698370933533;89.95680236816406
159;1673389184.88803;47.130642699999996;7.2406197;37.611000061035156;1673389185.0434058;0.14970019459724426;-1.5541448593139648;89.90657043457031
160;1673389185.088309;47.1306428;7.2406197;38.012001037597656;1673389185.2485933;0.11747719347476959;2.228055953979492;89.76246643066406
161;1673389185.30037;47.1306428;7.2406197;38.409000396728516;1673389185.4607055;0.09205111861228943;0.1518055498600006;89.89745330810547
162;1673389185.510825;47.130642699999996;7.2406197;38.803001403808594;1673389185.6782029;-0.11213074624538422;-2.7138478755950928;90.09304809570312
163;1673389185.7222087;47.130642599999995;7.240619799999999;39.195003509521484;1673389185.8717992;-0.24038134515285492;1.57435941696167;89.58668518066406
164;1673389185.9157183;47.130642599999995;7.240619799999999;39.58500289916992;1673389186.0701213;-0.2503874599933624;0.8930524587631226;89.70053100585938
165;1673389186.1120784;47.130642599999995;7.240619799999999;39.97200012207031;1673389186.2635043;0.07850226759910583;-2.7829620838165283;90.01856994628906
166;1673389186.3064268;47.130642699999996;7.240619799999999;40.36600112915039;1673389186.4597843;0.06844981759786606;1.1799262762069702;89.93145751953125
167;1673389186.5027256;47.1306428;7.240619799999999;40.76400375366211;1673389186.6551082;0.3384287655353546;2.0490198135375977;89.78094482421875
168;1673389186.700022;47.130642699999996;7.2406197;41.16400146484375;1673389186.851647;0.16343960165977478;-2.5820093154907227;89.96900177001953
169;1673389186.8965409;47.130642599999995;7.2406196;41.56100082397461;1673389187.048921;-0.00599623192101717;-0.12422598153352737;89.77513885498047
170;1673389187.0918539;47.130642599999995;7.2406196;41.961002349853516;1673389187.2442586;-0.12119410932064056;2.230276107788086;89.65544128417969
171;1673389187.2891533;47.130642599999995;7.240619499999999;42.35300064086914;1673389187.4425066;-0.2942984104156494;-2.0347039699554443;90.0978012084961
172;1673389187.485451;47.130642599999995;7.2406196;42.75100326538086;1673389187.6407814;-0.3698846995830536;-0.5963197350502014;90.00627899169922
173;1673389187.683723;47.130642699999996;7.2406196;43.152000427246094;1673389187.8390837;-0.08627908676862717;2.5544910430908203;89.84579467773438
174;1673389187.8831356;47.130642699999996;7.2406196;43.551002502441406;1673389188.0375078;0.23463530838489532;-1.5830518007278442;89.8631362915039
175;1673389188.08045;47.1306425;7.2406196;43.948001861572266;1673389188.2352638;0.35678723454475403;-2.357067108154297;89.98788452148438
176;1673389188.2797403;47.1306425;7.2406196;44.342002868652344;1673389188.4547508;0.3463088870048523;2.169041395187378;89.70477294921875
177;1673389188.4996324;47.1306425;7.2406196;44.74100112915039;1673389188.654947;0.1552308201789856;-0.11536527425050735;90.0240249633789
178;1673389188.6998436;47.1306425;7.240619499999999;45.134002685546875;1673389188.854225;-0.03538283705711365;-2.397418737411499;90.03392791748047
179;1673389188.8991275;47.130642599999995;7.2406196;45.53000259399414;1673389189.0516353;-0.13029444217681885;1.5149083137512207;89.62891387939453
180;1673389189.0955546;47.130642599999995;7.2406196;45.928001403808594;1673389189.2498932;-0.10374173521995544;0.8472776412963867;89.69332122802734
181;1673389189.2928376;47.130642599999995;7.2406196;46.327003479003906;1673389189.4504912;0.08469448238611221;-2.8238096237182617;89.94561767578125
182;1673389189.4934342;47.1306425;7.2406196;46.72800064086914;1673389189.6458158;0.2610776126384735;1.2804186344146729;89.90094757080078
183;1673389189.6968288;47.1306425;7.2406197;47.12700271606445;1673389189.8681912;0.48504361510276794;1.7375272512435913;89.86583709716797
184;1673389189.9216218;47.1306425;7.2406197;47.518001556396484;1673389190.085372;0.44675225019454956;-2.7744479179382324;90.0494155883789
185;1673389190.1302686;47.130642599999995;7.2406197;47.91100311279297;1673389190.2973585;0.039627183228731155;0.40084341168403625;89.62371063232422
186;1673389190.3468895;47.130642599999995;7.2406197;48.272003173828125;1673389190.5039742;-0.04838079586625099;2.0350358486175537;90.00289916992188
187;1673389190.5654714;47.130642599999995;7.2406197;48.58500289916992;1673389190.7123692;0.03506064414978027;-2.522620916366577;90.03646087646484
188;1673389190.758603;47.1306425;7.2406197;48.85000228881836;1673389190.900466;-0.09638744592666626;-0.4276973307132721;89.70964050292969
189;1673389190.9429889;47.1306425;7.2406197;49.070003509521484;1673389191.091171;-0.049029022455215454;2.0639312267303467;89.58719635009766
190;1673389191.1341228;47.1306425;7.2406196;49.25700378417969;1673389191.285413;4.784419059753418;2.358882188796997;90.20922088623047
191;1673389191.3296127;47.1306425;7.240619499999999;49.40700149536133;1673389191.4782228;22.575050354003906;22.049325942993164;98.89960479736328
192;1673389191.5221844;47.1306419;7.2406185;49.544002532958984;1673389191.6728559;28.889806747436523;41.65885543823242;110.39275360107422
193;1673389191.7167797;47.13064;7.2406152;49.665000915527344;1673389191.8837817;26.05466651916504;54.08040237426758;118.47588348388672
194;1673389191.928861;47.1306357;7.2406082;49.7650032043457;1673389192.0859587;10.128644943237305;59.83989334106445;128.6356201171875
195;1673389192.1279094;47.130628699999995;7.2405973999999995;49.833003997802734;1673389192.2802873;-8.107078552246094;56.41520690917969;139.2567596435547
196;1673389192.3233218;47.1306193;7.2405833;49.87200164794922;1673389192.4738235;-21.50255012512207;50.59059524536133;149.32073974609375
197;1673389192.5168118;47.1306079;7.2405665;49.89400100708008;1673389192.6704304;-33.474693298339844;47.0828742980957;159.18008422851562
198;1673389192.7138076;47.130595;7.2405481;49.88900375366211;1673389192.864921;-42.00909423828125;39.46870803833008;173.2395477294922
199;1673389192.9089496;47.130580699999996;7.240527999999999;49.880001068115234;1673389193.0613768;-49.730281829833984;34.130645751953125;-174.12521362304688
200;1673389193.1044326;47.130565;7.240506099999999;49.86600112915039;1673389193.25629;-48.3072395324707;25.31157684326172;-165.89007568359375
201;1673389193.3002465;47.1305486;7.2404826;49.820003509521484;1673389193.4561546;-45.724143981933594;18.8431396484375;-160.07896423339844
202;1673389193.5001073;47.1305316;7.2404582;49.75700378417969;1673389193.6527338;-46.857791900634766;14.07234001159668;-153.24392700195312
203;1673389193.6956775;47.1305142;7.2404331;49.707000732421875;1673389193.8523686;-46.03839874267578;7.756984710693359;-145.25038146972656
204;1673389193.896372;47.130496699999995;7.2404077;49.67100143432617;1673389194.0519924;-46.1819953918457;6.074566841125488;-139.45834350585938
205;1673389194.095981;47.1304789;7.2403816999999995;49.64900207519531;1673389194.2669868;-47.34043502807617;0.7139750719070435;-132.57394409179688
206;1673389194.316104;47.1304612;7.2403553;49.63800048828125;1673389194.4968297;-46.27001190185547;-6.302404880523682;-131.02310180664062
207;1673389194.5437043;47.130443299999996;7.2403287;49.63100051879883;1673389194.710964;-46.65842819213867;-5.733804225921631;-134.4329071044922
208;1673389194.7560997;47.1304251;7.2403024;49.63300323486328;1673389194.9106393;-47.1329460144043;-4.884941101074219;-136.17037963867188
209;1673389194.9566572;47.130406699999995;7.2402764;49.637001037597656;1673389195.1262345;-47.819210052490234;-3.7113757133483887;-137.04083251953125
210;1673389195.173376;47.130387899999995;7.2402508;49.647003173828125;1673389195.3348143;-47.879459381103516;-1.738331913948059;-137.93682861328125
211;1673389195.3792965;47.1303688;7.2402254;49.663002014160156;1673389195.5392091;-47.903690338134766;-0.724775493144989;-138.2843780517578
212;1673389195.5842485;47.1303495;7.2402;49.69000244140625;1673389195.743197;-49.42790603637695;0.11074312776327133;-138.50863647460938
213;1673389195.7897997;47.1303299;7.2401746;49.720001220703125;1673389195.9253933;-49.77973937988281;0.4862934350967407;-138.4549102783203
214;1673389195.9667346;47.1303103;7.2401491;49.749000549316406;1673389196.1182714;-49.000003814697266;0.7014544010162354;-138.33607482910156
215;1673389196.164469;47.1302905;7.2401234;49.768001556396484;1673389196.3261747;-48.060691833496094;0.6018131375312805;-138.06570434570312
216;1673389196.3720965;47.1302707;7.2400975999999995;49.78300094604492;1673389196.5277307;-47.583377838134766;0.46657437086105347;-137.84364318847656
217;1673389196.5771823;47.130251;7.2400717;49.78900146484375;1673389196.7267594;-47.6483268737793;0.4101974666118622;-137.70054626464844
218;1673389196.7743437;47.1302312;7.2400457;49.802001953125;1673389196.93044;-48.0689697265625;0.385031521320343;-137.5926055908203
219;1673389196.975858;47.1302114;7.2400196;49.81300354003906;1673389197.1202996;-48.14484786987305;0.3896079659461975;-137.51319885253906
220;1673389197.1628795;47.130191599999996;7.2399933999999995;49.82600402832031;1673389197.315235;-48.28193664550781;0.22483621537685394;-137.3721923828125
221;1673389197.355428;47.1301719;7.2399672;49.8380012512207;1673389197.5033755;-48.30080795288086;0.23481476306915283;-137.32432556152344
222;1673389197.5464935;47.1301521;7.239940799999999;49.84700393676758;1673389197.6964312;-48.15322494506836;0.11704347282648087;-137.2005615234375
223;1673389197.7390063;47.1301324;7.239914499999999;49.84600067138672;1673389197.8899834;-47.680809020996094;0.12184597551822662;-137.1553497314453
224;1673389197.937895;47.1301128;7.2398881;49.84400177001953;1673389198.0904686;-47.386356353759766;0.1023038849234581;-137.1322021484375
225;1673389198.133521;47.130093099999996;7.2398617;49.84400177001953;1673389198.2888217;-47.787925720214844;0.03125232458114624;-137.09266662597656
226;1673389198.3317766;47.130073599999996;7.239835299999999;49.85000228881836;1673389198.4857175;-48.31052780151367;0.020040972158312798;-137.06626892089844
227;1673389198.5306842;47.130054;7.2398088;49.85600280761719;1673389198.6829033;-48.35541534423828;0.04221150651574135;-137.05502319335938
228;1673389198.7272074;47.1300344;7.2397823;49.862003326416016;1673389198.8875227;-48.24612045288086;0.03112872876226902;-137.02557373046875
229;1673389198.92961;47.1300148;7.2397557;49.867000579833984;1673389199.092541;-48.181297302246094;0.13830417394638062;-137.03494262695312
230;1673389199.1336522;47.129995099999995;7.239729199999999;49.8650016784668;1673389199.3134997;-48.0361328125;0.047552045434713364;-136.9636688232422
231;1673389199.362853;47.1299755;7.239702599999999;49.867000579833984;1673389199.5194004;-48.08418273925781;0.08855485916137695;-136.99551391601562
232;1673389199.5636795;47.1299559;7.2396759;49.87200164794922;1673389199.7147748;-48.35878372192383;0.06303492188453674;-136.96575927734375
233;1673389199.7583017;47.1299363;7.2396493;49.87900161743164;1673389199.9215415;-48.462135314941406;0.04027620702981949;-136.96592712402344
234;1673389199.9685857;47.129916699999995;7.239622499999999;49.880001068115234;1673389200.1273553;-48.251731872558594;-0.03815354406833649;-136.94886779785156
235;1673389200.1757405;47.1298971;7.2395957;49.88100051879883;1673389200.331466;-48.06244659423828;-0.06781183183193207;-136.94717407226562
236;1673389200.3808181;47.1298775;7.2395689;49.87900161743164;1673389200.5342631;-47.91415786743164;-0.10022982209920883;-136.93626403808594
237;1673389200.5784402;47.129858;7.2395420999999995;49.87600326538086;1673389200.7241688;-47.830631256103516;-0.09332797676324844;-136.96749877929688
238;1673389200.7688563;47.1298384;7.2395153;49.871002197265625;1673389200.9273126;-47.8456916809082;-0.0745832771062851;-136.98086547851562
239;1673389200.9776487;47.1298189;7.239488499999999;49.86900329589844;1673389201.140652;-47.92919921875;-0.07904355973005295;-136.9564666748047
240;1673389201.1868708;47.129799299999995;7.2394618;49.868003845214844;1673389201.343914;-47.98472213745117;-0.014873111620545387;-136.98907470703125
241;1673389201.3883684;47.129779799999994;7.239434999999999;49.87200164794922;1673389201.541474;-48.012420654296875;-0.0656963512301445;-136.9559326171875
242;1673389201.5869248;47.1297602;7.2394083;49.875003814697266;1673389201.746914;-48.06998062133789;-0.0472281239926815;-136.9552459716797
243;1673389201.7946448;47.1297406;7.2393814999999995;49.87900161743164;1673389201.9392643;-48.068172454833984;0.01663479395210743;-136.99046325683594
244;1673389201.9889011;47.1297211;7.2393547;49.88500213623047;1673389202.152462;-48.18716049194336;-0.01520837377756834;-136.95591735839844
245;1673389202.1969833;47.129701499999996;7.239327899999999;49.8910026550293;1673389202.3527937;-48.27587890625;-0.04230225458741188;-136.95883178710938
246;1673389202.3994555;47.1296819;7.2393011;49.89400100708008;1673389202.5594735;-48.118736267089844;0.0001969491713680327;-136.9807586669922
247;1673389202.6046612;47.1296623;7.2392742;49.89800262451172;1673389202.7582173;-48.08690643310547;-0.04006585478782654;-136.9476776123047
248;1673389202.8040965;47.1296426;7.2392474;49.9010009765625;1673389202.9320154;-48.01572799682617;-0.0375727154314518;-136.96824645996094
249;1673389202.9756427;47.129622999999995;7.2392205;49.90200424194336;1673389203.1407907;-48.02895736694336;0.0020222316961735487;-136.9554443359375
250;1673389203.187365;47.1296034;7.2391936999999995;49.90500259399414;1673389203.3269038;-48.11527633666992;-0.04950764775276184;-136.9402618408203
251;1673389203.3769217;47.1295838;7.2391669;49.910003662109375;1673389203.531941;-48.17433547973633;0.047718487679958344;-136.95504760742188
252;1673389203.5761166;47.1295642;7.239140099999999;49.91400146484375;1673389203.7262673;-48.05880355834961;-0.01896430179476738;-136.9397735595703
253;1673389203.7699711;47.1295447;7.2391133;49.9170036315918;1673389203.9259174;-47.94902420043945;-0.047323983162641525;-136.92434692382812
254;1673389203.9676483;47.129525099999995;7.2390865;49.919002532958984;1673389204.1167488;-47.87778091430664;-0.05567295104265213;-136.9270477294922
255;1673389204.1586375;47.1295055;7.2390596;49.92100143432617;1673389204.3219838;-47.87525177001953;0.02596399560570717;-136.9412078857422
256;1673389204.3735034;47.129486;7.2390327999999995;49.92400360107422;1673389204.5337782;-47.872886657714844;-0.027622560039162636;-136.92852783203125
257;1673389204.5783796;47.1294664;7.2390058999999995;49.927001953125;1673389204.7344527;-47.95574951171875;-0.08233504742383957;-136.91152954101562
258;1673389204.7828069;47.1294468;7.2389791;49.93000411987305;1673389204.9652379;-47.98423385620117;-0.15471477806568146;-136.9047088623047
259;1673389205.0150518;47.129427199999995;7.2389522;49.93000411987305;1673389205.1647012;-47.82250213623047;0.4650406539440155;-137.1109161376953
260;1673389205.2256465;47.1294076;7.2389253;49.93400192260742;1673389205.3652537;-47.89339065551758;0.305210143327713;-136.89785766601562
261;1673389205.417992;47.1293881;7.2388984999999995;49.93600082397461;1673389205.573532;-47.525718688964844;-0.6146369576454163;-136.7510528564453
262;1673389205.61259;47.1293685;7.2388715999999995;49.94000244140625;1673389205.7771678;-48.02252960205078;-0.14594519138336182;-136.93873596191406
263;1673389205.82127;47.129349;7.2388448;49.94400405883789;1673389205.9522507;-48.12471008300781;-0.5467005372047424;-136.79745483398438
264;1673389205.9874973;47.129329399999996;7.238817999999999;49.954002380371094;1673389206.125898;-48.377384185791016;0.21352703869342804;-137.0814666748047
265;1673389206.167108;47.1293097;7.2387912;49.9640007019043;1673389206.3187249;-45.30971908569336;0.05169084668159485;-136.90060424804688
266;1673389206.3626494;47.1292901;7.2387644;49.98200225830078;1673389206.5355573;-35.05022048950195;-0.048454444855451584;-136.82827758789062
267;1673389206.5796583;47.1292707;7.238738;50.01900100708008;1673389206.7365746;-17.850719451904297;-0.09382595866918564;-136.3717498779297
268;1673389206.7846842;47.129252199999996;7.2387127;50.03900146484375;1673389206.9284534;-3.4093456268310547;0.82161545753479;-136.5215301513672
269;1673389206.9724658;47.1292353;7.2386896;50.044002532958984;1673389207.1369708;7.328155040740967;1.4031519889831543;-136.64578247070312
270;1673389207.179727;47.1292203;7.2386691;50.035003662109375;1673389207.3389864;14.53302001953125;4.112491607666016;-137.3177032470703
271;1673389207.3803704;47.1292076;7.238651699999999;50.012001037597656;1673389207.5349753;18.525054931640625;0.5070708990097046;-138.22486877441406
272;1673389207.5839853;47.1291972;7.2386373;49.97300338745117;1673389207.7269397;19.848922729492188;-3.871953010559082;-138.3748321533203
273;1673389207.766779;47.129189;7.238626;49.89900207519531;1673389207.9206326;13.572870254516602;1.8262475728988647;-138.14158630371094
274;1673389207.968062;47.1291825;7.2386173;49.81200408935547;1673389208.1486099;12.185632705688477;2.3784072399139404;-137.6671600341797
275;1673389208.1935585;47.1291776;7.2386105999999995;49.72200393676758;1673389208.3549902;7.888260364532471;0.8696209788322449;-137.18861389160156
276;1673389208.4016964;47.1291738;7.2386054;49.62900161743164;1673389208.5523944;-5.835115909576416;-1.2843303680419922;-136.55641174316406
277;1673389208.5901706;47.129170599999995;7.2386012;49.54500198364258;1673389208.7556963;-13.83635425567627;-0.4029107391834259;-136.11380004882812
278;1673389208.8008087;47.129167599999995;7.2385971;49.48800277709961;1673389208.9501765;-16.65697479248047;0.36436840891838074;-136.21453857421875
279;1673389208.990737;47.129164499999995;7.238592499999999;49.48500061035156;1673389209.1426475;-14.180667877197266;2.000314712524414;-136.56924438476562
280;1673389209.1841898;47.1291613;7.2385874999999995;49.53700256347656;1673389209.3273652;-7.925943851470947;3.4563024044036865;-137.6823272705078
281;1673389209.3689578;47.129157899999996;7.2385823;49.61900329589844;1673389209.5230172;-1.8209221363067627;1.408413052558899;-137.89390563964844
282;1673389209.5670652;47.1291547;7.238577299999999;49.70500183105469;1673389209.731137;-21.803787231445312;1.3663065433502197;-137.9493865966797
283;1673389209.779554;47.1291515;7.2385725;49.82600402832031;1673389209.934374;-20.287363052368164;-1.1246932744979858;-137.2752685546875
284;1673389209.9759116;47.1291477;7.2385668999999995;49.98400115966797;1673389210.1395495;-16.346338272094727;-0.8522306680679321;-137.0594940185547
285;1673389210.1860106;47.1291434;7.2385606;50.22200393676758;1673389210.3508503;-17.52027702331543;0.7533025145530701;-136.97535705566406
286;1673389210.3973656;47.1291387;7.2385537;50.53600311279297;1673389210.554458;-37.94643020629883;1.3016276359558105;-137.9300994873047
287;1673389210.599905;47.129133499999995;7.2385459999999995;50.906002044677734;1673389210.7536726;-42.43679428100586;-0.5630754828453064;-138.10536193847656
288;1673389210.7947714;47.1291267;7.2385364;51.303001403808594;1673389210.934412;-39.38242721557617;0.8013918995857239;-137.54893493652344
289;1673389210.9830024;47.1291186;7.2385252;51.69700241088867;1673389211.1466217;-35.99424362182617;-0.16368669271469116;-137.19882202148438
290;1673389211.1901731;47.1291095;7.2385129;52.077003479003906;1673389211.3546317;-31.568511962890625;-0.6406450867652893;-136.90049743652344
291;1673389211.4015563;47.1290997;7.2384999;52.45000076293945;1673389211.5564296;-28.38821792602539;-1.50432288646698;-136.48928833007812
292;1673389211.5991023;47.1290896;7.2384865;52.81300354003906;1673389211.7647004;-25.922441482543945;-1.133341908454895;-136.51641845703125
293;1673389211.8072627;47.1290792;7.2384729;53.177001953125;1673389211.9632132;-24.79009246826172;-1.1090110540390015;-136.5316162109375
294;1673389212.0047514;47.1290689;7.2384593;53.5420036315918;1673389212.158689;-24.113061904907227;0.30658191442489624;-137.00807189941406
295;1673389212.2031746;47.129058799999996;7.2384458;53.913002014160156;1673389212.3580275;-24.256357192993164;1.6342840194702148;-137.5255889892578
296;1673389212.4015257;47.1290489;7.2384321;54.288002014160156;1673389212.5514107;-24.49790382385254;2.6886134147644043;-137.96212768554688
297;1673389212.5958884;47.1290391;7.2384185;54.672000885009766;1673389212.7556357;-24.80714988708496;2.7439157962799072;-138.0919952392578
298;1673389212.801194;47.1290294;7.2384048;55.060001373291016;1673389212.9569778;-25.11213493347168;0.7501594424247742;-137.9173126220703
299;1673389212.9975433;47.1290197;7.2383912;55.448001861572266;1673389213.133916;-25.33521270751953;-1.0151704549789429;-137.62449645996094
300;1673389213.1773984;47.129010099999995;7.238377799999999;55.83900451660156;1673389213.3395555;-25.78052520751953;-2.043762683868408;-137.2810821533203
301;1673389213.3850095;47.129000399999995;7.2383644;56.22600173950195;1673389213.5339072;-25.81987953186035;-2.1865122318267822;-137.1724090576172
302;1673389213.5852551;47.128990699999996;7.2383511;56.6140022277832;1673389213.7604587;-25.726736068725586;-1.7177436351776123;-137.2721405029297
303;1673389213.806314;47.128980899999995;7.2383378;56.99900436401367;1673389213.9659245;-25.65549087524414;-0.3659385144710541;-137.52609252929688
304;1673389214.0075195;47.1289711;7.2383245;57.38600158691406;1673389214.16036;-25.735301971435547;0.535646378993988;-137.78781127929688
305;1673389214.2049308;47.1289612;7.2383112999999994;57.7760009765625;1673389214.355811;-25.71329116821289;1.2093018293380737;-137.6578826904297
306;1673389214.4041836;47.1289514;7.2382979999999995;58.1660041809082;1673389214.5571551;-26.007829666137695;2.120112895965576;-137.59112548828125
307;1673389214.6055357;47.1289416;7.2382846999999995;58.553001403808594;1673389214.7613363;-26.14535140991211;2.590463638305664;-137.77658081054688
308;1673389214.8138015;47.1289318;7.2382713999999995;58.936004638671875;1673389214.9702258;-26.257009506225586;2.6535751819610596;-137.78775024414062
309;1673389215.0176127;47.128921999999996;7.2382580999999995;59.32100296020508;1673389215.1714718;-26.34587860107422;2.342282295227051;-137.74267578125
310;1673389215.2149882;47.128912199999995;7.2382446;59.708003997802734;1673389215.3717322;-26.350996017456055;1.496334195137024;-137.60440063476562
311;1673389215.419308;47.1289023;7.238231099999999;60.095001220703125;1673389215.573027;-26.32577133178711;0.699155867099762;-137.4887237548828
312;1673389215.6189287;47.1288925;7.2382176;60.48100280761719;1673389215.7862086;-26.3375301361084;-0.5155925154685974;-137.1048583984375
313;1673389215.8293085;47.1288826;7.238203899999999;60.868003845214844;1673389216.0112703;-26.3499698638916;-1.4847915172576904;-136.97901916503906
314;1673389216.0551944;47.128872799999996;7.238190299999999;61.256004333496094;1673389216.1886172;-26.279170989990234;-1.6804462671279907;-136.9678192138672
315;1673389216.225865;47.128862899999994;7.2381766999999995;61.64900207519531;1673389216.3534808;-26.271818161010742;-1.899259090423584;-136.86105346679688
316;1673389216.3960147;47.1288531;7.2381630999999995;62.0410041809082;1673389216.542986;-26.34555435180664;-1.777900218963623;-136.8873291015625
317;1673389216.5864642;47.1288431;7.2381495;62.436004638671875;1673389216.735366;-26.179414749145508;-1.2342032194137573;-136.84130859375
318;1673389216.775986;47.128833199999995;7.238136;62.8280029296875;1673389216.943875;-26.285642623901367;-0.5221228003501892;-137.01170349121094
319;1673389216.9909995;47.1288232;7.2381224;63.220001220703125;1673389217.143154;-26.311752319335938;0.1444547176361084;-137.291748046875
320;1673389217.190189;47.128813199999996;7.2381088;63.612003326416016;1673389217.3479025;-26.44174575805664;0.894792914390564;-137.26022338867188
321;1673389217.3963456;47.1288033;7.2380952999999995;64.0040054321289;1673389217.556168;-26.29659652709961;1.5436378717422485;-137.4046630859375
322;1673389217.5984244;47.1287934;7.2380816;64.39800262451172;1673389217.7756267;-26.605283737182617;1.5957000255584717;-137.455078125
323;1673389217.8182137;47.1287835;7.2380679;64.79199981689453;1673389217.967248;-26.644323348999023;1.5743931531906128;-137.38223266601562
324;1673389218.0147283;47.1287735;7.2380542;65.18500518798828;1673389218.1686807;-26.675643920898438;1.4561543464660645;-137.3524932861328
325;1673389218.2056243;47.1287636;7.238040499999999;65.58000183105469;1673389218.3535054;-26.8237361907959;0.9488314986228943;-137.25526428222656
326;1673389218.4039855;47.1287537;7.2380268;65.97600555419922;1673389218.5587428;-26.74600601196289;0.3749493360519409;-137.02731323242188
327;1673389218.6032088;47.1287437;7.238013199999999;66.37200164794922;1673389218.7601366;-26.864824295043945;0.2538727819919586;-137.0492706298828
328;1673389218.8017116;47.1287337;7.237999599999999;66.76800537109375;1673389218.9763765;-26.94942283630371;0.09430422633886337;-136.8592529296875
329;1673389219.0203266;47.1287236;7.2379861;67.16200256347656;1673389219.1713204;-26.974491119384766;0.2578107714653015;-136.7947540283203
330;1673389219.2131362;47.128713499999996;7.2379725;67.5580062866211;1673389219.3688648;-26.834001541137695;0.26971834897994995;-136.70005798339844
331;1673389219.411507;47.1287034;7.2379587999999995;67.9540023803711;1673389219.5520494;-26.679462432861328;0.14743058383464813;-136.5628204345703
332;1673389219.5982301;47.128693399999996;7.2379451999999995;68.35200500488281;1673389219.7530298;-26.45249366760254;-0.07864735275506973;-136.5126953125
333;1673389219.7982483;47.1286833;7.2379314;68.74800109863281;1673389219.9494379;-26.571256637573242;-0.6763380765914917;-136.4171142578125
334;1673389219.993954;47.1286734;7.237917599999999;69.14400482177734;1673389220.1609063;-26.634233474731445;-0.8606833219528198;-136.48403930664062
335;1673389220.2099159;47.1286634;7.2379038;69.54000091552734;1673389220.3718445;-26.850597381591797;-1.0466978549957275;-136.5022430419922
336;1673389220.4158387;47.1286534;7.2378900999999995;69.9330062866211;1673389220.5649717;-22.880443572998047;-0.9066221714019775;-136.4606170654297
337;1673389220.6094651;47.128643499999995;7.2378763;70.32100677490234;1673389220.7834127;-8.373905181884766;-0.8718041181564331;-136.5464630126953
338;1673389220.8220174;47.128634;7.237863099999999;70.6820068359375;1673389220.9699903;-4.358442306518555;-1.2686269283294678;-136.57289123535156
339;1673389221.0184004;47.128625199999995;7.237851;71.0060043334961;1673389221.1588938;1.9541195631027222;-1.467714786529541;-136.7279815673828
340;1673389221.200031;47.1286175;7.2378404;71.28700256347656;1673389221.3775344;6.278643608093262;-1.9972760677337646;-136.31817626953125
341;1673389221.4461944;47.1286108;7.237831099999999;71.53500366210938;1673389221.588137;8.225772857666016;-2.058873176574707;-135.16209411621094
342;1673389221.6330836;47.128605099999994;7.237823199999999;71.75;1673389221.783864;9.865824699401855;-1.8718606233596802;-135.0628662109375
343;1673389221.8283994;47.128600399999996;7.237816899999999;71.93800354003906;1673389221.9783204;9.347371101379395;1.0145167112350464;-135.76243591308594
344;1673389222.0180736;47.128596599999995;7.237811799999999;72.10600280761719;1673389222.1623802;6.949091911315918;1.466204047203064;-136.5316925048828
345;1673389222.2019925;47.128593599999995;7.2378079;72.25100708007812;1673389222.353047;3.014622926712036;13.274770736694336;-135.1334686279297
346;1673389222.3996165;47.1285913;7.2378046;72.37100219726562;1673389222.5651195;3.141914129257202;31.20619773864746;-124.9755859375
347;1673389222.60569;47.1285901;7.2378010999999995;72.47000122070312;1673389222.7660859;-9.498124122619629;25.897031784057617;-113.64839935302734
348;1673389222.813274;47.1285904;7.237796899999999;72.54000091552734;1673389222.9698713;-10.431462287902832;14.221214294433594;-100.93218994140625
349;1673389223.010532;47.1285916;7.2377921;72.58399963378906;1673389223.171158;-13.34684944152832;10.125855445861816;-92.22203826904297
350;1673389223.2205057;47.1285934;7.237787;72.62300109863281;1673389223.3793278;-12.43572998046875;5.007650375366211;-83.05199432373047
351;1673389223.4247618;47.1285956;7.2377815;72.65800476074219;1673389223.583575;-10.496376037597656;1.4749337434768677;-73.87886047363281
352;1673389223.6332173;47.128598;7.237775699999999;72.69000244140625;1673389223.7961822;-8.370755195617676;0.19174860417842865;-65.23116302490234
353;1673389223.8382506;47.128600399999996;7.2377698;72.72000122070312;1673389223.9836807;-7.31865930557251;-0.1883711814880371;-56.774078369140625
354;1673389224.0256662;47.128603;7.2377639;72.74800109863281;1673389224.1716957;-7.22809362411499;-0.46325525641441345;-47.96384048461914
355;1673389224.2279825;47.1286056;7.2377582;72.77100372314453;1673389224.3761346;-7.088005065917969;-1.5027124881744385;-40.50600051879883
356;1673389224.41815;47.1286081;7.237752599999999;72.79100036621094;1673389224.5760994;-7.41835355758667;-1.7533581256866455;-40.26617431640625
357;1673389224.6195953;47.128610599999995;7.2377471;72.80900573730469;1673389224.7804928;-22.167848587036133;-1.2237671613693237;-43.30185317993164
358;1673389224.8290057;47.128612999999994;7.237741499999999;72.83500671386719;1673389224.9842129;-44.259952545166016;0.07560071349143982;-44.85890579223633
359;1673389225.0276906;47.128616199999996;7.237734799999999;72.87200164794922;1673389225.1766875;-57.09674835205078;0.5252014398574829;-45.56351852416992
360;1673389225.2163029;47.1286213;7.2377253999999995;72.91100311279297;1673389225.3734078;-62.676551818847656;-0.32783380150794983;-46.44645309448242
361;1673389225.4157143;47.1286288;7.2377126;72.94800567626953;1673389225.57129;-60.358978271484375;-0.08500373363494873;-46.91004943847656
362;1673389225.6192303;47.1286388;7.237696199999999;72.97400665283203;1673389225.7632878;-58.18587875366211;-0.10979945212602615;-46.91701889038086
363;1673389225.8087604;47.1286506;7.237677;72.99200439453125;1673389225.9625516;-58.436336517333984;0.6996785998344421;-46.899192810058594
364;1673389226.0079913;47.128664099999995;7.2376553999999995;73.0;1673389226.1530817;-57.0980339050293;0.7227204442024231;-46.75070571899414
365;1673389226.1950674;47.128679;7.237631899999999;72.98900604248047;1673389226.3506372;-54.7005500793457;-0.050087280571460724;-46.53337097167969
366;1673389226.4019253;47.1286947;7.237607;72.96100616455078;1673389226.556789;-53.08331298828125;-0.21240727603435516;-46.42594909667969
367;1673389226.613092;47.1287113;7.237581;72.93000030517578;1673389226.7579718;-36.134490966796875;-0.23957866430282593;-46.3818359375
368;1673389226.797957;47.1287279;7.237554899999999;72.69700622558594;1673389226.9680517;3.119732618331909;-0.4016020596027374;-46.292015075683594
369;1673389227.012989;47.128744499999996;7.237528999999999;72.1030044555664;1673389227.1700687;62.758506774902344;-1.1118885278701782;-46.800506591796875
370;1673389227.2181783;47.128760899999996;7.237503299999999;71.11000061035156;1673389227.382862;58.54656219482422;-179.226318359375;135.07803344726562
371;1673389227.4339464;47.1287774;7.2374773999999995;69.73699951171875;1673389227.5820212;22.899707794189453;179.23202514648438;131.7490997314453
372;1673389227.6231365;47.1287938;7.2374518;68.01700592041016;1673389227.8129773;15.055545806884766;179.46275329589844;129.20335388183594
373;1673389227.8619297;47.1288097;7.2374266;65.91000366210938;1673389228.0061688;35.00397491455078;178.6060028076172;128.62228393554688
374;1673389228.047295;47.1288254;7.2374019999999994;63.435001373291016;1673389228.193132;85.52424621582031;-158.80960083007812;153.29153442382812
375;1673389228.2380347;47.1288408;7.2373777;60.62200164794922;1673389228.3864157;21.14470100402832;-0.8449922204017639;-49.932865142822266
376;1673389228.428285;47.1288565;7.237353199999999;57.43800354003906;1673389228.5760238;-42.646095275878906;1.147353172302246;-48.11616134643555
377;1673389228.622985;47.1288719;7.237329;53.84300231933594;1673389228.78007;-69.58202362060547;-0.9512230753898621;-44.15434646606445
378;1673389228.8182428;47.1288871;7.2373053;49.90300369262695;1673389228.9818535;-54.29792022705078;0.20550458133220673;-42.77140426635742
379;1673389229.0270555;47.128901899999995;7.2372818;45.6400032043457;1673389229.182999;4.776221752166748;2.0685877799987793;-40.32661819458008
380;1673389229.2261958;47.1289163;7.2372589;41.031002044677734;1673389229.3852549;74.1723861694336;19.76156234741211;-20.870378494262695
381;1673389229.4304318;47.1289308;7.2372361;36.022003173828125;1673389229.577361;67.6118392944336;159.75985717773438;119.90506744384766
382;1673389229.615956;47.1289454;7.237213199999999;30.697002410888672;1673389229.7729673;79.4964370727539;110.96310424804688;72.90554809570312
383;1673389229.8139067;47.1289598;7.2371906;25.080001831054688;1673389229.973054;28.284282684326172;7.14855432510376;-27.787729263305664
384;1673389230.0172863;47.1289744;7.237167899999999;19.148000717163086;1673389230.1620505;-41.45125198364258;-1.6854304075241089;-30.407255172729492
385;1673389230.2040727;47.128988899999996;7.237145399999999;12.816000938415527;1673389230.349316;-63.11082077026367;-6.410160064697266;-26.729883193969727
386;1673389230.3938706;47.129002799999995;7.2371234;6.156000137329102;1673389230.5699012;-24.891847610473633;3.1362690925598145;-29.724462509155273
387;1673389230.6129723;47.129014999999995;7.237105;0.24500000476837158;1673389230.772971;0.7379105687141418;-0.6891025304794312;-31.503990173339844
388;1673389230.8168542;47.1290244;7.2371007999999994;0.7910000085830688;1673389230.9641778;1.2849594354629517;0.49683237075805664;-33.20161056518555
389;1673389231.0079095;47.1290361;7.2370955;1.1640000343322754;1673389231.1661382;1.4016289710998535;-0.5764455795288086;-32.257869720458984
390;1673389231.2204838;47.1290476;7.2370904;1.5840001106262207;1673389231.3861208;1.5587538480758667;-1.273175597190857;-31.758878707885742
391;1673389231.4330318;47.1290578;7.2370857;2.01200008392334;1673389231.581383;1.7255460023880005;-2.1485211849212646;-31.393306732177734
392;1673389231.6279058;47.129067899999995;7.237081099999999;2.4210000038146973;1673389231.7800934;2.0201456546783447;-2.769427537918091;-30.996971130371094
393;1673389231.8249896;47.129075;7.2370776999999995;2.8030002117156982;1673389231.9799428;2.107064723968506;-2.940598726272583;-30.716102600097656
394;1673389232.0239434;47.129083;7.2370735999999996;3.1650002002716064;1673389232.1818748;2.1836977005004883;-3.0353832244873047;-30.636341094970703
395;1673389232.2289813;47.1290917;7.2370696;3.505000114440918;1673389232.3793356;2.163689613342285;-2.977339506149292;-30.597999572753906
396;1673389232.4248054;47.129100799999996;7.2370654;3.819000244140625;1673389232.5869927;2.2367923259735107;-2.878868579864502;-30.563865661621094
397;1673389232.6518788;47.12911;7.237061199999999;4.113000392913818;1673389232.8128693;2.2813093662261963;-2.7439324855804443;-30.533802032470703
398;1673389232.8562486;47.1291191;7.2370581;4.242000102996826;1673389233.006276;2.360076665878296;-2.5774693489074707;-30.528600692749023
399;1673389233.0553944;47.129128099999996;7.2370551;4.371000289916992;1673389233.203889;2.436925172805786;-2.3985869884490967;-30.512157440185547
400;1673389233.241503;47.1291369;7.2370529999999995;4.379000186920166;1673389233.3950539;2.5021564960479736;-2.1971399784088135;-30.508121490478516
401;1673389233.4398413;47.1291455;7.2370518;4.321000099182129;1673389233.5992079;2.6240808963775635;-2.0333406925201416;-30.49038314819336
402;1673389233.636014;47.1291538;7.2370510999999995;4.232000350952148;1673389233.7666368;2.6710994243621826;-1.8596395254135132;-30.49159812927246
403;1673389233.811827;47.1291619;7.2370508;4.135000228881836;1673389233.974945;2.772007942199707;-1.6309047937393188;-30.47368621826172
404;1673389234.0202405;47.1291699;7.237050699999999;4.038000106811523;1673389234.167299;2.8380799293518066;-1.477279782295227;-30.4529972076416
405;1673389234.2230105;47.1291778;7.237050099999999;4.025000095367432;1673389234.3794086;2.8846375942230225;-1.3488882780075073;-30.426212310791016
406;1673389234.4228995;47.1291855;7.237050099999999;3.9710001945495605;1673389234.579275;2.947559118270874;-1.2161366939544678;-30.422138214111328
407;1673389234.6260195;47.1291929;7.2370506;3.891000270843506;1673389234.7780492;2.9762749671936035;-1.0713850259780884;-30.425615310668945
408;1673389234.8193681;47.1292001;7.2370513999999995;3.7990002632141113;1673389234.9738834;3.052297830581665;-0.8861454129219055;-30.390033721923828
409;1673389235.0189521;47.129207099999995;7.2370525;3.703000068664551;1673389235.178896;3.101694107055664;-0.7659457921981812;-30.370588302612305
410;1673389235.2229056;47.129213899999996;7.2370537;3.6040000915527344;1673389235.3810885;3.1517748832702637;-0.6135281920433044;-30.368947982788086
411;1673389235.4465363;47.1292206;7.2370551999999995;3.503000259399414;1673389235.6018794;3.170921802520752;-0.4778304100036621;-30.359216690063477
412;1673389235.648816;47.1292273;7.237056099999999;3.4580001831054688;1673389235.8011827;3.219226360321045;-0.3013557195663452;-30.347881317138672
413;1673389235.8461516;47.1292337;7.2370575;3.383000135421753;1673389235.9913096;3.266178846359253;-0.2003440260887146;-30.349523544311523
414;1673389236.032945;47.129239899999995;7.2370592;3.2890002727508545;1673389236.1810002;3.28308367729187;-0.030390378087759018;-30.374248504638672
415;1673389236.2309813;47.1292458;7.2370611;3.188000202178955;1673389236.382133;3.32954740524292;0.08047130703926086;-30.33946990966797
