;pos_time;latitude;longitude;altitude;alt_time;pitch;roll;yaw
0;1673391812.7268987;47.1306425;7.2406197;-0.021000001579523087;1673391812.843818;0.2722862660884857;-0.005281609948724508;89.53643798828125
1;1673391812.9261324;47.1306425;7.240619799999999;-0.01900000125169754;1673391813.0826764;0.25107258558273315;-0.44978079199790955;89.72344970703125
2;1673391813.1806917;47.1306425;7.240619799999999;-0.017000000923871994;1673391813.31845;0.37533265352249146;-0.10933704674243927;89.61746978759766
3;1673391813.3957102;47.1306425;7.240619799999999;-0.01900000125169754;1673391813.4930835;0.10523907840251923;-0.16266079246997833;89.62345123291016
4;1673391813.5572526;47.1306424;7.2406198999999996;-0.017000000923871994;1673391813.6535196;-0.07797539234161377;-0.2659764587879181;89.76004791259766
5;1673391813.73029;47.1306424;7.2406198999999996;-0.017000000923871994;1673391813.8443913;0.030125372111797333;-0.0869002714753151;89.5882797241211
6;1673391813.9415662;47.1306424;7.2406198999999996;-0.020000001415610313;1673391814.049859;0.30686187744140625;-0.3527105450630188;89.75674438476562
7;1673391814.130125;47.1306423;7.240619799999999;-0.024000000208616257;1673391814.244995;0.360213041305542;-0.10138239711523056;89.6128158569336
8;1673391814.331441;47.1306423;7.2406197;-0.027000000700354576;1673391814.4503875;0.27503854036331177;-0.12150324136018753;89.46026611328125
9;1673391814.5356271;47.1306424;7.2406197;-0.029000001028180122;1673391814.6428003;0.26544666290283203;-0.33123332262039185;89.6761703491211
10;1673391814.725363;47.1306424;7.2406197;-0.029000001028180122;1673391814.849049;0.4070267379283905;-0.022813647985458374;89.39923095703125
11;1673391814.939184;47.1306424;7.240619799999999;-0.02800000086426735;1673391815.0580268;-0.039629627019166946;-0.21223987638950348;89.51576232910156
12;1673391815.1396956;47.1306424;7.240619799999999;-0.029000001028180122;1673391815.2506766;0.12542887032032013;0.026149431243538857;89.38081359863281
13;1673391815.3343031;47.1306425;7.2406198999999996;-0.029000001028180122;1673391815.4541216;-0.17607131600379944;-0.291485071182251;89.51538848876953
14;1673391815.5405424;47.1306425;7.2406198999999996;-0.027000000700354576;1673391815.656321;0.011948708444833755;-0.21186721324920654;89.54092407226562
15;1673391815.745883;47.1306425;7.24062;0.0010000000474974513;1673391815.857018;0.2196282297372818;-0.13215073943138123;89.37075805664062
16;1673391815.940902;47.1306425;7.24062;0.0010000000474974513;1673391816.0691216;0.09462094306945801;-0.15699166059494019;89.49512481689453
17;1673391816.1543887;47.1306425;7.2406198999999996;0.0010000000474974513;1673391816.266211;-0.027396248653531075;-0.2696801722049713;89.59085845947266
18;1673391816.3589892;47.1306425;7.2406198999999996;0.003000000026077032;1673391816.4933999;-0.08861120045185089;-0.21243217587471008;89.5910873413086
19;1673391816.5692227;47.1306425;7.2406198999999996;0.006000000052154064;1673391816.6877544;-0.16501224040985107;-0.20638707280158997;89.60272979736328
20;1673391816.7699795;47.1306425;7.240619799999999;0.0;1673391816.8878593;0.17835141718387604;0.0016652467893436551;89.58917999267578
21;1673391816.9650288;47.130642599999995;7.240619799999999;0.0;1673391817.079722;0.3187335133552551;-0.3290179967880249;89.39486694335938
22;1673391817.1839197;47.130642599999995;7.2406197;0.0;1673391817.315674;0.21333864331245422;-0.09635664522647858;89.56599426269531
23;1673391817.3937395;47.130642599999995;7.2406197;0.0;1673391817.4981234;0.19429591298103333;0.1221618503332138;89.60002136230469
24;1673391817.5987518;47.130642599999995;7.240619799999999;0.0;1673391817.7019677;0.251970112323761;0.09198801964521408;89.69733428955078
25;1673391817.8248093;47.1306425;7.240619799999999;0.0;1673391817.9628313;0.33550742268562317;-0.1682567000389099;89.64952087402344
26;1673391818.0508149;47.1306425;7.2406197;0.0020000000949949026;1673391818.12827;0.5201862454414368;-0.392901211977005;89.66034698486328
27;1673391818.2289438;47.1306424;7.240619799999999;0.005000000353902578;1673391818.3209822;0.3549199104309082;-0.3501496911048889;89.73544311523438
28;1673391818.3980064;47.1306424;7.240619799999999;0.00800000037997961;1673391818.496975;1.0658704042434692;-0.19113992154598236;89.66317749023438
29;1673391818.5646229;47.1306423;7.240619799999999;0.00800000037997961;1673391818.6660686;1.7857310771942139;-0.25913816690444946;89.90392303466797
30;1673391818.739753;47.1306423;7.240619799999999;0.007000000216066837;1673391818.8469322;3.1505093574523926;-0.2628779113292694;90.04630279541016
31;1673391818.933566;47.1306423;7.2406197;0.00800000037997961;1673391819.0747905;-1.0515084266662598;-1.0220237970352173;93.69007873535156
32;1673391819.157094;47.1306423;7.2406191;0.004000000189989805;1673391819.2697477;-4.882131099700928;-0.425356924533844;94.0086441040039
33;1673391819.3612394;47.1306423;7.2406178;0.014000000432133675;1673391819.4808915;-13.05727481842041;-0.823854923248291;91.65576171875
34;1673391819.5598323;47.1306423;7.2406160999999996;0.030000001192092896;1673391819.670845;-15.104536056518555;-0.772325873374939;91.15583801269531
35;1673391819.7588289;47.1306423;7.240614099999999;0.05400000140070915;1673391819.881284;-15.730182647705078;-0.22020791471004486;90.56171417236328
36;1673391819.9605067;47.1306424;7.240611899999999;0.09400000423192978;1673391820.0759761;-16.993816375732422;-1.8201515674591064;90.70553588867188
37;1673391820.153894;47.1306424;7.240609699999999;0.1469999998807907;1673391820.2738848;-18.236576080322266;-2.741938829421997;90.83026885986328
38;1673391820.3509772;47.1306425;7.2406076;0.21400001645088196;1673391820.5143673;-19.97381591796875;1.563904047012329;89.82910919189453
39;1673391820.5934908;47.1306425;7.2406058;0.29200002551078796;1673391820.6935754;-22.10270118713379;0.5996110439300537;89.88375854492188
40;1673391820.763044;47.1306425;7.2406044;0.3800000250339508;1673391820.8529427;-24.261127471923828;-3.49383807182312;90.68746948242188
41;1673391820.9281044;47.1306424;7.240603699999999;0.47600001096725464;1673391821.0422904;-26.233562469482422;-1.0480741262435913;90.15725708007812
42;1673391821.120556;47.1306424;7.240603699999999;0.5790000557899475;1673391821.2425072;-28.330751419067383;1.5873368978500366;89.45335388183594
43;1673391821.3255541;47.1306423;7.2406045;0.6920000314712524;1673391821.45161;-26.691404342651367;-2.7274951934814453;90.56788635253906
44;1673391821.5526268;47.1306422;7.2406061;0.8060000538825989;1673391821.6576586;-24.430797576904297;-3.921835422515869;90.98458862304688
45;1673391821.7456582;47.1306423;7.240608099999999;0.9240000247955322;1673391821.8639846;-21.681068420410156;1.491335153579712;89.53873443603516
46;1673391821.9501843;47.1306424;7.2406105;1.0520000457763672;1673391822.0620642;-18.859987258911133;-0.028159847483038902;89.84603881835938
47;1673391822.1451874;47.1306425;7.2406128;1.187000036239624;1673391822.2577395;-16.679306030273438;-3.4769675731658936;90.79351043701172
48;1673391822.3408484;47.130642599999995;7.2406149;1.3350000381469727;1673391822.4495933;-15.071001052856445;0.44574642181396484;89.9984359741211
49;1673391822.5350904;47.130642599999995;7.2406166;1.499000072479248;1673391822.6582713;-14.53354549407959;1.7323555946350098;89.65218353271484
50;1673391822.747207;47.1306425;7.2406178;1.6770000457763672;1673391822.8655126;-14.349433898925781;-2.5140411853790283;84.10721588134766
51;1673391822.9569142;47.1306424;7.2406185999999995;1.8670001029968262;1673391823.0902917;-14.866196632385254;-2.0807981491088867;85.61490631103516
52;1673391823.1738298;47.1306424;7.240619;2.068000078201294;1673391823.282894;-15.993993759155273;2.0856540203094482;85.37862396240234
53;1673391823.3657372;47.1306425;7.240619;2.2750000953674316;1673391823.4903982;-16.9172420501709;-1.2414610385894775;86.74349212646484
54;1673391823.5789344;47.130642599999995;7.2406188;2.4780001640319824;1673391823.7036948;-17.8299560546875;-3.1917901039123535;87.82730865478516
55;1673391823.7862139;47.130642599999995;7.2406185;2.682000160217285;1673391823.8769965;-18.587160110473633;1.5339863300323486;87.274658203125
56;1673391823.9626057;47.130642599999995;7.2406182999999995;2.886000156402588;1673391824.0824873;-19.325122833251953;0.44430774450302124;87.47763061523438
57;1673391824.1699834;47.1306425;7.2406181;3.0890002250671387;1673391824.2877736;-19.977262496948242;-4.114757537841797;88.18443298339844
58;1673391824.3664804;47.1306424;7.2406179999999996;3.2890002727508545;1673391824.4826128;-19.907032012939453;-0.394869863986969;87.64844512939453
59;1673391824.5581677;47.1306424;7.2406181;3.4880001544952393;1673391824.67606;-19.71892547607422;2.1842617988586426;86.87054443359375
60;1673391824.7621706;47.1306425;7.2406182999999995;3.686000108718872;1673391824.8805232;-19.42579460144043;-1.707062840461731;88.02547454833984
61;1673391824.9657073;47.130642599999995;7.2406185999999995;3.883000135421753;1673391825.0708883;-18.797969818115234;-1.1616891622543335;87.79744720458984
62;1673391825.1618285;47.130642699999996;7.240619;4.085000038146973;1673391825.2784538;-18.294797897338867;2.6803531646728516;87.07378387451172
63;1673391825.3649116;47.130642599999995;7.2406194;4.289000034332275;1673391825.4848511;-18.055709838867188;0.3921079933643341;87.2774429321289
64;1673391825.5663965;47.1306423;7.2406197;4.492000102996826;1673391825.6832216;-17.681455612182617;-3.910076379776001;88.0934829711914
65;1673391825.7805588;47.130642099999996;7.24062;4.694000244140625;1673391825.8993728;-17.807010650634766;0.11492734402418137;87.27418518066406
66;1673391825.974116;47.130642099999996;7.2406201;4.89300012588501;1673391826.089393;-17.826675415039062;1.3345431089401245;87.0777816772461
67;1673391826.1649666;47.130642099999996;7.2406201;5.091000080108643;1673391826.2669713;-18.181255340576172;-1.7652572393417358;87.72798919677734
68;1673391826.3538306;47.1306422;7.2406201;5.2920002937316895;1673391826.4644628;-18.151227951049805;-1.8910590410232544;87.85086822509766
69;1673391826.5532794;47.1306423;7.2406201;5.492000102996826;1673391826.6686213;-18.29354476928711;2.396576166152954;86.89337158203125
70;1673391826.7459538;47.1306423;7.2406201;5.690000057220459;1673391826.8648949;-18.3343563079834;0.5427286028862;87.34213256835938
71;1673391826.965751;47.1306422;7.2406201;5.889000415802002;1673391827.0738966;-18.43655776977539;-3.2473130226135254;88.04277038574219
72;1673391827.1673272;47.130642099999996;7.2406201;6.091000080108643;1673391827.2823477;-18.52758026123047;-0.13941751420497894;87.37191772460938
73;1673391827.3696806;47.130642099999996;7.2406201;6.2900004386901855;1673391827.481693;-18.762224197387695;2.7390871047973633;86.726318359375
74;1673391827.5541267;47.130642099999996;7.24062;6.48900032043457;1673391827.6715176;-18.592187881469727;-1.7133532762527466;87.63761138916016
75;1673391827.7629397;47.130642099999996;7.2406201;6.688000202178955;1673391827.873065;-18.551578521728516;-2.1241912841796875;87.96498107910156
76;1673391827.952789;47.130642099999996;7.2406201;6.884000301361084;1673391828.0602148;-18.612991333007812;2.3660054206848145;86.8246078491211
77;1673391828.1408393;47.1306422;7.2406201;7.080000400543213;1673391828.2499287;-18.63784408569336;0.9252421259880066;87.08113861083984
78;1673391828.329531;47.1306422;7.2406201;7.278000354766846;1673391828.4426162;-18.440332412719727;-3.128415822982788;88.02702331542969
79;1673391828.531855;47.130642099999996;7.2406201999999995;7.4770002365112305;1673391828.6448715;-18.61025047302246;0.3059265911579132;87.1700210571289
80;1673391828.730142;47.130642099999996;7.2406201999999995;7.674000263214111;1673391828.8535771;-18.5612850189209;2.524228096008301;86.53028869628906
81;1673391828.951925;47.130642099999996;7.2406201999999995;7.873000144958496;1673391829.0662875;-18.418258666992188;-2.3512232303619385;87.72328186035156
82;1673391829.165465;47.1306422;7.2406201999999995;8.072999954223633;1673391829.2773082;-18.51276397705078;-1.2051100730895996;87.57435607910156
83;1673391829.3626928;47.1306423;7.2406203;8.271000862121582;1673391829.481526;-18.47240447998047;2.755628824234009;86.7839126586914
84;1673391829.5635998;47.1306424;7.2406203;8.470000267028809;1673391829.6792138;-18.495386123657227;0.04984814673662186;87.28034210205078
85;1673391829.762282;47.1306424;7.2406203;8.670000076293945;1673391829.8746443;-18.498746871948242;-2.8148488998413086;87.9704360961914
86;1673391829.9586189;47.1306423;7.2406203;8.868000030517578;1673391830.0711892;-18.6224365234375;1.4428637027740479;86.77362823486328
87;1673391830.163055;47.1306422;7.2406203;9.068000793457031;1673391830.2769444;-18.46406364440918;1.3796186447143555;86.8021011352539
88;1673391830.3540587;47.1306422;7.2406204;9.269000053405762;1673391830.473099;-18.482074737548828;-2.9856958389282227;87.77023315429688
89;1673391830.5504425;47.1306423;7.2406204999999995;9.470000267028809;1673391830.664;-18.314769744873047;-0.6267454028129578;87.36722564697266
90;1673391830.7507927;47.1306424;7.2406206;9.666000366210938;1673391830.8747454;-18.16725730895996;2.805077314376831;86.83668518066406
91;1673391830.9667356;47.130642599999995;7.2406207;9.859000205993652;1673391831.075776;-18.353382110595703;0.9877279996871948;87.14122772216797
92;1673391831.1575108;47.130642699999996;7.2406207;10.054000854492188;1673391831.2745333;-17.986555099487305;-2.6816153526306152;87.77360534667969
93;1673391831.3594446;47.130642599999995;7.240620799999999;10.271000862121582;1673391831.472261;-20.31006622314453;0.01470981165766716;87.03186798095703
94;1673391831.5590816;47.130642599999995;7.240621;10.568000793457031;1673391831.674539;-22.858386993408203;2.1225340366363525;86.50382232666016
95;1673391831.7508736;47.130642599999995;7.240621699999999;10.930000305175781;1673391831.8709173;-19.388702392578125;-0.11742552369832993;87.12715911865234
96;1673391831.954888;47.130642599999995;7.240622699999999;11.312000274658203;1673391832.071442;-17.586536407470703;-2.6056203842163086;87.89930725097656
97;1673391832.1629257;47.130642699999996;7.2406236999999996;11.704000473022461;1673391832.2833893;-15.596223831176758;1.8480122089385986;87.0465316772461
98;1673391832.3626454;47.1306429;7.2406244;12.098000526428223;1673391832.4907765;-14.75533390045166;2.203378438949585;86.8836441040039
99;1673391832.5721116;47.130643;7.2406248;12.495000839233398;1673391832.6899552;-14.446264266967773;-1.774567723274231;87.8394546508789
100;1673391832.773216;47.1306431;7.240624899999999;12.896000862121582;1673391832.8794148;-14.818968772888184;0.18637020885944366;87.59899139404297
101;1673391832.9584842;47.130643199999994;7.2406247;13.302000999450684;1673391833.0693796;-15.392011642456055;3.3760805130004883;86.6534194946289
102;1673391833.1644607;47.1306431;7.2406244;13.711000442504883;1673391833.2833323;-16.369504928588867;-0.2925669252872467;87.42449188232422
103;1673391833.3592925;47.130643;7.2406239;14.122000694274902;1673391833.4711719;-17.20668601989746;-2.6974072456359863;87.91728210449219
104;1673391833.5533717;47.1306429;7.240623299999999;14.531001091003418;1673391833.6622615;-17.82743263244629;1.2862199544906616;87.13552856445312
105;1673391833.7506585;47.1306429;7.2406228;14.939001083374023;1673391833.8755608;-18.58622169494629;2.3016815185546875;86.9297866821289
106;1673391833.9644978;47.1306429;7.2406223;15.346000671386719;1673391834.0780678;-18.892444610595703;-1.851759433746338;87.71957397460938
107;1673391834.157166;47.130643;7.2406219;15.75200080871582;1673391834.2658176;-19.01953125;-0.9677302837371826;87.90118408203125
108;1673391834.3502777;47.130643;7.240621699999999;16.15999984741211;1673391834.4682295;-18.724916458129883;2.927257776260376;87.0474624633789
109;1673391834.5583897;47.130643;7.240621699999999;16.569000244140625;1673391834.6745884;-18.544002532958984;0.3469409644603729;87.36746215820312
110;1673391834.7648716;47.1306429;7.2406217999999996;16.981000900268555;1673391834.9100091;-17.96221923828125;-2.3106894493103027;88.03248596191406
111;1673391834.9905434;47.1306428;7.2406219;17.39900016784668;1673391835.098021;-17.814268112182617;1.1778067350387573;87.27152252197266
112;1673391835.1768155;47.1306428;7.240622;17.814001083374023;1673391835.2954252;-17.42881202697754;2.0112416744232178;87.0157470703125
113;1673391835.378803;47.1306428;7.2406220999999995;18.227001190185547;1673391835.4935973;-17.472576141357422;-2.275928497314453;87.9644546508789
114;1673391835.5878243;47.1306428;7.2406220999999995;18.642000198364258;1673391835.7057552;-17.24781036376953;0.028523152694106102;87.60123443603516
115;1673391835.7880216;47.1306428;7.2406220999999995;19.06100082397461;1673391835.8879285;-17.405858993530273;3.088799476623535;86.9315185546875
116;1673391835.968121;47.1306428;7.2406220999999995;19.48000144958496;1673391836.0854244;-17.45220184326172;-0.3200076222419739;87.52748107910156
117;1673391836.1704617;47.130642699999996;7.2406220999999995;19.898000717163086;1673391836.288874;-17.496509552001953;-2.809915065765381;88.04556274414062
118;1673391836.3726354;47.130642599999995;7.240622;20.315000534057617;1673391836.4926267;-17.59105110168457;1.2097141742706299;87.26238250732422
119;1673391836.5701814;47.130642599999995;7.2406217999999996;20.726001739501953;1673391836.6840074;-17.841218948364258;2.138887882232666;87.07171630859375
120;1673391836.7741091;47.130642599999995;7.2406216;21.134000778198242;1673391836.8708036;-18.133289337158203;-1.8506413698196411;87.98383331298828
121;1673391836.9532228;47.130642699999996;7.240621399999999;21.543001174926758;1673391837.06649;-18.05855369567871;-0.6597254276275635;87.58403778076172
122;1673391837.1535547;47.130642699999996;7.2406213;21.952001571655273;1673391837.2686236;-18.011606216430664;3.3273115158081055;86.89443969726562
123;1673391837.3625476;47.130642699999996;7.2406212;22.35900115966797;1673391837.4851565;-18.225221633911133;1.050829291343689;87.25607299804688
124;1673391837.5703793;47.130642699999996;7.240621099999999;22.76500129699707;1673391837.686123;-18.067699432373047;-2.6409289836883545;88.11385345458984
125;1673391837.7764375;47.1306425;7.240621;23.167001724243164;1673391837.890384;-18.24906349182129;1.037709355354309;87.33689880371094
126;1673391837.9743252;47.1306424;7.240621;23.569000244140625;1673391838.080614;-18.00074577331543;2.0980191230773926;87.03368377685547
127;1673391838.1661878;47.1306423;7.240621;23.97300148010254;1673391838.2807946;-17.885671615600586;-2.4090933799743652;87.85406494140625
128;1673391838.3748841;47.1306423;7.240621;24.376001358032227;1673391838.4817407;-18.13847541809082;-1.1919301748275757;87.77113342285156
129;1673391838.562794;47.1306424;7.2406209;24.780000686645508;1673391838.677147;-17.808683395385742;2.8399274349212646;86.94497680664062
130;1673391838.7628489;47.1306425;7.2406209;25.18600082397461;1673391838.8787425;-17.92996597290039;0.3960893750190735;87.50797271728516
131;1673391838.970685;47.130642599999995;7.2406209;25.590002059936523;1673391839.083234;-17.98674201965332;-2.26543927192688;88.11560821533203
132;1673391839.169111;47.1306425;7.240620799999999;25.988000869750977;1673391839.2842605;-18.051715850830078;2.0609519481658936;86.97732543945312
133;1673391839.374043;47.1306425;7.240620799999999;26.387001037597656;1673391839.4903204;-18.073387145996094;1.6972285509109497;86.98345947265625
134;1673391839.579858;47.1306425;7.2406207;26.78900146484375;1673391839.6929772;-18.184080123901367;-1.6252880096435547;87.77793884277344
135;1673391839.786312;47.1306425;7.2406207;27.198001861572266;1673391839.899093;-18.101764678955078;0.14321133494377136;87.6068344116211
136;1673391839.9787302;47.130642599999995;7.2406207;27.606000900268555;1673391840.0878835;-17.881380081176758;3.519639015197754;86.82389068603516
137;1673391840.1621556;47.130642699999996;7.2406207;28.012001037597656;1673391840.2781885;-17.924123764038086;0.5382389426231384;87.56037139892578
138;1673391840.3699822;47.130642699999996;7.2406206;28.411001205444336;1673391840.4916475;-18.089900970458984;-1.8885855674743652;88.02507019042969
139;1673391840.5717952;47.130642699999996;7.2406206;28.805002212524414;1673391840.6788251;-18.143156051635742;2.1639909744262695;86.99137115478516
140;1673391840.7628927;47.130642599999995;7.2406206;29.202001571655273;1673391840.8775554;-18.157442092895508;1.6109716892242432;86.95092010498047
141;1673391840.963773;47.130642599999995;7.2406204999999995;29.60000228881836;1673391841.0823357;-18.183168411254883;-2.5947673320770264;87.8668212890625
142;1673391841.1684072;47.1306425;7.2406206;29.998001098632812;1673391841.2734118;-18.117769241333008;-0.0738062784075737;87.70263671875
143;1673391841.360865;47.1306425;7.2406206;30.398000717163086;1673391841.4822176;-18.2382755279541;3.0222787857055664;86.85460662841797
144;1673391841.5703583;47.130642599999995;7.2406206;30.801000595092773;1673391841.690576;-18.221302032470703;-0.3679583966732025;87.6350326538086
145;1673391841.7730362;47.130642599999995;7.2406206;31.202001571655273;1673391841.9058356;-18.08724021911621;-1.6203070878982544;87.8230209350586
146;1673391841.9889798;47.130642599999995;7.2406206;31.602001190185547;1673391842.0991104;-18.167556762695312;2.542198419570923;87.0977783203125
147;1673391842.1856403;47.130642599999995;7.2406206;32.005001068115234;1673391842.316169;-18.069427490234375;1.4705657958984375;87.12348937988281
148;1673391842.400785;47.1306425;7.2406206;32.409000396728516;1673391842.5077245;-18.114171981811523;-2.2530548572540283;88.04914855957031
149;1673391842.584395;47.1306425;7.2406206;32.8129997253418;1673391842.70313;-18.20309066772461;0.6895126700401306;87.35809326171875
150;1673391842.7827857;47.1306425;7.2406206;33.2130012512207;1673391842.8909519;-17.8962345123291;3.2018444538116455;86.78546142578125
151;1673391842.9794755;47.130642599999995;7.2406206;33.608001708984375;1673391843.0884666;-18.129173278808594;-0.5311722159385681;87.7125473022461
152;1673391843.168499;47.130642699999996;7.2406206;34.00800323486328;1673391843.282912;-18.208593368530273;-0.6085500717163086;87.77637481689453
153;1673391843.3642154;47.1306428;7.2406204999999995;34.41200256347656;1673391843.4817944;-18.09480857849121;3.2043466567993164;86.98161315917969
154;1673391843.56235;47.1306428;7.2406204999999995;34.816001892089844;1673391843.6683075;-18.178245544433594;1.2552598714828491;87.25495147705078
155;1673391843.7607665;47.130642699999996;7.2406204999999995;35.22300338745117;1673391843.9010367;-18.277067184448242;-2.202970504760742;87.93523406982422
156;1673391843.990474;47.130642599999995;7.2406204999999995;35.63100051879883;1673391844.0984805;-18.206932067871094;0.7440911531448364;87.33612823486328
157;1673391844.17772;47.130642699999996;7.2406204999999995;36.03600311279297;1673391844.2838397;-18.075241088867188;3.008206367492676;86.92650604248047
158;1673391844.3606665;47.130642699999996;7.2406204999999995;36.43400192260742;1673391844.5029032;-18.211753845214844;-0.6583251357078552;87.61536407470703
159;1673391844.5835912;47.1306428;7.2406204999999995;36.83000183105469;1673391844.6979628;-18.184364318847656;-0.2946639358997345;87.81096649169922
160;1673391844.7709854;47.1306429;7.2406204;37.230003356933594;1673391844.8750453;-18.169584274291992;3.336639165878296;86.9787368774414
161;1673391844.9498901;47.1306428;7.2406204;37.63199996948242;1673391845.0626543;-18.12275505065918;1.3857829570770264;87.29351806640625
162;1673391845.1471798;47.130642699999996;7.2406204;38.034000396728516;1673391845.257352;-18.092086791992188;-2.079155921936035;88.10311126708984
163;1673391845.3498442;47.130642599999995;7.2406204999999995;38.435001373291016;1673391845.4756665;-18.21139907836914;1.4502309560775757;87.24664306640625
164;1673391845.5817037;47.1306425;7.2406204999999995;38.83100128173828;1673391845.7169075;-18.218629837036133;2.3777318000793457;86.94444274902344
165;1673391845.7977598;47.1306425;7.2406204999999995;39.22700119018555;1673391845.9168024;-18.192739486694336;-1.7974634170532227;87.91960906982422
166;1673391845.993551;47.1306425;7.2406204999999995;39.62600326538086;1673391846.1242788;-18.172632217407227;0.1158001571893692;87.48883056640625
167;1673391846.2014892;47.130642599999995;7.2406204;40.025001525878906;1673391846.3137941;-18.22142219543457;3.7810218334198;86.6810302734375
168;1673391846.4267423;47.130642599999995;7.2406204;40.427001953125;1673391846.5420775;-18.30683135986328;-0.10559989511966705;87.55366516113281
169;1673391846.623766;47.1306425;7.2406204;40.8280029296875;1673391846.7294776;-18.13182258605957;-1.7311667203903198;87.86785125732422
170;1673391846.8139322;47.1306424;7.2406204;41.229000091552734;1673391846.930286;-18.239704132080078;2.7248950004577637;86.97813415527344
171;1673391847.0049984;47.1306425;7.2406204;41.62600326538086;1673391847.1002264;-18.079242706298828;2.006770610809326;87.26472473144531
172;1673391847.1773777;47.1306425;7.2406204;42.025001525878906;1673391847.3241017;-18.229337692260742;-1.9105651378631592;88.15099334716797
173;1673391847.4137542;47.130642599999995;7.2406204;42.42900085449219;1673391847.527144;-18.165124893188477;0.9948205351829529;87.40867614746094
174;1673391847.6519873;47.130642699999996;7.2406204;42.83500289916992;1673391847.780206;-18.16425323486328;3.4228954315185547;86.8502426147461
175;1673391847.8609407;47.130642699999996;7.2406204;43.2400016784668;1673391847.9960248;-18.161169052124023;0.549781858921051;87.40797424316406
176;1673391848.0863442;47.130642699999996;7.2406203;43.643001556396484;1673391848.203248;-18.201507568359375;-1.8354109525680542;87.94488525390625
177;1673391848.3159924;47.130642599999995;7.2406203;44.040000915527344;1673391848.401984;-18.212791442871094;1.9671438932418823;87.24073791503906
178;1673391848.5017903;47.1306425;7.2406203;44.43600082397461;1673391848.5880325;-18.173797607421875;2.0160677433013916;87.12653350830078
179;1673391848.65887;47.1306424;7.2406203;44.836002349853516;1673391848.7697337;-18.371665954589844;-2.1270570755004883;87.87932586669922
180;1673391848.8344257;47.1306424;7.2406201999999995;45.23500061035156;1673391848.9230812;-18.318965911865234;0.2057027965784073;87.47771453857422
181;1673391848.9896204;47.1306425;7.2406201999999995;45.637001037597656;1673391849.089894;-18.269821166992188;3.800687551498413;86.80482482910156
182;1673391849.1685739;47.130642599999995;7.2406201999999995;46.04100036621094;1673391849.2797391;-18.452470779418945;0.35554561018943787;87.46981811523438
183;1673391849.3624325;47.130642599999995;7.2406201;46.44400405883789;1673391849.4918382;-18.35316276550293;-1.6065332889556885;87.94632720947266
184;1673391849.5780544;47.130642599999995;7.2406201;46.8390007019043;1673391849.7077656;-18.457508087158203;2.494252920150757;87.0015869140625
185;1673391849.8197176;47.1306425;7.2406201;47.233001708984375;1673391849.98373;-18.38658905029297;1.9814540147781372;87.03089904785156
186;1673391850.0471551;47.1306424;7.2406201;47.630001068115234;1673391850.1528776;-18.530302047729492;-1.8352158069610596;87.7853012084961
187;1673391850.233443;47.1306424;7.2406201;48.031002044677734;1673391850.376367;-18.904949188232422;1.027316927909851;87.36672973632812
188;1673391850.4487867;47.1306425;7.24062;48.39900207519531;1673391850.5409791;-18.270936965942383;3.420039415359497;86.776123046875
189;1673391850.6098404;47.130642599999995;7.2406198999999996;48.717002868652344;1673391850.7206802;-18.165447235107422;-1.1547317504882812;88.0595932006836
190;1673391850.8129265;47.130642599999995;7.240619799999999;48.97500228881836;1673391850.937786;-18.318599700927734;0.5326347947120667;87.54126739501953
191;1673391851.0224988;47.130642599999995;7.2406194;49.19000244140625;1673391851.1292078;-18.429929733276367;3.675621271133423;86.66397094726562
192;1673391851.2042298;47.1306425;7.240619;49.37000274658203;1673391851.3150098;-1.405565857887268;19.728891372680664;91.26245880126953
193;1673391851.3986337;47.130641999999995;7.240617899999999;49.52100372314453;1673391851.51861;13.516083717346191;38.701377868652344;105.30728912353516
194;1673391851.6012747;47.130640199999995;7.2406144999999995;49.650001525878906;1673391851.703558;16.099483489990234;54.71635055541992;114.50823211669922
195;1673391851.7899418;47.1306362;7.2406074;49.73100280761719;1673391851.9152684;5.402881145477295;48.33147430419922;120.95321655273438
196;1673391852.0020463;47.13063;7.2405965;49.75700378417969;1673391852.1081543;-6.862549781799316;46.94043731689453;130.60430908203125
197;1673391852.1977482;47.1306216;7.2405823;49.77400207519531;1673391852.3147113;-19.85850715637207;46.21094512939453;141.44566345214844
198;1673391852.4009035;47.1306113;7.2405652;49.77800369262695;1673391852.5121396;-33.06108474731445;46.620548248291016;151.08023071289062
199;1673391852.6151936;47.130599;7.240545699999999;49.77900314331055;1673391852.7264714;-43.541717529296875;43.048160552978516;163.38720703125
200;1673391852.8118017;47.1305848;7.2405235999999995;49.7650032043457;1673391852.937445;-45.787254333496094;30.30768585205078;175.94961547851562
201;1673391853.0171869;47.1305688;7.240498799999999;49.74400329589844;1673391853.131153;-49.39845657348633;23.49786376953125;-176.16551208496094
202;1673391853.2137313;47.130551499999996;7.2404721;49.73200225830078;1673391853.320604;-53.826358795166016;17.774614334106445;-167.9656982421875
203;1673391853.3910856;47.1305329;7.240443699999999;49.72600173950195;1673391853.4987833;-52.95894241333008;9.091612815856934;-158.98095703125
204;1673391853.5767434;47.1305134;7.2404139999999995;49.7130012512207;1673391853.6907015;-52.84750747680664;2.3835127353668213;-152.25025939941406
205;1673391853.7722857;47.1304929;7.2403832999999995;49.68600082397461;1673391853.8870697;-51.83979415893555;-1.069372296333313;-146.13232421875
206;1673391853.9676788;47.1304717;7.240351899999999;49.64600372314453;1673391854.0967598;-46.372005462646484;-5.830325126647949;-138.71444702148438
207;1673391854.1946638;47.1304503;7.240319899999999;49.599002838134766;1673391854.3123393;-41.73916244506836;-11.944197654724121;-132.84896850585938
208;1673391854.3936172;47.1304288;7.2402878;49.56700134277344;1673391854.505759;-44.1682014465332;-15.96298599243164;-134.15797424316406
209;1673391854.58932;47.1304071;7.240255899999999;49.560001373291016;1673391854.7176278;-47.074588775634766;-13.593938827514648;-138.4229278564453
210;1673391854.8089933;47.1303852;7.2402247;49.56900405883789;1673391854.938651;-48.21487808227539;-12.357763290405273;-140.0582733154297
211;1673391855.0212178;47.1303628;7.240193799999999;49.58700180053711;1673391855.1407375;-48.85677719116211;-11.404650688171387;-140.35275268554688
212;1673391855.2128026;47.13034;7.2401629;49.60400390625;1673391855.3138123;-48.77684020996094;-9.85595989227295;-140.71168518066406
213;1673391855.4150689;47.130317;7.240132099999999;49.61600112915039;1673391855.5279565;-47.194480895996094;-9.225147247314453;-140.4398956298828
214;1673391855.6044774;47.130293699999996;7.2401012;49.62700271606445;1673391855.7154882;-46.50817108154297;-8.966559410095215;-140.1707305908203
215;1673391855.8012385;47.130270499999995;7.240070299999999;49.637001037597656;1673391855.925208;-46.296024322509766;-8.94707202911377;-139.87350463867188
216;1673391856.0136676;47.1302472;7.240039599999999;49.64900207519531;1673391856.127586;-46.603111267089844;-8.805502891540527;-139.72430419921875
217;1673391856.240501;47.130224;7.240008899999999;49.66200256347656;1673391856.338574;-46.79109191894531;-8.89879035949707;-139.53372192382812
218;1673391856.4123545;47.1302008;7.239978;49.677001953125;1673391856.5137975;-47.000579833984375;-8.977697372436523;-139.42958068847656
219;1673391856.6020608;47.130177599999996;7.239947;49.691001892089844;1673391856.7100916;-47.030616760253906;-9.012227058410645;-139.35195922851562
220;1673391856.7871218;47.1301543;7.239916;49.7030029296875;1673391856.9019036;-46.92216873168945;-9.11325740814209;-139.27554321289062
221;1673391856.9905305;47.1301311;7.2398848;49.715003967285156;1673391857.110347;-46.89312744140625;-9.094223976135254;-139.26710510253906
222;1673391857.1900072;47.130108;7.2398538;49.72500228881836;1673391857.3056357;-47.00019073486328;-9.04592227935791;-139.20535278320312
223;1673391857.3869312;47.1300847;7.2398226999999995;49.73400115966797;1673391857.508388;-46.95563888549805;-8.984477043151855;-139.1728515625
224;1673391857.6125116;47.1300615;7.2397914;49.743003845214844;1673391857.7372026;-46.88105010986328;-8.98676586151123;-139.13958740234375
225;1673391857.8186467;47.1300382;7.2397601;49.75200271606445;1673391857.9519715;-47.104087829589844;-9.095487594604492;-139.0980224609375
226;1673391858.0393782;47.130015;7.2397287;49.76400375366211;1673391858.1484644;-47.449039459228516;-9.120660781860352;-139.09848022460938
227;1673391858.2345996;47.1299917;7.2396973;49.772003173828125;1673391858.3420758;-47.342506408691406;-9.042495727539062;-139.10646057128906
228;1673391858.424729;47.129968399999996;7.2396658;49.77700424194336;1673391858.532745;-46.91619110107422;-9.013669967651367;-139.12286376953125
229;1673391858.6125264;47.129945199999995;7.2396343;49.781002044677734;1673391858.7197232;-46.90482711791992;-8.878761291503906;-139.12266540527344
230;1673391858.8031588;47.129922;7.2396028999999995;49.78200149536133;1673391858.9119709;-47.00041580200195;-8.92895221710205;-139.07432556152344
231;1673391858.9954658;47.1298988;7.239571499999999;49.785003662109375;1673391859.1032822;-47.16541290283203;-8.937026977539062;-139.0975341796875
232;1673391859.1870892;47.1298757;7.2395399;49.7910041809082;1673391859.3025763;-47.27025604248047;-8.992117881774902;-139.1343536376953
233;1673391859.3846767;47.1298525;7.2395083;49.798004150390625;1673391859.5014517;-47.477169036865234;-9.028766632080078;-139.15379333496094
234;1673391859.5899992;47.1298293;7.2394767;49.80000305175781;1673391859.707985;-47.381591796875;-9.05577278137207;-139.16641235351562
235;1673391859.8032207;47.129806099999996;7.239445099999999;49.803001403808594;1673391859.9250996;-47.1835823059082;-8.91213607788086;-139.1966552734375
236;1673391860.0194595;47.129782899999995;7.2394134999999995;49.80400085449219;1673391860.142323;-47.079750061035156;-8.94048023223877;-139.17715454101562
237;1673391860.231956;47.1297596;7.239381799999999;49.803001403808594;1673391860.3417518;-46.97413635253906;-8.890740394592285;-139.20582580566406
238;1673391860.431238;47.1297364;7.239350099999999;49.801002502441406;1673391860.5374177;-46.88353729248047;-8.87813949584961;-139.23219299316406
239;1673391860.617051;47.1297132;7.2393184999999995;49.802001953125;1673391860.744598;-47.044883728027344;-8.893696784973145;-139.24063110351562
240;1673391860.8330495;47.1296901;7.2392867999999995;49.80400085449219;1673391860.9506059;-47.055240631103516;-8.841443061828613;-139.279296875
241;1673391861.0366836;47.1296669;7.239255099999999;49.80600357055664;1673391861.1859236;-47.01140213012695;-8.839839935302734;-139.3227996826172
242;1673391861.2822723;47.1296438;7.2392235;49.81200408935547;1673391861.3813882;-47.06755065917969;-8.816411018371582;-139.33050537109375
243;1673391861.4533973;47.129620599999996;7.2391917999999995;49.820003509521484;1673391861.5662901;-47.35987854003906;-8.84874153137207;-139.38052368164062
244;1673391861.6451957;47.129597499999996;7.239160099999999;49.82400131225586;1673391861.7479389;-47.29325485229492;-8.776503562927246;-139.43832397460938
245;1673391861.8283317;47.129574299999994;7.239128399999999;49.82600402832031;1673391861.9646795;-47.06603240966797;-8.708829879760742;-139.5155792236328
246;1673391862.0480244;47.1295511;7.239096699999999;49.8280029296875;1673391862.1626048;-46.890071868896484;-8.639604568481445;-139.58023071289062
247;1673391862.2688315;47.129528;7.2390649;49.833003997802734;1673391862.3903897;-47.12823486328125;-8.658167839050293;-139.59780883789062
248;1673391862.4660895;47.1295048;7.2390332;49.845001220703125;1673391862.5691352;-47.614952087402344;-8.64443302154541;-139.70309448242188
249;1673391862.645819;47.1294816;7.2390015;49.85400390625;1673391862.7407396;-47.71858215332031;-8.546348571777344;-139.82496643066406
250;1673391862.8195896;47.1294584;7.238969699999999;49.85900115966797;1673391862.9236019;-47.37980270385742;-8.643351554870605;-139.87269592285156
251;1673391862.9983175;47.129435199999996;7.238938;49.86100387573242;1673391863.1030538;-47.02025604248047;-10.41148853302002;-139.77389526367188
252;1673391863.1825204;47.1294119;7.2389063;49.867000579833984;1673391863.3378878;-47.331424713134766;-12.686705589294434;-139.89944458007812
253;1673391863.4155335;47.129388399999996;7.2388748;49.87600326538086;1673391863.5461686;-46.985843658447266;-15.071381568908691;-140.492919921875
254;1673391863.6453989;47.1293648;7.2388438;49.884002685546875;1673391863.7603614;-46.8922004699707;-15.437602996826172;-141.15170288085938
255;1673391863.8569086;47.1293408;7.2388134;49.897003173828125;1673391863.9812348;-41.799461364746094;-14.594106674194336;-142.45538330078125
256;1673391864.0729613;47.1293167;7.2387839;49.9170036315918;1673391864.1645663;-26.202425003051758;-15.831822395324707;-141.10498046875
257;1673391864.2378294;47.1292931;7.2387555;49.94700241088867;1673391864.3446755;-6.148299694061279;-13.896027565002441;-139.45623779296875
258;1673391864.4273093;47.129270899999995;7.2387289;49.96600341796875;1673391864.5431805;10.819925308227539;-10.843600273132324;-136.9798126220703
259;1673391864.6239216;47.1292508;7.2387046999999995;49.97300338745117;1673391864.7380154;20.945619583129883;-9.182262420654297;-136.24302673339844
260;1673391864.8223348;47.1292337;7.2386835;49.965003967285156;1673391864.9320745;29.375328063964844;-6.23808479309082;-137.04449462890625
261;1673391865.013372;47.1292196;7.2386653999999995;49.94000244140625;1673391865.1222332;26.575746536254883;-10.305557250976562;-136.08636474609375
262;1673391865.194519;47.1292081;7.2386498999999995;49.87000274658203;1673391865.308492;27.207483291625977;-14.413193702697754;-134.19496154785156
263;1673391865.3915105;47.129199;7.238637;49.82400131225586;1673391865.5090518;29.196117401123047;-17.552186965942383;-134.1755828857422
264;1673391865.5903301;47.129191999999996;7.238626999999999;49.8280029296875;1673391865.7047853;22.778640747070312;-16.48430633544922;-135.41903686523438
265;1673391865.786994;47.129186399999995;7.2386197;49.862003326416016;1673391865.9007342;15.385698318481445;-16.960784912109375;-136.2121124267578
266;1673391865.9857728;47.1291817;7.238614;49.90400314331055;1673391866.101945;6.235671520233154;-15.179759979248047;-136.66165161132812
267;1673391866.1971798;47.129177399999996;7.2386091;49.939002990722656;1673391866.3102555;0.8929224014282227;-14.801934242248535;-137.26051330566406
268;1673391866.3991466;47.1291733;7.238604199999999;49.96900177001953;1673391866.5258205;-0.7370570302009583;-13.942209243774414;-136.99948120117188
269;1673391866.6082642;47.1291691;7.238599;49.99500274658203;1673391866.7228382;-0.02138916216790676;-11.407342910766602;-136.09091186523438
270;1673391866.806862;47.129165099999994;7.2385937;50.0160026550293;1673391866.9242775;3.20636248588562;-10.491508483886719;-135.22860717773438
271;1673391867.0095336;47.1291612;7.2385883;50.03200149536133;1673391867.1352;7.804574012756348;-10.315690040588379;-135.0478973388672
272;1673391867.2172716;47.1291576;7.2385829;50.04600143432617;1673391867.3425336;13.034213066101074;-10.185779571533203;-135.43301391601562
273;1673391867.4299853;47.1291544;7.238577899999999;50.06500244140625;1673391867.5381293;-6.104032039642334;-12.458162307739258;-134.78797912597656
274;1673391867.621325;47.1291513;7.2385728;50.12200164794922;1673391867.7422519;-25.00025177001953;-12.835967063903809;-135.7193603515625
275;1673391867.831858;47.1291471;7.2385664;50.22900390625;1673391867.943689;-22.397994995117188;-6.825204849243164;-137.67840576171875
276;1673391868.0150194;47.1291418;7.2385584;50.428001403808594;1673391868.1234536;-22.02463722229004;-7.1295366287231445;-138.27838134765625
277;1673391868.2126255;47.1291359;7.238548499999999;50.72500228881836;1673391868.3295548;-32.364192962646484;-14.941072463989258;-137.9115753173828
278;1673391868.4154372;47.1291288;7.2385372;51.08100128173828;1673391868.5148647;-35.226383209228516;-17.782928466796875;-139.1602020263672
279;1673391868.601505;47.1291199;7.2385246;51.480003356933594;1673391868.717943;-28.78400993347168;-16.204273223876953;-138.8464813232422
280;1673391868.8026528;47.1291095;7.238511099999999;51.893001556396484;1673391868.9196947;-23.16912078857422;-16.011842727661133;-138.2590789794922
281;1673391869.007328;47.129098299999995;7.2384971;52.303001403808594;1673391869.127782;-17.733203887939453;-14.869147300720215;-137.6116485595703
282;1673391869.2270586;47.129086699999995;7.238483;52.71000289916992;1673391869.350746;-13.037250518798828;-13.60742473602295;-137.04287719726562
283;1673391869.4324436;47.129075199999996;7.2384688;53.1150016784668;1673391869.547174;-9.571537017822266;-11.09833812713623;-136.8936004638672
284;1673391869.6243198;47.129064;7.2384547999999995;53.518001556396484;1673391869.7269073;-7.77423095703125;-9.38713264465332;-136.77981567382812
285;1673391869.8159246;47.129053299999995;7.2384409;53.922000885009766;1673391869.937942;-7.570018768310547;-8.250458717346191;-136.72894287109375
286;1673391870.0305016;47.1290432;7.2384271;54.32500076293945;1673391870.1453483;-8.911681175231934;-8.987588882446289;-136.73651123046875
287;1673391870.2311053;47.1290335;7.2384135;54.724002838134766;1673391870.343654;-11.145905494689941;-9.554513931274414;-136.50595092773438
288;1673391870.4248726;47.129024199999996;7.2384001;55.121002197265625;1673391870.546158;-12.973457336425781;-10.781147956848145;-136.5031280517578
289;1673391870.626921;47.1290149;7.2383866999999995;55.51700210571289;1673391870.7360413;-14.753569602966309;-12.596101760864258;-136.42999267578125
290;1673391870.816369;47.1290055;7.238373299999999;55.90900421142578;1673391870.9293733;-15.983936309814453;-14.242697715759277;-136.3789520263672
291;1673391871.0183444;47.128996099999995;7.2383599;56.303001403808594;1673391871.1345017;-16.58295249938965;-15.416647911071777;-136.47496032714844
292;1673391871.232766;47.1289866;7.2383465;56.69700241088867;1673391871.3311908;-16.568408966064453;-16.14615249633789;-136.5569305419922
293;1673391871.421782;47.1289768;7.238333;57.092002868652344;1673391871.540137;-16.322837829589844;-15.792489051818848;-136.71377563476562
294;1673391871.6331806;47.128966899999995;7.238319499999999;57.487003326416016;1673391871.7559125;-16.137271881103516;-15.408214569091797;-136.65191650390625
295;1673391871.8392313;47.1289569;7.238305899999999;57.88300323486328;1673391871.9471285;-15.773235321044922;-14.324249267578125;-136.91749572753906
296;1673391872.0316923;47.128946899999995;7.2382921;58.28200149536133;1673391872.1467273;-15.111282348632812;-12.925686836242676;-137.17181396484375
297;1673391872.2368035;47.1289368;7.238278299999999;58.68300247192383;1673391872.3527699;-14.633008003234863;-11.882877349853516;-137.2524871826172
298;1673391872.457759;47.1289267;7.2382645;59.086002349853516;1673391872.5676181;-14.601161003112793;-11.268513679504395;-137.3037567138672
299;1673391872.6414306;47.1289166;7.2382507;59.4890022277832;1673391872.747388;-14.374635696411133;-10.776507377624512;-137.27166748046875
300;1673391872.8233595;47.1289066;7.2382368999999995;59.888004302978516;1673391872.933803;-14.803932189941406;-11.141050338745117;-137.0742645263672
301;1673391873.0153434;47.128896499999996;7.2382233;60.28200149536133;1673391873.1284854;-14.932356834411621;-11.161637306213379;-137.0991973876953
302;1673391873.215023;47.1288864;7.2382097;60.673004150390625;1673391873.333297;-14.97588062286377;-11.823530197143555;-136.79090881347656
303;1673391873.4164393;47.128876299999995;7.2381962;61.06200408935547;1673391873.5215285;-15.098062515258789;-12.132606506347656;-136.70504760742188
304;1673391873.6057484;47.1288662;7.2381825;61.4530029296875;1673391873.7220063;-15.14352035522461;-13.302720069885254;-136.49301147460938
305;1673391873.8127518;47.1288562;7.2381689;61.849002838134766;1673391873.9210865;-14.989962577819824;-14.364812850952148;-136.39474487304688
306;1673391874.0081406;47.1288462;7.238155099999999;62.25200271606445;1673391874.1283216;-14.87279224395752;-14.587461471557617;-136.43092346191406
307;1673391874.2153769;47.128836299999996;7.2381413;62.65500259399414;1673391874.3345973;-14.858280181884766;-14.73298168182373;-136.3914794921875
308;1673391874.4264205;47.1288264;7.2381275;63.05600357055664;1673391874.5476043;-14.83320426940918;-14.9991455078125;-136.45419311523438
309;1673391874.6340225;47.1288165;7.2381136999999995;63.458003997802734;1673391874.75554;-14.89002799987793;-14.757944107055664;-136.74313354492188
310;1673391874.8328714;47.1288066;7.2380998;63.85700225830078;1673391874.9805417;-14.910059928894043;-14.655534744262695;-136.8163604736328
311;1673391875.0665874;47.128796699999995;7.238086;64.2550048828125;1673391875.1892915;-15.046462059020996;-14.100700378417969;-136.92535400390625
312;1673391875.2825844;47.1287867;7.2380723;64.6550064086914;1673391875.3859217;-15.119709014892578;-13.092288970947266;-136.97784423828125
313;1673391875.497748;47.128776699999996;7.238058499999999;65.05400085449219;1673391875.600053;-15.307031631469727;-12.348916053771973;-137.19354248046875
314;1673391875.6855593;47.1287667;7.2380447;65.45100402832031;1673391875.7922046;-15.129483222961426;-11.808427810668945;-137.23411560058594
315;1673391875.8772056;47.1287567;7.2380308;65.85000610351562;1673391875.9736671;-15.22302532196045;-11.76321029663086;-137.30738830566406
316;1673391876.0480494;47.1287467;7.238016999999999;66.25;1673391876.1550176;-15.096349716186523;-11.398152351379395;-137.403076171875
317;1673391876.2350798;47.1287367;7.238003099999999;66.6500015258789;1673391876.3462965;-15.142003059387207;-11.672204971313477;-137.4800262451172
318;1673391876.4255433;47.128726799999995;7.2379891999999995;67.0510025024414;1673391876.5336018;-15.03200912475586;-11.818933486938477;-137.56546020507812
319;1673391876.6141813;47.1287167;7.2379754;67.4540023803711;1673391876.7278228;-14.934341430664062;-11.529614448547363;-137.4589385986328
320;1673391876.8178458;47.128706699999995;7.2379617;67.85400390625;1673391876.9423115;-15.232864379882812;-11.65168285369873;-137.2686004638672
321;1673391877.026635;47.1286967;7.2379481;68.2490005493164;1673391877.1402757;-15.228918075561523;-11.817971229553223;-137.14865112304688
322;1673391877.221716;47.128686599999995;7.237934399999999;68.64200592041016;1673391877.3361175;-15.326714515686035;-11.519168853759766;-137.1190185546875
323;1673391877.4236298;47.1286765;7.2379207999999995;69.03400421142578;1673391877.5192347;-15.33056354522705;-11.190016746520996;-137.3200225830078
324;1673391877.6062882;47.1286665;7.2379071999999995;69.4280014038086;1673391877.7277694;-15.369280815124512;-11.208818435668945;-137.3136444091797
325;1673391877.7999735;47.1286564;7.237893499999999;69.82600402832031;1673391877.907653;-15.338761329650879;-10.909032821655273;-137.33139038085938
326;1673391877.9875329;47.1286464;7.2378798;70.2229995727539;1673391878.1004894;0.31563785672187805;-12.191271781921387;-138.48077392578125
327;1673391878.1854038;47.1286366;7.2378665;70.60000610351562;1673391878.3136237;6.6934123039245605;-11.518852233886719;-137.77084350585938
328;1673391878.4008613;47.1286275;7.2378541;70.94400024414062;1673391878.5246904;11.953454971313477;-11.322894096374512;-136.8644256591797
329;1673391878.622491;47.1286194;7.2378428999999995;71.25300598144531;1673391878.7495668;16.798933029174805;-11.113934516906738;-136.46090698242188
330;1673391878.835725;47.1286123;7.237832999999999;71.51500701904297;1673391878.9841044;19.474428176879883;-10.74960708618164;-136.46609497070312
331;1673391879.0677168;47.1286063;7.2378244;71.73300170898438;1673391879.1719692;20.815282821655273;-11.527443885803223;-136.3792266845703
332;1673391879.2447739;47.1286014;7.237817199999999;71.92400360107422;1673391879.3458447;19.9921932220459;-11.713607788085938;-136.55029296875
333;1673391879.4220114;47.1285974;7.2378113;72.09400177001953;1673391879.5329485;18.169301986694336;-12.556940078735352;-137.26101684570312
334;1673391879.6155987;47.128594199999995;7.237806699999999;72.24000549316406;1673391879.7388954;16.470333099365234;-10.570534706115723;-137.7024688720703
335;1673391879.8260841;47.1285916;7.237802899999999;72.36000061035156;1673391879.9616473;19.90723991394043;13.691792488098145;-130.4189453125
336;1673391880.0502074;47.128589999999996;7.237799099999999;72.45899963378906;1673391880.1798677;16.42430877685547;19.211904525756836;-120.54103088378906
337;1673391880.267433;47.128589899999994;7.2377948;72.5270004272461;1673391880.3805914;13.974335670471191;13.899733543395996;-109.6278076171875
338;1673391880.465184;47.1285909;7.2377901;72.57400512695312;1673391880.5801558;11.382874488830566;11.905688285827637;-99.8021240234375
339;1673391880.6607218;47.1285927;7.237785;72.61700439453125;1673391880.7726529;10.087048530578613;9.83992862701416;-89.69099426269531
340;1673391880.8524535;47.128594799999995;7.237779499999999;72.65800476074219;1673391880.9518416;7.848310470581055;7.97393798828125;-80.39788818359375
341;1673391881.0262082;47.128597299999996;7.237773799999999;72.69700622558594;1673391881.135036;6.571159362792969;7.317646503448486;-71.63298797607422
342;1673391881.224494;47.128599799999996;7.237767799999999;72.73400115966797;1673391881.3583415;6.058377742767334;7.373666763305664;-62.95478439331055
343;1673391881.456787;47.1286024;7.2377616;72.77000427246094;1673391881.6075056;5.221588611602783;9.029412269592285;-54.006202697753906
344;1673391881.7271538;47.128605;7.237755399999999;72.80400085449219;1673391881.8181772;3.377700090408325;10.954322814941406;-44.801368713378906
345;1673391881.9023302;47.128607599999995;7.2377492;72.83300018310547;1673391882.0253;1.4007935523986816;13.205907821655273;-40.345882415771484
346;1673391882.0937626;47.128610099999996;7.237743099999999;72.85400390625;1673391882.2063546;-5.687068462371826;14.177345275878906;-43.58064651489258
347;1673391882.3222873;47.1286128;7.2377370999999995;72.87100219726562;1673391882.4133208;-32.478084564208984;14.212422370910645;-46.803016662597656
348;1673391882.4861042;47.1286164;7.23773;72.9020004272461;1673391882.5744903;-52.128353118896484;9.873201370239258;-45.221614837646484
349;1673391882.6493266;47.1286219;7.2377202;72.92500305175781;1673391882.7582736;-54.091796875;5.520134925842285;-44.75480651855469
350;1673391882.8467112;47.1286296;7.2377068;72.91400146484375;1673391882.9593096;-50.686012268066406;4.980071544647217;-45.25355911254883
351;1673391883.0414355;47.1286391;7.2376898999999995;72.9000015258789;1673391883.167421;-52.557952880859375;5.272010803222656;-45.59409713745117
352;1673391883.2489636;47.128650199999996;7.2376697;72.89900207519531;1673391883.3675458;-56.74343490600586;4.977447032928467;-44.56816482543945
353;1673391883.4521224;47.1286632;7.2376461999999995;72.91699981689453;1673391883.5703418;-57.388427734375;4.756189823150635;-43.260684967041016
354;1673391883.6554503;47.128678099999995;7.2376197;72.9320068359375;1673391883.7631543;-55.63740539550781;5.675686359405518;-43.040321350097656
355;1673391883.8451262;47.128694499999995;7.2375909;72.9280014038086;1673391883.9711263;-54.10630416870117;4.661314010620117;-42.22407531738281
356;1673391884.0580275;47.1287113;7.2375614;72.68400573730469;1673391884.1684034;-38.995792388916016;0.6334210634231567;-40.46872329711914
357;1673391884.255091;47.1287281;7.237531799999999;72.08600616455078;1673391884.3608258;-4.8000288009643555;-5.020503520965576;-40.90510177612305
358;1673391884.4500835;47.1287448;7.2375023;71.11400604248047;1673391884.5610862;46.90515899658203;-17.39032745361328;-50.06953811645508
359;1673391884.648032;47.1287612;7.237473199999999;69.7229995727539;1673391884.7449882;71.8390121459961;-139.3773651123047;-171.59437561035156
360;1673391884.8280015;47.1287776;7.2374439;67.9520034790039;1673391884.947994;42.8037223815918;-168.7223358154297;157.19586181640625
361;1673391885.0298257;47.1287941;7.2374146999999995;65.84100341796875;1673391885.146065;37.127586364746094;-169.0310821533203;153.39520263671875
362;1673391885.2300036;47.1288102;7.2373857;63.375003814697266;1673391885.3500035;58.83793640136719;-158.0989532470703;160.53952026367188
363;1673391885.440036;47.128826;7.2373571;60.55900192260742;1673391885.5508492;63.590354919433594;-26.876150131225586;-72.59184265136719
364;1673391885.641656;47.128841699999995;7.2373283;57.400001525878906;1673391885.7541032;-1.3628560304641724;-0.7295218706130981;-52.016517639160156
365;1673391885.8427556;47.128857499999995;7.2372995;53.8280029296875;1673391885.9558856;-51.02070617675781;4.5804362297058105;-47.9760856628418
366;1673391886.0441003;47.1288729;7.2372711999999995;49.874000549316406;1673391886.158993;-62.800567626953125;-1.6026211977005005;-39.885658264160156
367;1673391886.2431269;47.128887999999996;7.2372431;45.60300064086914;1673391886.354879;-31.651866912841797;-5.6436381340026855;-37.69517517089844
368;1673391886.438863;47.1289027;7.237215399999999;41.00200271606445;1673391886.5539749;32.42165756225586;-8.338257789611816;-40.53413009643555
369;1673391886.6370702;47.1289172;7.237188;36.005001068115234;1673391886.7518444;86.45954895019531;-36.762611389160156;-71.56513977050781
370;1673391886.8427637;47.128932;7.2371605;30.65300178527832;1673391886.9660122;84.22693634033203;159.21075439453125;121.89826965332031
371;1673391887.058767;47.1289467;7.2371329;25.007001876831055;1673391887.167873;53.409568786621094;8.73216438293457;-28.39823341369629
372;1673391887.2429476;47.128961499999996;7.237105199999999;19.04800033569336;1673391887.3380158;-15.407841682434082;0.8557364344596863;-31.049924850463867
373;1673391887.4215658;47.1289764;7.2370773999999995;12.699000358581543;1673391887.5510867;-54.93451690673828;-11.258455276489258;-22.24703025817871
374;1673391887.6380248;47.128990699999996;7.237050099999999;6.010000228881836;1673391887.7579489;-38.243526458740234;-9.173480033874512;-23.702238082885742
375;1673391887.8473926;47.1290056;7.237027299999999;0.11600000411272049;1673391887.9615128;-29.72495460510254;3.1380372047424316;-21.662939071655273
376;1673391888.0472274;47.129031499999996;7.2370263999999995;0.07700000703334808;1673391888.1571586;-29.739154815673828;12.519464492797852;-16.333227157592773
377;1673391888.249616;47.1290578;7.2370237;-0.0990000069141388;1673391888.376399;-30.176942825317383;7.838572978973389;-15.187300682067871
378;1673391888.450724;47.1290858;7.2370209;-0.289000004529953;1673391888.5629911;-30.194007873535156;6.526731014251709;-14.752311706542969
379;1673391888.6561835;47.129115899999995;7.2370182;-0.48600003123283386;1673391888.765956;-30.131811141967773;5.476203441619873;-14.426912307739258
380;1673391888.8669083;47.129147599999996;7.237015599999999;-0.6710000038146973;1673391888.9749432;-30.074066162109375;4.591740131378174;-14.099894523620605
381;1673391889.0602365;47.1291806;7.2370128;-0.8450000286102295;1673391889.165025;-29.975622177124023;3.993460178375244;-13.917204856872559
382;1673391889.2419002;47.1292153;7.23701;-1.0230000019073486;1673391889.3579443;-29.865495681762695;3.6704230308532715;-13.720026016235352
383;1673391889.4419088;47.1292511;7.2370071;-1.2010000944137573;1673391889.567163;-29.718505859375;3.399043560028076;-13.557745933532715
384;1673391889.6369169;47.1292882;7.237004;-1.3830000162124634;1673391889.7577672;-29.567855834960938;3.1188879013061523;-13.357157707214355
385;1673391889.8306563;47.1293271;7.2370011;-1.6420000791549683;1673391889.961525;-29.594812393188477;3.0850770473480225;-13.387248992919922
386;1673391890.0467582;47.129368899999996;7.2369989;-2.0420000553131104;1673391890.1600888;-29.540355682373047;3.106079578399658;-13.375309944152832
387;1673391890.2509434;47.1294122;7.2369968;-2.517000198364258;1673391890.3561442;-29.511934280395508;3.146123170852661;-13.329052925109863
388;1673391890.4344401;47.1294575;7.236994999999999;-3.0470001697540283;1673391890.551561;-29.497529983520508;3.15217924118042;-13.275769233703613
389;1673391890.6387515;47.129504499999996;7.2369932;-3.614000082015991;1673391890.7659466;-29.46898651123047;3.2685904502868652;-13.248124122619629
390;1673391890.8469732;47.1295532;7.2369916;-4.208000183105469;1673391890.9580407;-29.42207908630371;3.364609479904175;-13.195893287658691
391;1673391891.0390165;47.1296034;7.23699;-4.821000099182129;1673391891.1427362;-29.318069458007812;3.4263715744018555;-13.135889053344727
392;1673391891.2451265;47.1296524;7.2369879;-5.228000164031982;1673391891.3461702;-29.07077980041504;3.4797215461730957;-12.996352195739746
393;1673391891.4250948;47.1297031;7.2369859;-0.42600002884864807;1673391891.5488703;-29.036405563354492;3.6012704372406006;-13.00118637084961
394;1673391891.650799;47.129757;7.2369844;-0.19600000977516174;1673391891.7628756;-29.042871475219727;3.826580047607422;-13.022348403930664
395;1673391891.8379152;47.129813399999996;7.2369832;-0.12300000339746475;1673391891.9429424;-29.057132720947266;3.988957405090332;-13.018317222595215
396;1673391892.028883;47.1298719;7.2369822;-0.12400000542402267;1673391892.1479354;-29.039230346679688;4.1819963455200195;-12.994355201721191
397;1673391892.2258947;47.1299322;7.2369813999999995;-0.14900000393390656;1673391892.3489668;-29.015701293945312;4.32694149017334;-12.997332572937012
398;1673391892.43201;47.129994499999995;7.236980699999999;-0.20600001513957977;1673391892.5419707;-29.0081729888916;4.576982498168945;-13.011927604675293
399;1673391892.626751;47.130058399999996;7.2369802;-0.27000001072883606;1673391892.7389092;-29.027267456054688;4.761023044586182;-13.020421981811523
400;1673391892.8239222;47.1301239;7.236979799999999;-0.2970000207424164;1673391892.9320147;-29.078624725341797;4.975460529327393;-13.080657958984375
401;1673391893.0371664;47.130190999999996;7.2369796;-0.3070000112056732;1673391893.1420557;-29.08437156677246;5.167644500732422;-13.08491325378418
402;1673391893.2396715;47.130226699999994;7.2369794999999995;-0.3110000193119049;1673391893.3721478;-29.022876739501953;5.374575614929199;-13.070255279541016
403;;;;;1673391893.5684896;-28.959613800048828;5.6513895988464355;-13.081694602966309
404;;;;;1673391893.7704785;-28.958450317382812;5.830178737640381;-13.059502601623535
405;;;;;1673391893.9538574;-28.843486785888672;6.581121921539307;-13.0628080368042
406;;;;;1673391894.1899912;-28.81787872314453;7.010717868804932;-13.078640937805176
407;;;;;1673391894.4437988;-28.7535343170166;7.436287879943848;-13.245356559753418
408;;;;;1673391894.6170106;-28.67363739013672;8.080619812011719;-13.942708969116211
