;pos_time;latitude;longitude;altitude;alt_time;pitch;roll;yaw
0;1673393145.3872557;47.1306424;7.24062;-0.01600000075995922;1673393145.4756448;0.14377906918525696;-0.1251201331615448;89.89282989501953
1;1673393145.6232586;47.1306424;7.24062;-0.013000000268220901;1673393145.7327592;0.1121259555220604;-0.14868488907814026;89.98112487792969
2;1673393145.8433173;47.1306424;7.24062;-0.010000000707805157;1673393145.9400902;0.1969641149044037;-0.24415907263755798;90.01593780517578
3;1673393146.0392678;47.1306425;7.24062;-0.009000000543892384;1673393146.1188731;-0.0005609425716102123;-0.33081498742103577;90.06977844238281
4;1673393146.2332804;47.1306425;7.2406198999999996;-0.00800000037997961;1673393146.3037283;-0.046899084001779556;-0.1489366739988327;89.9504165649414
5;1673393146.4226165;47.1306425;7.2406198999999996;-0.00800000037997961;1673393146.5420315;-0.04389222338795662;-0.19166898727416992;89.93693542480469
6;1673393146.6546524;47.1306425;7.240619799999999;-0.010000000707805157;1673393146.7265651;0.04165244102478027;-0.38541707396507263;90.0702896118164
7;1673393146.8356373;47.1306425;7.240619799999999;-0.01100000087171793;1673393146.9133308;0.3172829747200012;-0.12845343351364136;90.08848571777344
8;1673393147.0265722;47.1306425;7.240619799999999;-0.013000000268220901;1673393147.1018105;-0.039364248514175415;-0.2039145529270172;89.89081573486328
9;1673393147.204846;47.1306425;7.2406197;-0.014000000432133675;1673393147.279577;-0.023996401578187943;-0.34187161922454834;89.86124420166016
10;1673393147.389376;47.1306425;7.240619799999999;-0.017000000923871994;1673393147.4700298;-0.02786245010793209;-0.3238634467124939;90.0223159790039
11;1673393147.5771859;47.1306425;7.2406197;-0.018000001087784767;1673393147.6598685;-0.16274765133857727;-0.14531323313713074;90.00856018066406
12;1673393147.7716813;47.1306425;7.2406197;-0.01900000125169754;1673393147.8581789;-0.17265132069587708;-0.22019484639167786;89.89379119873047
13;1673393147.9883378;47.1306425;7.2406197;-0.020000001415610313;1673393148.0807867;-0.020694298669695854;-0.23295076191425323;89.8797607421875
14;1673393148.2123253;47.1306425;7.2406196;0.0010000000474974513;1673393148.3127325;0.04149525612592697;-0.3196563124656677;89.98566436767578
15;1673393148.4159935;47.1306424;7.2406196;0.0;1673393148.4937987;-0.05150414630770683;-0.25941166281700134;89.9720230102539
16;1673393148.6107905;47.1306424;7.2406196;-0.0020000000949949026;1673393148.688458;-0.1916159987449646;-0.30268651247024536;90.02554321289062
17;1673393148.8069565;47.1306425;7.2406196;-0.0010000000474974513;1673393148.8943636;-0.0325193926692009;-0.19438712298870087;90.05022430419922
18;1673393149.0016696;47.1306425;7.2406196;-0.0010000000474974513;1673393149.0776606;-0.019430233165621758;-0.3719571828842163;90.0321273803711
19;1673393149.209367;47.1306424;7.2406197;-0.0010000000474974513;1673393149.2846234;-0.27945300936698914;-0.33316463232040405;90.04802703857422
20;1673393149.3926833;47.1306424;7.240619799999999;0.0;1673393149.4756072;-0.37765592336654663;-0.5938840508460999;90.15682983398438
21;1673393149.5915685;47.1306424;7.2406198999999996;-0.0010000000474974513;1673393149.6697812;-0.6901306509971619;-0.16422578692436218;90.23780059814453
22;1673393149.7887537;47.1306424;7.2406198999999996;-0.0010000000474974513;1673393149.8675914;-0.5263301134109497;-0.0705060213804245;90.12297058105469
23;1673393149.9926775;47.1306425;7.2406198999999996;0.0;1673393150.0976198;-0.4874293804168701;-0.07486303895711899;90.01976776123047
24;1673393150.2149935;47.1306425;7.2406198999999996;0.0010000000474974513;1673393150.3037164;-0.6215003728866577;-0.2191595435142517;90.0937271118164
25;1673393150.4175007;47.1306424;7.24062;0.0010000000474974513;1673393150.5076516;-0.7532538771629333;-0.18676356971263885;90.31925964355469
26;1673393150.6418128;47.1306424;7.24062;0.0020000000949949026;1673393150.7253702;-0.7121281027793884;-0.24675112962722778;90.1299819946289
27;1673393150.828607;47.1306424;7.2406198999999996;0.0020000000949949026;1673393150.8965423;-0.8578430414199829;-0.20199711620807648;90.33741760253906
28;1673393150.9937768;47.1306425;7.2406198999999996;0.0;1673393151.0688827;-1.197465419769287;-0.07465587556362152;90.61180114746094
29;1673393151.1916604;47.1306425;7.2406198999999996;0.0;1673393151.280786;-0.07285285741090775;-0.3134452700614929;90.4411392211914
30;1673393151.4311376;47.1306424;7.2406204;0.003000000026077032;1673393151.5114164;1.8604930639266968;-0.20375317335128784;90.45266723632812
31;1673393151.6097217;47.1306425;7.2406217999999996;0.010000000707805157;1673393151.6954265;6.831472873687744;-0.03186989203095436;90.21074676513672
32;1673393151.81097;47.1306425;7.2406241;0.024000000208616257;1673393151.892096;13.017267227172852;-0.2034939080476761;92.11958312988281
33;1673393151.9926045;47.1306425;7.2406272;0.03200000151991844;1673393152.0800207;17.005340576171875;2.135234832763672;93.43849182128906
34;1673393152.180882;47.130642599999995;7.240631;0.046000003814697266;1673393152.2595356;16.439132690429688;1.2182962894439697;92.51302337646484
35;1673393152.373098;47.130642699999996;7.2406353;0.07300000637769699;1673393152.4576461;17.44753074645996;-0.5323328375816345;91.72708892822266
36;1673393152.578168;47.1306428;7.2406402;0.11100000888109207;1673393152.6698463;18.90570068359375;1.5322366952896118;91.73445129394531
37;1673393152.8049676;47.130643;7.240645499999999;0.15200001001358032;1673393152.8946023;20.555566787719727;2.146494150161743;91.60104370117188
38;1673393153.0008802;47.1306431;7.240651;0.19300000369548798;1673393153.0741618;22.505332946777344;-0.0488230362534523;90.98007202148438
39;1673393153.1793795;47.130643299999996;7.2406565;0.23600001633167267;1673393153.2649212;24.54696273803711;0.8228504657745361;90.86731719970703
40;1673393153.378706;47.1306434;7.2406618;0.2850000262260437;1673393153.4552076;26.573139190673828;2.4574222564697266;91.14596557617188
41;1673393153.5768092;47.1306434;7.2406668;0.33800002932548523;1673393153.6654692;28.679792404174805;0.5925937294960022;90.76730346679688
42;1673393153.7753813;47.1306434;7.240671099999999;0.3920000195503235;1673393153.856098;30.809335708618164;0.038529716432094574;90.4773178100586
43;1673393153.9727745;47.1306435;7.2406748;0.44700002670288086;1673393154.05633;32.957374572753906;1.8682481050491333;90.72050476074219
44;1673393154.1820214;47.1306435;7.2406777;0.5049999952316284;1673393154.2674842;35.13153076171875;1.3202826976776123;90.49909210205078
45;1673393154.3882945;47.1306435;7.2406795;0.5680000185966492;1673393154.4600947;37.342708587646484;-0.10029800981283188;90.01079559326172
46;1673393154.5740118;47.1306435;7.240680299999999;0.6390000581741333;1673393154.665356;39.5143928527832;1.0973142385482788;90.28129577636719
47;1673393154.7909808;47.1306435;7.240679999999999;0.7100000381469727;1673393154.8727853;41.71331024169922;1.420613408088684;90.30511474609375
48;1673393154.9895327;47.1306434;7.2406783;0.784000039100647;1673393155.067199;43.9185791015625;0.4111274182796478;89.94499969482422
49;1673393155.1918626;47.1306434;7.2406752999999995;0.8600000143051147;1673393155.275368;46.16590118408203;1.0548802614212036;90.18649291992188
50;1673393155.396023;47.130643299999996;7.2406707;0.9340000152587891;1673393155.4746614;45.56989288330078;1.2119011878967285;90.19778442382812
51;1673393155.5933585;47.130643199999994;7.240664799999999;1.003000020980835;1673393155.6731164;41.0775146484375;0.34320294857025146;89.80068969726562
52;1673393155.7884576;47.1306431;7.2406578999999995;1.068000078201294;1673393155.8705733;36.33177185058594;0.9383367896080017;90.0865249633789
53;1673393155.9779217;47.130643;7.2406508;1.1299999952316284;1673393156.0698276;31.242813110351562;0.3483831286430359;89.85022735595703
54;1673393156.1994858;47.1306428;7.240644;1.184000015258789;1673393156.2757368;26.62018585205078;0.240032359957695;89.8361587524414
55;1673393156.3827028;47.130642699999996;7.240637899999999;1.2360000610351562;1673393156.4673162;23.159780502319336;0.5356636643409729;90.0126724243164
56;1673393156.6187682;47.130642599999995;7.240632799999999;1.2910000085830688;1673393156.701208;21.156700134277344;0.08595627546310425;89.83274841308594
57;1673393156.8094907;47.130642599999995;7.2406291;1.3480000495910645;1673393156.8969276;21.028371810913086;-0.5719711184501648;89.65180206298828
58;1673393157.0068803;47.1306425;7.2406264;1.409000039100647;1673393157.094369;21.468795776367188;1.061902403831482;90.0457763671875
59;1673393157.2205691;47.1306425;7.2406247;1.4780000448226929;1673393157.3016305;22.482511520385742;1.4303165674209595;90.40550231933594
60;1673393157.4160497;47.1306423;7.2406236999999996;1.5600000619888306;1673393157.5042026;24.17247772216797;-1.025388479232788;93.98062133789062
61;1673393157.6107016;47.1306423;7.240623299999999;1.6530001163482666;1673393157.685683;26.104801177978516;0.7610819339752197;94.15351867675781
62;1673393157.8002949;47.1306423;7.2406232;1.7570000886917114;1673393157.8741417;27.586181640625;2.4947283267974854;94.65291595458984
63;1673393157.995715;47.1306423;7.2406232;1.873000144958496;1673393158.0793314;28.778703689575195;-0.5636598467826843;93.85247039794922
64;1673393158.198689;47.1306422;7.2406232;2.002000093460083;1673393158.284874;29.504905700683594;0.06283669918775558;94.04397583007812
65;1673393158.4030414;47.1306422;7.2406231;2.142000198364258;1673393158.4778383;29.585697174072266;2.21256160736084;94.81290435791016
66;1673393158.580815;47.1306422;7.2406228;2.2960000038146973;1673393158.673295;29.38408088684082;-0.28551727533340454;94.17649841308594
67;1673393158.7919538;47.130642099999996;7.2406223;2.4640002250671387;1673393158.8923178;28.868555068969727;-0.9889627695083618;93.90019226074219
68;1673393159.006082;47.1306422;7.240621699999999;2.6450002193450928;1673393159.0866683;28.478914260864258;2.1346988677978516;94.85882568359375
69;1673393159.2006326;47.1306422;7.2406212;2.8310000896453857;1673393159.2853725;27.804302215576172;0.6390872597694397;94.5251235961914
70;1673393159.3965626;47.1306423;7.2406206;3.0180001258850098;1673393159.4796662;27.25518798828125;-1.1146998405456543;93.82758331298828
71;1673393159.596348;47.1306424;7.2406201;3.202000141143799;1673393159.6740162;26.83669662475586;2.073624610900879;94.59308624267578
72;1673393159.7833598;47.1306424;7.2406197;3.386000156402588;1673393159.865557;26.656322479248047;1.5348223447799683;94.57785034179688
73;1673393159.9823632;47.1306424;7.2406194;3.571000099182129;1673393160.0648892;26.5942440032959;-1.1992175579071045;93.77588653564453
74;1673393160.1847732;47.1306424;7.2406193;3.758000135421753;1673393160.2753344;26.700645446777344;1.7585885524749756;94.56436920166016
75;1673393160.4084198;47.1306424;7.2406193;3.943000078201294;1673393160.4892526;27.0210018157959;1.3958399295806885;94.49159240722656
76;1673393160.6114378;47.1306424;7.2406194;4.127000331878662;1673393160.6872041;27.373743057250977;-1.4901964664459229;93.81217956542969
77;1673393160.8030987;47.1306424;7.240619499999999;4.312000274658203;1673393160.8827906;27.38550567626953;1.3969721794128418;94.49809265136719
78;1673393160.989157;47.1306424;7.2406196;4.499000072479248;1673393161.0689144;27.718320846557617;1.5218325853347778;94.71174621582031
79;1673393161.1975174;47.1306423;7.2406197;4.692000389099121;1673393161.2762904;27.906354904174805;-1.0930360555648804;93.98990631103516
80;1673393161.3922262;47.1306424;7.240619799999999;4.883000373840332;1673393161.4838667;27.98851203918457;0.9633803963661194;94.31689453125
81;1673393161.6042376;47.1306424;7.2406198999999996;5.076000213623047;1673393161.683863;27.970619201660156;2.448415756225586;94.78626251220703
82;1673393161.7966506;47.1306425;7.24062;5.269000053405762;1673393161.8734355;27.903854370117188;-0.6828588843345642;93.88201904296875
83;1673393161.993164;47.130642599999995;7.2406198999999996;5.462000370025635;1673393162.0742893;27.79104232788086;0.5548785328865051;94.2057876586914
84;1673393162.18574;47.1306425;7.2406198999999996;5.652000427246094;1673393162.2680302;27.74795150756836;2.527817487716675;94.81250762939453
85;1673393162.3878481;47.1306425;7.2406198999999996;5.8460001945495605;1673393162.4676805;27.707584381103516;-0.4097363352775574;93.99946594238281
86;1673393162.5892475;47.1306425;7.24062;6.045000076293945;1673393162.6842198;27.73686981201172;-0.17937976121902466;94.08409881591797
87;1673393162.8011513;47.130642599999995;7.24062;6.241000175476074;1673393162.8847325;27.716854095458984;2.621171236038208;94.92860412597656
88;1673393163.0005987;47.130642599999995;7.24062;6.437000274658203;1673393163.0861025;27.740856170654297;0.2106063812971115;94.28055572509766
89;1673393163.213565;47.130642599999995;7.24062;6.633000373840332;1673393163.2951126;27.75040054321289;-0.5542303323745728;93.87562561035156
90;1673393163.4187226;47.130642599999995;7.24062;6.828000545501709;1673393163.5247056;27.67141342163086;2.5917904376983643;94.7823715209961
91;1673393163.6344867;47.130642599999995;7.24062;7.023000240325928;1673393163.7028513;27.79243278503418;0.4068813920021057;94.28221130371094
92;1673393163.8115036;47.130642599999995;7.24062;7.220000267028809;1673393163.8877494;27.779638290405273;-0.6128985285758972;93.91900634765625
93;1673393163.995833;47.130642599999995;7.24062;7.4170002937316895;1673393164.0737648;27.785585403442383;2.4355273246765137;94.70767974853516
94;1673393164.2526112;47.130642599999995;7.24062;7.615000247955322;1673393164.3452084;27.73064422607422;1.3634263277053833;94.5804443359375
95;1673393164.4630911;47.130642599999995;7.24062;7.812000274658203;1673393164.5355718;27.82204246520996;-0.8570622205734253;93.80640411376953
96;1673393164.6396549;47.130642599999995;7.24062;8.010000228881836;1673393164.7169797;27.696796417236328;2.0277388095855713;94.68191528320312
97;1673393164.8228328;47.1306425;7.2406198999999996;8.208000183105469;1673393164.8975585;27.766902923583984;1.5840799808502197;94.61519622802734
98;1673393165.0027437;47.1306425;7.2406198999999996;8.407000541687012;1673393165.0806763;27.66999626159668;-1.0694392919540405;93.8686294555664
99;1673393165.2034912;47.1306425;7.2406198999999996;8.609000205993652;1673393165.275281;27.747730255126953;1.7717394828796387;94.64125061035156
100;1673393165.378305;47.1306425;7.2406198999999996;8.8100004196167;1673393165.4699044;27.706558227539062;2.07084059715271;94.75853729248047
101;1673393165.5866933;47.1306424;7.2406198999999996;9.01200008392334;1673393165.6700208;27.722991943359375;-1.05556321144104;93.877197265625
102;1673393165.7792296;47.1306424;7.2406198999999996;9.21500015258789;1673393165.8668332;27.699430465698242;1.0665372610092163;94.26988983154297
103;1673393165.9935668;47.1306424;7.2406198999999996;9.416000366210938;1673393166.0781937;27.766923904418945;2.3545844554901123;94.7483139038086
104;1673393166.2027178;47.1306424;7.240619799999999;9.618000030517578;1673393166.279676;27.75010108947754;-0.7494528293609619;94.02555847167969
105;1673393166.398254;47.1306424;7.240619799999999;9.825000762939453;1673393166.4856594;27.6407413482666;0.9104995727539062;94.31172943115234
106;1673393166.5963247;47.1306425;7.240619799999999;10.033000946044922;1673393166.6725779;27.688196182250977;2.738618850708008;94.79345703125
107;1673393166.7897248;47.1306425;7.240619799999999;10.265000343322754;1673393166.8813565;26.758996963500977;-0.04894739016890526;94.12188720703125
108;1673393166.9927855;47.1306425;7.2406194;10.609000205993652;1673393167.0743542;28.787322998046875;0.39071446657180786;94.19945526123047
109;1673393167.1881416;47.1306425;7.2406188;10.997000694274902;1673393167.273601;27.331754684448242;2.3437716960906982;94.6648178100586
110;1673393167.4041662;47.1306425;7.2406181;11.40000057220459;1673393167.4945023;26.04056167602539;0.001336035318672657;94.23497772216797
111;1673393167.6047585;47.1306425;7.240617599999999;11.814000129699707;1673393167.6853518;25.461801528930664;-0.46034207940101624;93.9620590209961
112;1673393167.8029993;47.1306425;7.2406172;12.22700023651123;1673393167.9227006;25.11628532409668;2.3954458236694336;94.7222671508789
113;1673393168.031149;47.1306425;7.2406171;12.632000923156738;1673393168.1132407;25.079641342163086;0.023052429780364037;94.21501922607422
114;1673393168.2289593;47.1306425;7.2406172;13.030000686645508;1673393168.3124657;25.350746154785156;-0.41376516222953796;94.0792236328125
115;1673393168.429231;47.130642599999995;7.2406174;13.422000885009766;1673393168.5107782;25.921863555908203;2.5282459259033203;94.68474578857422
116;1673393168.6308029;47.130642599999995;7.2406177;13.802000999450684;1673393168.7094698;26.476070404052734;0.9213423132896423;94.34220886230469
117;1673393168.8295288;47.130642699999996;7.2406181;14.178000450134277;1673393168.9096029;26.916229248046875;-0.1042344942688942;93.9370346069336
118;1673393169.0245583;47.1306428;7.2406185;14.558000564575195;1673393169.1043649;27.321428298950195;2.9401395320892334;94.73506164550781
119;1673393169.2093983;47.1306429;7.2406188;14.940000534057617;1673393169.2986248;27.49614143371582;1.5347917079925537;94.44912719726562
120;1673393169.4198716;47.1306428;7.240619;15.326001167297363;1673393169.504121;27.55765151977539;-0.4245929718017578;93.91676330566406
121;1673393169.620542;47.1306428;7.2406191;15.712000846862793;1673393169.7099595;27.48088264465332;2.1251983642578125;94.63381958007812
122;1673393169.8243787;47.1306428;7.2406191;16.093000411987305;1673393169.9084222;27.217601776123047;1.8021365404129028;94.65694427490234
123;1673393170.0169125;47.130642699999996;7.240619;16.481000900268555;1673393170.0922124;27.22998809814453;-0.5974460244178772;93.89118957519531
124;1673393170.2035275;47.130642699999996;7.240618899999999;16.869001388549805;1673393170.287225;26.794479370117188;1.6598750352859497;94.41040802001953
125;1673393170.4030724;47.130642699999996;7.2406188;17.25800132751465;1673393170.4877117;26.76108169555664;2.0716614723205566;94.63302612304688
126;1673393170.5967808;47.130642699999996;7.2406187;17.644001007080078;1673393170.680743;26.703447341918945;-0.851449728012085;93.8250961303711
127;1673393170.7906702;47.130642599999995;7.2406187;18.030000686645508;1673393170.8732572;26.66693878173828;1.1916202306747437;94.39990234375
128;1673393170.984786;47.130642599999995;7.2406187;18.415000915527344;1673393171.0668778;26.70151138305664;2.3941922187805176;94.77352142333984
129;1673393171.1856575;47.130642699999996;7.2406187;18.795000076293945;1673393171.2641528;26.72869110107422;-0.19566892087459564;94.07929229736328
130;1673393171.3791347;47.130642699999996;7.2406188;19.1820011138916;1673393171.4632018;26.759624481201172;1.0393773317337036;94.2332992553711
131;1673393171.607033;47.1306428;7.2406188;19.57200050354004;1673393171.6905937;26.760414123535156;3.0293867588043213;94.804443359375
132;1673393171.81032;47.130642699999996;7.2406188;19.961000442504883;1673393171.945077;26.84737777709961;0.0799475833773613;94.00941467285156
133;1673393172.0597184;47.130642699999996;7.2406188;20.35300064086914;1673393172.1483405;26.940950393676758;0.3534030020236969;94.06891632080078
134;1673393172.2505305;47.130642599999995;7.2406188;20.749000549316406;1673393172.348693;26.84375;2.897679090499878;94.71305084228516
135;1673393172.4672112;47.130642599999995;7.2406188;21.13800048828125;1673393172.5595937;26.860383987426758;0.5515021085739136;94.18869018554688
136;1673393172.6986752;47.130642599999995;7.2406188;21.5260009765625;1673393172.783776;26.800025939941406;-0.03573453053832054;93.9523696899414
137;1673393172.8756387;47.130642599999995;7.240618899999999;21.91400146484375;1673393172.9455662;26.886768341064453;2.7299692630767822;94.7627944946289
138;1673393173.0505981;47.1306425;7.240618899999999;22.30500030517578;1673393173.1221125;27.02804183959961;0.4090447723865509;94.33484649658203
139;1673393173.2564044;47.1306424;7.240619;22.69500160217285;1673393173.3296814;26.824371337890625;-0.3575229048728943;93.9743423461914
140;1673393173.4424243;47.1306423;7.240619;23.084001541137695;1673393173.5153987;26.99531364440918;2.4564011096954346;94.7690658569336
141;1673393173.6268592;47.1306423;7.240619;23.472002029418945;1673393173.7095187;26.84381103515625;1.0209788084030151;94.40843200683594
142;1673393173.8375316;47.1306423;7.240619;23.85500144958496;1673393173.913713;26.934097290039062;-0.553870439529419;93.90946197509766
143;1673393174.018702;47.1306424;7.2406191;24.244001388549805;1673393174.0955727;26.83898162841797;2.261784315109253;94.5921859741211
144;1673393174.2026303;47.1306424;7.2406191;24.63300132751465;1673393174.2832074;26.978485107421875;1.6269330978393555;94.69300079345703
145;1673393174.3979647;47.1306423;7.240619199999999;25.027000427246094;1673393174.4758353;26.98637580871582;-0.6065170168876648;93.97227478027344
146;1673393174.5974514;47.1306423;7.240619199999999;25.422000885009766;1673393174.7283576;26.964746475219727;1.8730003833770752;94.54596710205078
147;1673393174.8426878;47.1306423;7.240619199999999;25.817001342773438;1673393174.9135156;26.9175968170166;2.2041711807250977;94.66441345214844
148;1673393175.0060449;47.1306424;7.240619199999999;26.205001831054688;1673393175.0758748;26.922372817993164;-0.4693601131439209;93.87681579589844
149;1673393175.19453;47.1306425;7.240619199999999;26.597002029418945;1673393175.2742372;26.904268264770508;1.6302785873413086;94.32682800292969
150;1673393175.3942451;47.1306425;7.240619199999999;26.99100112915039;1673393175.4806848;26.916336059570312;2.501591444015503;94.67340087890625
151;1673393175.620212;47.1306425;7.240619199999999;27.387001037597656;1673393175.6925862;26.941797256469727;-0.38192230463027954;93.99220275878906
152;1673393175.8015068;47.1306425;7.240619199999999;27.78700065612793;1673393175.876326;26.884567260742188;1.0971580743789673;94.2774887084961
153;1673393175.992059;47.1306425;7.2406193;28.18800163269043;1673393176.0784912;26.84600830078125;2.693272352218628;94.75953674316406
154;1673393176.1979764;47.1306425;7.2406193;28.586000442504883;1673393176.2752006;26.888591766357422;0.05816253274679184;94.13337707519531
155;1673393176.399598;47.1306425;7.240619199999999;28.97500228881836;1673393176.4859324;26.796220779418945;0.4801124334335327;94.18907165527344
156;1673393176.6087554;47.1306425;7.2406193;29.369001388549805;1673393176.7039833;26.860328674316406;2.6551995277404785;94.79735565185547
157;1673393176.8122985;47.1306425;7.2406193;29.768001556396484;1673393176.8885808;26.875675201416016;0.4224754869937897;94.23262023925781
158;1673393177.0012105;47.1306425;7.2406193;30.167001724243164;1673393177.0877187;26.90941619873047;0.020033525303006172;94.15548706054688
159;1673393177.209357;47.1306425;7.2406194;30.566001892089844;1673393177.2969851;26.873870849609375;2.8555727005004883;94.8282699584961
160;1673393177.4216547;47.130642599999995;7.2406194;30.966001510620117;1673393177.5069723;26.839969635009766;1.635465383529663;94.56909942626953
161;1673393177.626806;47.130642599999995;7.2406194;31.35700225830078;1673393177.7036588;26.890605926513672;-0.260071724653244;93.99800872802734
162;1673393177.8184576;47.130642699999996;7.2406194;31.74700164794922;1673393177.9038966;26.852481842041016;2.338028907775879;94.55618286132812
163;1673393178.01973;47.130642599999995;7.2406194;32.14200210571289;1673393178.0973856;26.875490188598633;2.084954261779785;94.622802734375
164;1673393178.2072597;47.130642599999995;7.2406194;32.540000915527344;1673393178.330351;26.847522735595703;-0.23125332593917847;93.93363952636719
165;1673393178.4589202;47.130642599999995;7.2406194;32.93600082397461;1673393178.5344422;26.899080276489258;1.7092429399490356;94.38427734375
166;1673393178.648737;47.130642699999996;7.2406194;33.33300018310547;1673393178.7565958;26.86650276184082;2.6935911178588867;94.6333236694336
167;1673393178.8789122;47.130642699999996;7.2406194;33.73200225830078;1673393178.969435;26.927600860595703;-0.09766055643558502;93.97420501708984
168;1673393179.059083;47.130642699999996;7.2406194;34.12200164794922;1673393179.122564;26.826522827148438;1.3435040712356567;94.31258392333984
169;1673393179.2265747;47.130642599999995;7.2406194;34.51900100708008;1673393179.3110905;26.821653366088867;2.6714441776275635;94.83707427978516
170;1673393179.4241817;47.1306425;7.2406194;34.91800308227539;1673393179.5106492;26.929563522338867;0.09756648540496826;94.13639068603516
171;1673393179.6294062;47.1306425;7.2406194;35.31700134277344;1673393179.7072747;26.89372444152832;0.7667253017425537;94.1729507446289
172;1673393179.824107;47.130642599999995;7.2406194;35.717002868652344;1673393179.8940067;26.931093215942383;2.7342021465301514;94.661865234375
173;1673393180.002937;47.130642599999995;7.2406194;36.11800003051758;1673393180.091346;26.893035888671875;0.3258276879787445;94.10209655761719
174;1673393180.220874;47.130642599999995;7.2406194;36.509002685546875;1673393180.2977808;26.92333221435547;0.2817939817905426;94.08708953857422
175;1673393180.406787;47.130642599999995;7.2406194;36.90400314331055;1673393180.4815981;26.81632423400879;2.941810131072998;94.84129333496094
176;1673393180.603339;47.130642599999995;7.2406194;37.302001953125;1673393180.6904895;26.93153190612793;0.6647912263870239;94.29882049560547
177;1673393180.80095;47.130642599999995;7.2406194;37.69900131225586;1673393180.8796508;26.780498504638672;0.0017549071926623583;94.01006317138672
178;1673393180.995144;47.130642599999995;7.2406194;38.09600067138672;1673393181.079652;26.802597045898438;2.8416972160339355;94.72886657714844
179;1673393181.1934147;47.130642699999996;7.2406194;38.49300003051758;1673393181.2799835;26.79813575744629;1.25233793258667;94.34175109863281
180;1673393181.394619;47.130642699999996;7.2406193;38.89200210571289;1673393181.4781952;26.834436416625977;-0.1675870269536972;93.8771743774414
181;1673393181.600054;47.130642599999995;7.2406193;39.28300094604492;1673393181.6821702;26.635929107666016;2.782747507095337;94.74053192138672
182;1673393181.8000226;47.130642599999995;7.2406193;39.67900085449219;1673393181.8855689;26.83428382873535;1.1865458488464355;94.40678405761719
183;1673393182.005233;47.130642599999995;7.2406193;40.077003479003906;1673393182.0976522;26.659507751464844;-0.30565282702445984;93.9465560913086
184;1673393182.215391;47.130642599999995;7.2406193;40.47500228881836;1673393182.296462;26.75688934326172;2.380343437194824;94.62339782714844
185;1673393182.411234;47.130642699999996;7.2406193;40.871002197265625;1673393182.495943;26.71544647216797;1.9410935640335083;94.54651641845703
186;1673393182.6325052;47.130642699999996;7.2406193;41.2660026550293;1673393182.7383626;26.75933265686035;-0.12485641241073608;93.8890151977539
187;1673393182.852761;47.130642699999996;7.2406194;41.652000427246094;1673393182.9295588;26.76467514038086;1.9060453176498413;94.3959732055664
188;1673393183.0364077;47.130642699999996;7.2406194;42.04300308227539;1673393183.1133509;26.82395362854004;2.2653963565826416;94.58161926269531
189;1673393183.2158723;47.130642599999995;7.2406194;42.439002990722656;1673393183.2935314;26.823095321655273;-0.3366669714450836;93.92074584960938
190;1673393183.4022334;47.130642699999996;7.2406194;42.8390007019043;1673393183.4857678;26.891382217407227;1.8097686767578125;94.4417724609375
191;1673393183.6034205;47.130642699999996;7.2406194;43.24100112915039;1673393183.6918473;26.811830520629883;2.7175562381744385;94.74275970458984
192;1673393183.8091404;47.130642699999996;7.240619499999999;43.63900375366211;1673393183.8898304;26.850637435913086;0.4029717743396759;94.11497497558594
193;1673393184.0094595;47.130642699999996;7.240619499999999;44.035003662109375;1673393184.0929594;26.904382705688477;0.8179123401641846;94.20111846923828
194;1673393184.2156637;47.130642699999996;7.240619499999999;44.422000885009766;1673393184.2923794;26.879230499267578;2.920886278152466;94.78369903564453
195;1673393184.4016588;47.130642699999996;7.240619499999999;44.810001373291016;1673393184.4828513;26.816190719604492;0.5715650916099548;94.22058868408203
196;1673393184.6133046;47.130642699999996;7.240619499999999;45.2030029296875;1673393184.6979644;26.799997329711914;0.11799411475658417;94.01121520996094
197;1673393184.823481;47.130642699999996;7.240619499999999;45.60100173950195;1673393184.9021637;26.7701473236084;3.1372578144073486;94.7323226928711
198;1673393185.016948;47.1306428;7.240619499999999;46.000003814697266;1673393185.0916789;26.820518493652344;1.3391677141189575;94.33662414550781
199;1673393185.2107344;47.1306428;7.240619499999999;46.39900207519531;1673393185.292913;26.785449981689453;0.09285446256399155;93.92897033691406
200;1673393185.4146266;47.1306428;7.240619499999999;46.788002014160156;1673393185.4962137;26.79110336303711;2.313066005706787;94.52884674072266
201;1673393185.6445758;47.130642699999996;7.2406196;47.18000411987305;1673393185.7267213;26.9754695892334;2.300145387649536;94.6085433959961
202;1673393185.8470752;47.130642699999996;7.2406196;47.5780029296875;1673393185.9313626;26.877361297607422;-0.20201800763607025;93.9447021484375
203;1673393186.0393074;47.130642699999996;7.2406196;47.97600173950195;1673393186.155382;26.848848342895508;2.858196973800659;94.68907165527344
204;1673393186.3045092;47.130642699999996;7.2406197;48.34600067138672;1673393186.3798254;27.045812606811523;2.2221481800079346;94.46624755859375
205;1673393186.4761708;47.130642699999996;7.240619799999999;48.665000915527344;1673393186.544153;27.073537826538086;-0.13092975318431854;94.00929260253906
206;1673393186.6429756;47.130642599999995;7.2406201;48.93800354003906;1673393186.720186;27.378040313720703;2.156223773956299;94.61725616455078
207;1673393186.828304;47.130642599999995;7.2406206;49.15900421142578;1673393186.9069216;27.76481056213379;2.788412094116211;94.80411529541016
208;1673393187.0218651;47.130642599999995;7.240621;49.345001220703125;1673393187.0986054;31.958477020263672;6.327701091766357;97.16463470458984
209;1673393187.2233462;47.1306424;7.2406212;49.5150032043457;1673393187.2922308;40.382755279541016;28.640268325805664;109.4390869140625
210;1673393187.4069033;47.130641499999996;7.2406201;49.6670036315918;1673393187.4954047;41.224822998046875;45.99830627441406;120.01920318603516
211;1673393187.6190217;47.1306388;7.2406166999999995;49.798004150390625;1673393187.7025313;36.903526306152344;56.773738861083984;126.15528106689453
212;1673393187.811555;47.1306339;7.2406106999999995;49.880001068115234;1673393187.8854172;20.384180068969727;52.14693069458008;132.76394653320312
213;1673393188.0022259;47.1306272;7.2406029;49.8900032043457;1673393188.0915906;4.734622478485107;42.73545837402344;148.8210906982422
214;1673393188.2074063;47.130619599999996;7.240594799999999;49.89400100708008;1673393188.2905886;-9.711758613586426;41.23027038574219;160.85107421875
215;1673393188.4102128;47.1306113;7.2405868;49.90800094604492;1673393188.498596;-23.677738189697266;42.12413024902344;170.32144165039062
216;1673393188.6507635;47.1306023;7.2405786999999995;49.92100143432617;1673393188.7254796;-34.210227966308594;39.04102325439453;-178.70187377929688
217;1673393188.845824;47.1305924;7.240570099999999;49.94400405883789;1673393188.9219987;-45.462852478027344;37.171287536621094;-168.05528259277344
218;1673393189.0250454;47.1305816;7.240560599999999;49.965003967285156;1673393189.1007903;-52.66456604003906;34.280452728271484;-155.56236267089844
219;1673393189.2151074;47.1305701;7.2405496;49.96000289916992;1673393189.29343;-49.986785888671875;25.622167587280273;-146.13002014160156
220;1673393189.4056349;47.1305583;7.240537499999999;49.90700149536133;1673393189.4857106;-43.275611877441406;19.27859115600586;-141.4727783203125
221;1673393189.6034548;47.1305465;7.2405249;49.85100173950195;1673393189.6860101;-44.334686279296875;15.836991310119629;-136.42115783691406
222;1673393189.8026054;47.1305347;7.2405121999999995;49.81500244140625;1673393189.886198;-47.787227630615234;12.295916557312012;-128.90245056152344
223;1673393190.00581;47.1305231;7.2404991;49.79300308227539;1673393190.0895438;-47.52206802368164;7.64182710647583;-126.77783966064453
224;1673393190.2113936;47.1305115;7.2404858999999995;49.75700378417969;1673393190.2977033;-42.803714752197266;7.395748138427734;-130.8766326904297
225;1673393190.4180954;47.1304999;7.2404728;49.720001220703125;1673393190.5006268;-42.81269073486328;8.812189102172852;-133.28692626953125
226;1673393190.618882;47.1304881;7.2404603;49.69400405883789;1673393190.6971686;-45.87918472290039;10.42021656036377;-133.88333129882812
227;1673393190.8339384;47.1304763;7.2404478999999995;49.68700408935547;1673393190.92284;-47.78538513183594;14.183579444885254;-131.79946899414062
228;1673393191.0221248;47.130464599999996;7.2404353;49.695003509521484;1673393191.0971348;-48.09747314453125;10.575113296508789;-121.15232849121094
229;1673393191.2071497;47.1304532;7.2404221;49.70600128173828;1673393191.285978;-45.4937858581543;3.505403995513916;-110.69976806640625
230;1673393191.4135365;47.1304423;7.240408599999999;49.7140007019043;1673393191.4882455;-43.1778564453125;-2.8731625080108643;-101.69585418701172
231;1673393191.5951698;47.1304318;7.2403951;49.720001220703125;1673393191.6848488;-40.8081169128418;-8.840625762939453;-92.93082427978516
232;1673393191.8195412;47.1304218;7.2403818;49.72500228881836;1673393191.908486;-37.239830017089844;-13.538365364074707;-83.92483520507812
233;1673393192.0303357;47.130412199999995;7.2403689;49.71900177001953;1673393192.1120663;-33.64524459838867;-17.076807022094727;-74.626953125
234;1673393192.2347817;47.130403199999996;7.2403565;49.71200180053711;1673393192.3102922;-30.95977020263672;-20.630800247192383;-64.56358337402344
235;1673393192.4120781;47.1303948;7.2403445;49.7130012512207;1673393192.4882545;-30.213462829589844;-25.745323181152344;-54.3140983581543
236;1673393192.6341364;47.130387;7.2403328;49.74700164794922;1673393192.7290952;-29.2598876953125;-35.01020050048828;-43.8426513671875
237;1673393192.8441079;47.1303799;7.2403208999999995;49.81500244140625;1673393192.9232879;-28.81075096130371;-44.74812698364258;-35.79151916503906
238;1673393193.0305417;47.1303732;7.240308;49.89200210571289;1673393193.1020308;-28.048175811767578;-45.030738830566406;-38.27197265625
239;1673393193.2217188;47.1303665;7.240294;49.952003479003906;1673393193.3075154;-34.86151123046875;-37.85173797607422;-43.42390441894531
240;1673393193.4193642;47.130359999999996;7.2402793;50.02800369262695;1673393193.4970365;-36.858177185058594;-23.882375717163086;-54.035369873046875
241;1673393193.6078725;47.1303542;7.2402643;50.108001708984375;1673393193.6847458;-35.375328063964844;-2.983778238296509;-68.03524780273438
242;1673393193.8054373;47.1303493;7.2402501;50.177001953125;1673393193.8909936;-34.2231330871582;4.998321056365967;-75.84825897216797
243;1673393194.0113056;47.1303456;7.240237;50.23100280761719;1673393194.0990222;-25.007644653320312;3.852285861968994;-84.1913070678711
244;1673393194.2179186;47.130342899999995;7.2402253;50.27100372314453;1673393194.2994673;-32.21845245361328;-11.391522407531738;-93.46544647216797
245;1673393194.4163067;47.1303402;7.2402147999999995;50.30800247192383;1673393194.5038855;-50.571266174316406;-27.22658920288086;-100.56922149658203
246;1673393194.6218834;47.1303358;7.2402047;50.30500411987305;1673393194.708486;-53.88615417480469;-20.698139190673828;-116.59941101074219
247;1673393194.8196936;47.130328999999996;7.2401949;50.2760009765625;1673393194.8950627;-46.89850997924805;-15.240888595581055;-126.0346908569336
248;1673393195.0157182;47.1303202;7.2401861;50.23400115966797;1673393195.0944326;-41.20257568359375;-8.291500091552734;-132.82508850097656
249;1673393195.204309;47.130310099999996;7.240178599999999;50.20500183105469;1673393195.2860997;-44.774879455566406;3.1160688400268555;-140.08741760253906
250;1673393195.417838;47.1302988;7.240171999999999;50.20000076293945;1673393195.4981298;-51.56048583984375;13.846957206726074;-143.70455932617188
251;1673393195.6072068;47.1302865;7.2401649;50.2130012512207;1673393195.6907744;-53.58906936645508;19.854650497436523;-140.01280212402344
252;1673393195.804642;47.1302738;7.2401561;50.211002349853516;1673393195.8874505;-52.95829772949219;19.498403549194336;-137.28880310058594
253;1673393196.0041296;47.1302611;7.2401458;50.189002990722656;1673393196.0868354;-48.50230026245117;14.03209114074707;-134.35092163085938
254;1673393196.2062907;47.1302483;7.2401345;50.165000915527344;1673393196.2946672;-47.73625183105469;15.586555480957031;-133.87327575683594
255;1673393196.408818;47.1302357;7.2401225;50.1400032043457;1673393196.498399;-46.987144470214844;13.724357604980469;-125.302490234375
256;1673393196.646155;47.1302236;7.2401098;50.10000228881836;1673393196.762336;-43.11737823486328;6.298177719116211;-113.8421401977539
257;1673393196.8664882;47.1302121;7.2400968;50.05900192260742;1673393196.9412987;-42.57279586791992;0.6900627613067627;-105.39107513427734
258;1673393197.084947;47.130201299999996;7.2400838;50.022003173828125;1673393197.156197;-40.928585052490234;-5.3914337158203125;-96.29264068603516
259;1673393197.2680948;47.1301912;7.2400708;49.9900016784668;1673393197.348662;-40.27342224121094;-11.626254081726074;-87.38641357421875
260;1673393197.47151;47.1301816;7.2400579;49.961002349853516;1673393197.5452523;-37.00469207763672;-17.452302932739258;-78.01387023925781
261;1673393197.6663628;47.130172599999995;7.240045299999999;49.941001892089844;1673393197.7535646;-33.167015075683594;-22.05784034729004;-68.55390167236328
262;1673393197.8725598;47.1301639;7.2400329999999995;49.92900085449219;1673393197.9459884;-29.53741455078125;-27.24237823486328;-58.21084976196289
263;1673393198.0516725;47.130155599999995;7.240021;49.927001953125;1673393198.1333802;-26.630094528198242;-35.26158905029297;-47.36909866333008
264;1673393198.270596;47.130147699999995;7.240009;49.94600296020508;1673393198.345384;-22.465192794799805;-43.28074645996094;-37.780208587646484
265;1673393198.4565473;47.13014;7.2399964;49.987003326416016;1673393198.5221057;-18.985628128051758;-47.41840744018555;-36.37084197998047
266;1673393198.6408088;47.1301323;7.2399831;50.02700424194336;1673393198.7167428;-16.96489906311035;-48.72024917602539;-40.49745178222656
267;1673393198.8343182;47.130124099999996;7.2399692;50.06200408935547;1673393198.9130733;-17.76865005493164;-47.12677001953125;-45.51008605957031
268;1673393199.0246873;47.1301152;7.2399550999999995;50.095001220703125;1673393199.09812;-21.368988037109375;-51.12647247314453;-47.924522399902344
269;1673393199.2262118;47.1301055;7.2399406;50.108001708984375;1673393199.3209856;-24.344148635864258;-46.49919509887695;-50.248741149902344
270;1673393199.4388158;47.1300951;7.239925899999999;50.082000732421875;1673393199.5401084;-22.813495635986328;-33.81951904296875;-49.6893424987793
271;1673393199.6432867;47.1300848;7.2399115;50.044002532958984;1673393199.730872;-33.422027587890625;-27.079345703125;-45.29220962524414
272;1673393199.8561141;47.1300755;7.2398973;50.044002532958984;1673393199.9254694;-33.73808670043945;1.26435387134552;-44.91574478149414
273;1673393200.0432065;47.1300683;7.2398845;50.07600402832031;1673393200.122498;-41.231300354003906;24.306991577148438;-45.504119873046875
274;1673393200.2531605;47.130064;7.2398747;50.077003479003906;1673393200.3215208;-34.680057525634766;24.97478675842285;-45.288272857666016
275;1673393200.438411;47.1300625;7.2398679999999995;50.00800323486328;1673393200.519962;-12.282444953918457;16.012453079223633;-55.58342742919922
276;1673393200.634486;47.1300628;7.2398644999999995;49.970001220703125;1673393200.716137;-7.628017902374268;27.475383758544922;-76.1419906616211
277;1673393200.8330393;47.130064999999995;7.2398643;50.00200271606445;1673393200.907891;-4.886373043060303;25.634214401245117;-85.07463073730469
278;1673393201.0168262;47.1300688;7.2398665;50.040000915527344;1673393201.096603;-10.46041488647461;18.180173873901367;-97.78799438476562
279;1673393201.2119524;47.130073499999995;7.2398703;50.07500076293945;1673393201.2958221;-17.7146053314209;14.337909698486328;-107.50870513916016
280;1673393201.4221568;47.130078399999995;7.239874599999999;50.10600280761719;1673393201.5046334;-23.08387565612793;16.514163970947266;-117.22325134277344
281;1673393201.631215;47.130083;7.2398788;50.13600158691406;1673393201.7321398;-26.665714263916016;20.756608963012695;-126.6149673461914
282;1673393201.8713303;47.1300872;7.239882499999999;50.160003662109375;1673393201.947636;-27.93191146850586;26.18202018737793;-135.39210510253906
283;1673393202.0615416;47.130091;7.2398850999999995;50.177001953125;1673393202.1425943;-23.825260162353516;29.55787467956543;-142.5116729736328
284;1673393202.2539954;47.1300945;7.2398864;50.18400192260742;1673393202.3325582;-23.771644592285156;31.183504104614258;-141.8795623779297
285;1673393202.437584;47.1300977;7.2398865;50.18700408935547;1673393202.5171068;-26.738052368164062;29.348989486694336;-138.3232879638672
286;1673393202.6377702;47.1301007;7.2398855;50.189002990722656;1673393202.7288125;-29.284061431884766;27.117902755737305;-137.3122100830078
287;1673393202.8399127;47.130103399999996;7.2398834999999995;50.18800354003906;1673393202.9231553;-32.54579162597656;24.324792861938477;-137.38037109375
288;1673393203.0448854;47.1301054;7.2398807;50.185001373291016;1673393203.1279383;-36.653289794921875;19.934799194335938;-137.63900756835938
289;1673393203.244653;47.1301065;7.239877099999999;50.18000411987305;1673393203.328427;-41.57207107543945;13.47087287902832;-137.4381866455078
290;1673393203.4472723;47.1301063;7.2398728;50.17100143432617;1673393203.533803;-46.749961853027344;7.11493444442749;-136.93646240234375
291;1673393203.653641;47.130104499999995;7.239867899999999;50.165000915527344;1673393203.7333565;-45.698116302490234;7.587470531463623;-136.45632934570312
292;1673393203.853889;47.1301008;7.2398625;50.15700149536133;1673393203.924728;-54.96199417114258;3.6101107597351074;-134.91275024414062
293;1673393204.034682;47.1300953;7.239856199999999;50.15300369262695;1673393204.1153395;-60.11758041381836;5.612697124481201;-134.76388549804688
294;1673393204.2380896;47.1300877;7.2398487;50.12800216674805;1673393204.315785;-55.637359619140625;6.442171573638916;-134.2884521484375
295;1673393204.4286208;47.1300783;7.23984;50.082000732421875;1673393204.5070488;-47.96785354614258;7.575441837310791;-134.85069274902344
296;1673393204.6366377;47.1300679;7.2398305999999994;50.03700256347656;1673393204.7233431;-50.257530212402344;8.647266387939453;-134.9441375732422
297;1673393204.830009;47.1300567;7.2398207999999995;50.00200271606445;1673393204.923333;-49.9845085144043;9.188091278076172;-135.11241149902344
298;1673393205.0294046;47.130044999999996;7.239810299999999;49.97900390625;1673393205.1060822;-50.3370361328125;9.266376495361328;-135.13900756835938
299;1673393205.2240422;47.1300327;7.2397993;49.94700241088867;1673393205.3004632;-47.52604675292969;10.162250518798828;-135.1203155517578
300;1673393205.4179566;47.1300199;7.239787799999999;49.923004150390625;1673393205.4984436;-47.63787841796875;11.53205394744873;-134.97068786621094
301;1673393205.6103628;47.130007;7.2397759;49.90400314331055;1673393205.6896067;-48.52516555786133;11.618877410888672;-134.516845703125
302;1673393205.8030827;47.129993899999995;7.2397636;49.88900375366211;1673393205.8835397;-47.718875885009766;11.328086853027344;-133.93890380859375
303;1673393205.9974127;47.1299807;7.2397509;49.874000549316406;1673393206.086358;-47.63512420654297;11.393952369689941;-133.75723266601562
304;1673393206.2489128;47.129967699999995;7.239738;49.8640022277832;1673393206.3248615;-47.28828811645508;11.585877418518066;-133.676513671875
305;1673393206.428722;47.1299547;7.239724799999999;49.86100387573242;1673393206.5093164;-46.55207443237305;12.007463455200195;-133.41513061523438
306;1673393206.6316571;47.1299418;7.2397113;49.86300277709961;1673393206.7171946;-47.27048873901367;12.902788162231445;-133.3876190185547
307;1673393206.8306644;47.129928899999996;7.2396975999999995;49.86600112915039;1673393206.9078043;-46.86223220825195;15.619872093200684;-130.052490234375
308;1673393207.019962;47.1299163;7.2396834;49.85600280761719;1673393207.1069553;-43.89160919189453;9.159177780151367;-118.17540740966797
309;1673393207.2247424;47.1299044;7.239668999999999;49.83700180053711;1673393207.2969854;-42.0501708984375;2.9485108852386475;-109.00560760498047
310;1673393207.4015265;47.1298933;7.2396547;49.81700134277344;1673393207.4786298;-40.532737731933594;-2.905850410461426;-100.09576416015625
311;1673393207.5904663;47.1298829;7.2396407;49.80000305175781;1673393207.6848655;-39.742244720458984;-8.554682731628418;-91.30608367919922
312;1673393207.8138924;47.1298731;7.239627;49.785003662109375;1673393207.9093044;-37.455055236816406;-14.138690948486328;-82.05039978027344
313;1673393208.0210588;47.1298639;7.2396137;49.77400207519531;1673393208.1124406;-34.35676956176758;-20.062946319580078;-72.56199645996094
314;1673393208.2401032;47.1298551;7.2396006999999996;49.77100372314453;1673393208.320691;-31.36091423034668;-26.246112823486328;-62.64250183105469
315;1673393208.4492605;47.129846799999996;7.2395881;49.78000259399414;1673393208.5220306;-27.63312339782715;-33.39544677734375;-52.46635437011719
316;1673393208.6584837;47.1298387;7.239575599999999;49.79600143432617;1673393208.7556515;-22.157352447509766;-38.83961486816406;-41.95851135253906
317;1673393208.8677723;47.129830899999995;7.2395629999999995;49.83100128173828;1673393208.932988;-20.45208740234375;-44.236907958984375;-34.06475830078125
318;1673393209.0328157;47.1298234;7.2395499;49.871002197265625;1673393209.1083941;-19.560731887817383;-41.343414306640625;-38.10453796386719
319;1673393209.2299623;47.129815799999996;7.2395366;49.9160041809082;1673393209.3175461;-18.30474281311035;-26.37738800048828;-48.7254753112793
320;1673393209.4413826;47.129808499999996;7.2395239;49.9640007019043;1673393209.5151806;-15.118914604187012;-5.309325695037842;-62.76319885253906
321;1673393209.6290958;47.1298019;7.239513199999999;49.999000549316406;1673393209.7096999;-10.55975341796875;3.3580124378204346;-72.74083709716797
322;1673393209.837815;47.1297962;7.2395052;50.0260009765625;1673393209.9130907;-12.826298713684082;-1.6806919574737549;-83.02912139892578
323;1673393210.0310442;47.1297913;7.239499599999999;50.05400085449219;1673393210.1077242;-26.25079917907715;-14.054482460021973;-91.35094451904297
324;1673393210.2382438;47.129786499999994;7.2394953;50.086002349853516;1673393210.3178332;-47.212745666503906;-12.844152450561523;-100.5154800415039
325;1673393210.4306686;47.1297809;7.239490699999999;50.124000549316406;1673393210.515321;-61.203765869140625;-13.331873893737793;-109.14280700683594
326;1673393210.6396775;47.129773799999995;7.2394843;50.14600372314453;1673393210.7174294;-58.488067626953125;-5.848842620849609;-112.57492065429688
327;1673393210.8313332;47.1297652;7.2394758999999995;50.124000549316406;1673393210.92256;-46.64607620239258;-4.322585582733154;-98.91988372802734
328;1673393211.0364623;47.1297565;7.2394662;50.073001861572266;1673393211.114215;-40.40375518798828;-9.235538482666016;-84.75289916992188
329;1673393211.231982;47.129748199999995;7.2394561;50.03300094604492;1673393211.3185194;-44.31853485107422;-12.924741744995117;-75.45599365234375
330;1673393211.4305744;47.1297408;7.2394452;50.0150032043457;1673393211.511349;-42.629398345947266;-19.97341537475586;-65.59090423583984
331;1673393211.6368554;47.1297341;7.2394335;50.009002685546875;1673393211.7201664;-40.45661926269531;-27.601909637451172;-55.93028259277344
332;1673393211.8336205;47.129728;7.2394210999999995;50.00400161743164;1673393211.9156642;-34.61532974243164;-31.39573860168457;-46.670982360839844
333;1673393212.026499;47.1297225;7.239408;50.00800323486328;1673393212.1140633;-34.926666259765625;-38.88084411621094;-39.655513763427734
334;1673393212.263698;47.1297176;7.2393943;50.009002685546875;1673393212.3311856;-32.022064208984375;-34.25880432128906;-52.83344650268555
335;1673393212.4469848;47.1297126;7.2393801;50.009002685546875;1673393212.5259492;-39.64521026611328;-32.572021484375;-69.51264953613281
336;1673393212.6467407;47.1297072;7.2393654;50.02700424194336;1673393212.7299542;-49.435611724853516;-25.65196990966797;-84.57975769042969
337;1673393212.8584168;47.1297007;7.2393502;50.03600311279297;1673393212.9353518;-48.40885925292969;-19.375377655029297;-94.17021179199219
338;1673393213.0441198;47.1296932;7.239334599999999;50.04300308227539;1673393213.176391;-47.37864685058594;-17.084871292114258;-100.16524505615234
339;1673393213.2818606;47.1296849;7.2393192;50.03900146484375;1673393213.3512306;-45.62596893310547;-13.542716979980469;-107.56201934814453
340;1673393213.4573646;47.1296757;7.2393041;50.0260009765625;1673393213.553554;-43.14411163330078;-10.611684799194336;-116.32463073730469
341;1673393213.6636279;47.1296657;7.2392898;50.00800323486328;1673393213.745845;-42.69073486328125;-6.249234199523926;-125.33328247070312
342;1673393213.8715699;47.1296549;7.2392767;49.9900016784668;1673393214.000412;-41.24593734741211;-0.8840671181678772;-134.2440185546875
343;1673393214.0980983;47.1296434;7.2392648;49.97500228881836;1673393214.169902;-43.99862289428711;5.811486721038818;-140.984130859375
344;1673393214.2849479;47.1296313;7.2392539;49.97500228881836;1673393214.3540726;-47.3510627746582;13.053863525390625;-140.4553680419922
345;1673393214.4467928;47.129618699999995;7.2392429;50.00200271606445;1673393214.5204031;-51.56424331665039;16.12297821044922;-136.92898559570312
346;1673393214.645854;47.1296058;7.2392311;50.02700424194336;1673393214.732453;-50.46827697753906;15.947031021118164;-134.69244384765625
347;1673393214.859193;47.1295929;7.2392183999999995;50.040000915527344;1673393214.9504073;-47.895782470703125;13.98334789276123;-133.0243682861328
348;1673393215.0627742;47.1295802;7.2392050999999995;50.04600143432617;1673393215.1326194;-48.35964584350586;12.300728797912598;-132.4810028076172
349;1673393215.2405505;47.129567599999994;7.2391913;50.04600143432617;1673393215.3252828;-48.2596549987793;10.99603271484375;-131.95477294921875
350;1673393215.4372678;47.1295551;7.2391773;50.04300308227539;1673393215.521852;-47.8263053894043;11.092662811279297;-131.868896484375
351;1673393215.632793;47.1295426;7.239163;50.040000915527344;1673393215.711981;-47.54686737060547;11.471945762634277;-131.84896850585938
352;1673393215.8290305;47.1295301;7.2391486;50.03200149536133;1673393215.9115503;-46.57103729248047;15.479290962219238;-131.3905029296875
353;1673393216.027056;47.129517799999995;7.2391339;50.02100372314453;1673393216.101881;-43.56460952758789;11.25754451751709;-120.93840789794922
354;1673393216.217827;47.1295061;7.2391191;50.00300216674805;1673393216.306844;-42.272125244140625;4.800600528717041;-110.947998046875
355;1673393216.4300992;47.1294951;7.239104299999999;49.98600387573242;1673393216.5131052;-42.082252502441406;-1.3734102249145508;-102.03715515136719
356;1673393216.6365306;47.1294848;7.2390897999999995;49.96800231933594;1673393216.720083;-41.88356018066406;-7.217184066772461;-93.29418182373047
357;1673393216.843035;47.129475199999995;7.239075499999999;49.95100402832031;1673393216.9225;-38.33627700805664;-13.03030014038086;-84.03520202636719
358;1673393217.0332162;47.129466;7.2390614;49.939002990722656;1673393217.109723;-34.87297821044922;-18.630836486816406;-74.67638397216797
359;1673393217.2113492;47.1294574;7.2390478;49.93100357055664;1673393217.29574;-31.447982788085938;-24.861007690429688;-64.86735534667969
360;1673393217.417016;47.129449099999995;7.2390346;49.93300247192383;1673393217.4991803;-32.686134338378906;-33.11845397949219;-59.16619110107422
361;1673393217.6090121;47.129441;7.2390215;49.945003509521484;1673393217.689643;-34.35559844970703;-34.07206726074219;-72.9819107055664
362;1673393217.8134582;47.1294325;7.2390083999999995;49.97200393676758;1673393217.8972042;-44.59893035888672;-35.29150390625;-89.28024291992188
363;1673393218.0082269;47.1294226;7.2389955;49.99100112915039;1673393218.0868855;-45.10989761352539;-20.96479034423828;-104.68940734863281
364;1673393218.2029276;47.129411399999995;7.2389831;50.009002685546875;1673393218.283504;-46.31986618041992;-18.320133209228516;-110.58049011230469
365;1673393218.4036014;47.129399299999996;7.2389712;50.02400207519531;1673393218.4851015;-48.466739654541016;-8.652968406677246;-115.478271484375
366;1673393218.6082716;47.129386499999995;7.238959599999999;50.02000427246094;1673393218.7016885;-40.521202087402344;-6.696728229522705;-104.31825256347656
367;1673393218.8360791;47.129373799999996;7.238948199999999;49.98100280761719;1673393218.914167;-29.88715362548828;-7.621541500091553;-88.59042358398438
368;1673393219.033108;47.1293618;7.2389375;49.935001373291016;1673393219.107437;-30.334213256835938;-9.483434677124023;-76.53604888916016
369;1673393219.2196882;47.129351;7.2389275;49.9160041809082;1673393219.335322;-40.72099304199219;-14.209319114685059;-66.75672912597656
370;1673393219.4533079;47.129341499999995;7.2389174999999994;49.92400360107422;1673393219.534426;-43.475650787353516;-11.456673622131348;-56.13185501098633
371;1673393219.645629;47.1293341;7.238906999999999;49.96600341796875;1673393219.7210984;-42.346961975097656;-4.787133693695068;-44.752994537353516
372;1673393219.8432236;47.1293291;7.2388968;50.01900100708008;1673393219.9303498;-46.165489196777344;-4.26485538482666;-37.416378021240234
373;1673393220.0443816;47.129326899999995;7.2388875;50.06800079345703;1673393220.117772;-40.21910095214844;-5.091664791107178;-39.31779861450195
374;1673393220.24977;47.129326999999996;7.2388789;50.11100387573242;1673393220.341068;-33.6895866394043;-2.918390989303589;-45.408935546875
375;1673393220.4751978;47.1293286;7.2388714;50.150001525878906;1673393220.5511265;-30.655956268310547;-4.610233783721924;-46.62944793701172
376;1673393220.6689932;47.129331199999996;7.238865;50.17500305175781;1673393220.7507083;-29.151092529296875;-3.9085021018981934;-52.89881134033203
377;1673393220.8632164;47.1293345;7.238859499999999;50.195003509521484;1673393220.9422092;-30.272661209106445;0.07117383927106857;-65.23161315917969
378;1673393221.0581903;47.1293382;7.2388547999999995;50.21200180053711;1673393221.1310058;-32.985042572021484;3.272925615310669;-75.60462951660156
379;1673393221.234222;47.129342199999996;7.238850599999999;50.22600173950195;1673393221.3143206;-35.98833465576172;5.598423004150391;-84.67791748046875
380;1673393221.4325867;47.129346399999996;7.238846499999999;50.23600387573242;1673393221.5216513;-39.361717224121094;6.770590782165527;-93.92935943603516
381;1673393221.678462;47.1293504;7.2388419;50.24100112915039;1673393221.749919;-39.605838775634766;6.272151470184326;-102.9974365234375
382;1673393221.8586383;47.1293539;7.238836699999999;50.23400115966797;1673393221.9853363;-38.64064407348633;0.7379855513572693;-111.65190124511719
383;1673393222.0978286;47.1293565;7.2388312;50.22700119018555;1673393222.1628404;-43.87445068359375;-6.372422695159912;-120.34121704101562
384;1673393222.2572584;47.129357399999996;7.2388258;50.22200393676758;1673393222.3409047;-49.09173583984375;-11.634041786193848;-129.42080688476562
385;1673393222.4538443;47.1293557;7.2388208;50.208003997802734;1673393222.5374806;-50.61565017700195;-3.7014005184173584;-139.7223358154297
386;1673393222.6570334;47.129351299999996;7.238816099999999;50.195003509521484;1673393222.731282;-57.05131530761719;4.701895713806152;-145.93191528320312
387;1673393222.8482666;47.1293442;7.2388112;50.18100357055664;1673393222.9319696;-59.70185470581055;4.682923316955566;-143.44189453125
388;1673393223.0380437;47.1293345;7.2388055;50.15200424194336;1673393223.1240506;-54.60941696166992;-1.512383222579956;-140.040283203125
389;1673393223.2439466;47.1293228;7.2387993999999996;50.11300277709961;1673393223.3222458;-47.639312744140625;1.6514732837677002;-139.3792724609375
390;1673393223.4383721;47.1293097;7.2387932;50.079002380371094;1673393223.516585;-51.086177825927734;2.42201828956604;-136.6166229248047
391;1673393223.6256337;47.1292957;7.2387868;50.04600143432617;1673393223.7103913;-52.0230827331543;5.182398319244385;-135.51356506347656
392;1673393223.832893;47.129281;7.2387795;50.02000427246094;1673393223.9247825;-52.66048812866211;8.172388076782227;-134.9644012451172
393;1673393224.0493703;47.1292657;7.2387713;49.992000579833984;1673393224.1311762;-50.7080078125;8.977334022521973;-132.96185302734375
394;1673393224.2481468;47.1292504;7.2387619999999995;49.95900344848633;1673393224.3329196;-46.92863082885742;8.701009750366211;-129.9418487548828
395;1673393224.447814;47.1292354;7.238752099999999;49.92500305175781;1673393224.5343413;-43.383331298828125;7.276583671569824;-122.69998168945312
396;1673393224.655114;47.1292209;7.2387418;49.87300109863281;1673393224.7273893;-38.06941604614258;2.9714319705963135;-111.42923736572266
397;1673393224.8458736;47.129207199999996;7.2387312999999995;49.82100296020508;1673393224.9207616;-36.950382232666016;-0.783124566078186;-101.99602508544922
398;1673393225.0327647;47.1291946;7.238721;49.78000259399414;1673393225.1159382;-38.66950225830078;-3.3984158039093018;-93.32957458496094
399;1673393225.229223;47.129183;7.2387108;49.749000549316406;1673393225.3093648;-38.68405532836914;-5.9067888259887695;-83.4010009765625
400;1673393225.431934;47.1291726;7.238700499999999;49.73600387573242;1673393225.512612;-42.04492950439453;-6.942886829376221;-74.68950653076172
401;1673393225.6212506;47.1291637;7.2386897999999995;49.73800277709961;1673393225.7039223;-43.64226531982422;-11.547957420349121;-64.99494934082031
402;1673393225.819934;47.129156599999995;7.2386786999999995;49.759002685546875;1673393225.9055872;-43.811424255371094;-16.942100524902344;-54.67300796508789
403;1673393226.0227754;47.129151;7.238666899999999;49.78600311279297;1673393226.112223;-46.27741241455078;-22.20513153076172;-44.75718307495117
404;1673393226.2186387;47.1291471;7.2386544;49.81200408935547;1673393226.2996323;-47.487762451171875;-23.988548278808594;-37.155147552490234
405;1673393226.440354;47.129145;7.2386411;49.83700180053711;1673393226.5234456;-45.823970794677734;-21.830608367919922;-37.79728698730469
406;1673393226.6465838;47.1291448;7.2386272;49.874000549316406;1673393226.734472;-39.3050651550293;-13.0843505859375;-43.502296447753906
407;1673393226.8587835;47.1291461;7.2386136;49.93300247192383;1673393226.935601;-32.92706298828125;-1.923318862915039;-47.43438720703125
408;1673393227.0523868;47.1291486;7.2386012;49.980003356933594;1673393227.129507;-22.723970413208008;6.652283191680908;-57.123130798339844
409;1673393227.2622488;47.129152;7.2385909999999996;50.01700210571289;1673393227.3419213;-11.304281234741211;9.243193626403809;-69.4999008178711
410;1673393227.4537659;47.1291558;7.238583299999999;50.0410041809082;1673393227.5634952;-3.2516369819641113;-0.19211331009864807;-78.78269958496094
411;1673393227.6763484;47.1291596;7.2385788;50.09600067138672;1673393227.7550473;-2.0762245655059814;-7.754621505737305;-87.95793914794922
412;1673393227.850447;47.1291625;7.238577299999999;50.246002197265625;1673393227.918768;-16.12531852722168;-14.359251022338867;-93.74664306640625
413;1673393228.0312734;47.1291643;7.2385778;50.454002380371094;1673393228.1028857;-35.67320251464844;-17.02553939819336;-102.24481201171875
414;1673393228.2269125;47.129164599999996;7.2385787;50.65300369262695;1673393228.3107429;-46.005165100097656;-19.011306762695312;-114.01123809814453
415;1673393228.4368312;47.1291635;7.238579799999999;50.67500305175781;1673393228.5175939;-43.26289367675781;-0.40272849798202515;-127.8382568359375
416;1673393228.6372497;47.1291611;7.238580799999999;50.60200119018555;1673393228.726791;-28.926816940307617;18.567153930664062;-133.12185668945312
417;1673393228.8406029;47.1291581;7.2385813;50.544002532958984;1673393228.9177063;-29.785619735717773;21.828739166259766;-141.57427978515625
418;1673393229.0346682;47.129154899999996;7.2385809;50.522003173828125;1673393229.1176474;-35.521484375;23.6353702545166;-142.91783142089844
419;1673393229.2309496;47.1291515;7.2385793;50.57200241088867;1673393229.3215542;-43.12078857421875;21.088064193725586;-138.8336181640625
