;pos_time;latitude;longitude;altitude;alt_time;pitch;roll;yaw
0;1673391297.6693254;47.1306424;7.2406198999999996;0.004000000189989805;1673391297.7840657;0.16512393951416016;-0.45304369926452637;90.40957641601562
1;1673391297.8618362;47.1306424;7.2406198999999996;0.003000000026077032;1673391297.9826188;0.16155177354812622;-0.36749428510665894;90.2273178100586
2;1673391298.0611057;47.1306424;7.2406198999999996;0.005000000353902578;1673391298.1816268;0.1407947987318039;-0.2818608283996582;90.21417999267578
3;1673391298.2544744;47.1306424;7.240619799999999;0.006000000052154064;1673391298.3712604;0.10103533416986465;-0.3196312487125397;90.292236328125
4;1673391298.4464123;47.1306423;7.2406197;0.003000000026077032;1673391298.5700428;0.05038651078939438;-0.18905964493751526;90.40025329589844
5;1673391298.646438;47.1306423;7.2406196;0.0;1673391298.769828;0.40971139073371887;-0.3549882173538208;90.41416931152344
6;1673391298.8494594;47.1306423;7.240619499999999;-0.004000000189989805;1673391298.9758809;0.1621406227350235;-0.3637330234050751;90.54608917236328
7;1673391299.06145;47.1306423;7.2406196;-0.006000000052154064;1673391299.188361;0.08709394186735153;-0.307022362947464;90.37696075439453
8;1673391299.2668025;47.1306423;7.2406196;-0.007000000216066837;1673391299.3875847;-0.02505609393119812;-0.2941429316997528;90.44148254394531
9;1673391299.4663317;47.1306423;7.2406197;-0.006000000052154064;1673391299.588687;-0.11705809831619263;-0.413815438747406;90.3270034790039
10;1673391299.6692924;47.1306423;7.240619799999999;0.0020000000949949026;1673391299.8055413;-0.07068774104118347;-0.4229086637496948;90.52925872802734
11;1673391299.8805954;47.1306423;7.240619799999999;0.0010000000474974513;1673391299.9938068;0.06409873813390732;-0.16102658212184906;90.34085845947266
12;1673391300.0598292;47.1306424;7.240619799999999;-0.004000000189989805;1673391300.1936173;0.03870845586061478;-0.48066246509552;90.47547912597656
13;1673391300.2776775;47.1306424;7.240619799999999;-0.01100000087171793;1673391300.4014857;-0.2245233803987503;-0.14953653514385223;90.38102722167969
14;1673391300.4788575;47.1306424;7.240619799999999;-0.015000000596046448;1673391300.628867;-0.24513907730579376;-0.39955535531044006;90.43904876708984
15;1673391300.6987135;47.1306424;7.2406198999999996;-0.018000001087784767;1673391300.848805;-0.1277371644973755;-0.23278982937335968;90.43756103515625
16;1673391300.9477923;47.1306423;7.2406198999999996;-0.024000000208616257;1673391301.0568297;0.22137239575386047;-0.22216659784317017;90.5802993774414
17;1673391301.1337552;47.1306423;7.2406198999999996;-0.027000000700354576;1673391301.2646868;0.20101521909236908;-0.33152318000793457;90.38499450683594
18;1673391301.3706956;47.1306423;7.2406198999999996;0.0010000000474974513;1673391301.4686623;-0.010077583603560925;-0.17843849956989288;90.49082946777344
19;1673391301.5434308;47.1306423;7.24062;0.0020000000949949026;1673391301.6497972;0.056185945868492126;-0.0971495658159256;90.56088256835938
20;1673391301.7218504;47.1306423;7.2406201;0.003000000026077032;1673391301.8457677;0.3459671139717102;-0.7282698154449463;90.70706176757812
21;1673391301.9237614;47.1306423;7.2406201;0.003000000026077032;1673391302.036927;0.08373759686946869;-0.48476821184158325;90.62142944335938
22;1673391302.1084974;47.1306423;7.2406201;0.003000000026077032;1673391302.2606606;0.11337817460298538;-0.22212038934230804;90.55591583251953
23;1673391302.3812973;47.1306423;7.2406201;0.003000000026077032;1673391302.476046;0.2527623772621155;-1.0408655405044556;91.0053482055664
24;1673391302.5387018;47.1306423;7.2406201;0.005000000353902578;1673391302.6291726;0.5263277888298035;-0.03314971923828125;91.05956268310547
25;1673391302.701783;47.1306423;7.2406201;0.009000000543892384;1673391302.8106143;1.4043617248535156;-0.2574256658554077;90.94126892089844
26;1673391302.8823195;47.1306423;7.24062;0.013000000268220901;1673391303.0217083;2.300485610961914;-0.34190186858177185;91.16390228271484
27;1673391303.1058056;47.1306423;7.2406198999999996;0.01600000075995922;1673391303.2256694;2.0908865928649902;-0.18733103573322296;92.0421371459961
28;1673391303.3007703;47.1306423;7.2406196;0.013000000268220901;1673391303.4199371;-4.939633846282959;0.8039731383323669;93.52294921875
29;1673391303.4959252;47.1306423;7.240619;0.02800000086426735;1673391303.6106775;-9.778693199157715;0.9227089881896973;93.05863189697266
30;1673391303.6885931;47.1306423;7.2406182999999995;0.0650000050663948;1673391303.797848;-10.594742774963379;-4.501532077789307;93.25564575195312
31;1673391303.8798566;47.1306423;7.240617899999999;0.12200000882148743;1673391304.0117822;-11.728375434875488;-1.2624523639678955;92.67304992675781
32;1673391304.0877402;47.1306422;7.240617599999999;0.1900000125169754;1673391304.2169788;-11.878486633300781;1.4711863994598389;91.91348266601562
33;1673391304.301823;47.1306422;7.2406175;0.2680000066757202;1673391304.4234664;-11.401906967163086;-2.6920411586761475;92.33277130126953
34;1673391304.5014074;47.1306424;7.2406177;0.35500001907348633;1673391304.6184268;-10.722721099853516;-1.8487526178359985;91.752685546875
35;1673391304.690055;47.1306425;7.240617899999999;0.45900002121925354;1673391304.8016424;-10.030916213989258;2.508132219314575;90.82652282714844
36;1673391304.8738773;47.1306425;7.2406182999999995;0.578000009059906;1673391304.98808;-9.243736267089844;-1.277153491973877;90.98894500732422
37;1673391305.0642462;47.1306424;7.2406187;0.706000030040741;1673391305.192462;-8.7616548538208;-3.4009342193603516;91.15535736083984
38;1673391305.2746124;47.1306423;7.240619;0.8460000157356262;1673391305.412413;-8.333592414855957;1.267572045326233;90.18660736083984
39;1673391305.4902377;47.1306423;7.2406193;1.0010000467300415;1673391305.604196;-8.395095825195312;0.31376883387565613;90.12358856201172
40;1673391305.6688843;47.1306424;7.240619499999999;1.1680001020431519;1673391305.7903366;-8.40858268737793;-3.042001485824585;90.7812271118164
41;1673391305.8675463;47.130642599999995;7.2406196;1.352000117301941;1673391305.998469;-8.53969955444336;0.866263210773468;90.13558959960938
42;1673391306.0767663;47.130642699999996;7.2406196;1.5460001230239868;1673391306.1940722;-8.424559593200684;1.6614372730255127;90.1343765258789
43;1673391306.2614167;47.130642699999996;7.2406196;1.7400001287460327;1673391306.4003797;-8.742375373840332;-2.941767692565918;90.689697265625
44;1673391306.4728513;47.130642599999995;7.240619499999999;1.942000150680542;1673391306.5966647;-9.1026611328125;-0.25050097703933716;90.18775177001953
45;1673391306.6756046;47.130642599999995;7.240619499999999;2.1470000743865967;1673391306.8045075;-9.362799644470215;2.0605759620666504;89.67552947998047
46;1673391306.8872318;47.130642599999995;7.2406194;2.3510000705718994;1673391307.0200896;-9.579591751098633;-2.2125442028045654;90.40534973144531
47;1673391307.106136;47.130642699999996;7.2406193;2.556000232696533;1673391307.2328415;-9.576827049255371;-0.4692743122577667;90.25279998779297
48;1673391307.3096128;47.1306428;7.2406193;2.759000062942505;1673391307.4406667;-9.660859107971191;3.061940908432007;89.65039825439453
49;1673391307.507171;47.130642699999996;7.2406193;2.9580001831054688;1673391307.6061656;-9.553171157836914;-1.906714677810669;90.26994323730469
50;1673391307.678688;47.1306425;7.2406193;3.1530001163482666;1673391307.786791;-9.634678840637207;-3.0605194568634033;90.562255859375
51;1673391307.8581867;47.1306423;7.2406194;3.3510000705718994;1673391307.982751;-9.558188438415527;1.3608355522155762;89.76690673828125
52;1673391308.0686398;47.1306422;7.240619499999999;3.5490002632141113;1673391308.1903121;-9.373887062072754;-1.0576813220977783;90.06585693359375
53;1673391308.2734208;47.1306423;7.2406196;3.751000165939331;1673391308.3936028;-9.428333282470703;-2.7227351665496826;90.42278289794922
54;1673391308.4710505;47.1306425;7.2406197;3.9560000896453857;1673391308.5840037;-9.382219314575195;2.1003403663635254;89.88337707519531
55;1673391308.6611803;47.1306425;7.240619799999999;4.1579999923706055;1673391308.7881584;-9.208446502685547;0.7593909502029419;89.94947052001953
56;1673391308.8683016;47.1306425;7.2406198999999996;4.3560004234313965;1673391308.9973485;-9.101198196411133;-2.8792009353637695;90.47950744628906
57;1673391309.0751684;47.1306424;7.24062;4.555000305175781;1673391309.193554;-9.080365180969238;0.09271508455276489;90.1146011352539
58;1673391309.2805831;47.1306423;7.2406201;4.755000114440918;1673391309.4078095;-9.14261245727539;1.1834112405776978;89.63236236572266
59;1673391309.487033;47.1306423;7.2406201999999995;4.956000328063965;1673391309.605275;-9.03913402557373;-2.8730204105377197;90.38920593261719
60;1673391309.6854205;47.1306424;7.2406201999999995;5.1570000648498535;1673391309.8113413;-9.302508354187012;-0.6130645871162415;90.22171783447266
61;1673391309.908711;47.1306424;7.2406201999999995;5.361000061035156;1673391310.0372243;-9.331319808959961;2.441993474960327;89.78204345703125
62;1673391310.120757;47.1306424;7.2406201999999995;5.564000129699707;1673391310.2383778;-9.495306015014648;-2.6348154544830322;90.34972381591797
63;1673391310.3102655;47.1306423;7.2406201;5.764000415802002;1673391310.4203067;-9.481204986572266;-2.013321876525879;90.34539794921875
64;1673391310.4901457;47.1306422;7.24062;5.969000339508057;1673391310.6061044;-9.50178337097168;2.380335807800293;89.8018798828125
65;1673391310.6793158;47.1306423;7.24062;6.178000450134277;1673391310.801559;-9.602855682373047;-1.6668565273284912;90.12618255615234
66;1673391310.874769;47.1306424;7.24062;6.383000373840332;1673391311.010797;-9.594034194946289;-2.178833484649658;90.55962371826172
67;1673391311.0855021;47.1306425;7.24062;6.591000080108643;1673391311.198539;-9.711593627929688;2.7360689640045166;89.84357452392578
68;1673391311.2719548;47.1306425;7.24062;6.7960004806518555;1673391311.3967946;-9.534110069274902;-0.11422169953584671;90.20220947265625
69;1673391311.4723842;47.1306425;7.24062;6.997000217437744;1673391311.5969741;-9.54975414276123;-3.392676830291748;90.54314422607422
70;1673391311.6753008;47.1306423;7.2406201;7.198000431060791;1673391311.801625;-9.399171829223633;0.9545632004737854;89.84797668457031
71;1673391311.8818653;47.1306423;7.2406201999999995;7.39900016784668;1673391312.0099812;-9.228043556213379;1.0580865144729614;89.95221710205078
72;1673391312.0881872;47.1306423;7.2406201999999995;7.6010003089904785;1673391312.230065;-9.219792366027832;-3.112738609313965;90.52449035644531
73;1673391312.299818;47.1306424;7.2406201999999995;7.801000595092773;1673391312.410426;-9.169026374816895;0.6714593768119812;90.14260864257812
74;1673391312.475847;47.1306424;7.2406203;8.003000259399414;1673391312.5897186;-9.317736625671387;2.1519558429718018;89.70899963378906
75;1673391312.6719463;47.1306424;7.2406203;8.201000213623047;1673391312.7985764;-9.351572036743164;-3.241891384124756;90.48321533203125
76;1673391312.8757398;47.1306423;7.2406201999999995;8.397000312805176;1673391313.0118577;-9.511378288269043;-1.110079288482666;90.20899200439453
77;1673391313.105215;47.1306422;7.2406201999999995;8.594000816345215;1673391313.2493865;-9.527863502502441;1.998823642730713;89.5048828125
78;1673391313.380887;47.1306422;7.2406201;8.792000770568848;1673391313.473278;-9.564973831176758;-2.505678176879883;90.40586853027344
79;1673391313.5333686;47.1306423;7.2406201;8.992000579833984;1673391313.639587;-9.498603820800781;-1.9427803754806519;90.31336212158203
80;1673391313.7193089;47.1306424;7.2406201999999995;9.193000793457031;1673391313.8344195;-9.628142356872559;2.886672258377075;89.63677215576172
81;1673391313.8972182;47.1306423;7.2406201999999995;9.391000747680664;1673391314.0032063;-9.504473686218262;-1.3158930540084839;90.11077117919922
82;1673391314.0813508;47.1306423;7.2406201;9.588000297546387;1673391314.2017422;-9.635087013244629;-3.235006332397461;90.53318786621094
83;1673391314.287944;47.1306422;7.2406201;9.785000801086426;1673391314.403754;-9.677742004394531;1.6409679651260376;89.89507293701172
84;1673391314.4846804;47.1306422;7.2406201;9.983000755310059;1673391314.609565;-9.597702980041504;0.2636716365814209;89.92298126220703
85;1673391314.6896052;47.1306423;7.2406201999999995;10.189000129699707;1673391314.8098547;-9.545086860656738;-2.815075159072876;90.57486724853516
86;1673391314.887354;47.1306424;7.2406203;10.467000961303711;1673391314.9966583;-11.429166793823242;-0.07328286021947861;90.24579620361328
87;1673391315.082421;47.1306424;7.2406204999999995;10.821000099182129;1673391315.209738;-10.123708724975586;2.058555841445923;89.75862884521484
88;1673391315.2821238;47.1306424;7.240621;11.201000213623047;1673391315.4052734;-9.073687553405762;-1.8265585899353027;90.28376007080078
89;1673391315.4826608;47.1306423;7.240621399999999;11.595000267028809;1673391315.6005213;-8.16966438293457;-2.161309003829956;90.37661743164062
90;1673391315.6700015;47.1306422;7.2406217999999996;11.997000694274902;1673391315.7898715;-7.6278839111328125;1.8756769895553589;89.74564361572266
91;1673391315.8725424;47.1306423;7.240622;12.40000057220459;1673391316.0015345;-7.490057468414307;-0.9719914793968201;90.2287826538086
92;1673391316.0900187;47.1306424;7.2406220999999995;12.804000854492188;1673391316.2214086;-7.650845527648926;-2.675727367401123;90.57421875
93;1673391316.2947383;47.1306425;7.2406220999999995;13.205000877380371;1673391316.4080727;-7.849891662597656;1.424651026725769;89.85382843017578
94;1673391316.492247;47.1306425;7.2406219;13.60200023651123;1673391316.6096969;-8.423457145690918;1.116542935371399;89.81298065185547
95;1673391316.6929638;47.1306425;7.2406216;13.988000869750977;1673391316.827559;-8.953137397766113;-2.7277276515960693;90.45451354980469
96;1673391316.8911767;47.1306425;7.2406213;14.370000839233398;1673391316.9941652;-9.412726402282715;-0.050324518233537674;89.99500274658203
97;1673391317.0650756;47.1306424;7.240621;14.754000663757324;1673391317.1929028;-9.734610557556152;2.053117275238037;89.71507263183594
98;1673391317.2768779;47.1306424;7.240620799999999;15.13800048828125;1673391317.3927255;-9.697676658630371;-1.8140761852264404;90.27998352050781
99;1673391317.4694014;47.1306425;7.2406206;15.519001007080078;1673391317.61026;-9.823166847229004;-1.5952283143997192;90.51829528808594
100;1673391317.7065668;47.1306425;7.2406206;15.907000541687012;1673391317.8625395;-9.609861373901367;2.210797071456909;89.82463073730469
101;1673391317.9617507;47.1306425;7.2406206;16.297000885009766;1673391318.0995512;-9.533610343933105;-0.3013955354690552;90.12066650390625
102;1673391318.1590028;47.1306425;7.2406206;16.685001373291016;1673391318.264638;-9.364683151245117;-2.9700982570648193;90.58956909179688
103;1673391318.3472905;47.1306424;7.2406207;17.077001571655273;1673391318.4505246;-9.103044509887695;1.044693112373352;89.86688232421875
104;1673391318.518353;47.1306423;7.2406207;17.468000411987305;1673391318.6342387;-9.021016120910645;1.5405738353729248;89.7269058227539
105;1673391318.7096126;47.1306424;7.240620799999999;17.858001708984375;1673391318.8243976;-8.952187538146973;-3.1787288188934326;90.47885131835938
106;1673391318.885061;47.1306425;7.240620799999999;18.2450008392334;1673391319.0016105;-9.222107887268066;-0.19301000237464905;90.14396667480469
107;1673391319.092219;47.1306425;7.240620799999999;18.635000228881836;1673391319.220424;-9.100090980529785;2.6146912574768066;89.56877136230469
108;1673391319.302483;47.130642599999995;7.2406207;19.0210018157959;1673391319.4129071;-9.200420379638672;-1.8213106393814087;90.36642456054688
109;1673391319.4853652;47.130642599999995;7.2406207;19.409000396728516;1673391319.6002564;-9.201703071594238;-1.2933071851730347;90.37031555175781
110;1673391319.6852791;47.1306425;7.2406207;19.801000595092773;1673391319.8222964;-9.100995063781738;2.2601869106292725;89.84571075439453
111;1673391319.9025764;47.1306424;7.2406207;20.194000244140625;1673391320.022271;-9.150790214538574;-1.2803174257278442;90.26972961425781
112;1673391320.0956173;47.1306425;7.2406207;20.584001541137695;1673391320.217052;-9.188657760620117;-2.6780638694763184;90.56354522705078
113;1673391320.3065407;47.1306425;7.2406207;20.97300148010254;1673391320.4087358;-9.081649780273438;2.429643392562866;89.61228942871094
114;1673391320.489983;47.1306425;7.2406206;21.362001419067383;1673391320.6123302;-9.250494003295898;-0.14606928825378418;90.03703308105469
115;1673391320.7213216;47.1306424;7.2406206;21.749000549316406;1673391320.8371606;-9.164938926696777;-3.1331534385681152;90.3794937133789
116;1673391320.913002;47.1306424;7.2406204999999995;22.14000129699707;1673391321.025005;-9.400635719299316;0.7377073764801025;89.97281646728516
117;1673391321.1052964;47.1306423;7.2406204999999995;22.532001495361328;1673391321.2632987;-9.232481956481934;1.3917500972747803;89.84062957763672
118;1673391321.3490179;47.1306424;7.2406204;22.92500114440918;1673391321.4649658;-9.256467819213867;-2.871800422668457;90.6060791015625
119;1673391321.5408423;47.1306425;7.2406204;23.317001342773438;1673391321.6480727;-9.263126373291016;-0.005692057311534882;90.1595458984375
120;1673391321.7269247;47.130642599999995;7.2406203;23.70800018310547;1673391321.8329527;-9.388358116149902;2.5800580978393555;89.76156616210938
121;1673391321.8944638;47.130642599999995;7.2406203;24.093000411987305;1673391322.0043058;-9.381020545959473;-2.002946138381958;90.46381378173828
122;1673391322.0766597;47.130642599999995;7.2406201999999995;24.48200035095215;1673391322.2130468;-9.52499008178711;-0.6312922835350037;90.21880340576172
123;1673391322.2872229;47.1306425;7.2406201999999995;24.875001907348633;1673391322.4101346;-9.454362869262695;2.223466157913208;89.78730773925781
124;1673391322.4875782;47.1306425;7.2406201;25.26500129699707;1673391322.6111896;-9.376007080078125;-1.3916523456573486;90.17620086669922
125;1673391322.685365;47.1306425;7.2406201;25.655000686645508;1673391322.8016796;-9.358683586120605;-2.1720798015594482;90.49327850341797
126;1673391322.878916;47.130642599999995;7.2406201;26.045001983642578;1673391323.0026639;-9.358104705810547;2.266547203063965;89.76799011230469
127;1673391323.0833886;47.130642599999995;7.2406201;26.43600082397461;1673391323.2134666;-9.222457885742188;0.10794075578451157;90.08642578125
128;1673391323.2837412;47.1306425;7.2406201;26.827001571655273;1673391323.421519;-9.339202880859375;-3.298637866973877;90.54570770263672
129;1673391323.492881;47.1306424;7.2406201;27.225000381469727;1673391323.608024;-9.439618110656738;1.3100714683532715;89.84947967529297
130;1673391323.702242;47.1306423;7.2406201;27.625001907348633;1673391323.817085;-9.256752967834473;1.0883376598358154;90.01289367675781
131;1673391323.8955834;47.1306424;7.2406201;28.025001525878906;1673391324.0079997;-9.235929489135742;-2.9141440391540527;90.59811401367188
132;1673391324.0790102;47.1306425;7.24062;28.422000885009766;1673391324.205873;-9.36454963684082;0.6507665514945984;90.13561248779297
133;1673391324.2859495;47.130642599999995;7.24062;28.81800079345703;1673391324.41049;-9.31865119934082;2.232440233230591;89.6911849975586
134;1673391324.4912853;47.130642599999995;7.24062;29.2080020904541;1673391324.597448;-9.446252822875977;-2.058060884475708;90.3836441040039
135;1673391324.6669142;47.130642599999995;7.24062;29.601001739501953;1673391324.785522;-9.465594291687012;-0.39473721385002136;90.21694946289062
136;1673391324.877057;47.1306425;7.2406198999999996;29.996002197265625;1673391325.003728;-9.409744262695312;2.41424298286438;89.73711395263672
137;1673391325.1011088;47.1306424;7.2406198999999996;30.3960018157959;1673391325.2232418;-9.330799102783203;-1.2727715969085693;90.15010070800781
138;1673391325.2964473;47.1306424;7.2406198999999996;30.795001983642578;1673391325.4193885;-9.190754890441895;-2.000091075897217;90.4190673828125
139;1673391325.491665;47.1306425;7.24062;31.19300079345703;1673391325.6124313;-9.297301292419434;2.4327445030212402;89.71495819091797
140;1673391325.6902604;47.1306424;7.2406198999999996;31.589000701904297;1673391325.8021934;-9.310250282287598;0.08855500817298889;90.13850402832031
141;1673391325.8757718;47.1306424;7.2406198999999996;31.981000900268555;1673391326.0032694;-9.456092834472656;-2.7791357040405273;90.48136901855469
142;1673391326.0880425;47.1306423;7.2406198999999996;32.37700271606445;1673391326.2095084;-9.295279502868652;1.2617225646972656;89.910888671875
143;1673391326.2940836;47.1306422;7.2406198999999996;32.77300262451172;1673391326.4150264;-9.350798606872559;0.8404854536056519;89.84418487548828
144;1673391326.4951236;47.1306422;7.24062;33.172000885009766;1673391326.6310358;-9.369684219360352;-2.849541425704956;90.57002258300781
145;1673391326.7163646;47.1306424;7.24062;33.57100296020508;1673391326.842064;-9.474478721618652;0.508863091468811;90.12551879882812
146;1673391326.9029906;47.1306424;7.24062;33.967002868652344;1673391327.0307176;-9.390409469604492;2.2230429649353027;89.68477630615234
147;1673391327.1147733;47.1306425;7.24062;34.35900115966797;1673391327.225947;-9.29405689239502;-1.5819816589355469;90.37171936035156
148;1673391327.3020842;47.1306425;7.24062;34.75300216674805;1673391327.4291692;-9.455735206604004;-0.9104920029640198;90.40840148925781
149;1673391327.5036316;47.1306425;7.24062;35.14800262451172;1673391327.6806087;-9.208191871643066;2.5582892894744873;89.84130859375
150;1673391327.7739317;47.1306424;7.2406201;35.54300308227539;1673391327.8934922;-9.344446182250977;-1.122360110282898;90.1941909790039
151;1673391327.9494905;47.1306424;7.2406201;35.939002990722656;1673391328.0581813;-9.2515869140625;-2.2136785984039307;90.48369598388672
152;1673391328.1340165;47.1306425;7.2406201999999995;36.3380012512207;1673391328.3038971;-9.256448745727539;2.3827426433563232;89.64628601074219
153;1673391328.3624954;47.1306425;7.2406201999999995;36.74100112915039;1673391328.4667113;-9.179343223571777;0.07081299275159836;90.0085678100586
154;1673391328.5356877;47.1306425;7.2406201999999995;37.137001037597656;1673391328.6428435;-9.220539093017578;-3.2309529781341553;90.46065521240234
155;1673391328.7125342;47.1306424;7.2406201;37.535003662109375;1673391328.8234751;-9.428515434265137;1.2098499536514282;89.96688842773438
156;1673391328.8973641;47.1306424;7.2406201;37.935001373291016;1673391329.0116894;-9.378597259521484;1.2844282388687134;89.95166778564453
157;1673391329.0934646;47.1306424;7.2406201;38.336002349853516;1673391329.2008781;-9.411924362182617;-2.7982585430145264;90.68041229248047
158;1673391329.2919517;47.130642599999995;7.2406201;38.73200225830078;1673391329.4495225;-9.422141075134277;0.37716686725616455;90.1805191040039
159;1673391329.5263598;47.130642599999995;7.2406201;39.12600326538086;1673391329.6900423;-9.268105506896973;2.625173568725586;89.71411895751953
160;1673391329.7961152;47.130642699999996;7.24062;39.5160026550293;1673391329.8979666;-9.559050559997559;-1.7766224145889282;90.31707763671875
161;1673391329.992291;47.130642699999996;7.24062;39.909000396728516;1673391330.0885947;-9.616683006286621;-1.0194571018218994;90.16452026367188
162;1673391330.1457424;47.130642599999995;7.24062;40.30500030517578;1673391330.2478013;-9.424040794372559;2.528780937194824;89.6004867553711
163;1673391330.3132315;47.130642599999995;7.24062;40.70000076293945;1673391330.4352179;-9.254871368408203;-0.9763761162757874;90.16986083984375
164;1673391330.51635;47.130642599999995;7.24062;41.095001220703125;1673391330.6252234;-9.315777778625488;-1.8018712997436523;90.45852661132812
165;1673391330.7004142;47.130642699999996;7.24062;41.49100112915039;1673391330.814247;-9.510927200317383;2.715762138366699;89.88372039794922
166;1673391330.8881142;47.130642699999996;7.24062;41.88500213623047;1673391331.0173113;-9.33349609375;0.6665003895759583;90.13230895996094
167;1673391331.0952518;47.130642599999995;7.24062;42.27300262451172;1673391331.2245347;-9.529186248779297;-2.7619404792785645;90.5645751953125
168;1673391331.2967727;47.1306425;7.24062;42.66400146484375;1673391331.4144351;-9.24853515625;1.1235653162002563;90.03632354736328
169;1673391331.4874372;47.1306425;7.24062;43.060001373291016;1673391331.623338;-9.365629196166992;1.41651451587677;89.77043151855469
170;1673391331.7014532;47.1306425;7.24062;43.45600128173828;1673391331.8452299;-9.314024925231934;-2.6787452697753906;90.48798370361328
171;1673391331.918785;47.130642599999995;7.24062;43.85400390625;1673391332.0395994;-9.399280548095703;0.10205056518316269;90.02125549316406
172;1673391332.1090963;47.130642699999996;7.24062;44.249000549316406;1673391332.2122438;-9.34197998046875;2.8794326782226562;89.6855239868164
173;1673391332.2821589;47.130642699999996;7.2406198999999996;44.63800048828125;1673391332.408125;-9.450334548950195;-1.7717554569244385;90.3885498046875
174;1673391332.4862773;47.1306428;7.2406198999999996;45.03000259399414;1673391332.6136105;-9.478339195251465;-1.1473561525344849;90.48751068115234
175;1673391332.693736;47.130642699999996;7.2406198999999996;45.422000885009766;1673391332.8206716;-9.451580047607422;2.692901611328125;89.76923370361328
176;1673391332.8936768;47.130642599999995;7.2406198999999996;45.816001892089844;1673391333.018912;-9.410266876220703;-0.9757402539253235;90.23716735839844
177;1673391333.0986946;47.130642599999995;7.2406198999999996;46.20900344848633;1673391333.2153916;-9.562165260314941;-2.137214183807373;90.44486999511719
178;1673391333.2856162;47.130642599999995;7.240619799999999;46.60100173950195;1673391333.4185834;-9.469537734985352;2.4939141273498535;89.70880126953125
179;1673391333.4973614;47.130642599999995;7.240619799999999;46.9900016784668;1673391333.6102562;-9.443678855895996;0.3202080726623535;89.93016815185547
180;1673391333.6821012;47.130642599999995;7.240619799999999;47.375003814697266;1673391333.8078837;-9.29629135131836;-3.2762134075164795;90.44029998779297
181;1673391333.8992453;47.1306425;7.240619799999999;47.76400375366211;1673391334.016099;-9.515802383422852;1.2123945951461792;89.85962677001953
182;1673391334.090704;47.1306424;7.240619799999999;48.1510009765625;1673391334.2173104;-9.838543891906738;0.14633414149284363;89.93958282470703
183;1673391334.2872143;47.1306424;7.2406197;48.493003845214844;1673391334.4012983;-9.815979957580566;-1.1556828022003174;90.4258041381836
184;1673391334.4853954;47.1306425;7.2406196;48.78300094604492;1673391334.6100276;-9.76655387878418;0.2938774824142456;90.16192626953125
185;1673391334.6835823;47.1306425;7.240619499999999;49.02900314331055;1673391334.8008976;-9.94023609161377;2.0007660388946533;89.86068725585938
186;1673391334.88899;47.1306425;7.2406193;49.22500228881836;1673391335.0171244;-9.931256294250488;-2.7515008449554443;90.4635238647461
187;1673391335.1035426;47.1306425;7.2406191;49.38900375366211;1673391335.2308347;7.166384220123291;17.369060516357422;95.32042694091797
188;1673391335.3113139;47.130641999999995;7.2406182999999995;49.52800369262695;1673391335.4468203;18.600940704345703;38.59630584716797;107.88859558105469
189;1673391335.5224195;47.130640299999996;7.2406153;49.64900207519531;1673391335.638233;20.38838005065918;52.80033874511719;116.9532699584961
190;1673391335.716322;47.1306362;7.2406085;49.74700164794922;1673391335.82671;7.069525718688965;56.30495071411133;124.97294616699219
191;1673391335.9086375;47.1306296;7.2405978;49.80500411987305;1673391336.0465343;-9.278363227844238;57.08938980102539;135.48040771484375
192;1673391336.1426933;47.1306205;7.2405836;49.845001220703125;1673391336.2669919;-23.048372268676758;50.97959899902344;147.33517456054688
193;1673391336.356345;47.130609199999995;7.2405664;49.85900115966797;1673391336.4692154;-36.55866241455078;46.50675964355469;157.90133666992188
194;1673391336.5450723;47.130595899999996;7.2405468;49.8650016784668;1673391336.6659646;-47.289520263671875;44.87689208984375;169.3460693359375
195;1673391336.7455962;47.130580699999996;7.2405246;49.85700225830078;1673391336.8584838;-49.220272064208984;32.4851188659668;-177.70188903808594
196;1673391336.9219499;47.1305641;7.2405;49.82100296020508;1673391337.0394282;-46.75901794433594;23.318586349487305;-170.5624237060547
197;1673391337.112738;47.1305465;7.2404739;49.76700210571289;1673391337.2330065;-49.17938995361328;18.79700469970703;-164.09860229492188
198;1673391337.309247;47.130528299999995;7.240446599999999;49.7130012512207;1673391337.4403014;-49.052894592285156;11.717227935791016;-155.9486083984375
199;1673391337.5195124;47.130509599999996;7.2404186;49.6670036315918;1673391337.6310418;-47.592315673828125;5.652055263519287;-148.51060485839844
200;1673391337.7090158;47.1304904;7.2403897;49.62300109863281;1673391337.826822;-46.885154724121094;2.2369232177734375;-142.7716064453125
201;1673391337.8986604;47.1304709;7.240360399999999;49.5880012512207;1673391338.0221941;-45.426815032958984;-1.741959810256958;-135.43161010742188
202;1673391338.1087587;47.1304514;7.2403306999999995;49.56100082397461;1673391338.2332172;-45.68199157714844;-10.597869873046875;-131.46444702148438
203;1673391338.3089504;47.130431699999995;7.240300899999999;49.54600143432617;1673391338.436178;-45.73915100097656;-9.93781566619873;-135.4219207763672
204;1673391338.5184586;47.130411699999996;7.240271399999999;49.544002532958984;1673391338.6548183;-46.701499938964844;-8.897521018981934;-137.78671264648438
205;1673391338.731114;47.1303914;7.2402425;49.55900192260742;1673391338.8481264;-48.32285690307617;-8.103216171264648;-138.61358642578125
206;1673391338.9322333;47.1303707;7.240214;49.582000732421875;1673391339.0603757;-48.6903076171875;-6.2005696296691895;-139.55975341796875
207;1673391339.140063;47.130349599999995;7.240185599999999;49.60700225830078;1673391339.2656455;-49.37196350097656;-4.69477653503418;-140.0516815185547
208;1673391339.344547;47.130328299999995;7.240157099999999;49.63200378417969;1673391339.4642274;-48.940006256103516;-3.942229986190796;-140.0970458984375
209;1673391339.533584;47.1303067;7.240128599999999;49.65800094604492;1673391339.6383455;-48.386260986328125;-3.578352451324463;-139.91107177734375
210;1673391339.7077358;47.130285099999995;7.240100099999999;49.68100357055664;1673391339.818763;-48.03496170043945;-3.6363561153411865;-139.63604736328125
211;1673391339.8956304;47.130263299999996;7.2400715;49.70000076293945;1673391340.0328004;-47.75873565673828;-3.5553603172302246;-139.39923095703125
212;1673391340.1094265;47.1302416;7.2400429;49.7140007019043;1673391340.2501724;-47.67578887939453;-3.689915895462036;-139.18836975097656
213;1673391340.351445;47.1302199;7.2400142;49.730003356933594;1673391340.473707;-47.75075149536133;-3.9855334758758545;-138.94476318359375
214;1673391340.5460458;47.130198199999995;7.2399853;49.74700164794922;1673391340.6421134;-48.037620544433594;-4.105334281921387;-138.84213256835938
215;1673391340.7115223;47.1301765;7.239956299999999;49.76300048828125;1673391340.8295414;-48.06998062133789;-4.082033157348633;-138.7534637451172
216;1673391340.9207566;47.1301547;7.2399273;49.77800369262695;1673391341.0498679;-47.87569808959961;-4.069802761077881;-138.66290283203125
217;1673391341.121265;47.1301329;7.2398982;49.78700256347656;1673391341.2442417;-47.67784881591797;-4.133224964141846;-138.56063842773438
218;1673391341.316801;47.130111199999995;7.2398691;49.798004150390625;1673391341.4363732;-47.72856140136719;-4.164952278137207;-138.4638671875
219;1673391341.523178;47.1300895;7.2398400999999994;49.80400085449219;1673391341.6325092;-47.73212432861328;-4.1744384765625;-138.4063720703125
220;1673391341.7034593;47.1300678;7.239810899999999;49.80800247192383;1673391341.8341382;-47.570247650146484;-4.126594543457031;-138.39456176757812
221;1673391341.9140809;47.1300461;7.2397817;49.81200408935547;1673391342.033429;-47.54233932495117;-4.33444356918335;-138.26339721679688
222;1673391342.1140828;47.130024399999996;7.2397523999999995;49.82400131225586;1673391342.2342293;-48.072166442871094;-4.304623126983643;-138.2995147705078
223;1673391342.3121297;47.1300027;7.2397231;49.836002349853516;1673391342.4309497;-48.39487075805664;-4.431197166442871;-138.23135375976562
224;1673391342.5067115;47.129981;7.239693699999999;49.845001220703125;1673391342.6271486;-48.217430114746094;-4.260873794555664;-138.27525329589844
225;1673391342.707784;47.129959299999996;7.2396644;49.84700393676758;1673391342.835195;-47.69782638549805;-4.172755718231201;-138.2604522705078
226;1673391342.9071116;47.1299376;7.2396351;49.85000228881836;1673391343.032689;-47.6478271484375;-4.23643159866333;-138.23248291015625
227;1673391343.1083734;47.129915999999994;7.239605699999999;49.85300064086914;1673391343.2222385;-47.8110466003418;-4.280016899108887;-138.1869659423828
228;1673391343.2923505;47.1298943;7.2395762999999995;49.85400390625;1673391343.4069545;-47.83575439453125;-4.282718658447266;-138.1991424560547
229;1673391343.481498;47.1298727;7.2395469;49.858001708984375;1673391343.6243253;-47.947689056396484;-4.35951042175293;-138.1772918701172
230;1673391343.7211516;47.129851099999996;7.2395173999999995;49.862003326416016;1673391343.8396695;-48.1007194519043;-4.280876636505127;-138.21942138671875
231;1673391343.9166245;47.1298295;7.239487899999999;49.8640022277832;1673391344.0425673;-48.03366470336914;-4.352790832519531;-138.18148803710938
232;1673391344.1227028;47.129807899999996;7.2394585;49.86300277709961;1673391344.2615871;-47.84483337402344;-4.201619625091553;-138.24888610839844
233;1673391344.3389077;47.1297863;7.2394289999999994;49.8640022277832;1673391344.4582257;-47.81081008911133;-4.2547173500061035;-138.21372985839844
234;1673391344.5314744;47.129764699999996;7.239399499999999;49.867000579833984;1673391344.6414433;-47.95860290527344;-4.2785468101501465;-138.2183074951172
235;1673391344.7232597;47.1297431;7.23937;49.867000579833984;1673391344.8564947;-47.953216552734375;-4.30974006652832;-138.2272186279297
236;1673391344.9220018;47.129721499999995;7.2393405;49.867000579833984;1673391345.0488513;-47.83282470703125;-4.2964911460876465;-138.24551391601562
237;1673391345.1241455;47.1296999;7.2393108999999995;49.86900329589844;1673391345.2541625;-47.8551139831543;-4.305546760559082;-138.25135803222656
238;1673391345.3632576;47.1296782;7.239281399999999;49.87200164794922;1673391345.4740436;-47.96049118041992;-4.254932403564453;-138.29042053222656
239;1673391345.540608;47.1296566;7.2392518;49.875003814697266;1673391345.652065;-47.9893798828125;-4.213839530944824;-138.32028198242188
240;1673391345.730202;47.129635;7.2392223;49.87900161743164;1673391345.8525476;-47.93980026245117;-4.2352471351623535;-138.2890167236328
241;1673391345.9336138;47.1296134;7.239192699999999;49.88600158691406;1673391346.0636542;-48.0107307434082;-4.150035858154297;-138.3562469482422
242;1673391346.143695;47.1295917;7.2391631;49.88800048828125;1673391346.2649467;-47.75831985473633;-4.145115852355957;-138.3624267578125
243;1673391346.3354478;47.129570099999995;7.2391336;49.88600158691406;1673391346.449073;-47.4864501953125;-4.131136417388916;-138.37144470214844
244;1673391346.5224202;47.1295485;7.239103999999999;49.88800048828125;1673391346.6450315;-47.56070327758789;-4.119088172912598;-138.39300537109375
245;1673391346.7246249;47.129526899999995;7.2390744;49.89400100708008;1673391346.8587976;-47.92683410644531;-4.181407928466797;-138.3787841796875
246;1673391346.958868;47.1295053;7.239044799999999;49.900001525878906;1673391347.0812495;-48.1994743347168;-4.097194671630859;-138.4634246826172
247;1673391347.1549783;47.1294836;7.2390152;49.90500259399414;1673391347.2853389;-48.07501983642578;-3.908466339111328;-138.56422424316406
248;1673391347.3503366;47.129461899999995;7.2389855999999995;49.91200256347656;1673391347.4632692;-47.93053436279297;-4.033385276794434;-138.52169799804688
249;1673391347.5307126;47.1294403;7.2389559;49.9160041809082;1673391347.6434224;-47.672813415527344;-4.867141246795654;-138.36285400390625
250;1673391347.7182958;47.1294186;7.238926299999999;49.919002532958984;1673391347.842877;-47.79994201660156;-4.723808765411377;-138.67916870117188
251;1673391347.9186738;47.129396899999996;7.2388968;49.92500305175781;1673391348.0424216;-47.78998947143555;-6.7770795822143555;-138.24212646484375
252;1673391348.122361;47.1293752;7.238867399999999;49.932003021240234;1673391348.249589;-47.729347229003906;-7.164750099182129;-138.74449157714844
253;1673391348.327232;47.1293533;7.2388382;49.939002990722656;1673391348.438141;-48.058631896972656;-7.317371845245361;-139.06954956054688
254;1673391348.514841;47.1293313;7.2388093;49.945003509521484;1673391348.6403844;-45.74107360839844;-7.390361785888672;-139.594970703125
255;1673391348.716061;47.129309199999994;7.238780599999999;49.954002380371094;1673391348.8537974;-34.8457145690918;-7.50647497177124;-139.29319763183594
256;1673391348.9540675;47.1292872;7.2387526;49.980003356933594;1673391349.0647106;-16.295747756958008;-6.6513752937316895;-138.74444580078125
257;1673391349.155316;47.129266199999996;7.2387261;49.999000549316406;1673391349.2779973;1.1462613344192505;-5.175561428070068;-137.35800170898438
258;1673391349.3512266;47.129247;7.2387017;50.01000213623047;1673391349.462742;14.62328052520752;-3.67055082321167;-136.80677795410156
259;1673391349.5320714;47.129230199999995;7.238680199999999;49.99800109863281;1673391349.689548;23.249404907226562;-3.475553035736084;-137.0681610107422
260;1673391349.796602;47.129216199999995;7.238662;49.95600128173828;1673391349.9064407;22.214500427246094;-7.3558878898620605;-136.24850463867188
261;1673391349.9799113;47.129205;7.2386469;49.875003814697266;1673391350.091778;24.323307037353516;-5.977656364440918;-135.75827026367188
262;1673391350.1675093;47.129196;7.2386349;49.81500244140625;1673391350.2703488;25.05208396911621;-6.432451248168945;-135.85308837890625
263;1673391350.332921;47.1291891;7.238625799999999;49.78600311279297;1673391350.436571;17.126615524291992;-8.858430862426758;-136.09503173828125
264;1673391350.508031;47.1291839;7.2386192;49.80900192260742;1673391350.6295347;6.503829479217529;-11.383108139038086;-135.36172485351562
265;1673391350.7029135;47.1291796;7.2386142;49.85200119018555;1673391350.833124;-3.287457227706909;-8.970449447631836;-134.2501983642578
266;1673391350.9156485;47.1291757;7.2386101;49.89500427246094;1673391351.0393655;-8.97081184387207;-2.1960391998291016;-134.76551818847656
267;1673391351.1251066;47.129171899999996;7.238606;49.93300247192383;1673391351.2597022;-7.959208965301514;0.1509827971458435;-134.6444549560547
268;1673391351.3338776;47.129168199999995;7.2386015;49.96600341796875;1673391351.4676518;-4.405255317687988;-0.8302947282791138;-134.18600463867188
269;1673391351.556966;47.129164599999996;7.238596599999999;49.996002197265625;1673391351.6706223;-0.9449727535247803;-3.620220422744751;-133.658447265625
270;1673391351.737993;47.1291611;7.2385912999999995;50.02300262451172;1673391351.8524368;1.4927412271499634;-5.823802947998047;-133.19505310058594
271;1673391351.9264379;47.129157799999994;7.2385858999999995;50.047000885009766;1673391352.0421348;3.2165067195892334;-7.642903804779053;-133.28408813476562
272;1673391352.1149309;47.129154899999996;7.2385807;50.066001892089844;1673391352.243679;-7.146378993988037;-9.07832145690918;-134.05828857421875
273;1673391352.3193715;47.1291522;7.238575699999999;50.09600067138672;1673391352.4336152;-20.535297393798828;-4.840360164642334;-136.9152069091797
274;1673391352.5085893;47.1291489;7.2385701;50.15500259399414;1673391352.6480737;-16.655473709106445;-1.8215229511260986;-138.88780212402344
275;1673391352.7274547;47.1291448;7.2385635;50.316001892089844;1673391352.8536046;-18.547014236450195;0.22130729258060455;-139.43258666992188
276;1673391352.9303677;47.12914;7.238555799999999;50.582000732421875;1673391353.0481312;-23.134227752685547;-4.2228779792785645;-138.36631774902344
277;1673391353.1293137;47.1291345;7.2385467;50.93600082397461;1673391353.2501793;-41.887779235839844;-12.897692680358887;-137.13552856445312
278;1673391353.3261747;47.1291277;7.238536099999999;51.336002349853516;1673391353.44119;-39.195953369140625;-10.505983352661133;-138.7413787841797
279;1673391353.5130196;47.1291192;7.238524;51.733001708984375;1673391353.6376653;-34.648563385009766;-9.299487113952637;-138.17971801757812
280;1673391353.7164898;47.1291094;7.2385107;52.11600112915039;1673391353.8342588;-28.830848693847656;-6.6571364402771;-138.51983642578125
281;1673391353.9226847;47.1290987;7.2384968;52.4890022277832;1673391354.0393987;-24.020687103271484;-4.014512062072754;-138.40760803222656
282;1673391354.1193986;47.1290876;7.2384827;52.86000061035156;1673391354.2375844;-20.57459831237793;-3.0118296146392822;-138.26663208007812
283;1673391354.3172402;47.129076399999995;7.2384683999999995;53.23200225830078;1673391354.43898;-18.05991554260254;-3.3399741649627686;-137.7498016357422
284;1673391354.5157108;47.129065499999996;7.2384542;53.60600280761719;1673391354.6381533;-16.579980850219727;-4.874895095825195;-137.284423828125
285;1673391354.7083983;47.1290549;7.2384401;53.98500442504883;1673391354.8231168;-15.784589767456055;-6.470876693725586;-136.93606567382812
286;1673391354.897958;47.1290445;7.238426199999999;54.36900329589844;1673391355.019673;-16.04261016845703;-7.54934024810791;-136.92477416992188
287;1673391355.0914803;47.129034499999996;7.2384125;54.75700378417969;1673391355.2310069;-16.791048049926758;-7.572523593902588;-136.88670349121094
288;1673391355.314677;47.129024799999996;7.238398999999999;55.147003173828125;1673391355.4551003;-17.892723083496094;-6.928493976593018;-137.08251953125
289;1673391355.5290463;47.1290152;7.2383856;55.53900146484375;1673391355.634765;-19.381881713867188;-5.505335807800293;-137.24725341796875
290;1673391355.7143402;47.1290056;7.238372399999999;55.927001953125;1673391355.8317015;-20.686199188232422;-4.1137776374816895;-137.6510467529297
291;1673391355.9187474;47.1289959;7.238359399999999;56.316001892089844;1673391356.041155;-21.320598602294922;-3.9604055881500244;-137.64706420898438
292;1673391356.1125586;47.1289861;7.238346399999999;56.71000289916992;1673391356.2380433;-21.910686492919922;-5.505452632904053;-137.1678466796875
293;1673391356.315835;47.1289762;7.2383332;57.10600280761719;1673391356.4433255;-21.83087730407715;-6.865206241607666;-136.84576416015625
294;1673391356.5143013;47.128966299999995;7.238319799999999;57.50200271606445;1673391356.6369894;-21.51270866394043;-8.052021980285645;-136.49661254882812
295;1673391356.7157724;47.1289563;7.238306199999999;57.89900207519531;1673391356.8433893;-21.323486328125;-7.936651229858398;-136.58287048339844
296;1673391356.9241753;47.128946299999996;7.238292599999999;58.298004150390625;1673391357.0614586;-20.866981506347656;-7.88585090637207;-136.530517578125
297;1673391357.148298;47.1289363;7.2382788;58.69200134277344;1673391357.2772994;-20.79414176940918;-6.556714057922363;-136.70635986328125
298;1673391357.3718066;47.128926299999996;7.238264999999999;59.08500289916992;1673391357.5032675;-20.33062171936035;-4.671356201171875;-137.1414794921875
299;1673391357.574936;47.1289162;7.238251099999999;59.47900390625;1673391357.6921315;-20.199922561645508;-4.1426262855529785;-137.34783935546875
300;1673391357.7664132;47.128906199999996;7.2382373;59.87300109863281;1673391357.8877814;-20.285898208618164;-3.7913894653320312;-137.42837524414062
301;1673391357.9580388;47.1288962;7.238223499999999;60.26900100708008;1673391358.0663307;-20.28668212890625;-4.032463550567627;-137.2931365966797
302;1673391358.1599672;47.1288863;7.2382098;60.66400146484375;1673391358.267598;-20.65757942199707;-3.7444982528686523;-137.13966369628906
303;1673391358.3453698;47.128876399999996;7.2381961;61.061004638671875;1673391358.4660218;-20.815126419067383;-4.369357109069824;-137.11509704589844
304;1673391358.5417376;47.1288665;7.2381823;61.461002349853516;1673391358.6652787;-21.136442184448242;-5.091848850250244;-137.06532287597656
305;1673391358.740331;47.1288566;7.2381685;61.8650016784668;1673391358.8489535;-20.976415634155273;-6.33739709854126;-136.84169006347656
306;1673391358.91799;47.128846599999996;7.238154799999999;62.269004821777344;1673391359.03147;-21.12323570251465;-6.609099864959717;-136.635498046875
307;1673391359.1067293;47.1288367;7.238141;62.66800308227539;1673391359.2441561;-20.988449096679688;-7.479065418243408;-136.5215606689453
308;1673391359.3200698;47.1288267;7.2381272999999995;63.06500244140625;1673391359.455487;-21.046363830566406;-7.846304893493652;-136.61643981933594
309;1673391359.5400858;47.128816699999994;7.2381135;63.465003967285156;1673391359.6473;-21.06175422668457;-8.291495323181152;-136.64341735839844
310;1673391359.725026;47.1288068;7.2380998;63.862003326416016;1673391359.884891;-20.815542221069336;-8.19548511505127;-136.59365844726562
311;1673391359.96423;47.128796799999996;7.2380859;64.26100158691406;1673391360.101727;-20.875186920166016;-8.645686149597168;-136.57765197753906
312;1673391360.1696708;47.1287868;7.238072;64.66100311279297;1673391360.293354;-20.861221313476562;-7.858438014984131;-136.9969940185547
313;1673391360.3637075;47.1287769;7.238058;65.06000518798828;1673391360.4699974;-20.786657333374023;-7.550329685211182;-137.05831909179688
314;1673391360.5453792;47.128766899999995;7.2380442;65.45700073242188;1673391360.6685982;-20.821533203125;-6.985045433044434;-137.00706481933594
315;1673391360.746698;47.1287569;7.238030299999999;65.85800170898438;1673391360.8646302;-20.780323028564453;-6.468145847320557;-137.22584533691406
316;1673391360.9384549;47.128746799999995;7.238016699999999;66.2560043334961;1673391361.10667;-20.830556869506836;-6.010219573974609;-137.27005004882812
317;1673391361.2135088;47.1287368;7.238003099999999;66.65299987792969;1673391361.3205373;-20.97901153564453;-5.5359416007995605;-137.23101806640625
318;1673391361.3871875;47.1287267;7.2379896;67.05000305175781;1673391361.4912865;-20.74106788635254;-5.246854782104492;-137.1845703125
319;1673391361.5567415;47.1287166;7.237976;67.44700622558594;1673391361.6656559;-20.85026741027832;-4.806225776672363;-137.10325622558594
320;1673391361.734517;47.1287065;7.2379624;67.84300231933594;1673391361.8560796;-20.98073387145996;-4.493626117706299;-137.15924072265625
321;1673391361.931089;47.1286965;7.2379488;68.23699951171875;1673391362.0479057;-21.30362892150879;-4.7165751457214355;-137.10397338867188
322;1673391362.1236656;47.128686599999995;7.237934999999999;68.63300323486328;1673391362.2404246;-21.21127700805664;-4.379621982574463;-137.24009704589844
323;1673391362.3269105;47.1286765;7.2379213;69.02900695800781;1673391362.4622195;-21.37196159362793;-4.338156223297119;-137.19276428222656
324;1673391362.5427868;47.1286665;7.2379074999999995;69.427001953125;1673391362.6703293;-21.051464080810547;-4.462657928466797;-137.33091735839844
325;1673391362.7465198;47.1286564;7.237893799999999;69.82500457763672;1673391362.870745;-21.091894149780273;-4.06344747543335;-137.4127960205078
326;1673391362.9446044;47.1286463;7.23788;70.21900177001953;1673391363.075485;-5.506392478942871;-5.113921642303467;-137.66641235351562
327;1673391363.148966;47.1286365;7.237866599999999;70.59100341796875;1673391363.2696815;0.9113832712173462;-5.032601356506348;-137.28013610839844
328;1673391363.3385491;47.1286275;7.237854199999999;70.927001953125;1673391363.4584172;5.989625453948975;-4.420907497406006;-137.02001953125
329;1673391363.5303285;47.1286195;7.237843;71.22700500488281;1673391363.6586585;10.760278701782227;-4.909589767456055;-136.50511169433594
330;1673391363.7333624;47.128612499999996;7.237833299999999;71.48800659179688;1673391363.8601646;12.40430736541748;-3.6181256771087646;-136.5140838623047
331;1673391363.9385743;47.1286065;7.237825;71.71100616455078;1673391364.0591996;13.768996238708496;-5.147286415100098;-136.49844360351562
332;1673391364.1350796;47.128601599999996;7.237818099999999;71.9050064086914;1673391364.2651634;13.083410263061523;-5.137538909912109;-136.6297607421875
333;1673391364.3443968;47.1285975;7.2378124999999995;72.07400512695312;1673391364.4669964;12.11552619934082;-6.118467807769775;-136.66432189941406
334;1673391364.54269;47.128594199999995;7.2378081;72.22100067138672;1673391364.6644077;10.546134948730469;-5.517966270446777;-136.54588317871094
335;1673391364.7343948;47.1285917;7.237804499999999;72.34200286865234;1673391364.8542128;11.881935119628906;17.109359741210938;-129.37847900390625
336;1673391364.933881;47.128589999999996;7.2378009;72.44200134277344;1673391365.0555844;8.183536529541016;23.45362091064453;-118.75419616699219
337;1673391365.140591;47.128589899999994;7.237796599999999;72.51300048828125;1673391365.2668176;4.437097072601318;15.764608383178711;-107.99681091308594
338;1673391365.3425658;47.128591;7.2377917;72.56500244140625;1673391365.4635177;0.15409180521965027;11.67635440826416;-98.74034118652344
339;1673391365.5408516;47.1285928;7.2377864;72.61600494384766;1673391365.667131;-0.6545604467391968;6.394508361816406;-89.56570434570312
340;1673391365.7584815;47.1285951;7.2377807;72.66600036621094;1673391365.885682;-2.0676369667053223;5.971584320068359;-81.44407653808594
341;1673391365.963164;47.1285975;7.2377749;72.70500183105469;1673391366.0814574;-2.95045804977417;5.59958028793335;-72.3844985961914
342;1673391366.159253;47.1286;7.2377690999999995;72.73600006103516;1673391366.2731874;-2.797860622406006;6.000339031219482;-62.607975006103516
343;1673391366.3550868;47.1286026;7.237763299999999;72.76399993896484;1673391366.4719763;-1.4899537563323975;6.240232944488525;-53.159912109375
344;1673391366.5466912;47.128605099999994;7.2377576999999995;72.78600311279297;1673391366.6783028;-0.6071406602859497;5.567965030670166;-43.753170013427734
345;1673391366.7834432;47.128607599999995;7.2377521;72.80500030517578;1673391366.898796;-0.44214820861816406;4.544832706451416;-39.24672317504883
346;1673391366.9651515;47.128609999999995;7.2377465999999995;72.81999969482422;1673391367.094084;-7.469865798950195;5.252650260925293;-41.905818939208984
347;1673391367.1731496;47.128612499999996;7.237741;72.83600616455078;1673391367.3273845;-34.122161865234375;5.215577602386475;-45.04692459106445
348;1673391367.394303;47.1286159;7.2377343;72.8740005493164;1673391367.5051339;-52.31282424926758;3.6818742752075195;-45.00804901123047
349;1673391367.5744874;47.128620999999995;7.2377248;72.92200469970703;1673391367.6979165;-61.23118591308594;0.5806360840797424;-43.10552215576172
350;1673391367.7999172;47.1286287;7.2377115;72.97200012207031;1673391367.9079366;-62.76386260986328;-1.1608277559280396;-42.58030700683594
351;1673391367.9876091;47.1286391;7.2376941;73.0060043334961;1673391368.1094227;-60.65821075439453;-0.7689375877380371;-43.3252067565918
352;1673391368.1849856;47.1286516;7.237673;73.01900482177734;1673391368.3044324;-57.426910400390625;1.007513403892517;-44.30326843261719
353;1673391368.3763273;47.128665899999994;7.2376492;73.02100372314453;1673391368.4899962;-55.19502258300781;2.4808735847473145;-44.90572738647461
354;1673391368.5573404;47.1286814;7.2376230999999995;73.01800537109375;1673391368.6759434;-56.31256866455078;3.563338041305542;-45.454532623291016
355;1673391368.7545555;47.1286981;7.2375954;73.01000213623047;1673391368.8689973;-55.39168930053711;3.6335320472717285;-45.03983688354492
356;1673391368.9395795;47.128715199999995;7.2375671;72.81300354003906;1673391369.058752;-40.122039794921875;2.048888683319092;-43.48189926147461
357;1673391369.1447396;47.1287324;7.2375387;72.26100158691406;1673391369.2797692;-4.2332353591918945;0.034077536314725876;-42.0505485534668
358;1673391369.3583202;47.128749299999996;7.2375107;71.34100341796875;1673391369.4878223;52.01800537109375;-2.571662425994873;-42.39404296875
359;1673391369.558809;47.1287661;7.2374827999999995;70.01399993896484;1673391369.6737418;70.94497680664062;-176.5440216064453;144.94354248046875
360;1673391369.7446985;47.1287829;7.2374548;68.3080062866211;1673391369.8594916;35.9461784362793;178.06661987304688;139.39663696289062
361;1673391369.9357321;47.1287996;7.2374269;66.24600219726562;1673391370.0557566;29.62769889831543;177.26556396484375;137.9606475830078
362;1673391370.1277847;47.1288159;7.2373994999999995;63.81200408935547;1673391370.2568824;52.81326675415039;173.7938232421875;134.6641082763672
363;1673391370.339183;47.1288318;7.237372499999999;61.02700424194336;1673391370.4612603;72.58955383300781;12.685776710510254;-26.178956985473633
364;1673391370.5317738;47.1288479;7.237345599999999;57.90400314331055;1673391370.6532493;1.6753126382827759;2.250816583633423;-37.4288330078125
365;1673391370.7288702;47.128864;7.2373185;54.384002685546875;1673391370.856742;-51.896240234375;0.8547341823577881;-37.571414947509766
366;1673391370.938613;47.1288797;7.2372919;50.48200225830078;1673391371.0683181;-65.72877502441406;-0.21193146705627441;-36.69239044189453
367;1673391371.1616874;47.1288951;7.2372657;46.26000213623047;1673391371.2818055;-36.87320327758789;1.1575994491577148;-37.16802978515625
368;1673391371.359604;47.12891;7.237239799999999;41.70500183105469;1673391371.4900758;29.054773330688477;1.5148338079452515;-35.187808990478516
369;1673391371.5737813;47.1289247;7.2372143;36.75800323486328;1673391371.6909719;87.1181869506836;79.94894409179688;44.29484176635742
370;1673391371.7678726;47.1289397;7.237188499999999;31.450000762939453;1673391371.8925734;75.6494369506836;166.1370391845703;130.887939453125
371;1673391371.9908352;47.1289546;7.2371628999999995;25.847002029418945;1673391372.1629522;65.71150970458984;8.002060890197754;-27.190534591674805
372;1673391372.2226837;47.1289695;7.2371373;19.952001571655273;1673391372.3358605;-6.423105239868164;2.405921459197998;-33.970359802246094
373;1673391372.4098158;47.128984599999995;7.237111499999999;13.679000854492188;1673391372.5218904;-56.3017692565918;0.6543108224868774;-33.3789176940918
374;1673391372.5980015;47.128999099999994;7.2370863;7.0420002937316895;1673391372.7156045;-48.23166275024414;0.7871822714805603;-32.12514114379883
375;1673391372.7926793;47.129013099999995;7.2370616;0.1080000028014183;1673391372.909881;-12.557805061340332;-5.868283271789551;-26.907447814941406
376;1673391372.9841561;47.1290304;7.2370464;0.6060000061988831;1673391373.100872;-13.28766918182373;1.1523785591125488;-19.946428298950195
377;1673391373.172748;47.129051499999996;7.2370281;0.7290000319480896;1673391373.2937841;-16.654468536376953;-2.175753593444824;-19.572021484375
378;1673391373.366678;47.129072699999995;7.2370103;0.8460000157356262;1673391373.4855156;-16.613178253173828;-4.012511730194092;-19.519575119018555
379;1673391373.560774;47.129093399999995;7.2369932;0.9460000395774841;1673391373.691871;-16.537885665893555;-4.333770751953125;-19.58163070678711
380;1673391373.7737517;47.1291156;7.236974999999999;1.0140000581741333;1673391373.896949;-16.469667434692383;-4.501410007476807;-19.64143180847168
381;1673391373.9759505;47.129139099999996;7.2369559;1.0850000381469727;1673391374.1058002;-16.38471031188965;-4.564803123474121;-19.710172653198242
382;1673391374.1824079;47.1291635;7.2369362;1.1180000305175781;1673391374.3018293;-16.325847625732422;-4.674286365509033;-19.757835388183594
383;1673391374.3768756;47.129188799999994;7.236915799999999;1.124000072479248;1673391374.4959135;-16.245473861694336;-4.655324935913086;-19.81240463256836
384;1673391374.5728436;47.129214999999995;7.236895;1.1130000352859497;1673391374.695432;-16.142377853393555;-4.625247001647949;-19.867578506469727
385;1673391374.7717984;47.129242;7.2368735;1.0890001058578491;1673391374.8988044;-16.054100036621094;-4.568951606750488;-19.92867660522461
386;1673391374.9728215;47.1292699;7.2368516;1.0540000200271606;1673391375.0900683;-15.998518943786621;-4.489073276519775;-19.972440719604492
387;1673391375.1669087;47.1292985;7.2368291;1.0140000581741333;1673391375.2893498;-15.885451316833496;-4.412798881530762;-20.05938720703125
388;1673391375.3620987;47.1293278;7.236806199999999;0.9800000190734863;1673391375.4856405;-15.84165096282959;-4.333191871643066;-20.100723266601562
389;1673391375.574908;47.129357899999995;7.236782799999999;0.9350000619888306;1673391375.7128105;-15.786725997924805;-4.1887736320495605;-20.170272827148438
390;1673391375.7897015;47.1293888;7.2367588;0.8820000290870667;1673391375.9067516;-15.677633285522461;-4.01599645614624;-20.206863403320312
391;1673391375.976904;47.1294204;7.2367344;0.8230000138282776;1673391376.0956962;-15.566973686218262;-3.8774895668029785;-20.26917266845703
392;1673391376.1655955;47.129452699999995;7.236709599999999;0.7600000500679016;1673391376.2876294;-15.526605606079102;-3.7059566974639893;-20.331941604614258
393;1673391376.3708646;47.1294857;7.236684299999999;0.6930000185966492;1673391376.4908206;-15.408246994018555;-3.521911382675171;-20.422075271606445
394;1673391376.5727713;47.1295194;7.236658599999999;0.6190000176429749;1673391376.7288222;-15.340553283691406;-3.3892898559570312;-20.485797882080078
395;1673391376.7998874;47.129553699999995;7.2366323999999995;0.5470000505447388;1673391376.90091;-15.23979377746582;-3.190122604370117;-20.547101974487305
396;1673391376.9688525;47.1295885;7.2366059;0.47700002789497375;1673391377.1080942;-15.1901216506958;-3.0388071537017822;-20.634031295776367
397;1673391377.2101288;47.129624;7.236579099999999;0.40800002217292786;1673391377.3979948;-15.090126037597656;-2.8471691608428955;-20.659826278686523
398;1673391377.4520411;47.1296599;7.236551899999999;0.34300002455711365;1673391377.5537806;-14.976304054260254;-2.699131488800049;-20.74302864074707
399;1673391377.618441;47.1296964;7.2365243999999995;0.2770000100135803;1673391377.7306614;-14.897127151489258;-2.5002517700195312;-20.801347732543945
400;1673391377.8040552;47.1297335;7.2364966;0.20900000631809235;1673391377.90676;-14.839951515197754;-2.36301326751709;-20.85671043395996
401;1673391377.9746084;47.1297715;7.2364681;0.12000000476837158;1673391378.0899012;-14.782819747924805;-2.163604736328125;-20.94719123840332
402;1673391378.165782;47.1298098;7.2364394999999995;0.04800000041723251;1673391378.2827315;-14.736825942993164;-1.9631685018539429;-20.98862075805664
403;1673391378.3632686;47.1298423;7.236415399999999;-0.010000000707805157;1673391378.4938319;-14.543099403381348;-1.7133796215057373;-21.061172485351562
404;;;;;1673391378.6949353;-14.455775260925293;-1.5187495946884155;-21.086933135986328
405;;;;;1673391378.9039543;-14.329324722290039;-1.136006236076355;-21.144317626953125
406;;;;;1673391379.0978658;-14.22976303100586;-0.8385456204414368;-21.185678482055664
407;;;;;1673391379.3098414;-14.099079132080078;-0.5556243062019348;-21.24195098876953
408;;;;;1673391379.5017717;-14.006105422973633;-0.3069649338722229;-21.317928314208984
