;pos_time;latitude;longitude;altitude;alt_time;pitch;roll;yaw
0;1673391608.285997;47.1306425;7.2406197;-0.0020000000949949026;1673391608.4126794;0.4654562473297119;-0.1767609715461731;90.17061614990234
1;1673391608.447394;47.1306425;7.240619799999999;-0.004000000189989805;1673391608.5846071;0.25128239393234253;-0.3812142610549927;90.05382537841797
2;1673391608.626585;47.1306425;7.240619799999999;-0.004000000189989805;1673391608.7788131;0.1782253384590149;-0.57881098985672;90.24879455566406
3;1673391608.8188248;47.1306425;7.2406198999999996;-0.003000000026077032;1673391608.9713044;0.09352400153875351;-0.47750672698020935;90.30998229980469
4;1673391609.0114846;47.1306425;7.2406198999999996;0.0;1673391609.159035;-0.1667300909757614;-0.42303553223609924;90.18647003173828
5;1673391609.2040203;47.1306425;7.2406198999999996;0.004000000189989805;1673391609.353003;-0.14035065472126007;-0.4718904197216034;90.26251983642578
6;1673391609.3988936;47.1306425;7.2406197;0.005000000353902578;1673391609.560647;0.03329405188560486;-0.4694913327693939;90.35651397705078
7;1673391609.6076815;47.1306425;7.2406197;0.0010000000474974513;1673391609.7645435;-0.08185464143753052;-0.2961663603782654;90.23065185546875
8;1673391609.8085399;47.1306425;7.2406196;-0.0020000000949949026;1673391609.9501731;0.029536137357354164;-0.39715686440467834;90.11312866210938
9;1673391609.9921236;47.1306425;7.2406196;-0.004000000189989805;1673391610.1530652;0.11477630585432053;-0.3214397728443146;90.08492279052734
10;1673391610.1979601;47.1306424;7.2406196;-0.003000000026077032;1673391610.3435645;-0.18181149661540985;-0.39619943499565125;90.16153717041016
11;1673391610.3904114;47.1306424;7.2406197;-0.0020000000949949026;1673391610.5581746;-0.05043531581759453;-0.18999676406383514;90.02420043945312
12;1673391610.6067433;47.1306424;7.2406197;-0.0020000000949949026;1673391610.7634754;0.07371705025434494;-0.3874492645263672;90.21826934814453
13;1673391610.8054295;47.1306424;7.2406197;-0.0010000000474974513;1673391610.9636369;-0.05329670384526253;-0.3498722314834595;90.12947845458984
14;1673391611.0026793;47.1306423;7.2406197;-0.0010000000474974513;1673391611.1736722;0.006113819312304258;-0.3232625424861908;90.1099853515625
15;1673391611.2166207;47.1306423;7.2406198999999996;0.0;1673391611.3729112;0.02535073272883892;-0.21248970925807953;90.01422119140625
16;1673391611.4119632;47.1306423;7.24062;-0.003000000026077032;1673391611.5499988;-0.010833213105797768;-0.22252555191516876;89.94686889648438
17;1673391611.5929422;47.1306423;7.24062;-0.004000000189989805;1673391611.7519932;-0.12105061858892441;-0.27490943670272827;90.0657958984375
18;1673391611.7921498;47.1306423;7.24062;-0.005000000353902578;1673391611.9502583;-0.0636681392788887;-0.25886422395706177;89.98505401611328
19;1673391611.995003;47.1306423;7.2406201;-0.006000000052154064;1673391612.1571012;-0.07535262405872345;-0.21346494555473328;90.01985931396484
20;1673391612.2007656;47.1306423;7.2406201;-0.00800000037997961;1673391612.351913;0.052131690084934235;-0.36649009585380554;90.1766357421875
21;1673391612.4018486;47.1306422;7.2406201;-0.009000000543892384;1673391612.5547364;-0.030920177698135376;-0.2508533298969269;90.14768981933594
22;1673391612.614998;47.1306422;7.2406201;-0.012000000104308128;1673391612.774798;0.030346181243658066;-0.537725031375885;90.25711822509766
23;1673391612.8190749;47.1306422;7.2406201;0.0;1673391612.9618776;0.37346699833869934;-0.5058172345161438;90.51399993896484
24;1673391613.0027835;47.1306422;7.2406201;0.0020000000949949026;1673391613.1539118;0.34613147377967834;0.027437129989266396;90.28345489501953
25;1673391613.1976972;47.1306422;7.2406201;0.0020000000949949026;1673391613.3446934;0.1183176264166832;-0.2389715313911438;90.32379150390625
26;1673391613.3838925;47.1306422;7.2406201;0.004000000189989805;1673391613.5447805;0.12829327583312988;-0.1875709593296051;90.42559051513672
27;1673391613.5938697;47.1306422;7.24062;0.004000000189989805;1673391613.752987;0.9634632468223572;-0.20580407977104187;90.45478057861328
28;1673391613.8016906;47.1306423;7.2406198999999996;0.0010000000474974513;1673391613.961766;1.6536413431167603;-0.03528483211994171;90.19392395019531
29;1673391614.006811;47.1306423;7.240619799999999;-0.0010000000474974513;1673391614.1684198;2.519390106201172;-0.2769874036312103;90.15081787109375
30;1673391614.2167208;47.1306423;7.2406197;-0.003000000026077032;1673391614.3728547;3.086153030395508;-0.10052657127380371;88.95793914794922
31;1673391614.4158323;47.1306424;7.2406197;-0.005000000353902578;1673391614.569408;-1.0471700429916382;-0.7669943571090698;83.44623565673828
32;1673391614.6256433;47.1306424;7.240619;-0.00800000037997961;1673391614.7818437;-6.132323265075684;1.8288848400115967;84.51641082763672
33;1673391614.8295941;47.1306424;7.2406178;-0.0010000000474974513;1673391614.9816396;-13.149520874023438;1.0497591495513916;86.11776733398438
34;1673391615.021803;47.1306423;7.2406159;0.017000000923871994;1673391615.1730008;-13.76663875579834;-0.8149340748786926;87.22599029541016
35;1673391615.214733;47.1306422;7.240613799999999;0.055000003427267075;1673391615.3662338;-14.924362182617188;2.182774782180786;86.96708679199219
36;1673391615.4078271;47.130641999999995;7.2406115;0.11100000888109207;1673391615.56608;-16.67307472229004;2.264608144760132;87.3835220336914
37;1673391615.609673;47.1306418;7.2406092;0.17900000512599945;1673391615.7745671;-18.537525177001953;-2.508924961090088;88.67528533935547
38;1673391615.8159413;47.130641499999996;7.240607;0.26200002431869507;1673391615.9634128;-20.546133041381836;-0.9481114149093628;88.74219512939453
39;1673391616.0098307;47.1306413;7.2406051;0.359000027179718;1673391616.1618338;-22.58419418334961;1.5324089527130127;88.4301528930664
40;1673391616.2014139;47.130641;7.2406036;0.4700000286102295;1673391616.3527565;-24.608003616333008;-1.8431425094604492;89.3604736328125
41;1673391616.401455;47.130641;7.2406028;0.5980000495910645;1673391616.5598037;-26.607328414916992;-3.5643370151519775;90.08454895019531
42;1673391616.6105247;47.1306412;7.240602699999999;0.7400000095367432;1673391616.7633646;-28.78754425048828;1.1939384937286377;89.21888732910156
43;1673391616.802803;47.1306413;7.2406033999999995;0.8920000195503235;1673391616.9641254;-27.348281860351562;-0.6755021810531616;89.51860809326172
44;1673391617.012426;47.130641499999996;7.2406052;1.0540000200271606;1673391617.2064884;-24.45867919921875;-3.3754522800445557;90.34827423095703
45;1673391617.2821395;47.1306417;7.2406076;1.2300000190734863;1673391617.4183722;-21.803186416625977;1.5523643493652344;89.03919219970703
46;1673391617.4554636;47.1306418;7.2406102;1.4200000762939453;1673391617.5972564;-18.415451049804688;0.7892881035804749;84.14329528808594
47;1673391617.6441698;47.1306419;7.2406127;1.6150001287460327;1673391617.788906;-16.06059455871582;-2.1275503635406494;85.9234848022461
48;1673391617.830724;47.130642099999996;7.240615;1.814000129699707;1673391617.9776497;-14.299903869628906;1.6669549942016602;85.3271484375
49;1673391618.018641;47.1306423;7.2406169;2.015000104904175;1673391618.1816754;-13.702692985534668;1.0982091426849365;85.64970397949219
50;1673391618.240247;47.1306423;7.2406181;2.2110002040863037;1673391618.3954077;-14.081646919250488;-2.733332633972168;87.3164291381836
51;1673391618.433559;47.1306424;7.2406188;2.4080002307891846;1673391618.5961814;-14.87110710144043;0.6256627440452576;86.90306091308594
52;1673391618.639288;47.1306424;7.2406191;2.6060001850128174;1673391618.8052943;-15.802203178405762;2.0742344856262207;86.8046875
53;1673391618.8446643;47.1306424;7.240619;2.81000018119812;1673391618.993313;-16.990468978881836;-2.0826303958892822;87.85041046142578
54;1673391619.0413067;47.1306425;7.2406188;3.0160000324249268;1673391619.2129145;-18.35373878479004;0.9877848625183105;87.24852752685547
55;1673391619.254881;47.130642599999995;7.2406185;3.2210001945495605;1673391619.4172006;-19.135072708129883;3.465953826904297;86.46504211425781
56;1673391619.4650884;47.1306425;7.2406182999999995;3.4250001907348633;1673391619.6097558;-19.340213775634766;-2.0567851066589355;87.4134292602539
57;1673391619.6585793;47.1306423;7.2406182;3.627000093460083;1673391619.807027;-19.881181716918945;-1.0401031970977783;87.26541900634766
58;1673391619.85095;47.130642099999996;7.2406182;3.830000162124634;1673391620.0131896;-19.712549209594727;2.369236946105957;86.31015014648438
59;1673391620.0581005;47.1306419;7.2406182999999995;4.038000106811523;1673391620.2200181;-19.475383758544922;-1.9353047609329224;86.9857177734375
60;1673391620.2645404;47.130641999999995;7.2406184;4.243000030517578;1673391620.411585;-19.107873916625977;-1.285637617111206;87.29505157470703
61;1673391620.4536417;47.130641999999995;7.2406187;4.453000068664551;1673391620.6098883;-18.873218536376953;2.819016695022583;86.20947265625
62;1673391620.6616998;47.130641999999995;7.240619;4.6620001792907715;1673391620.8094025;-18.50960922241211;-0.8723918795585632;86.84249114990234
63;1673391620.8504586;47.130641999999995;7.240619199999999;4.867000102996826;1673391621.0067413;-18.371814727783203;-2.065399646759033;87.35123443603516
64;1673391621.0477881;47.130641999999995;7.240619499999999;5.076000213623047;1673391621.1846058;-17.988933563232422;2.685641288757324;86.29153442382812
65;1673391621.2334173;47.130641999999995;7.2406197;5.283000469207764;1673391621.3850603;-18.08370018005371;0.7313582897186279;86.45072937011719
66;1673391621.434927;47.1306422;7.240619799999999;5.488000392913818;1673391621.5870924;-18.116025924682617;-1.3370864391326904;87.26802825927734
67;1673391621.6420345;47.1306424;7.2406198999999996;5.695000171661377;1673391621.7794387;-18.175331115722656;2.444240093231201;86.68711853027344
68;1673391621.8166294;47.1306424;7.24062;5.900000095367432;1673391621.96708;-18.277618408203125;2.0381417274475098;86.30289459228516
69;1673391622.0120058;47.1306423;7.24062;6.103000164031982;1673391622.1900268;-18.273792266845703;-2.5859360694885254;87.47356414794922
70;1673391622.2398474;47.1306422;7.24062;6.302000522613525;1673391622.4088755;-18.536865234375;1.209956407546997;86.45503234863281
71;1673391622.4528327;47.130642099999996;7.2406201;6.503000259399414;1673391622.59657;-18.364681243896484;2.1006410121917725;86.33843231201172
72;1673391622.6424255;47.1306422;7.2406201;6.705000400543213;1673391622.782367;-18.648086547851562;-2.1403462886810303;87.44483947753906
73;1673391622.820549;47.1306423;7.2406201;6.904000282287598;1673391622.9839704;-18.39165687561035;0.8320518732070923;86.8758316040039
74;1673391623.0309303;47.1306424;7.2406201;7.103000164031982;1673391623.1894639;-18.541746139526367;3.0339038372039795;86.26025390625
75;1673391623.2304528;47.1306423;7.2406201;7.302000522613525;1673391623.3852398;-18.5358829498291;-1.8888325691223145;87.31529998779297
76;1673391623.4301324;47.1306423;7.2406201;7.498000144958496;1673391623.5866551;-18.66870880126953;-0.25139930844306946;86.92761993408203
77;1673391623.633606;47.130642099999996;7.2406201999999995;7.694000244140625;1673391623.78134;-18.4649715423584;3.035661220550537;85.96432495117188
78;1673391623.829153;47.130642099999996;7.2406201999999995;7.890000343322754;1673391623.997886;-18.590087890625;-1.4428949356079102;87.05833435058594
79;1673391624.0459576;47.1306422;7.2406201999999995;8.084000587463379;1673391624.213799;-18.410045623779297;-0.6293051838874817;86.98089599609375
80;1673391624.25479;47.1306423;7.2406203;8.282999992370605;1673391624.408319;-18.543210983276367;3.652372121810913;85.99040985107422
81;1673391624.454225;47.1306423;7.2406203;8.47700023651123;1673391624.5898685;-18.38760757446289;-0.06515153497457504;86.55569458007812
82;1673391624.6279125;47.1306422;7.2406204;8.677000045776367;1673391624.7730083;-18.54428482055664;-1.4021646976470947;87.11558532714844
83;1673391624.8174825;47.1306422;7.2406204;8.87600040435791;1673391624.9763634;-18.450313568115234;2.887401580810547;85.94820404052734
84;1673391625.0276709;47.1306422;7.2406204;9.074000358581543;1673391625.1849568;-18.45305824279785;0.24048900604248047;86.7005386352539
85;1673391625.2310328;47.1306423;7.2406204;9.267000198364258;1673391625.4140065;-18.578754425048828;-2.147092819213867;87.37665557861328
86;1673391625.4561267;47.1306424;7.2406204;9.46500015258789;1673391625.600251;-18.46255874633789;3.224433660507202;86.02047729492188
87;1673391625.6482694;47.1306424;7.2406204999999995;9.664000511169434;1673391625.8018544;-18.200674057006836;1.2406857013702393;86.57042694091797
88;1673391625.8498404;47.1306423;7.2406206;9.862000465393066;1673391626.0092318;-18.49224281311035;-2.617239475250244;87.4823226928711
89;1673391626.0492854;47.1306423;7.2406204999999995;10.057000160217285;1673391626.1948915;-18.43155860900879;1.7853208780288696;86.50969696044922
90;1673391626.2438016;47.1306423;7.2406206;10.269000053405762;1673391626.4033642;-21.389545440673828;1.6978031396865845;86.50032043457031
91;1673391626.4531903;47.1306423;7.240620799999999;10.556000709533691;1673391626.606612;-22.12883758544922;-1.9307688474655151;87.30413818359375
92;1673391626.6501293;47.1306425;7.2406216;10.914000511169434;1673391626.8057675;-18.700241088867188;-0.5169948935508728;87.36582946777344
93;1673391626.8460455;47.130642699999996;7.2406226;11.294000625610352;1673391627.0082302;-16.991565704345703;3.5719330310821533;86.39862823486328
94;1673391627.0494182;47.130642699999996;7.240623599999999;11.687000274658203;1673391627.2002957;-15.284650802612305;0.04684997722506523;87.04762268066406
95;1673391627.2454436;47.1306428;7.2406242999999995;12.084000587463379;1673391627.401352;-14.721766471862793;-0.8813499808311462;87.31982421875
96;1673391627.4543417;47.1306428;7.240624599999999;12.480000495910645;1673391627.621266;-14.45158863067627;3.249063491821289;86.25057983398438
97;1673391627.6723077;47.130642699999996;7.240624599999999;12.872000694274902;1673391627.8209448;-15.113909721374512;0.8515614867210388;86.73001098632812
98;1673391627.8668237;47.130642699999996;7.2406244;13.257000923156738;1673391628.0167823;-15.511879920959473;-1.507311224937439;87.43153381347656
99;1673391628.065737;47.130642699999996;7.2406239;13.630001068115234;1673391628.2394204;-16.838138580322266;2.4627175331115723;86.48119354248047
100;1673391628.2827175;47.130642599999995;7.240623299999999;14.000000953674316;1673391628.4200788;-17.403059005737305;0.5430495738983154;86.77428436279297
101;1673391628.4651031;47.1306424;7.240622699999999;14.36500072479248;1673391628.61556;-18.527751922607422;-2.3795454502105713;87.57296752929688
102;1673391628.6567245;47.1306423;7.2406220999999995;14.724000930786133;1673391628.7884274;-18.895397186279297;1.5178720951080322;86.77300262451172
103;1673391628.8276286;47.1306423;7.2406216;15.088000297546387;1673391628.9764946;-19.248390197753906;1.9680190086364746;86.595458984375
104;1673391629.0226762;47.1306424;7.2406213;15.450000762939453;1673391629.1865373;-19.264846801757812;-1.893442988395691;87.7339859008789
105;1673391629.2333858;47.1306424;7.240621099999999;15.816000938415527;1673391629.3857877;-19.003334045410156;1.5544131994247437;86.94927215576172
106;1673391629.4290268;47.1306424;7.2406212;16.189001083374023;1673391629.5657883;-18.733896255493164;2.4975993633270264;86.46546936035156
107;1673391629.6133776;47.1306424;7.2406213;16.56599998474121;1673391629.7721593;-18.30549430847168;-1.5453649759292603;87.47074127197266
108;1673391629.816169;47.1306424;7.2406215;16.940000534057617;1673391629.9760036;-18.064422607421875;0.7665892243385315;87.0407943725586
109;1673391630.022468;47.1306424;7.2406216;17.312000274658203;1673391630.1832743;-17.800230026245117;3.2251017093658447;86.41596984863281
110;1673391630.2327492;47.1306424;7.240621699999999;17.69099998474121;1673391630.389293;-17.287456512451172;-1.4972487688064575;87.44752502441406
111;1673391630.4353254;47.1306425;7.2406217999999996;18.06800079345703;1673391630.577053;-17.472332000732422;0.09795922785997391;87.25067138671875
112;1673391630.6197371;47.1306425;7.2406219;18.450000762939453;1673391630.7728922;-17.186439514160156;3.075570583343506;86.37890625
113;1673391630.8232126;47.1306423;7.240622;18.830001831054688;1673391630.9801326;-17.300987243652344;-0.7949374318122864;87.04501342773438
114;1673391631.031496;47.1306423;7.2406219;19.20800018310547;1673391631.185598;-17.659564971923828;-1.3117982149124146;87.32221221923828
115;1673391631.2290936;47.1306423;7.240621699999999;19.57900047302246;1673391631.389661;-17.888134002685547;3.0314295291900635;86.35177612304688
116;1673391631.4305525;47.1306423;7.2406216;19.953001022338867;1673391631.5855372;-17.937475204467773;0.7295418977737427;86.82428741455078
117;1673391631.6290236;47.1306424;7.240621399999999;20.326000213623047;1673391631.7972503;-18.227115631103516;-1.1270439624786377;87.32328796386719
118;1673391631.8480053;47.1306425;7.2406213;20.69700050354004;1673391632.0073547;-18.18531036376953;3.3379428386688232;86.33439636230469
119;1673391632.046429;47.1306424;7.2406212;21.075000762939453;1673391632.202087;-17.938570022583008;1.0504674911499023;86.8464126586914
120;1673391632.246972;47.1306424;7.2406212;21.451000213623047;1673391632.4005733;-18.216279983520508;-1.69158136844635;87.4474105834961
121;1673391632.449585;47.1306424;7.2406212;21.830001831054688;1673391632.612829;-17.949100494384766;2.3282902240753174;86.62081909179688
122;1673391632.6558566;47.1306424;7.240621099999999;22.203001022338867;1673391632.813694;-18.210031509399414;2.040950059890747;86.72217559814453
123;1673391632.8811684;47.1306425;7.240621099999999;22.58300018310547;1673391633.038426;-18.000410079956055;-1.7035640478134155;87.64079284667969
124;1673391633.105438;47.1306425;7.240621;22.97100067138672;1673391633.268904;-18.167186737060547;2.0654428005218506;86.72703552246094
125;1673391633.3065846;47.1306425;7.2406209;23.35700035095215;1673391633.4312875;-18.026296615600586;2.4414846897125244;86.46638488769531
126;1673391633.4723136;47.1306424;7.2406209;23.744001388549805;1673391633.613104;-18.17282485961914;-1.7646045684814453;87.48341369628906
127;1673391633.655073;47.1306424;7.240620799999999;24.12700080871582;1673391633.801887;-17.965471267700195;0.827454686164856;87.0537338256836
128;1673391633.8469067;47.1306424;7.240620799999999;24.503000259399414;1673391634.001261;-18.195823669433594;3.506007194519043;86.35226440429688
129;1673391634.0461557;47.1306425;7.2406207;24.88800048828125;1673391634.206482;-18.27273941040039;-0.8356332778930664;87.30463409423828
130;1673391634.2621717;47.130642599999995;7.2406207;25.27800178527832;1673391634.4009078;-18.09599494934082;0.40453240275382996;87.10293579101562
131;1673391634.446115;47.130642599999995;7.2406206;25.66900062561035;1673391634.6261818;-17.940717697143555;4.054322242736816;86.22400665283203
132;1673391634.6672504;47.1306425;7.2406206;26.058000564575195;1673391634.827828;-18.071090698242188;-0.42703068256378174;87.03878021240234
133;1673391634.863016;47.1306424;7.2406206;26.44700050354004;1673391635.0005453;-18.011432647705078;-0.4916664958000183;87.3153305053711
134;1673391635.0416036;47.1306424;7.2406206;26.838001251220703;1673391635.1961763;-18.0639705657959;3.6667330265045166;86.40612030029297
135;1673391635.238143;47.1306424;7.2406206;27.222002029418945;1673391635.393298;-18.123388290405273;0.36622121930122375;86.99754333496094
136;1673391635.441696;47.1306424;7.2406204999999995;27.615001678466797;1673391635.6310227;-18.264455795288086;-1.0527966022491455;87.25172424316406
137;1673391635.7155657;47.1306423;7.2406204999999995;28.006000518798828;1673391635.8941433;-18.178062438964844;2.8910274505615234;86.20600891113281
138;1673391635.9288495;47.130642099999996;7.2406204999999995;28.395000457763672;1673391636.051459;-17.80892562866211;1.3957595825195312;86.60327911376953
139;1673391636.0897312;47.130641999999995;7.2406204999999995;28.78400230407715;1673391636.2284508;-18.265974044799805;-2.2274816036224365;87.46279907226562
140;1673391636.2666647;47.130641999999995;7.2406204999999995;29.174001693725586;1673391636.4084256;-18.01758575439453;2.1692821979522705;86.63002014160156
141;1673391636.448454;47.130641999999995;7.2406204999999995;29.5570011138916;1673391636.598107;-18.245616912841797;2.695185899734497;86.45360565185547
142;1673391636.6420143;47.130642099999996;7.2406204;29.94700050354004;1673391636.8168988;-18.161775588989258;-1.615585207939148;87.47313690185547
143;1673391636.8666744;47.130642099999996;7.2406204;30.33700180053711;1673391637.0134578;-18.185976028442383;1.9219261407852173;86.76271057128906
144;1673391637.0624516;47.130642099999996;7.2406204;30.72500228881836;1673391637.2412853;-18.343242645263672;2.6350643634796143;86.4217758178711
145;1673391637.2882907;47.130641999999995;7.2406204;31.117000579833984;1673391637.4503615;-18.309789657592773;-1.720841646194458;87.41026306152344
146;1673391637.4933422;47.130641999999995;7.2406204;31.512001037597656;1673391637.6410108;-18.18017578125;0.8802747130393982;86.92838287353516
147;1673391637.6821241;47.130642099999996;7.2406204;31.907001495361328;1673391637.832784;-18.20977210998535;3.624569892883301;86.3060302734375
148;1673391637.872872;47.1306422;7.2406204;32.29300308227539;1673391638.0223076;-18.22357940673828;-0.8856244087219238;87.4690933227539
149;1673391638.0633519;47.1306422;7.2406203;32.68300247192383;1673391638.2422159;-18.404268264770508;-0.3681216537952423;87.24044799804688
150;1673391638.286121;47.1306422;7.2406203;33.07699966430664;1673391638.4209213;-18.209468841552734;3.2630207538604736;86.32574462890625
151;1673391638.4589853;47.130642099999996;7.2406203;33.470001220703125;1673391638.6055446;-18.166715621948242;-0.4413996636867523;87.19326782226562
152;1673391638.6533637;47.130642099999996;7.2406203;33.86600112915039;1673391638.8193243;-18.2648983001709;-0.5766369104385376;87.43209838867188
153;1673391638.8789234;47.1306423;7.2406204;34.263999938964844;1673391639.0275898;-18.11461067199707;3.904766082763672;86.43187713623047
154;1673391639.0763843;47.1306423;7.2406203;34.65299987792969;1673391639.22702;-18.199050903320312;0.8359363079071045;87.00191497802734
155;1673391639.2770143;47.1306425;7.2406203;35.04800033569336;1673391639.425554;-18.459192276000977;-1.1152693033218384;87.6384506225586
156;1673391639.4675212;47.1306425;7.2406203;35.44600296020508;1673391639.6166852;-18.225900650024414;3.4340991973876953;86.4200668334961
157;1673391639.658677;47.1306424;7.2406203;35.84300231933594;1673391639.8146446;-18.124160766601562;1.6990693807601929;86.6103515625
158;1673391639.8588672;47.1306423;7.2406204;36.24100112915039;1673391640.0216265;-18.21647834777832;-1.4860652685165405;87.55410766601562
159;1673391640.0655444;47.1306424;7.2406204;36.634002685546875;1673391640.2386162;-17.956689834594727;2.734884262084961;86.67633056640625
160;1673391640.2865896;47.1306424;7.2406204;37.02900314331055;1673391640.443138;-18.060976028442383;2.151175022125244;86.59847259521484
161;1673391640.4810221;47.1306424;7.2406204;37.413002014160156;1673391640.6452434;-18.251157760620117;-1.6093528270721436;87.5465316772461
162;1673391640.6913345;47.1306424;7.2406204;37.80400085449219;1673391640.8504581;-18.1646728515625;2.143944025039673;86.87047576904297
163;1673391640.8982954;47.1306424;7.2406204;38.194000244140625;1673391641.0567265;-18.06270408630371;2.5636162757873535;86.61593627929688
164;1673391641.0978296;47.1306423;7.2406204;38.58500289916992;1673391641.2463517;-18.31840705871582;-1.3892985582351685;87.50749206542969
165;1673391641.3092127;47.1306424;7.2406203;38.980003356933594;1673391641.4534264;-18.253530502319336;1.8414971828460693;86.96665954589844
166;1673391641.488562;47.1306425;7.2406203;39.37300109863281;1673391641.6442876;-18.216442108154297;3.908031702041626;86.3586654663086
167;1673391641.689811;47.1306425;7.2406203;39.75700378417969;1673391641.8336253;-18.2299861907959;-0.7302827835083008;87.33477783203125
168;1673391641.877545;47.1306425;7.2406203;40.14600372314453;1673391642.036807;-18.174861907958984;0.8832783699035645;86.9561996459961
169;1673391642.0768237;47.1306425;7.2406203;40.54100036621094;1673391642.2185335;-18.300594329833984;3.578291654586792;86.15015411376953
170;1673391642.2624412;47.1306424;7.2406203;40.93600082397461;1673391642.4216425;-18.251195907592773;-0.08670947700738907;87.08688354492188
171;1673391642.4588149;47.1306424;7.2406201999999995;41.33400344848633;1673391642.618634;-18.26918601989746;-0.2550196051597595;87.30511474609375
172;1673391642.6664593;47.1306425;7.2406201999999995;41.730003356933594;1673391642.815235;-18.32598114013672;3.929131031036377;86.35796356201172
173;1673391642.865092;47.1306424;7.2406201;42.12700271606445;1673391643.0256398;-18.290752410888672;0.6299344897270203;87.06326293945312
174;1673391643.0666225;47.1306424;7.2406201;42.51400375366211;1673391643.221766;-18.425485610961914;-1.5945690870285034;87.5900650024414
175;1673391643.271642;47.1306423;7.2406201;42.90700149536133;1673391643.4351113;-18.301197052001953;3.336852550506592;86.28511047363281
176;1673391643.4829307;47.1306423;7.2406201;43.302001953125;1673391643.637487;-18.424179077148438;1.6315997838974;86.6560287475586
177;1673391643.6813903;47.1306423;7.2406201;43.70000076293945;1673391643.8290367;-18.331995010375977;-1.3889570236206055;87.63607025146484
178;1673391643.8700202;47.1306424;7.24062;44.09600067138672;1673391644.0117645;-18.22732925415039;2.965533971786499;86.63810729980469
179;1673391644.0528052;47.1306424;7.24062;44.493003845214844;1673391644.2090364;-18.263755798339844;3.1676769256591797;86.46590423583984
180;1673391644.252015;47.1306425;7.24062;44.88100051879883;1673391644.4181354;-18.406938552856445;-0.9256117343902588;87.42364501953125
181;1673391644.4630313;47.1306424;7.24062;45.277000427246094;1673391644.6252816;-18.49578285217285;1.8704484701156616;86.82113647460938
182;1673391644.6663008;47.1306424;7.24062;45.67500305175781;1673391644.8170497;-18.15370750427246;3.142439842224121;86.44022369384766
183;1673391644.8640158;47.1306424;7.24062;46.079002380371094;1673391645.0184257;-18.616321563720703;-0.3902544677257538;87.30699157714844
184;1673391645.0619113;47.1306425;7.2406198999999996;46.480003356933594;1673391645.2171636;-18.344343185424805;0.7741657495498657;87.1991958618164
185;1673391645.2874355;47.130642599999995;7.2406198999999996;46.88100051879883;1673391645.4451332;-18.234554290771484;4.167977333068848;86.31697845458984
186;1673391645.490254;47.130642599999995;7.2406198999999996;47.28000259399414;1673391645.625994;-18.36589241027832;-0.1282212734222412;87.08990478515625
187;1673391645.6695962;47.1306425;7.2406198999999996;47.6670036315918;1673391645.8177688;-18.508182525634766;-0.005962056573480368;87.19647979736328
188;1673391645.858761;47.1306425;7.2406198999999996;48.05900192260742;1673391646.0129373;-18.852313995361328;4.42821741104126;86.24800109863281
189;1673391646.0549865;47.1306424;7.240619799999999;48.419002532958984;1673391646.2347002;-18.392578125;-0.1173722967505455;87.07954406738281
190;1673391646.2894864;47.1306424;7.2406197;48.730003356933594;1673391646.4206305;-18.4145450592041;0.45769447088241577;87.02117919921875
191;1673391646.4626613;47.1306425;7.240619499999999;48.99700164794922;1673391646.6258857;-18.5714111328125;4.039952278137207;86.3039779663086
192;1673391646.6718097;47.1306425;7.240619199999999;49.21900177001953;1673391646.8306077;-14.282012939453125;5.311054706573486;86.6575698852539
193;1673391646.882509;47.1306424;7.2406188;49.39200210571289;1673391647.0363398;6.732990264892578;25.229570388793945;95.39202117919922
194;1673391647.0812364;47.1306417;7.2406174;49.54300308227539;1673391647.232778;16.126882553100586;43.6073112487793;107.88156127929688
195;1673391647.273855;47.1306393;7.240613199999999;49.67400360107422;1673391647.421927;15.243938446044922;55.48565673828125;114.75820922851562
196;1673391647.465844;47.1306346;7.2406051;49.75600051879883;1673391647.627527;0.678098201751709;55.4362678527832;123.32793426513672
197;1673391647.6675436;47.130627;7.240592899999999;49.80500411987305;1673391647.808917;-13.875638008117676;56.282466888427734;134.1150665283203
198;1673391647.8661592;47.130617;7.240577099999999;49.83700180053711;1673391648.0383294;-26.40468406677246;51.333839416503906;145.80059814453125
199;1673391648.081437;47.1306047;7.240558099999999;49.85200119018555;1673391648.226314;-38.29774856567383;47.11543273925781;157.06837463378906
200;1673391648.276326;47.1305905;7.2405358;49.85000228881836;1673391648.437709;-46.587955474853516;40.41044235229492;167.95652770996094
201;1673391648.4816906;47.1305743;7.2405108;49.82500076293945;1673391648.6361125;-48.02747344970703;28.27606773376465;178.24957275390625
202;1673391648.694251;47.1305566;7.2404836999999995;49.7920036315918;1673391648.8426707;-48.10691833496094;21.23729133605957;-173.5176239013672
203;1673391648.8836648;47.1305378;7.2404549;49.759002685546875;1673391649.0302913;-51.82723617553711;15.693395614624023;-165.87393188476562
204;1673391649.06742;47.1305182;7.2404249;49.715003967285156;1673391649.2167659;-50.34638214111328;6.072261333465576;-157.43023681640625
205;1673391649.2597651;47.1304978;7.240393699999999;49.65700149536133;1673391649.420375;-48.563777923583984;3.9174907207489014;-151.83810424804688
206;1673391649.46821;47.130477;7.2403623999999995;49.62000274658203;1673391649.6190548;-47.91545104980469;-0.11424479633569717;-145.03396606445312
207;1673391649.6591198;47.1304558;7.2403303;49.58000183105469;1673391649.8206286;-44.50069046020508;-6.429825782775879;-137.0389862060547
208;1673391649.8725333;47.1304345;7.2402976;49.54600143432617;1673391650.0403423;-43.45981216430664;-14.67319393157959;-132.46624755859375
209;1673391650.0862122;47.1304132;7.2402649;49.52900314331055;1673391650.2249792;-45.464290618896484;-16.410715103149414;-135.34481811523438
210;1673391650.2689402;47.130391599999996;7.2402326;49.52800369262695;1673391650.430342;-46.2069206237793;-13.277603149414062;-139.6605224609375
211;1673391650.4782298;47.130369599999995;7.2402007;49.54500198364258;1673391650.6241145;-47.89284133911133;-12.899081230163574;-140.43548583984375
212;1673391650.666082;47.1303473;7.2401694;49.570003509521484;1673391650.8150766;-48.71296691894531;-11.388581275939941;-141.0150604248047
213;1673391650.858596;47.130324699999996;7.2401389;49.59800338745117;1673391651.01236;-49.20795440673828;-9.323376655578613;-141.3855743408203
214;1673391651.0603986;47.1303017;7.240108299999999;49.624000549316406;1673391651.2251484;-48.37834548950195;-9.121224403381348;-140.9838409423828
215;1673391651.2731473;47.1302786;7.240077599999999;49.6400032043457;1673391651.4170072;-46.422019958496094;-8.727029800415039;-140.68142700195312
216;1673391651.4595933;47.130255299999995;7.240046899999999;49.65500259399414;1673391651.611641;-45.747127532958984;-8.739249229431152;-140.18923950195312
217;1673391651.6658607;47.130232;7.2400161999999995;49.67100143432617;1673391651.8328538;-46.51443099975586;-8.876891136169434;-139.94525146484375
218;1673391651.883621;47.1302087;7.2399854999999995;49.691001892089844;1673391652.049949;-47.09940719604492;-8.950117111206055;-139.7633056640625
219;1673391652.0890076;47.130185499999996;7.239954999999999;49.71000289916992;1673391652.2323706;-47.25437927246094;-8.927678108215332;-139.59945678710938
220;1673391652.2811532;47.1301622;7.239924299999999;49.730003356933594;1673391652.426934;-47.039669036865234;-8.84250545501709;-139.51693725585938
221;1673391652.474995;47.1301389;7.2398934;49.749000549316406;1673391652.625898;-47.001522064208984;-8.931975364685059;-139.39466857910156
222;1673391652.6747096;47.130115499999995;7.2398625;49.7650032043457;1673391652.843015;-47.07707214355469;-8.938161849975586;-139.33963012695312
223;1673391652.8830745;47.1300922;7.2398313;49.77800369262695;1673391653.0235052;-47.00468063354492;-8.947590827941895;-139.29823303222656
224;1673391653.0654788;47.1300689;7.2398001999999995;49.78700256347656;1673391653.2212508;-46.82358932495117;-8.936439514160156;-139.24484252929688
225;1673391653.2707286;47.1300457;7.239769;49.7920036315918;1673391653.4301271;-46.66341781616211;-8.89588451385498;-139.1631317138672
226;1673391653.4834144;47.130022399999994;7.239738;49.79500198364258;1673391653.6342692;-46.69773483276367;-8.852540969848633;-139.12266540527344
227;1673391653.6811857;47.1299992;7.2397067999999996;49.80000305175781;1673391653.8396912;-46.98576736450195;-8.935739517211914;-139.0972900390625
228;1673391653.8816595;47.129976;7.2396755;49.80400085449219;1673391654.0293732;-47.04501724243164;-8.996060371398926;-139.10281372070312
229;1673391654.0743814;47.1299529;7.2396441;49.80800247192383;1673391654.2297444;-47.18347930908203;-9.036005020141602;-139.11505126953125
230;1673391654.287446;47.1299297;7.2396126999999995;49.81700134277344;1673391654.4439836;-47.42974090576172;-9.063385963439941;-139.114501953125
231;1673391654.4919343;47.1299065;7.2395812;49.82500076293945;1673391654.6406293;-47.55894088745117;-9.023504257202148;-139.12783813476562
232;1673391654.6827857;47.129883299999996;7.2395499;49.83000183105469;1673391654.8239343;-47.246437072753906;-8.86605167388916;-139.1715087890625
233;1673391654.8670084;47.129860099999995;7.2395184;49.832000732421875;1673391655.023826;-46.91810607910156;-8.826070785522461;-139.14976501464844
234;1673391655.0684829;47.1298369;7.239486899999999;49.836002349853516;1673391655.2413504;-47.050594329833984;-8.917624473571777;-139.12416076660156
235;1673391655.2872207;47.1298138;7.2394552999999995;49.83500289916992;1673391655.4351223;-47.22404861450195;-9.008378028869629;-139.140625
236;1673391655.4751372;47.1297906;7.2394237;49.83500289916992;1673391655.6283956;-47.26543426513672;-9.015528678894043;-139.20472717285156
237;1673391655.6744251;47.1297674;7.2393921;49.8380012512207;1673391655.8265164;-47.158634185791016;-8.994142532348633;-139.23402404785156
238;1673391655.8781533;47.1297443;7.2393604;49.8390007019043;1673391656.0525346;-47.135013580322266;-8.966136932373047;-139.2469024658203
239;1673391656.0945024;47.1297211;7.239328899999999;49.84300231933594;1673391656.224962;-47.225460052490234;-8.904095649719238;-139.2653045654297
240;1673391656.2668033;47.1296979;7.2392973;49.84600067138672;1673391656.4355288;-47.16767501831055;-8.839009284973145;-139.2928466796875
241;1673391656.4982336;47.1296748;7.2392658;49.842002868652344;1673391656.6532586;-46.72221374511719;-8.734253883361816;-139.3311309814453
242;1673391656.6972888;47.129651599999995;7.2392341;49.836002349853516;1673391656.8519874;-46.35314178466797;-8.686266899108887;-139.34312438964844
243;1673391656.896883;47.129628499999995;7.239202499999999;49.829002380371094;1673391657.0495372;-46.44255828857422;-8.759737968444824;-139.3061981201172
244;1673391657.098596;47.129605399999996;7.239171;49.8280029296875;1673391657.2410858;-47.030887603759766;-8.789864540100098;-139.36474609375
245;1673391657.2821407;47.129582299999996;7.2391394;49.8380012512207;1673391657.4254198;-47.647151947021484;-8.833087921142578;-139.4085693359375
246;1673391657.4640145;47.129559199999996;7.2391079;49.849002838134766;1673391657.6146023;-47.83597183227539;-8.756194114685059;-139.5406951904297
247;1673391657.6614988;47.129536099999996;7.2390761999999995;49.858001708984375;1673391657.8251958;-47.45112991333008;-8.570804595947266;-139.65017700195312
248;1673391657.875506;47.129512899999995;7.239044499999999;49.8640022277832;1673391658.0395055;-47.092803955078125;-8.475537300109863;-139.67529296875
249;1673391658.0864978;47.1294896;7.2390129;49.867000579833984;1673391658.2514293;-46.99370193481445;-8.42152214050293;-139.74781799316406
250;1673391658.3021827;47.1294664;7.238981099999999;49.868003845214844;1673391658.4646523;-47.06199264526367;-8.36559772491455;-139.82119750976562
251;1673391658.5066178;47.1294433;7.2389494999999995;49.87000274658203;1673391658.639528;-47.27788543701172;-10.191210746765137;-139.55311584472656
252;1673391658.6805248;47.1294201;7.238917799999999;49.880001068115234;1673391658.8246114;-48.072998046875;-11.95341682434082;-139.91098022460938
253;1673391658.8651865;47.129396799999995;7.2388863;49.8900032043457;1673391659.017994;-47.149776458740234;-15.161774635314941;-140.14344787597656
254;1673391659.0614896;47.129373199999996;7.2388552;49.90200424194336;1673391659.2143667;-47.20507049560547;-14.803481101989746;-141.2239990234375
255;1673391659.2588136;47.129349399999995;7.2388246999999994;49.906002044677734;1673391659.4322255;-43.8302116394043;-15.48849105834961;-141.8338165283203
256;1673391659.474732;47.1293254;7.2387948;49.92100143432617;1673391659.6485636;-29.55986785888672;-15.09642505645752;-141.95272827148438
257;1673391659.697596;47.1293015;7.2387657999999995;49.94700241088867;1673391659.8687317;-9.996355056762695;-14.474312782287598;-139.91456604003906
258;1673391659.9147403;47.1292787;7.238738499999999;49.97600173950195;1673391660.058182;8.433943748474121;-11.146581649780273;-137.2941131591797
259;1673391660.1011457;47.1292577;7.2387134;49.99100112915039;1673391660.2771044;20.801837921142578;-9.569075584411621;-136.03111267089844
260;1673391660.3258903;47.129239299999995;7.238690999999999;49.98600387573242;1673391660.4810266;28.675273895263672;-5.475883960723877;-137.47726440429688
261;1673391660.5181005;47.129224;7.2386716;49.93700408935547;1673391660.680827;22.040210723876953;-7.6617608070373535;-135.22738647460938
262;1673391660.738475;47.1292116;7.2386551;49.867000579833984;1673391660.9166949;27.703441619873047;-8.333257675170898;-134.23439025878906
263;1673391660.9641645;47.129201599999995;7.238641299999999;49.81200408935547;1673391661.1132298;32.163028717041016;-13.140237808227539;-133.93247985839844
264;1673391661.1586823;47.129193699999995;7.2386304;49.79500198364258;1673391661.297983;24.14376449584961;-16.512853622436523;-134.41827392578125
265;1673391661.3406575;47.129187599999995;7.238622599999999;49.83100128173828;1673391661.4825516;14.302434921264648;-18.537778854370117;-134.61351013183594
266;1673391661.5254986;47.1291827;7.2386167;49.87600326538086;1673391661.6909213;4.913013935089111;-16.01253318786621;-134.7046661376953
267;1673391661.7335944;47.1291784;7.2386118999999995;49.915000915527344;1673391661.8772247;-0.9821545481681824;-12.741313934326172;-135.3096466064453
268;1673391661.9194226;47.1291744;7.2386072;49.94600296020508;1673391662.0685613;-1.0977779626846313;-11.750081062316895;-135.25306701660156
269;1673391662.1134963;47.1291704;7.2386023999999995;49.97200393676758;1673391662.247492;0.8838565945625305;-10.54818058013916;-134.64747619628906
270;1673391662.2901735;47.1291665;7.2385972;49.993003845214844;1673391662.4495924;5.477560997009277;-10.871748924255371;-134.41156005859375
271;1673391662.4915645;47.1291626;7.2385915;50.018001556396484;1673391662.6439965;9.566398620605469;-9.786722183227539;-133.9540252685547
272;1673391662.6899483;47.1291588;7.2385858;50.0410041809082;1673391662.8492055;12.3678617477417;-9.999610900878906;-134.09027099609375
273;1673391662.8952672;47.129155399999995;7.2385803;50.06500244140625;1673391663.0495613;1.0409337282180786;-10.09006118774414;-134.29592895507812
274;1673391663.0964649;47.1291522;7.2385752;50.10300064086914;1673391663.2412424;-27.173561096191406;-12.039337158203125;-134.04656982421875
275;1673391663.2871823;47.1291486;7.238569399999999;50.173004150390625;1673391663.4371152;-22.203035354614258;-5.524858474731445;-136.75608825683594
276;1673391663.5020669;47.129143899999995;7.2385619;50.31300354003906;1673391663.6385226;-17.996707916259766;-4.275533676147461;-137.2443084716797
277;1673391663.6927454;47.129138399999995;7.2385527;50.54900360107422;1673391663.859223;-28.840734481811523;-11.415103912353516;-136.889404296875
278;1673391663.9022012;47.1291322;7.238541799999999;50.875003814697266;1673391664.0577192;-35.307437896728516;-22.076478958129883;-137.4335479736328
279;1673391664.1016226;47.129124499999996;7.2385296;51.26100158691406;1673391664.2569168;-29.41670799255371;-19.844579696655273;-138.261474609375
280;1673391664.3039987;47.1291152;7.238516499999999;51.67100143432617;1673391664.456199;-24.252309799194336;-20.352453231811523;-138.00196838378906
281;1673391664.5011237;47.1291047;7.238502899999999;52.083003997802734;1673391664.6574147;-19.402545928955078;-17.133586883544922;-137.9068145751953
282;1673391664.6986098;47.129093499999996;7.2384889999999995;52.49400329589844;1673391664.8530006;-15.329854965209961;-14.47280502319336;-137.83718872070312
283;1673391664.8959877;47.1290821;7.2384751;52.9010009765625;1673391665.0493643;-11.990045547485352;-11.271111488342285;-137.6409454345703
284;1673391665.0943499;47.1290708;7.238461399999999;53.303001403808594;1673391665.2392676;-10.343778610229492;-8.55526351928711;-137.5205078125
285;1673391665.281759;47.1290598;7.2384477;53.70600128173828;1673391665.4441047;-9.685530662536621;-7.047948360443115;-137.3302001953125
286;1673391665.4917781;47.129049099999996;7.2384341999999995;54.10600280761719;1673391665.6463208;-10.136648178100586;-7.836909294128418;-136.884521484375
287;1673391665.691415;47.1290389;7.2384208;54.505001068115234;1673391665.8496118;-11.315037727355957;-10.303120613098145;-136.40423583984375
288;1673391665.8991575;47.1290291;7.2384075;54.90200424194336;1673391666.0503078;-12.408961296081543;-12.856940269470215;-136.18435668945312
289;1673391666.0943463;47.1290195;7.2383941;55.302001953125;1673391666.257562;-13.485264778137207;-14.204633712768555;-136.39332580566406
290;1673391666.2986226;47.129010099999995;7.238380599999999;55.702003479003906;1673391666.4457922;-14.47322940826416;-14.021307945251465;-136.72528076171875
291;1673391666.488751;47.1290008;7.2383672;56.09700393676758;1673391666.6503162;-15.43739128112793;-13.047500610351562;-136.8294677734375
292;1673391666.6971967;47.128991299999996;7.2383536;56.49400329589844;1673391666.8828075;-16.40741539001465;-12.113037109375;-136.98875427246094
293;1673391666.9267292;47.1289817;7.23834;56.893001556396484;1673391667.0725265;-16.473302841186523;-11.531219482421875;-137.17361450195312
294;1673391667.110591;47.128972;7.2383264;57.28900146484375;1673391667.2582748;-16.56976890563965;-11.732451438903809;-137.13336181640625
295;1673391667.2993069;47.128962099999995;7.2383127;57.68400192260742;1673391667.4498656;-16.136159896850586;-12.666277885437012;-137.1263427734375
296;1673391667.493823;47.128952;7.238299;58.08000183105469;1673391667.657212;-15.839827537536621;-13.99951457977295;-136.96168518066406
297;1673391667.7036672;47.1289419;7.238285299999999;58.474002838134766;1673391667.8465424;-15.312854766845703;-15.238588333129883;-136.80838012695312
298;1673391667.8900468;47.1289318;7.2382713999999995;58.87200164794922;1673391668.049235;-14.560738563537598;-14.803609848022461;-136.78659057617188
299;1673391668.0941157;47.1289218;7.2382575;59.2760009765625;1673391668.2621243;-14.2811918258667;-12.99899673461914;-136.93597412109375
300;1673391668.3149745;47.128911699999996;7.2382436;59.678001403808594;1673391668.4675713;-14.351578712463379;-11.385457038879395;-137.16680908203125
301;1673391668.5194628;47.1289017;7.2382298;60.08000183105469;1673391668.6700718;-14.37603759765625;-10.752111434936523;-137.3662567138672
302;1673391668.710145;47.1288917;7.2382161;60.47900390625;1673391668.858735;-14.616193771362305;-10.497809410095215;-137.21336364746094
303;1673391668.8988626;47.1288817;7.2382024;60.880001068115234;1673391669.0733452;-14.967741966247559;-11.652182579040527;-136.91876220703125
304;1673391669.1240973;47.1288717;7.238188699999999;61.275001525878906;1673391669.2933228;-15.378353118896484;-12.428482055664062;-136.7511444091797
305;1673391669.3473883;47.128861699999995;7.2381752;61.67000198364258;1673391669.5210803;-15.405383110046387;-12.88093376159668;-136.60853576660156
306;1673391669.56263;47.1288517;7.2381616;62.07100296020508;1673391669.7525733;-15.331480979919434;-13.571805000305176;-136.6583251953125
307;1673391669.803326;47.128841699999995;7.2381478999999995;62.47200393676758;1673391669.9465652;-15.275604248046875;-14.617718696594238;-136.5460662841797
308;1673391669.9965858;47.1288317;7.2381343;62.87200164794922;1673391670.1263893;-15.10322093963623;-14.799181938171387;-136.50125122070312
309;1673391670.17726;47.128821699999996;7.2381205;63.275001525878906;1673391670.2999048;-14.885083198547363;-15.067503929138184;-136.4330291748047
310;1673391670.3331342;47.1288118;7.2381068;63.67100143432617;1673391670.4573445;-14.828842163085938;-14.401660919189453;-136.59579467773438
311;1673391670.5013316;47.1288018;7.238093;64.06700134277344;1673391670.6655905;-14.796961784362793;-13.61342716217041;-136.74940490722656
312;1673391670.705195;47.128791799999995;7.2380792;64.46500396728516;1673391670.8629327;-14.862859725952148;-12.537665367126465;-137.0035400390625
313;1673391670.9060147;47.1287817;7.2380654;64.85900115966797;1673391671.0672057;-14.774234771728516;-12.562989234924316;-137.21998596191406
314;1673391671.1102448;47.128771699999994;7.2380515;65.25800323486328;1673391671.2664394;-14.891921997070312;-11.871794700622559;-137.2489013671875
315;1673391671.3298795;47.1287617;7.2380378;65.65900421142578;1673391671.4709165;-14.998401641845703;-11.202746391296387;-137.167724609375
316;1673391671.5119088;47.128751699999995;7.238023999999999;66.06100463867188;1673391671.6659808;-15.111418724060059;-10.914112091064453;-137.27511596679688
317;1673391671.7115188;47.1287416;7.2380103;66.45700073242188;1673391671.872146;-15.269320487976074;-10.92480182647705;-137.321044921875
318;1673391671.9181933;47.128731599999995;7.2379967;66.8550033569336;1673391672.0757744;-15.147626876831055;-11.2166109085083;-137.17633056640625
319;1673391672.1198149;47.1287215;7.2379831;67.25300598144531;1673391672.2718143;-15.400237083435059;-11.567049980163574;-137.07595825195312
320;1673391672.3147392;47.128711499999994;7.237969499999999;67.64800262451172;1673391672.4566243;-15.452827453613281;-12.207942962646484;-136.95094299316406
321;1673391672.5025332;47.1287015;7.237956;68.04000091552734;1673391672.649695;-15.677793502807617;-12.71102523803711;-136.80377197265625
322;1673391672.6918314;47.1286914;7.237942299999999;68.43600463867188;1673391672.84452;-15.626862525939941;-13.100300788879395;-136.74212646484375
323;1673391672.8874493;47.1286814;7.2379286;68.83000183105469;1673391673.0546556;-15.742171287536621;-13.217220306396484;-136.69338989257812
324;1673391673.099216;47.128671499999996;7.237914699999999;69.2280044555664;1673391673.2691612;-15.730124473571777;-13.511189460754395;-136.7298583984375
325;1673391673.3163478;47.1286615;7.237900799999999;69.62600708007812;1673391673.4750502;-15.704410552978516;-13.694026947021484;-136.86080932617188
326;1673391673.521976;47.1286516;7.2378868999999995;70.02100372314453;1673391673.6855412;-6.9461164474487305;-14.510616302490234;-137.39923095703125
327;1673391673.7247689;47.128641599999995;7.237873199999999;70.41400146484375;1673391673.8660681;6.325042724609375;-14.965643882751465;-137.26588439941406
328;1673391673.9090278;47.1286322;7.2378602;70.77900695800781;1673391674.0597758;10.225104331970215;-15.112854957580566;-136.62393188476562
329;1673391674.1000085;47.1286236;7.2378484;71.1050033569336;1673391674.2468042;15.697981834411621;-15.23808479309082;-136.4644012451172
330;1673391674.2902808;47.128616;7.2378379;71.38300323486328;1673391674.4530616;18.2560977935791;-14.806587219238281;-136.47412109375
331;1673391674.4977272;47.128609499999996;7.2378287;71.62000274658203;1673391674.6562266;20.03419303894043;-14.599067687988281;-136.63751220703125
332;1673391674.718337;47.128603999999996;7.2378208;71.82100677490234;1673391674.8836107;20.919057846069336;-14.73993968963623;-137.0424346923828
333;1673391674.9396436;47.1285996;7.237814299999999;71.99500274658203;1673391675.0894914;19.998769760131836;-15.356340408325195;-137.57736206054688
334;1673391675.1275554;47.128595999999995;7.2378091;72.15900421142578;1673391675.2633293;18.427030563354492;-15.258902549743652;-138.29075622558594
335;1673391675.3111541;47.128593099999996;7.237804799999999;72.302001953125;1673391675.474421;18.666362762451172;6.099538326263428;-133.23487854003906
336;1673391675.5222774;47.1285909;7.237800999999999;72.41500091552734;1673391675.682637;19.65842056274414;18.60667610168457;-122.70991516113281
337;1673391675.726597;47.128589999999996;7.2377968;72.50800323486328;1673391675.8749495;13.84080982208252;14.528979301452637;-112.73704528808594
338;1673391675.918898;47.1285903;7.2377921;72.57200622558594;1673391676.064442;9.707185745239258;14.023399353027344;-102.87852478027344
339;1673391676.1142116;47.1285916;7.237787099999999;72.62800598144531;1673391676.2595935;7.529372215270996;13.187848091125488;-93.17376708984375
340;1673391676.3016253;47.1285935;7.2377816;72.68099975585938;1673391676.4575078;5.309284687042236;11.432051658630371;-84.13648223876953
341;1673391676.5088258;47.1285959;7.2377758;72.72500610351562;1673391676.654069;4.452598571777344;9.717087745666504;-74.89739227294922
342;1673391676.6985674;47.128598499999995;7.2377698;72.76100158691406;1673391676.8705022;5.40219259262085;8.697745323181152;-65.5277099609375
343;1673391676.920491;47.1286011;7.2377636;72.78800201416016;1673391677.0653667;6.222442626953125;8.812087059020996;-56.11088943481445
344;1673391677.1220193;47.1286038;7.2377574;72.81200408935547;1673391677.2665513;6.90868616104126;9.935275077819824;-46.62419891357422
345;1673391677.3077965;47.1286066;7.2377512;72.8340072631836;1673391677.4708734;6.174583435058594;11.243229866027832;-39.36618423461914
346;1673391677.5197883;47.1286093;7.237745299999999;72.85700225830078;1673391677.66873;1.2336080074310303;13.855829238891602;-40.284297943115234
347;1673391677.7178025;47.128612;7.237739299999999;72.8790054321289;1673391677.8619597;-26.796579360961914;12.458105087280273;-44.6179084777832
348;1673391677.9099357;47.1286152;7.2377328;72.90800476074219;1673391678.0740073;-48.7799072265625;9.8245849609375;-44.74924087524414
349;1673391678.131598;47.128619799999996;7.237724;72.93800354003906;1673391678.2915905;-57.59584045410156;5.430041313171387;-43.64030075073242
350;1673391678.3277159;47.1286267;7.2377115;72.9540023803711;1673391678.4903896;-57.75993728637695;4.265670299530029;-43.81431198120117
351;1673391678.542448;47.128636199999995;7.2376947;72.97000122070312;1673391678.6844316;-58.63527297973633;4.090790748596191;-43.85314178466797
352;1673391678.72695;47.128647799999996;7.2376740999999996;72.98800659179688;1673391678.8818133;-58.65138626098633;4.797503471374512;-44.00055694580078
353;1673391678.9296372;47.1286615;7.2376499;73.0;1673391679.0890036;-56.53425979614258;4.979496002197266;-43.50880813598633
354;1673391679.1319265;47.128676899999995;7.237622999999999;73.0050048828125;1673391679.2902014;-55.456336975097656;6.257212162017822;-43.62294387817383
355;1673391679.330321;47.1286937;7.2375938;73.00100708007812;1673391679.4889634;-48.68741226196289;5.9504618644714355;-43.03523635864258
356;1673391679.53608;47.1287114;7.237563499999999;72.92000579833984;1673391679.701102;-19.153533935546875;0.8324244618415833;-41.11074447631836
357;1673391679.7444828;47.128729;7.237533099999999;72.51000213623047;1673391679.893232;30.513500213623047;-6.928781509399414;-43.18333053588867
358;1673391679.9399953;47.1287465;7.2375029;71.71300506591797;1673391680.0822608;80.76715087890625;-101.23322296142578;-133.45126342773438
359;1673391680.1231985;47.1287641;7.237472599999999;70.51300048828125;1673391680.2635891;40.77816390991211;-174.0928497314453;155.81663513183594
360;1673391680.3132083;47.1287817;7.237442199999999;68.94900512695312;1673391680.489153;18.830156326293945;-178.9103546142578;150.1869354248047
361;1673391680.545295;47.128799;7.237412099999999;67.02799987792969;1673391680.7141483;22.69858169555664;-179.3028106689453;148.5690460205078
362;1673391680.7660782;47.1288158;7.2373823999999995;64.71600341796875;1673391680.9181902;53.41012954711914;-175.89199829101562;151.19752502441406
363;1673391680.965032;47.1288323;7.2373531;62.04600143432617;1673391681.1076038;66.63380432128906;-4.979757785797119;-39.88072967529297
364;1673391681.15121;47.1288488;7.237323699999999;59.03400421142578;1673391681.3139863;-6.917055606842041;2.149888753890991;-37.151432037353516
365;1673391681.3789961;47.128865399999995;7.2372942;55.62800216674805;1673391681.5778623;-59.66588592529297;5.069484710693359;-37.80574035644531
366;1673391681.626071;47.1288816;7.237265099999999;51.8390007019043;1673391681.7633855;-73.23947143554688;3.1832821369171143;-35.292144775390625
367;1673391681.796285;47.128897599999995;7.2372362;47.72500228881836;1673391681.930057;-44.88733673095703;-0.17577987909317017;-31.892377853393555
368;1673391681.9658918;47.1289132;7.2372076;43.301002502441406;1673391682.1053066;23.40013885498047;-1.7227040529251099;-31.311662673950195
369;1673391682.138162;47.1289284;7.2371795;38.49100112915039;1673391682.2924173;87.83065795898438;9.388508796691895;-19.787057876586914
370;1673391682.3391647;47.1289437;7.2371512;33.29800033569336;1673391682.4801993;70.20870208740234;174.3475341796875;145.05299377441406
371;1673391682.5241768;47.128959099999996;7.237122899999999;27.8070011138916;1673391682.685076;77.20783996582031;13.64669418334961;-16.278276443481445
372;1673391682.7430532;47.128974299999996;7.2370947999999995;22.02400016784668;1673391682.9221928;6.184145927429199;2.2979087829589844;-28.06995391845703
373;1673391682.9740365;47.1289899;7.2370662999999995;15.891000747680664;1673391683.122101;-55.3941650390625;-0.1661120057106018;-27.940853118896484
374;1673391683.1611552;47.129005;7.2370382;9.374000549316406;1673391683.3060107;-61.442344665527344;-2.1630775928497314;-26.612133026123047
375;1673391683.348927;47.1290196;7.2370107;2.5480000972747803;1673391683.5008497;-10.781808853149414;-18.72829818725586;-28.466672897338867
376;1673391683.545827;47.129027;7.2369946999999994;0.3580000102519989;1673391683.693128;-11.621909141540527;-7.0823845863342285;-28.73443031311035
377;1673391683.7463365;47.129036899999996;7.2369805;0.6180000305175781;1673391683.9080143;-10.945538520812988;-11.31291675567627;-28.16579246520996
378;1673391683.963176;47.1290481;7.2369661;0.8450000286102295;1673391684.1171649;-10.58499526977539;-13.8322172164917;-27.61304473876953
379;1673391684.1590161;47.129058699999995;7.236952;1.0;1673391684.300038;-10.185701370239258;-15.05656909942627;-27.440866470336914
380;1673391684.344101;47.1290682;7.2369387;1.100000023841858;1673391684.502915;-9.748668670654297;-15.829797744750977;-27.336917877197266
381;1673391684.5451894;47.1290761;7.2369264;1.1510000228881836;1673391684.6852279;-9.520654678344727;-16.19011116027832;-27.23941993713379
382;1673391684.7261193;47.1290851;7.236911999999999;1.2170000076293945;1673391684.8820896;-9.446417808532715;-16.115997314453125;-27.294504165649414
383;1673391684.9250891;47.129095;7.2368954;1.2410000562667847;1673391685.0700865;-9.331933975219727;-16.04859733581543;-27.404605865478516
384;1673391685.1130683;47.1291054;7.2368773;1.2390000820159912;1673391685.260996;-9.235016822814941;-15.850772857666016;-27.5100040435791
385;1673391685.3038988;47.1291162;7.236857799999999;1.2170000076293945;1673391685.4651012;-9.197166442871094;-15.549863815307617;-27.593891143798828
386;1673391685.5131247;47.1291273;7.2368371;1.184000015258789;1673391685.667092;-9.077637672424316;-15.231587409973145;-27.693758010864258
387;1673391685.7181008;47.1291387;7.236815399999999;1.1470000743865967;1673391685.9071598;-9.011232376098633;-14.916642189025879;-27.820383071899414
388;1673391685.9492571;47.1291503;7.236792599999999;1.127000093460083;1673391686.106783;-8.949968338012695;-14.621776580810547;-27.91549301147461
389;1673391686.149253;47.129162;7.2367688;1.0940001010894775;1673391686.3023498;-8.896780967712402;-14.334153175354004;-27.983142852783203
390;1673391686.3471968;47.1291739;7.236744099999999;1.0550000667572021;1673391686.5081074;-8.809359550476074;-13.987241744995117;-28.081375122070312
391;1673391686.5500646;47.129186;7.2367183;1.0090000629425049;1673391686.6981997;-8.760146141052246;-13.739109992980957;-28.15931510925293
392;1673391686.738298;47.1291982;7.2366915999999994;0.9590000510215759;1673391686.882242;-8.674673080444336;-13.377734184265137;-28.270193099975586
393;1673391686.9261498;47.1292106;7.2366639;0.9070000648498535;1673391687.086126;-8.632521629333496;-13.058574676513672;-28.370145797729492
394;1673391687.1341264;47.1292232;7.2366353;0.8540000319480896;1673391687.3051322;-8.558167457580566;-12.734724044799805;-28.45875358581543
395;1673391687.3521764;47.1292359;7.2366057999999995;0.7970000505447388;1673391687.512281;-8.470318794250488;-12.440943717956543;-28.557390213012695
396;1673391687.5582297;47.1292487;7.2365753999999995;0.737000048160553;1673391687.7289648;-8.493168830871582;-12.14268970489502;-28.647756576538086
397;1673391687.7682853;47.1292616;7.2365441;0.6760000586509705;1673391687.9211314;-8.377585411071777;-11.827998161315918;-28.733272552490234
398;1673391687.9790657;47.129274599999995;7.2365121;0.6180000305175781;1673391688.1572006;-8.360111236572266;-11.540493965148926;-28.83461570739746
399;1673391688.1969888;47.1292877;7.2364793;0.5580000281333923;1673391688.3321989;-8.284835815429688;-11.240617752075195;-28.93297004699707
400;1673391688.3732321;47.1293009;7.2364457;0.49900001287460327;1673391688.5112603;-8.256641387939453;-10.995793342590332;-29.011455535888672
401;1673391688.5571537;47.129314199999996;7.2364109999999995;0.4230000078678131;1673391688.7057734;-8.215188026428223;-10.729971885681152;-29.12323570251465
402;1673391688.7532463;47.129327599999996;7.2363757;0.3530000150203705;1673391688.919012;-8.136557579040527;-10.427179336547852;-29.204917907714844
403;1673391688.959022;47.1293411;7.236339699999999;0.29200002551078796;1673391689.1102202;-8.08607292175293;-10.187662124633789;-29.307697296142578
404;1673391689.1512556;47.1293547;7.2363031;0.23400001227855682;1673391689.312359;-7.984136581420898;-9.912598609924316;-29.38552474975586
405;1673391689.346551;47.129368299999996;7.2362657;0.18200001120567322;1673391689.5066369;-7.891445636749268;-9.337996482849121;-29.480501174926758
406;1673391689.5627973;47.1293699;7.2362611999999995;0.1380000114440918;1673391689.7230568;-7.855887413024902;-8.855988502502441;-29.569129943847656
407;;;;;1673391689.9151244;-7.836180686950684;-8.46500015258789;-29.60417938232422
408;;;;;1673391690.1140506;-7.8066606521606445;-8.038573265075684;-29.73457145690918
