;pos_time;latitude;longitude;altitude;alt_time;pitch;roll;yaw
0;1673392021.322513;47.1306424;7.24062;-0.03400000184774399;1673392021.4060287;-0.07593394815921783;0.0034051358234137297;90.23826599121094
1;1673392021.5246744;47.1306424;7.24062;-0.03400000184774399;1673392021.612074;-0.14952385425567627;-0.051021501421928406;90.24019622802734
2;1673392021.7262008;47.1306424;7.2406201;-0.03400000184774399;1673392021.8131206;-0.08238174766302109;-0.009808151982724667;90.17305755615234
3;1673392021.9152048;47.1306424;7.24062;-0.03700000047683716;1673392021.9979181;-0.030223002657294273;-0.10696076601743698;90.22209167480469
4;1673392022.1204708;47.1306424;7.24062;-0.03800000250339508;1673392022.2022111;-0.0919695720076561;-0.03009122982621193;90.21730041503906
5;1673392022.3185873;47.1306424;7.2406198999999996;-0.03800000250339508;1673392022.4022377;-0.04820927977561951;-0.07578742504119873;90.23883056640625
6;1673392022.5219991;47.1306424;7.2406198999999996;-0.04000000283122063;1673392022.601477;0.22387397289276123;-0.040540024638175964;90.26947021484375
7;1673392022.715602;47.1306424;7.240619799999999;-0.04500000178813934;1673392022.7962258;0.26293325424194336;-0.174929678440094;90.25713348388672
8;1673392022.9059415;47.1306424;7.240619799999999;-0.04800000041723251;1673392022.985162;0.2664591073989868;0.06431889533996582;90.02882385253906
9;1673392023.100662;47.1306424;7.240619799999999;-0.049000002443790436;1673392023.1890476;0.06541161984205246;-0.07800884544849396;90.15605926513672
10;1673392023.320517;47.1306424;7.2406198999999996;0.0020000000949949026;1673392023.4060795;0.24204137921333313;0.0038959640078246593;90.22196197509766
11;1673392023.521902;47.1306424;7.2406198999999996;0.007000000216066837;1673392023.601502;0.17801864445209503;0.10940836369991302;89.97125244140625
12;1673392023.717401;47.1306424;7.2406198999999996;0.010000000707805157;1673392023.7982676;0.11330018192529678;-0.07566153258085251;90.01532745361328
13;1673392023.9137554;47.1306425;7.2406198999999996;0.013000000268220901;1673392023.9953356;0.023303920403122902;-0.09252101927995682;90.3292236328125
14;1673392024.1154022;47.1306425;7.2406198999999996;0.01600000075995922;1673392024.201581;0.11982348561286926;0.062355887144804;90.25096893310547
15;1673392024.3303654;47.1306425;7.240619799999999;0.015000000596046448;1673392024.411293;0.4396657645702362;0.12275015562772751;90.21598052978516
16;1673392024.5172682;47.130642599999995;7.240619799999999;0.015000000596046448;1673392024.6015294;0.3655734956264496;0.12992754578590393;90.27371215820312
17;1673392024.7303658;47.130642599999995;7.2406198999999996;0.0010000000474974513;1673392024.8124254;0.3454640209674835;0.0985332652926445;90.19979858398438
18;1673392024.9313018;47.130642599999995;7.2406198999999996;0.004000000189989805;1673392025.0103993;0.5239776372909546;0.46024465560913086;90.16484832763672
19;1673392025.1284676;47.130642599999995;7.2406198999999996;0.006000000052154064;1673392025.2095199;0.4044029712677002;-0.05962061136960983;90.27607727050781
20;1673392025.3313243;47.130642599999995;7.2406198999999996;0.00800000037997961;1673392025.4053903;0.36413174867630005;0.36146438121795654;90.55912017822266
21;1673392025.5123763;47.130642599999995;7.2406198999999996;0.009000000543892384;1673392025.5924728;1.5534721612930298;-0.4686003625392914;90.25559997558594
22;1673392025.7064447;47.130642599999995;7.240619799999999;0.01100000087171793;1673392025.781489;2.9563796520233154;0.06689085066318512;90.27055358886719
23;1673392025.896655;47.130642599999995;7.240619799999999;0.013000000268220901;1673392025.9924657;4.484860420227051;-0.02965099737048149;90.31168365478516
24;1673392026.1136086;47.130642599999995;7.2406197;0.013000000268220901;1673392026.1985402;6.358932018280029;-0.11117690056562424;89.11153411865234
25;1673392026.3193934;47.130642599999995;7.2406196;0.010000000707805157;1673392026.4016814;-1.6528080701828003;-0.08727797120809555;83.75141906738281
26;1673392026.5332654;47.130642699999996;7.2406182;0.0;1673392026.6173346;-2.6402504444122314;-0.10977432131767273;87.53184509277344
27;1673392026.7375157;47.130642699999996;7.240615699999999;0.00800000037997961;1673392026.8223453;-7.3846635818481445;0.38897937536239624;86.48168182373047
28;1673392026.9243908;47.130642599999995;7.2406123;0.021000001579523087;1673392026.9998963;-13.113970756530762;0.3803921043872833;86.46818542480469
29;1673392027.1264827;47.1306425;7.2406082;0.03400000184774399;1673392027.20661;-16.27295684814453;1.353359580039978;86.96308898925781
30;1673392027.3214154;47.1306423;7.2406033999999995;0.05400000140070915;1673392027.3994555;-16.0296573638916;0.8632962107658386;87.8332290649414
31;1673392027.5284529;47.130642099999996;7.240597999999999;0.08500000089406967;1673392027.6025443;-17.192487716674805;0.17912955582141876;88.56532287597656
32;1673392027.7254972;47.1306418;7.2405922;0.12800000607967377;1673392027.8002605;-18.77822494506836;0.32899585366249084;88.95906066894531
33;1673392027.9183488;47.1306416;7.2405862;0.18400001525878906;1673392027.9967618;-20.581775665283203;-0.08148308843374252;89.4344711303711
34;1673392028.1243472;47.1306413;7.24058;0.2590000033378601;1673392028.2087796;-22.535058975219727;-0.8434086441993713;89.86707305908203
35;1673392028.3275049;47.1306411;7.240573899999999;0.35500001907348633;1673392028.4061253;-24.559341430664062;-0.7251875400543213;90.05464172363281
36;1673392028.5238001;47.130640799999995;7.2405681;0.4700000286102295;1673392028.595622;-26.633617401123047;-0.9190751314163208;90.27958679199219
37;1673392028.7142668;47.1306407;7.2405629;0.5990000367164612;1673392028.7987466;-28.736677169799805;-1.594215989112854;90.58019256591797
38;1673392028.910592;47.1306405;7.2405585;0.7420000433921814;1673392028.9970253;-30.88930320739746;-1.5915464162826538;90.6839370727539
39;1673392029.1147375;47.1306404;7.240554899999999;0.9010000228881836;1673392029.1992278;-33.04568862915039;-1.4841303825378418;90.77790832519531
40;1673392029.3256674;47.1306404;7.2405523;1.0820000171661377;1673392029.4111154;-35.20915222167969;-1.817721962928772;90.95115661621094
41;1673392029.5336523;47.1306405;7.240550799999999;1.28000009059906;1673392029.6161723;-37.39012908935547;-1.8348218202590942;90.95571899414062
42;1673392029.7301443;47.1306405;7.2405504999999994;1.4830000400543213;1673392029.8050013;-39.59540557861328;-1.8164377212524414;90.80604553222656
43;1673392029.9253666;47.1306406;7.2405516;1.6910001039505005;1673392030.0091035;-41.03623962402344;-7.806891441345215;101.82272338867188
44;1673392030.139157;47.130640799999995;7.2405541;1.90500009059906;1673392030.2219214;-43.50007629394531;-7.385705947875977;101.30992889404297
45;1673392030.3474927;47.1306413;7.2405582;2.119000196456909;1673392030.4212964;-45.920188903808594;-5.6411309242248535;101.1320571899414
46;1673392030.5293376;47.130642099999996;7.2405639;2.3450000286102295;1673392030.6091058;-45.209068298339844;-1.580523133277893;98.9730224609375
47;1673392030.7229028;47.130643199999994;7.240571;2.573000192642212;1673392030.801321;-40.560359954833984;1.8317571878433228;97.88407135009766
48;1673392030.9305108;47.1306442;7.2405788;2.7950000762939453;1673392031.021938;-35.4005241394043;5.761612415313721;95.26054382324219
49;1673392031.1406865;47.130645;7.2405868;3.003000259399414;1673392031.2270443;-29.60539436340332;6.6707353591918945;94.76170349121094
50;1673392031.3479135;47.1306453;7.2405944;3.201000213623047;1673392031.4247973;-24.76723861694336;6.818092346191406;94.45703887939453
51;1673392031.5315468;47.1306452;7.240601099999999;3.38700008392334;1673392031.6101754;-21.545509338378906;5.9778876304626465;94.1456298828125
52;1673392031.7310126;47.1306446;7.2406067;3.568000078201294;1673392031.812836;-18.778892517089844;3.5354254245758057;93.67839050292969
53;1673392031.9374063;47.1306436;7.2406112;3.745000123977661;1673392032.0241296;-17.74138069152832;0.3038325607776642;93.31744384765625
54;1673392032.1552799;47.1306423;7.240614399999999;3.9230000972747803;1673392032.2369874;-18.446510314941406;-2.6154465675354004;93.25920867919922
55;1673392032.349762;47.1306412;7.2406163;4.107000350952148;1673392032.4186373;-20.165496826171875;-5.619732856750488;93.59944915771484
56;1673392032.5204473;47.130640299999996;7.2406172;4.304000377655029;1673392032.597123;-22.422473907470703;-7.715826034545898;94.04764556884766
57;1673392032.7304485;47.130639699999996;7.240617299999999;4.504000186920166;1673392032.807162;-24.89320182800293;-6.9655070304870605;93.76321411132812
58;1673392032.9201915;47.1306395;7.240616999999999;4.703000068664551;1673392032.9980803;-26.620725631713867;-4.924365520477295;93.63382720947266
59;1673392033.1168978;47.130639599999995;7.2406165;4.9070000648498535;1673392033.1959648;-27.909873962402344;-6.579803466796875;94.21955108642578
60;1673392033.318108;47.1306399;7.2406159;5.119000434875488;1673392033.4047172;-28.73723793029785;-5.197944641113281;94.18153381347656
61;1673392033.5259902;47.1306404;7.2406155;5.334000110626221;1673392033.6090121;-29.60696029663086;-1.3480898141860962;93.52413177490234
62;1673392033.7268367;47.130641;7.240615399999999;5.549000263214111;1673392033.8054755;-29.6536808013916;-2.8351306915283203;94.23187255859375
63;1673392033.9155052;47.1306416;7.240615399999999;5.76200008392334;1673392033.9954195;-29.31778907775879;-2.3628828525543213;94.49352264404297
64;1673392034.1049192;47.130641999999995;7.2406158;5.969000339508057;1673392034.1947265;-28.70757293701172;0.5825928449630737;93.59785461425781
65;1673392034.3238037;47.1306423;7.2406162;6.175000190734863;1673392034.4016852;-28.338655471801758;-1.714849829673767;94.3086929321289
66;1673392034.5224218;47.1306425;7.2406168;6.384000301361084;1673392034.6108592;-27.5545711517334;-2.647979736328125;94.66533660888672
67;1673392034.731714;47.130642599999995;7.2406174;6.593000411987305;1673392034.814031;-27.24819564819336;0.24555806815624237;93.53697967529297
68;1673392034.9354053;47.130642599999995;7.240617899999999;6.801000118255615;1673392035.013099;-26.446529388427734;-1.832045078277588;94.13703918457031
69;1673392035.1369293;47.130642599999995;7.2406184;7.00700044631958;1673392035.2229686;-26.46293067932129;-3.874267101287842;94.86859893798828
70;1673392035.3523715;47.1306425;7.2406187;7.209000110626221;1673392035.4417377;-26.297386169433594;-1.2674424648284912;93.84346008300781
71;1673392035.5828888;47.1306424;7.240619;7.408000469207764;1673392035.648826;-26.521408081054688;-1.704700231552124;93.75883483886719
72;1673392035.7665582;47.1306423;7.2406191;7.6080002784729;1673392035.8481405;-26.421531677246094;-4.849215507507324;94.79786682128906
73;1673392035.9642212;47.1306423;7.240619199999999;7.810000419616699;1673392036.0454154;-26.725120544433594;-2.0267527103424072;93.86298370361328
74;1673392036.1779716;47.1306423;7.240619199999999;8.01300048828125;1673392036.2595742;-27.017717361450195;-1.231661081314087;93.68656158447266
75;1673392036.365759;47.1306424;7.240619199999999;8.2160005569458;1673392036.4473042;-27.03702163696289;-4.452028751373291;94.8202133178711
76;1673392036.562055;47.1306424;7.240619199999999;8.421000480651855;1673392036.6416967;-27.039073944091797;-2.212297201156616;93.98648834228516
77;1673392036.753531;47.1306424;7.240619199999999;8.625;1673392036.8381739;-27.560579299926758;-1.107855200767517;93.54846954345703
78;1673392036.9462252;47.1306424;7.240619199999999;8.822999954223633;1673392037.0338433;-27.264265060424805;-4.342465400695801;94.56725311279297
79;1673392037.1516566;47.1306424;7.2406193;9.022000312805176;1673392037.2275226;-27.256189346313477;-2.6141655445098877;94.18366241455078
80;1673392037.3417816;47.1306425;7.2406194;9.222000122070312;1673392037.4259572;-27.266355514526367;-0.528476357460022;93.55008697509766
81;1673392037.5613232;47.130642599999995;7.240619499999999;9.42300033569336;1673392037.6370952;-27.222579956054688;-3.4871909618377686;94.56095886230469
82;1673392037.7440596;47.130642599999995;7.2406196;9.625;1673392037.8217146;-27.216089248657227;-3.10729718208313;94.55401611328125
83;1673392037.94058;47.130642599999995;7.2406197;9.827000617980957;1673392038.025206;-27.13987159729004;-0.5417909622192383;93.55475616455078
84;1673392038.143866;47.130642599999995;7.240619799999999;10.028000831604004;1673392038.2244606;-27.044769287109375;-3.068054676055908;94.37049865722656
85;1673392038.346222;47.130642599999995;7.2406198999999996;10.243000030517578;1673392038.4328418;-27.58734130859375;-3.1300578117370605;94.33584594726562
86;1673392038.5691552;47.130642699999996;7.2406201999999995;10.529000282287598;1673392038.65383;-33.056278228759766;-1.4651271104812622;93.78652954101562
87;1673392038.7655547;47.130642699999996;7.2406213;10.885000228881836;1673392038.8461723;-29.488569259643555;-3.101288318634033;94.08207702636719
88;1673392038.94821;47.130642699999996;7.240622699999999;11.266000747680664;1673392039.030817;-26.291282653808594;-3.4154224395751953;94.42778778076172
89;1673392039.1464393;47.1306428;7.2406242999999995;11.659000396728516;1673392039.228082;-23.833646774291992;-0.9064921140670776;93.74655151367188
90;1673392039.3592143;47.1306428;7.2406254;12.053000450134277;1673392039.4488788;-22.291885375976562;-1.4730949401855469;93.93993377685547
91;1673392039.5734837;47.1306428;7.2406261;12.447000503540039;1673392039.6475432;-21.478078842163086;-3.339566707611084;94.67559051513672
92;1673392039.765237;47.1306428;7.2406263;12.829000473022461;1673392039.8467085;-21.759410858154297;-1.383806824684143;94.07733917236328
93;1673392039.9600708;47.1306428;7.240626;13.19800090789795;1673392040.0290222;-22.495742797851562;-0.4213969111442566;93.75942993164062
94;1673392040.1435244;47.1306428;7.2406253;13.557001113891602;1673392040.2242126;-23.967618942260742;-3.6284797191619873;94.66301727294922
95;1673392040.3427615;47.130642699999996;7.2406244;13.906001091003418;1673392040.4283166;-24.964351654052734;-2.368516206741333;94.1776351928711
96;1673392040.5565836;47.130642599999995;7.2406234;14.250000953674316;1673392040.6333961;-26.545822143554688;-0.4380529820919037;93.48899841308594
97;1673392040.763902;47.130642599999995;7.2406223999999995;14.5910005569458;1673392040.8447633;-27.212608337402344;-3.96661639213562;94.4587631225586
98;1673392040.9773455;47.130642599999995;7.2406216;14.931000709533691;1673392041.0531743;-27.919614791870117;-2.95294189453125;94.34361267089844
99;1673392041.1726418;47.130642599999995;7.240621099999999;15.279000282287598;1673392041.2495482;-28.18383026123047;-0.5476520657539368;93.58832550048828
100;1673392041.3625038;47.130642599999995;7.2406209;15.635001182556152;1673392041.4686096;-27.919342041015625;-3.6215295791625977;94.43172454833984
101;1673392041.5818186;47.1306425;7.2406209;15.997000694274902;1673392041.6650276;-27.44801902770996;-3.1996278762817383;94.39871978759766
102;1673392041.7704873;47.1306424;7.240621099999999;16.363000869750977;1673392041.8502262;-27.061643600463867;-0.9612332582473755;93.58014678955078
103;1673392041.9623625;47.1306424;7.2406213;16.73200035095215;1673392042.0382566;-26.537492752075195;-3.0591509342193604;94.29833221435547
104;1673392042.149955;47.1306424;7.2406215;17.106000900268555;1673392042.2346025;-26.108051300048828;-3.5238804817199707;94.5531234741211
105;1673392042.3607075;47.1306424;7.2406217999999996;17.485000610351562;1673392042.4384656;-25.949785232543945;-0.8186271786689758;93.74497985839844
106;1673392042.5444858;47.1306424;7.2406220999999995;17.871000289916992;1673392042.6231093;-25.637956619262695;-2.250945806503296;94.12110900878906
107;1673392042.7459433;47.1306424;7.2406222;18.260000228881836;1673392042.8331003;-25.545373916625977;-3.929429769515991;94.70808410644531
108;1673392042.9488626;47.1306424;7.2406223;18.647001266479492;1673392043.0247295;-25.48378562927246;-1.1392717361450195;93.72351837158203
109;1673392043.134683;47.1306423;7.2406223;19.03900146484375;1673392043.213355;-25.69452667236328;-2.1072564125061035;93.94703674316406
110;1673392043.329071;47.1306424;7.2406222;19.43000030517578;1673392043.4203699;-25.75138282775879;-3.8660221099853516;94.6851577758789
111;1673392043.5468168;47.1306424;7.240622;19.827001571655273;1673392043.6225202;-26.318029403686523;-1.1397961378097534;93.86180877685547
112;1673392043.7313995;47.1306424;7.2406219;20.225000381469727;1673392043.8178608;-26.062091827392578;-1.5702989101409912;93.8671875
113;1673392043.9433672;47.1306424;7.2406219;20.6200008392334;1673392044.0210655;-26.253217697143555;-3.8924012184143066;94.69732666015625
114;1673392044.1454222;47.1306424;7.2406217999999996;21.011001586914062;1673392044.2260077;-26.058086395263672;-2.1644248962402344;94.04666137695312
115;1673392044.341696;47.1306424;7.240621699999999;21.40300178527832;1673392044.4222808;-26.370922088623047;-1.088104486465454;93.6737060546875
116;1673392044.5341082;47.1306424;7.2406215;21.78900146484375;1673392044.6205468;-26.303651809692383;-3.8635287284851074;94.59894561767578
117;1673392044.7440572;47.1306424;7.240621399999999;22.174001693725586;1673392044.8236678;-26.663978576660156;-2.3139755725860596;94.27157592773438
118;1673392044.9384315;47.1306425;7.2406213;22.56300163269043;1673392045.0297122;-26.533859252929688;-0.48180291056632996;93.5484619140625
119;1673392045.1483445;47.1306425;7.2406212;22.953001022338867;1673392045.2591984;-26.656511306762695;-3.335179567337036;94.5071029663086
120;1673392045.391901;47.1306425;7.2406212;23.34200096130371;1673392045.4788036;-26.204877853393555;-3.1028075218200684;94.50543975830078
121;1673392045.5935285;47.1306425;7.2406212;23.729001998901367;1673392045.6770236;-26.616376876831055;-0.707023024559021;93.54959106445312
122;1673392045.7976065;47.1306425;7.240621099999999;24.11600112915039;1673392045.8821294;-26.426177978515625;-2.989614725112915;94.31771087646484
123;1673392045.993955;47.1306425;7.240621;24.500001907348633;1673392046.0715876;-26.358491897583008;-3.3155269622802734;94.64032745361328
124;1673392046.1775424;47.130642599999995;7.2406209;24.881000518798828;1673392046.2600644;-26.61507797241211;-0.351037859916687;93.66560363769531
125;1673392046.4079764;47.130642599999995;7.2406209;25.26300048828125;1673392046.478813;-26.566057205200195;-2.339531660079956;94.21891021728516
126;1673392046.5858207;47.1306425;7.2406209;25.647001266479492;1673392046.661517;-26.388416290283203;-3.74625301361084;94.57645416259766
127;1673392046.7752612;47.1306425;7.240621;26.031002044677734;1673392046.853002;-26.233489990234375;-0.9096381664276123;93.70785522460938
128;1673392046.96775;47.1306424;7.2406209;26.418001174926758;1673392047.0434737;-26.483705520629883;-2.170424699783325;94.10311889648438
129;1673392047.1543977;47.1306424;7.2406209;26.801000595092773;1673392047.2330225;-26.41154670715332;-3.8112995624542236;94.67469024658203
130;1673392047.339094;47.1306425;7.240620799999999;27.187002182006836;1673392047.4275684;-26.62745475769043;-1.0290653705596924;93.83135986328125
131;1673392047.55501;47.1306425;7.240620799999999;27.575000762939453;1673392047.645359;-26.428794860839844;-1.2365176677703857;93.85165405273438
132;1673392047.7493901;47.1306425;7.240620799999999;27.96200180053711;1673392047.8291764;-26.487916946411133;-3.9086825847625732;94.68034362792969
133;1673392047.9459603;47.1306425;7.240620799999999;28.352001190185547;1673392048.0335026;-26.365169525146484;-1.40902841091156;93.88540649414062
134;1673392048.163223;47.1306424;7.2406207;28.74300193786621;1673392048.2614803;-26.65941619873047;-0.9492642283439636;93.7649154663086
135;1673392048.3781896;47.1306424;7.2406207;29.134000778198242;1673392048.460683;-26.181726455688477;-3.7667999267578125;94.63471221923828
136;1673392048.5715134;47.1306424;7.2406207;29.522001266479492;1673392048.653208;-26.59428596496582;-1.9278713464736938;94.08360290527344
137;1673392048.7789102;47.1306423;7.2406206;29.90900230407715;1673392048.8533823;-26.40799903869629;-0.795365571975708;93.6412124633789
138;1673392048.9706275;47.1306423;7.2406206;30.301000595092773;1673392049.0494928;-26.557703018188477;-3.8943378925323486;94.50656127929688
139;1673392049.1673598;47.1306422;7.2406206;30.69500160217285;1673392049.2470465;-26.365848541259766;-2.7668144702911377;94.25775909423828
140;1673392049.3551004;47.1306422;7.2406206;31.09200096130371;1673392049.436809;-26.70449447631836;-0.8247224688529968;93.6178970336914
141;1673392049.5566206;47.1306422;7.2406204999999995;31.490001678466797;1673392049.6381521;-26.563236236572266;-3.427321434020996;94.49967193603516
142;1673392049.7622983;47.1306422;7.2406204999999995;31.88300132751465;1673392049.8436427;-26.53748893737793;-3.0272533893585205;94.41307830810547
143;1673392049.9578955;47.1306422;7.2406204999999995;32.27900314331055;1673392050.0476956;-26.628677368164062;-0.5052594542503357;93.69964599609375
144;1673392050.1639907;47.1306423;7.2406204999999995;32.68000030517578;1673392050.2368064;-26.847036361694336;-2.7617180347442627;94.33878326416016
145;1673392050.3643873;47.1306422;7.2406204999999995;33.082000732421875;1673392050.448916;-26.475055694580078;-3.4713611602783203;94.59239959716797
146;1673392050.5758777;47.1306422;7.2406204999999995;33.48400115966797;1673392050.666882;-26.660966873168945;-0.6506543755531311;93.64271545410156
147;1673392050.7799933;47.1306423;7.2406204999999995;33.887001037597656;1673392050.862264;-26.575454711914062;-2.254364013671875;94.16937255859375
148;1673392050.9810913;47.1306423;7.2406204999999995;34.28700256347656;1673392051.0616736;-26.583595275878906;-3.6629977226257324;94.62395477294922
149;1673392051.1803095;47.1306422;7.2406204999999995;34.680999755859375;1673392051.2541125;-26.675918579101562;-0.9822229743003845;93.78008270263672
150;1673392051.3676066;47.1306422;7.2406204999999995;35.079002380371094;1673392051.4535513;-26.689455032348633;-2.182018280029297;94.02005004882812
151;1673392051.5645971;47.1306422;7.2406204999999995;35.48100280761719;1673392051.6453173;-26.40277862548828;-4.141567707061768;94.64973449707031
152;1673392051.7759912;47.1306422;7.2406206;35.887001037597656;1673392051.861711;-26.57770347595215;-1.1625629663467407;93.8140869140625
153;1673392051.9818356;47.1306423;7.2406206;36.29300308227539;1673392052.0683556;-26.524219512939453;-1.5578900575637817;93.84999084472656
154;1673392052.1899147;47.1306424;7.2406206;36.69900131225586;1673392052.2931697;-26.592273712158203;-3.777541399002075;94.61368560791016
155;1673392052.4009795;47.1306424;7.2406204999999995;37.095001220703125;1673392052.4739287;-26.640295028686523;-1.6542965173721313;94.13449096679688
156;1673392052.5777678;47.1306425;7.2406204999999995;37.49300003051758;1673392052.6614552;-26.66425132751465;-0.7990262508392334;93.71968078613281
157;1673392052.7711594;47.1306425;7.2406204999999995;37.89200210571289;1673392052.8532772;-26.65230941772461;-3.534853219985962;94.67758178710938
158;1673392052.9763548;47.1306425;7.2406204999999995;38.28900146484375;1673392053.0608525;-26.568143844604492;-2.091332197189331;94.21923065185547
159;1673392053.1807754;47.130642599999995;7.2406204999999995;38.6870002746582;1673392053.2575781;-26.791593551635742;0.06510243564844131;93.44767761230469
160;1673392053.3715208;47.130642599999995;7.2406204999999995;39.08500289916992;1673392053.4688563;-26.485198974609375;-3.087442636489868;94.46846771240234
161;1673392053.585264;47.130642699999996;7.2406204999999995;39.479000091552734;1673392053.6681209;-26.7724552154541;-2.49890398979187;94.42597961425781
162;1673392053.824196;47.130642699999996;7.2406204;39.86600112915039;1673392053.9627686;-26.678903579711914;-0.4154164493083954;93.643310546875
163;1673392054.0430753;47.130642599999995;7.2406204;40.25400161743164;1673392054.1202683;-26.805973052978516;-2.9737420082092285;94.30961608886719
164;1673392054.2275512;47.130642599999995;7.2406203;40.64800262451172;1673392054.305469;-26.69867706298828;-3.149942398071289;94.53072357177734
165;1673392054.4106143;47.130642599999995;7.2406203;41.0420036315918;1673392054.4786916;-27.026195526123047;-0.6504315733909607;93.78240966796875
166;1673392054.5823631;47.130642599999995;7.2406203;41.4370002746582;1673392054.6639204;-26.64039421081543;-2.0129494667053223;94.10228729248047
167;1673392054.787625;47.130642599999995;7.2406203;41.832000732421875;1673392054.8669229;-26.754905700683594;-3.4887568950653076;94.58292388916016
168;1673392054.9793088;47.130642599999995;7.2406203;42.220001220703125;1673392055.0532103;-26.620962142944336;-0.8009344935417175;93.80463409423828
169;1673392055.1680803;47.130642599999995;7.2406203;42.61100387573242;1673392055.2496383;-26.881160736083984;-1.7246520519256592;94.0794677734375
170;1673392055.370016;47.130642599999995;7.2406203;43.00700378417969;1673392055.4612668;-26.48517417907715;-3.75028133392334;94.6675796508789
171;1673392055.5929775;47.130642599999995;7.2406203;43.406002044677734;1673392055.6717026;-26.817472457885742;-0.9452388882637024;93.79398345947266
172;1673392055.8060026;47.130642699999996;7.2406203;43.80500030517578;1673392055.9103177;-26.601734161376953;-1.1505634784698486;93.83216094970703
173;1673392056.0668302;47.130642699999996;7.2406201999999995;44.204002380371094;1673392056.128345;-26.88650131225586;-3.5235049724578857;94.72358703613281
174;1673392056.2168133;47.130642699999996;7.2406201999999995;44.60000228881836;1673392056.286676;-26.703857421875;-1.3543181419372559;93.92118072509766
175;1673392056.3839068;47.130642599999995;7.2406201;44.987003326416016;1673392056.4519079;-26.974668502807617;-0.8371226191520691;93.6935043334961
176;1673392056.5608537;47.130642599999995;7.2406201;45.374000549316406;1673392056.6385806;-26.683570861816406;-3.8635222911834717;94.68659973144531
177;1673392056.7584558;47.130642599999995;7.24062;45.7660026550293;1673392056.8410602;-27.015701293945312;-1.8131970167160034;94.1542739868164
178;1673392056.963352;47.130642599999995;7.24062;46.160003662109375;1673392057.0488229;-26.932327270507812;-0.4950469732284546;93.66915130615234
179;1673392057.1665473;47.130642699999996;7.24062;46.55400085449219;1673392057.2412815;-26.84212875366211;-3.128007173538208;94.4946060180664
180;1673392057.3512063;47.130642699999996;7.24062;46.94900131225586;1673392057.4455073;-26.77577018737793;-2.251918077468872;94.15222930908203
181;1673392057.5768309;47.130642599999995;7.24062;47.3380012512207;1673392057.6495013;-26.981691360473633;-0.5005420446395874;93.60945892333984
182;1673392057.762602;47.1306425;7.24062;47.730003356933594;1673392057.85363;-26.922395706176758;-2.919037342071533;94.26558685302734
183;1673392057.9812305;47.1306425;7.24062;48.12300109863281;1673392058.0730305;-27.270639419555664;-3.130948305130005;94.40402221679688
184;1673392058.1903949;47.1306425;7.2406198999999996;48.47600173950195;1673392058.2721007;-27.27180290222168;-0.5243775248527527;93.65287780761719
185;1673392058.3917954;47.1306425;7.2406197;48.7760009765625;1673392058.476412;-27.309965133666992;-2.6139461994171143;94.40589904785156
186;1673392058.5947874;47.130642599999995;7.2406193;49.0260009765625;1673392058.6815796;-27.95431137084961;-2.747838258743286;94.4386978149414
187;1673392058.8027244;47.130642599999995;7.2406188;49.23100280761719;1673392058.8772905;-27.927532196044922;0.2561037838459015;93.53028106689453
188;1673392058.9951909;47.1306425;7.2406182;49.3910026550293;1673392059.081635;-12.973618507385254;19.464916229248047;100.0749282836914
189;1673392059.1988378;47.1306417;7.2406166;49.525001525878906;1673392059.2770152;-3.6865556240081787;41.060264587402344;113.33296203613281
190;1673392059.4057257;47.130639099999996;7.240612199999999;49.64800262451172;1673392059.5124602;-5.500706672668457;55.954566955566406;122.44878387451172
191;1673392059.620587;47.1306339;7.2406035;49.72500228881836;1673392059.7174282;-17.054962158203125;53.28245162963867;130.99693298339844
192;1673392059.8619623;47.130626;7.240590399999999;49.755001068115234;1673392059.9283228;-25.179466247558594;47.03786849975586;141.5897979736328
193;1673392060.032978;47.130615899999995;7.2405737;49.762001037597656;1673392060.122929;-30.96259117126465;39.049171447753906;152.99853515625
194;1673392060.2348626;47.130604;7.2405538;49.7400016784668;1673392060.3102021;-35.30550765991211;33.45226287841797;161.6217498779297
195;1673392060.438295;47.1305905;7.2405313;49.717002868652344;1673392060.5335948;-45.543514251708984;35.18999481201172;167.95437622070312
196;1673392060.6705341;47.1305754;7.2405062;49.7030029296875;1673392060.7361038;-49.500213623046875;23.204936981201172;-177.86962890625
197;1673392060.8364909;47.1305586;7.2404782999999995;49.69300079345703;1673392060.9094305;-51.865333557128906;16.122037887573242;-170.19784545898438
198;1673392061.0029411;47.1305404;7.2404483;49.68800354003906;1673392061.075767;-53.34096908569336;7.057450294494629;-162.27821350097656
199;1673392061.1818678;47.1305209;7.2404167;49.685001373291016;1673392061.2615154;-52.25029754638672;-3.8300728797912598;-154.1441192626953
200;1673392061.3755896;47.1305003;7.2403841;49.677001953125;1673392061.4640296;-52.88812255859375;-11.571290969848633;-147.1270294189453
201;1673392061.6073084;47.1304787;7.2403512999999995;49.663002014160156;1673392061.7092493;-50.27500534057617;-12.867971420288086;-139.9453887939453
202;1673392061.834223;47.1304564;7.2403181;49.63200378417969;1673392061.9175074;-43.836727142333984;-16.894567489624023;-134.13343811035156
203;1673392062.0187018;47.130433599999996;7.240284399999999;49.60000228881836;1673392062.1045523;-44.619842529296875;-18.873336791992188;-136.25692749023438
204;1673392062.2316833;47.1304103;7.2402508;49.582000732421875;1673392062.3036284;-45.187618255615234;-18.90024185180664;-139.14935302734375
205;1673392062.4116387;47.1303868;7.2402175;49.57500076293945;1673392062.4841745;-45.015899658203125;-17.758548736572266;-140.56739807128906
206;1673392062.6004848;47.130362899999994;7.2401846;49.57400131225586;1673392062.6856582;-44.61241149902344;-16.926645278930664;-140.57843017578125
207;1673392062.7906778;47.130339;7.2401523;49.579002380371094;1673392062.8699563;-44.29451370239258;-15.948043823242188;-140.45947265625
208;1673392062.9861422;47.130314899999995;7.2401202;49.5890007019043;1673392063.071646;-44.63019561767578;-15.402542114257812;-140.30064392089844
209;1673392063.1943822;47.130290699999996;7.240088;49.605003356933594;1673392063.271043;-45.13559341430664;-15.269160270690918;-140.08148193359375
210;1673392063.3770423;47.1302664;7.2400557;49.62300109863281;1673392063.4615872;-45.066986083984375;-14.8980131149292;-140.00962829589844
211;1673392063.576381;47.1302421;7.2400234999999995;49.64500045776367;1673392063.6589043;-44.955448150634766;-14.610566139221191;-139.8692626953125
212;1673392063.818886;47.1302178;7.2399911999999995;49.66400146484375;1673392063.9283397;-45.3266716003418;-14.619219779968262;-139.77362060546875
213;1673392064.027626;47.130193399999996;7.2399588999999995;49.682003021240234;1673392064.113092;-45.40564727783203;-14.571910858154297;-139.7046661376953
214;1673392064.219105;47.1301692;7.2399267;49.70000076293945;1673392064.291875;-45.558624267578125;-14.385680198669434;-139.70765686035156
215;1673392064.4331806;47.1301449;7.2398943;49.71600341796875;1673392064.5080266;-45.400638580322266;-14.317183494567871;-139.63597106933594
216;1673392064.6296453;47.1301206;7.2398618;49.72900390625;1673392064.7164052;-45.290122985839844;-14.41016674041748;-139.58139038085938
217;1673392064.8256955;47.1300963;7.2398291;49.743003845214844;1673392064.9059267;-45.51432800292969;-14.506403923034668;-139.5823516845703
218;1673392065.015085;47.1300721;7.2397963;49.759002685546875;1673392065.0927985;-45.89605712890625;-14.683465003967285;-139.58804321289062
219;1673392065.2175436;47.1300478;7.2397635;49.77400207519531;1673392065.3010385;-46.08146286010742;-14.733046531677246;-139.6518096923828
220;1673392065.423666;47.1300235;7.2397307;49.78400421142578;1673392065.4984345;-45.816226959228516;-14.52389144897461;-139.68531799316406
221;1673392065.6173713;47.1299992;7.2396978999999995;49.790000915527344;1673392065.7008953;-45.25159454345703;-14.39249324798584;-139.6903533935547
222;1673392065.8100574;47.1299749;7.239664899999999;49.79600143432617;1673392065.896878;-45.264488220214844;-14.505256652832031;-139.66830444335938
223;1673392066.0010319;47.1299505;7.2396318;49.802001953125;1673392066.0827007;-45.75300598144531;-14.656987190246582;-139.67335510253906
224;1673392066.1897025;47.1299262;7.2395988;49.807003021240234;1673392066.279903;-45.85447692871094;-14.643766403198242;-139.72811889648438
225;1673392066.4043732;47.1299019;7.239565799999999;49.81200408935547;1673392066.4771862;-45.641693115234375;-14.539390563964844;-139.7652587890625
226;1673392066.5939014;47.1298776;7.2395328;49.81800079345703;1673392066.668633;-45.79620361328125;-14.586982727050781;-139.77011108398438
227;1673392066.7797241;47.129853399999995;7.2394998;49.82200241088867;1673392066.862056;-45.800025939941406;-14.480693817138672;-139.80099487304688
228;1673392066.9852636;47.129829099999995;7.2394668;49.820003509521484;1673392067.0736744;-45.47148513793945;-14.337900161743164;-139.83901977539062
229;1673392067.1982298;47.129804799999995;7.239433699999999;49.814002990722656;1673392067.27881;-45.108821868896484;-14.288256645202637;-139.819580078125
230;1673392067.4153817;47.129780499999995;7.2394006;49.810001373291016;1673392067.496947;-45.27770233154297;-14.32262897491455;-139.80178833007812
231;1673392067.6274896;47.129756199999996;7.239367499999999;49.80500411987305;1673392067.7685792;-45.55183410644531;-14.384673118591309;-139.84727478027344
232;1673392067.865502;47.129731899999996;7.2393344;49.80400085449219;1673392067.9300961;-45.54559326171875;-14.333062171936035;-139.89564514160156
233;1673392068.0419817;47.1297077;7.239301299999999;49.802001953125;1673392068.1069415;-45.557865142822266;-14.303915977478027;-139.92152404785156
234;1673392068.202201;47.1296835;7.2392683;49.80400085449219;1673392068.2701206;-45.73970413208008;-14.29064655303955;-139.93031311035156
235;1673392068.379111;47.1296592;7.2392351999999995;49.803001403808594;1673392068.4567578;-45.83658218383789;-14.276288032531738;-140.0033721923828
236;1673392068.563866;47.1296349;7.239202;49.798004150390625;1673392068.6508656;-45.40810012817383;-14.141228675842285;-140.106689453125
237;1673392068.7820516;47.1296105;7.2391687;49.7910041809082;1673392068.8721225;-44.980953216552734;-14.007890701293945;-140.15585327148438
238;1673392068.9909353;47.1295863;7.239135399999999;49.78400421142578;1673392069.0834057;-44.97800064086914;-14.089669227600098;-140.17591857910156
239;1673392069.179637;47.1295621;7.2391022;49.78900146484375;1673392069.2653644;-45.66768264770508;-14.250236511230469;-140.21498107910156
240;1673392069.3862753;47.129537899999995;7.2390691;49.79500198364258;1673392069.4689643;-46.22300720214844;-14.181535720825195;-140.3804168701172
241;1673392069.5886369;47.129513599999996;7.239036;49.80000305175781;1673392069.6692624;-45.87351989746094;-13.967975616455078;-140.55569458007812
242;1673392069.7852106;47.129489299999996;7.2390029;49.80000305175781;1673392069.870321;-45.175682067871094;-13.703140258789062;-140.65733337402344
243;1673392069.989095;47.1294651;7.238969699999999;49.80400085449219;1673392070.081387;-45.108680725097656;-13.621520042419434;-140.73362731933594
244;1673392070.2011883;47.1294408;7.2389366;49.81300354003906;1673392070.2876632;-45.600399017333984;-16.089069366455078;-140.3689422607422
245;1673392070.4020872;47.1294165;7.2389035999999995;49.83400344848633;1673392070.4702134;-46.86634826660156;-20.567792892456055;-140.61483764648438
246;1673392070.5764866;47.129391899999995;7.238871;49.86100387573242;1673392070.6581697;-46.50848388671875;-23.961694717407227;-142.2256317138672
247;1673392070.7750702;47.1293669;7.2388392999999995;49.887001037597656;1673392070.8572605;-45.4083366394043;-23.512266159057617;-143.0826873779297
248;1673392070.980221;47.1293416;7.2388086;49.900001525878906;1673392071.0629556;-36.32670211791992;-25.823884963989258;-143.7283172607422
249;1673392071.1679986;47.1293162;7.2387790999999995;49.910003662109375;1673392071.2540455;-18.581989288330078;-24.432018280029297;-144.0213623046875
250;1673392071.3715622;47.129291699999996;7.2387514;49.922000885009766;1673392071.4527452;1.3022470474243164;-22.77085304260254;-140.3929443359375
251;1673392071.5818834;47.1292689;7.2387258999999995;49.945003509521484;1673392071.669302;17.68691062927246;-16.868566513061523;-135.66802978515625
252;1673392071.793159;47.1292487;7.238703;49.97200393676758;1673392071.8778899;28.894874572753906;-11.182376861572266;-134.04745483398438
253;1673392071.9877293;47.1292317;7.2386827;49.98500061035156;1673392072.0587418;35.02130889892578;-9.082927703857422;-134.1961669921875
254;1673392072.1708524;47.1292177;7.2386648;49.95100402832031;1673392072.2528374;33.259735107421875;-13.784695625305176;-133.623779296875
255;1673392072.3820148;47.129206499999995;7.2386496;49.90300369262695;1673392072.4624777;36.59954071044922;-17.640722274780273;-132.30613708496094
256;1673392072.5871286;47.1291979;7.2386373;49.89500427246094;1673392072.6724741;34.397830963134766;-19.301095962524414;-131.99588012695312
257;1673392072.7903216;47.1291911;7.2386278;49.90200424194336;1673392072.8738177;29.321975708007812;-20.272079467773438;-132.8615264892578
258;1673392072.9828818;47.1291856;7.238620399999999;49.928001403808594;1673392073.0683856;20.934720993041992;-19.995525360107422;-133.91403198242188
259;1673392073.179303;47.1291811;7.2386142;49.95000076293945;1673392073.2571554;14.204323768615723;-19.37308692932129;-134.48779296875
260;1673392073.3672342;47.1291769;7.2386085;49.974002838134766;1673392073.4511807;8.759584426879883;-19.80463981628418;-134.90744018554688
261;1673392073.5792232;47.1291729;7.2386029999999995;49.99400329589844;1673392073.6627452;6.466934680938721;-19.87782096862793;-135.23085021972656
262;1673392073.8574927;47.1291691;7.238597599999999;50.00600051879883;1673392073.9514873;8.285199165344238;-20.122726440429688;-135.7044219970703
263;1673392074.056675;47.1291654;7.238592;50.01300048828125;1673392074.1314602;11.991604804992676;-20.119136810302734;-136.2699737548828
264;1673392074.250431;47.1291617;7.2385866;50.022003173828125;1673392074.3292556;16.17640495300293;-19.068405151367188;-136.682373046875
265;1673392074.4735897;47.1291583;7.2385812;50.038002014160156;1673392074.5686147;19.91965103149414;-17.881179809570312;-137.15118408203125
266;1673392074.6623192;47.1291553;7.2385760999999995;50.057003021240234;1673392074.735265;1.884920597076416;-18.47372817993164;-134.306640625
267;1673392074.847102;47.1291523;7.238570999999999;50.134002685546875;1673392074.9220004;-26.21280288696289;-17.869293212890625;-134.03358459472656
268;1673392075.0348947;47.129148199999996;7.238564299999999;50.2660026550293;1673392075.1125586;-21.406166076660156;-10.056934356689453;-137.29946899414062
269;1673392075.2205288;47.1291428;7.2385551999999995;50.4530029296875;1673392075.3044026;-16.165733337402344;-6.874484062194824;-138.4381561279297
270;1673392075.4268265;47.129136599999995;7.2385439;50.73400115966797;1673392075.5025501;-24.10757064819336;-20.300983428955078;-138.43565368652344
271;1673392075.6217577;47.1291295;7.238531099999999;51.09400177001953;1673392075.6979377;-22.156970977783203;-37.200035095214844;-140.81788635253906
272;1673392075.8101292;47.1291205;7.2385183;51.48500061035156;1673392075.8894887;-23.307588577270508;-29.628232955932617;-138.77468872070312
273;1673392076.0022771;47.1291101;7.2385056;51.88300323486328;1673392076.0868893;-17.46333885192871;-27.791725158691406;-138.55995178222656
274;1673392076.2018847;47.1290987;7.2384929;52.28400421142578;1673392076.2824674;-14.10782241821289;-21.569406509399414;-138.16162109375
275;1673392076.3884318;47.1290869;7.238480099999999;52.68700408935547;1673392076.4665248;-9.430781364440918;-17.051433563232422;-137.79966735839844
276;1673392076.5916808;47.129075;7.238467;53.0880012512207;1673392076.6688175;-6.038764476776123;-14.607202529907227;-137.29310607910156
277;1673392076.7852993;47.1290635;7.238453799999999;53.487003326416016;1673392076.8606396;-4.744048595428467;-14.426572799682617;-136.7721710205078
278;1673392076.9809606;47.1290526;7.2384403;53.88500213623047;1673392077.063183;-4.647743225097656;-15.194470405578613;-136.3403778076172
279;1673392077.1893957;47.1290422;7.2384268;54.28000259399414;1673392077.2779858;-4.6023430824279785;-16.90673828125;-136.11322021484375
280;1673392077.4045851;47.1290322;7.2384132;54.678001403808594;1673392077.4939487;-4.789754390716553;-18.220033645629883;-135.97650146484375
281;1673392077.615811;47.1290225;7.238399599999999;55.08000183105469;1673392077.729745;-5.28751277923584;-18.829416275024414;-136.1109161376953
282;1673392077.8368542;47.129013;7.2383859;55.48400115966797;1673392077.9300518;-6.369287014007568;-18.53997039794922;-136.46104431152344
283;1673392078.0402114;47.1290036;7.2383723;55.88300323486328;1673392078.121521;-7.761448383331299;-18.67362403869629;-136.62680053710938
284;1673392078.2361002;47.128994299999995;7.2383587;56.281002044677734;1673392078.3030498;-9.293583869934082;-18.286731719970703;-136.8064727783203
285;1673392078.4147282;47.1289849;7.2383448999999995;56.682003021240234;1673392078.494357;-10.509439468383789;-19.45281219482422;-136.81570434570312
286;1673392078.6130247;47.128975399999995;7.2383311;57.083003997802734;1673392078.7045584;-10.962735176086426;-21.054950714111328;-136.816650390625
287;1673392078.8281338;47.128965699999995;7.238317299999999;57.48400115966797;1673392078.9094753;-10.332267761230469;-22.754026412963867;-136.78028869628906
288;1673392079.0261054;47.1289558;7.2383035;57.88200378417969;1673392079.1087964;-9.863931655883789;-23.016061782836914;-136.81692504882812
289;1673392079.2246556;47.128945699999996;7.238289699999999;58.281002044677734;1673392079.3130846;-8.958427429199219;-22.58245849609375;-136.94598388671875
290;1673392079.4334137;47.1289356;7.238276;58.678001403808594;1673392079.5189047;-8.391876220703125;-21.175739288330078;-137.0611114501953
291;1673392079.623992;47.1289254;7.2382624;59.07500457763672;1673392079.6996741;-8.202292442321777;-19.731782913208008;-137.06939697265625
292;1673392079.8422112;47.128915199999994;7.2382488;59.478004455566406;1673392079.969217;-8.141633033752441;-18.534648895263672;-137.0620574951172
293;1673392080.0693202;47.1289051;7.2382351;59.881004333496094;1673392080.1413946;-8.393454551696777;-17.759057998657227;-136.96652221679688
294;1673392080.2421374;47.1288951;7.2382215;60.281002044677734;1673392080.3178957;-8.855080604553223;-18.150217056274414;-136.86769104003906
295;1673392080.4278893;47.1288851;7.2382078;60.68000411987305;1673392080.5172431;-9.159615516662598;-18.80970573425293;-136.72019958496094
296;1673392080.6339293;47.128875099999995;7.238194099999999;61.077003479003906;1673392080.708726;-8.974227905273438;-20.436948776245117;-136.64105224609375
297;1673392080.810838;47.1288651;7.2381804;61.47300338745117;1673392080.8925126;-8.713700294494629;-21.349937438964844;-136.63327026367188
298;1673392081.0182152;47.128855099999996;7.2381667;61.87000274658203;1673392081.1073964;-8.190170288085938;-21.500558853149414;-136.66259765625
299;1673392081.2385454;47.1288451;7.2381531;62.26700210571289;1673392081.3172638;-8.048416137695312;-20.56317901611328;-136.78720092773438
300;1673392081.4273238;47.128835099999996;7.2381394;62.6670036315918;1673392081.508911;-8.297060012817383;-18.694082260131836;-136.97100830078125
301;1673392081.6611786;47.1288251;7.2381259;63.06700134277344;1673392081.745375;-8.838128089904785;-17.70051383972168;-136.96400451660156
302;1673392081.8572843;47.1288151;7.2381123;63.46800231933594;1673392081.9379048;-9.437796592712402;-17.64942741394043;-136.8535614013672
303;1673392082.045483;47.1288051;7.2380986;63.868003845214844;1673392082.1217146;-9.50016975402832;-18.0520076751709;-136.7592010498047
304;1673392082.2609403;47.1287951;7.2380849;64.26499938964844;1673392082.3665056;-9.499258995056152;-19.024831771850586;-136.7398681640625
305;1673392082.4760692;47.128785099999995;7.2380711;64.66400146484375;1673392082.5549054;-9.199823379516602;-20.2391357421875;-136.77584838867188
306;1673392082.6664643;47.128775;7.2380572999999995;65.06200408935547;1673392082.7471297;-8.877608299255371;-21.000560760498047;-136.74020385742188
307;1673392082.8590155;47.128765;7.2380435;65.45899963378906;1673392082.9340532;-8.666955947875977;-21.946422576904297;-136.64537048339844
308;1673392083.0423174;47.128755;7.238029699999999;65.85700225830078;1673392083.1178596;-8.43635368347168;-21.508718490600586;-136.62379455566406
309;1673392083.2205212;47.128744999999995;7.2380159;66.2560043334961;1673392083.3040557;-8.191425323486328;-21.477609634399414;-136.82164001464844
310;1673392083.423545;47.128735;7.2380021;66.6550064086914;1673392083.510216;-8.36906623840332;-21.092769622802734;-136.88995361328125
311;1673392083.62697;47.128724999999996;7.2379884;67.0570068359375;1673392083.7057686;-8.595247268676758;-21.02184295654297;-136.8172607421875
312;1673392083.8381865;47.1287151;7.237974599999999;67.45500183105469;1673392083.918265;-9.163227081298828;-19.800479888916016;-137.03396606445312
313;1673392084.034715;47.1287051;7.2379608;67.85800170898438;1673392084.1106634;-9.217158317565918;-19.183719635009766;-137.09521484375
314;1673392084.2255163;47.128695199999996;7.2379470999999995;68.26399993896484;1673392084.307114;-9.419645309448242;-18.884963989257812;-137.08619689941406
315;1673392084.4268649;47.1286852;7.2379333;68.67100524902344;1673392084.5154543;-9.384651184082031;-18.369230270385742;-137.1654510498047
316;1673392084.6368945;47.1286753;7.2379196;69.07300567626953;1673392084.7175179;-9.275032043457031;-18.194683074951172;-137.1438446044922
317;1673392084.8352075;47.128665299999994;7.2379058;69.47000122070312;1673392084.9169312;-9.039163589477539;-18.363399505615234;-137.21231079101562
318;1673392085.0376863;47.1286553;7.2378919999999995;69.86800384521484;1673392085.1292002;-8.942590713500977;-18.888587951660156;-137.13148498535156
319;1673392085.24318;47.128645299999995;7.2378782;70.26800537109375;1673392085.3229094;4.901055812835693;-19.747385025024414;-138.73321533203125
320;1673392085.4485586;47.1286357;7.2378649;70.6510009765625;1673392085.5320692;13.326777458190918;-20.218229293823242;-137.63320922851562
321;1673392085.6534235;47.1286269;7.2378525;70.99500274658203;1673392085.7253056;17.065011978149414;-20.237937927246094;-136.73936462402344
322;1673392085.845156;47.128619;7.2378412999999995;71.29500579833984;1673392085.928986;21.7122745513916;-19.994773864746094;-136.46336364746094
323;1673392086.037565;47.1286121;7.2378314999999995;71.54700469970703;1673392086.1220202;23.10235023498535;-19.386903762817383;-136.48764038085938
324;1673392086.2397988;47.1286062;7.2378231;71.76000213623047;1673392086.3214839;25.08268165588379;-20.268129348754883;-136.90061950683594
325;1673392086.427619;47.1286013;7.237815899999999;71.94300079345703;1673392086.5082462;25.52376937866211;-20.92768669128418;-137.65194702148438
326;1673392086.62598;47.128597299999996;7.23781;72.10800170898438;1673392086.717347;25.407562255859375;-22.19748878479004;-138.8109588623047
327;1673392086.835997;47.1285941;7.2378053;72.25300598144531;1673392086.9158006;25.005474090576172;-19.709758758544922;-138.9114227294922
328;1673392087.033829;47.1285915;7.2378013;72.37200164794922;1673392087.1308136;29.19072723388672;4.294457912445068;-129.44786071777344
329;1673392087.2544076;47.1285902;7.2377974;72.46800231933594;1673392087.3448687;25.044666290283203;9.939657211303711;-120.1362075805664
330;1673392087.4519312;47.1285904;7.2377929;72.531005859375;1673392087.52475;22.210390090942383;5.585622310638428;-109.4197006225586
331;1673392087.6307118;47.1285916;7.237788;72.5780029296875;1673392087.7096431;17.461740493774414;7.936318397521973;-99.88301086425781
332;1673392087.8236217;47.1285934;7.2377828;72.62200164794922;1673392087.9081814;17.095182418823242;8.50898551940918;-90.75309753417969
333;1673392088.0179589;47.1285956;7.2377772;72.66699981689453;1673392088.1006205;16.555496215820312;9.500972747802734;-81.22623443603516
334;1673392088.2231727;47.1285981;7.2377712999999995;72.71200561523438;1673392088.3057518;16.148784637451172;10.39684009552002;-72.07701110839844
335;1673392088.4224374;47.1286008;7.237765199999999;72.7540054321289;1673392088.5059452;14.585992813110352;11.697132110595703;-63.888282775878906
336;1673392088.6212423;47.128603399999996;7.237758899999999;72.78600311279297;1673392088.7062035;12.842371940612793;13.769096374511719;-55.02851486206055
337;1673392088.8275073;47.128606;7.2377524;72.81999969482422;1673392088.9042666;9.80137825012207;16.38645362854004;-45.323551177978516
338;1673392089.018471;47.1286085;7.237745899999999;72.8530044555664;1673392089.102507;6.567470550537109;19.60154914855957;-40.48054885864258
339;1673392089.217306;47.1286111;7.2377394;72.88800048828125;1673392089.301029;-3.6034014225006104;20.94866180419922;-44.202945709228516
340;1673392089.4139729;47.128614299999995;7.2377325;72.92400360107422;1673392089.4935553;-31.26146697998047;18.18213653564453;-45.55783462524414
341;1673392089.607521;47.1286188;7.2377237999999995;72.96800231933594;1673392089.6887872;-51.06390380859375;11.194207191467285;-43.948856353759766
342;1673392089.8395524;47.1286254;7.2377116;73.0050048828125;1673392089.9231226;-57.09542465209961;6.083745002746582;-42.912498474121094
343;1673392090.0322876;47.1286346;7.237694899999999;73.00700378417969;1673392090.1174479;-53.79975128173828;7.2701921463012695;-44.72308349609375
344;1673392090.234179;47.1286458;7.2376742;73.00200653076172;1673392090.3139365;-55.36567306518555;7.505288124084473;-43.80034637451172
345;1673392090.427027;47.128659;7.2376499;72.99600219726562;1673392090.5125422;-56.14061737060547;8.924009323120117;-42.957942962646484
346;1673392090.6263015;47.128674;7.2376225;72.98800659179688;1673392090.7069774;-55.61859130859375;9.2506685256958;-42.154075622558594
347;1673392090.8178978;47.1286905;7.2375926999999995;72.94700622558594;1673392090.8987403;-50.424766540527344;3.9346988201141357;-39.66395568847656
348;1673392091.0156667;47.1287072;7.2375623;72.61900329589844;1673392091.1027386;-28.98603630065918;-6.105640888214111;-38.70848846435547
349;1673392091.2276452;47.128723699999995;7.237532099999999;71.91800689697266;1673392091.3376038;9.636019706726074;-20.431575775146484;-45.93872833251953
350;1673392091.4566066;47.12874;7.2375019;70.83200073242188;1673392091.5326807;52.640953063964844;-58.93452835083008;-81.53662109375
351;1673392091.645689;47.1287564;7.2374719999999995;69.33600616455078;1673392091.7261102;50.13182830810547;-134.28887939453125;-159.1759490966797
352;1673392091.8402216;47.1287729;7.2374418;67.49300384521484;1673392091.917582;32.36347198486328;-152.280517578125;175.44093322753906
353;1673392092.0307324;47.1287892;7.2374114;65.3070068359375;1673392092.1098602;33.660892486572266;-143.9869384765625;173.7579803466797
354;1673392092.226463;47.128805299999996;7.2373812;62.768001556396484;1673392092.320634;48.625816345214844;-105.89484405517578;-159.50074768066406
355;1673392092.4422598;47.1288212;7.237350999999999;59.884002685546875;1673392092.5306792;31.466318130493164;-30.42146873474121;-98.69989013671875
356;1673392092.64267;47.128837;7.237320599999999;56.61600112915039;1673392092.7261887;-21.671794891357422;5.775770664215088;-79.3774642944336
357;1673392092.8418;47.128852699999996;7.237290499999999;52.94300079345703;1673392092.9309416;-59.38594436645508;18.494836807250977;-75.96219635009766
358;1673392093.035794;47.128868;7.237260699999999;48.92900085449219;1673392093.1097481;-61.16392517089844;-1.7090846300125122;-56.80855941772461
359;1673392093.221865;47.1288829;7.2372311;44.599002838134766;1673392093.3009138;-20.609472274780273;-19.344202041625977;-52.639949798583984
360;1673392093.421796;47.1288975;7.237202;39.91400146484375;1673392093.5052042;40.184837341308594;-34.11559295654297;-70.56600952148438
361;1673392093.634571;47.128912299999996;7.2371731;34.83700180053711;1673392093.7097723;74.08585357666016;-83.76460266113281;-129.0993194580078
362;1673392093.8189409;47.1289271;7.2371441;29.430002212524414;1673392093.9008145;79.93767547607422;-38.97694778442383;-92.88777923583984
363;1673392094.0155268;47.1289419;7.2371149;23.724000930786133;1673392094.0991378;32.59304428100586;4.970088958740234;-52.87455749511719
364;1673392094.2277431;47.1289568;7.2370852999999995;17.657001495361328;1673392094.3239074;-30.559104919433594;-0.9983478784561157;-44.99791717529297
365;1673392094.4489014;47.128971299999996;7.237055799999999;11.202000617980957;1673392094.5337029;-52.1226806640625;-25.593490600585938;-26.524831771850586
366;1673392094.6419222;47.1289854;7.2370266999999995;4.434000015258789;1673392094.7207067;-20.179405212402344;-23.785808563232422;-33.676998138427734
367;1673392094.8417692;47.128994;7.2370035999999995;0.12800000607967377;1673392094.9216084;-18.66257095336914;-11.413908004760742;-39.29808044433594
368;1673392095.041158;47.1289929;7.2369870999999995;0.4930000305175781;1673392095.136226;-8.670390129089355;-1.7484756708145142;-42.23036575317383
369;1673392095.258764;47.128990699999996;7.2369691;0.6940000057220459;1673392095.33978;-9.426949501037598;-3.9595038890838623;-42.29035186767578
370;1673392095.4509928;47.128988899999996;7.236951599999999;0.8500000238418579;1673392095.5429773;-9.237967491149902;-5.464742660522461;-42.47612762451172
371;1673392095.6493402;47.1289875;7.236936099999999;0.940000057220459;1673392095.7278516;-9.01043701171875;-6.446159362792969;-42.776092529296875
372;1673392095.8467367;47.1289866;7.2369232;0.9960000514984131;1673392095.9326746;-8.653604507446289;-6.913328647613525;-43.257564544677734
373;1673392096.0438805;47.1289862;7.2369138;1.031000018119812;1673392096.1258922;-8.308808326721191;-7.108732223510742;-43.909542083740234
374;1673392096.2418337;47.128985799999995;7.2369027;1.0490000247955322;1673392096.3237815;-8.166145324707031;-7.468258380889893;-44.026824951171875
375;1673392096.4478471;47.1289854;7.2368885;1.0890001058578491;1673392096.5298688;-8.069060325622559;-7.687561988830566;-44.10207748413086
376;1673392096.6358945;47.1289849;7.2368716;1.1220000982284546;1673392096.7180498;-7.962629795074463;-7.8530755043029785;-44.16724395751953
377;1673392096.8301072;47.128984599999995;7.2368546;1.165000081062317;1673392096.9087598;-7.865816116333008;-7.971227169036865;-44.26008224487305
378;1673392097.022236;47.1289843;7.2368359;1.194000005722046;1673392097.102705;-7.774919033050537;-8.032896041870117;-44.33673858642578
379;1673392097.2217922;47.128983999999996;7.236815699999999;1.194000005722046;1673392097.3149796;-7.7393341064453125;-8.018460273742676;-44.41831970214844
380;1673392097.4328127;47.128983899999994;7.236796399999999;1.186000108718872;1673392097.515877;-7.587353706359863;-7.941187381744385;-44.495338439941406
381;1673392097.6406987;47.128983899999994;7.2367756;1.1690000295639038;1673392097.720921;-7.576870918273926;-7.8928046226501465;-44.542545318603516
382;1673392097.845407;47.128983999999996;7.236754299999999;1.1600000858306885;1673392097.932008;-7.450409412384033;-7.740403652191162;-44.604209899902344
383;1673392098.0428143;47.1289843;7.236732399999999;1.1460000276565552;1673392098.120858;-7.387471675872803;-7.626554489135742;-44.66835403442383
384;1673392098.2357852;47.1289847;7.2367099999999995;1.1220000982284546;1673392098.3127384;-7.315225124359131;-7.448764801025391;-44.73104476928711
385;1673392098.4247408;47.1289853;7.236687;1.0910000801086426;1673392098.5146525;-7.274534225463867;-7.34205436706543;-44.7838249206543
386;1673392098.6228056;47.128986;7.2366635;1.0570000410079956;1673392098.7029457;-7.1594109535217285;-7.115388870239258;-44.824832916259766
387;1673392098.8206835;47.1289868;7.2366394;1.0200001001358032;1673392098.904604;-7.149423122406006;-6.975823402404785;-44.89725112915039
388;1673392099.0238597;47.1289878;7.236614899999999;0.987000048160553;1673392099.1057706;-7.044742107391357;-6.7498650550842285;-44.944637298583984
389;1673392099.2219164;47.128988899999996;7.236589899999999;0.9530000686645508;1673392099.3038988;-6.974789142608643;-6.535060882568359;-45.012184143066406
390;1673392099.4256544;47.1289902;7.2365644;0.9190000295639038;1673392099.5058281;-6.954591274261475;-6.362693786621094;-45.06439208984375
391;1673392099.6257384;47.1289916;7.2365384;0.8810000419616699;1673392099.7126534;-6.876954078674316;-6.102598190307617;-45.13174057006836
392;1673392099.8256576;47.128993099999995;7.2365118;0.8380000591278076;1673392099.912882;-6.8060784339904785;-5.922232151031494;-45.19624710083008
393;1673392100.0291786;47.1289948;7.2364847999999995;0.7920000553131104;1673392100.1108878;-6.724344730377197;-5.68138313293457;-45.26085662841797
394;1673392100.2406487;47.1289966;7.2364573;0.7460000514984131;1673392100.3220053;-6.652942657470703;-5.474167823791504;-45.347801208496094
395;1673392100.4449484;47.128998599999996;7.2364294;0.6980000138282776;1673392100.524783;-6.611212253570557;-5.328258514404297;-45.408592224121094
396;1673392100.6338904;47.1290006;7.236401099999999;0.6520000100135803;1673392100.716809;-6.5800065994262695;-5.076842784881592;-45.457332611083984
397;1673392100.876838;47.129002899999996;7.2363713;0.6030000448226929;1673392100.9586966;-6.461613655090332;-4.274925231933594;-45.52787780761719
398;1673392101.1266987;47.1290038;7.2363596;0.5640000104904175;1673392101.2017374;-6.415420055389404;-3.9974145889282227;-45.57456970214844
