;pos_time;latitude;longitude;altitude;alt_time;pitch;roll;yaw
0;1673389258.4614184;47.1306425;7.24062;-0.02200000174343586;1673389258.5440667;0.17337900400161743;-0.24122367799282074;90.00285339355469
1;1673389258.661477;47.1306425;7.24062;-0.020000001415610313;1673389258.7498684;0.40508055686950684;-0.2528630793094635;90.0943832397461
2;1673389258.8743849;47.130642599999995;7.2406201;-0.02200000174343586;1673389258.9599512;0.5819474458694458;-0.24537260830402374;90.08399200439453
3;1673389259.0694473;47.130642599999995;7.24062;-0.026000000536441803;1673389259.1518257;0.16452480852603912;-0.19401781260967255;90.05103302001953
4;1673389259.2712705;47.1306425;7.2406198999999996;-0.027000000700354576;1673389259.360126;0.15272846817970276;-0.2847481966018677;90.23751068115234
5;1673389259.4817238;47.1306425;7.240619799999999;-0.029000001028180122;1673389259.5584023;0.18181772530078888;-0.2823224365711212;90.1262435913086
6;1673389259.6692288;47.1306425;7.2406197;-0.03500000014901161;1673389259.7490566;-0.05952231213450432;-0.23566488921642303;89.99774169921875
7;1673389259.869521;47.1306424;7.2406197;-0.039000000804662704;1673389259.9540362;-0.035676825791597366;-0.41058409214019775;90.19161987304688
8;1673389260.0684967;47.1306424;7.240619799999999;-0.04000000283122063;1673389260.149464;0.008479819633066654;-0.11073461920022964;89.9534912109375
9;1673389260.271301;47.1306424;7.240619799999999;-0.04000000283122063;1673389260.3538504;0.09177602082490921;-0.35933107137680054;90.11903381347656
10;1673389260.4718406;47.1306423;7.2406197;-0.04100000113248825;1673389260.5498264;-0.1231764554977417;-0.20617376267910004;89.84783172607422
11;1673389260.6738749;47.1306423;7.2406197;-0.04400000348687172;1673389260.7554193;-0.041892193257808685;-0.28612062335014343;89.82867431640625
12;1673389260.8709812;47.1306424;7.2406197;-0.04800000041723251;1673389260.9509437;0.05812932178378105;-0.11188141256570816;89.7879409790039
13;1673389261.0713415;47.1306424;7.2406197;-0.05300000309944153;1673389261.1519313;-0.05912327393889427;-0.28616300225257874;89.98902130126953
14;1673389261.285406;47.1306425;7.240619799999999;0.0;1673389261.375746;-0.14777858555316925;-0.5852321982383728;90.00932312011719
15;1673389261.4931927;47.1306425;7.2406198999999996;-0.003000000026077032;1673389261.5782337;-0.00637414027005434;-0.46637675166130066;89.88349914550781
16;1673389261.7006414;47.1306425;7.24062;-0.005000000353902578;1673389261.785836;-0.08692502975463867;-0.48608073592185974;89.94255065917969
17;1673389261.9094625;47.1306424;7.24062;-0.003000000026077032;1673389262.0006204;-0.1255500763654709;-0.5159021615982056;89.95905303955078
18;1673389262.1063888;47.1306424;7.24062;0.0;1673389262.1721473;-0.04660584032535553;-0.46900084614753723;89.78500366210938
19;1673389262.2891686;47.1306424;7.24062;-0.0020000000949949026;1673389262.3731666;0.11391044408082962;-0.8904064297676086;90.14751434326172
20;1673389262.4931765;47.1306423;7.24062;-0.0020000000949949026;1673389262.5709684;-0.07314818352460861;-0.47020432353019714;90.1126480102539
21;1673389262.6912844;47.1306423;7.24062;-0.003000000026077032;1673389262.7710133;0.020521515980362892;-0.09585320949554443;89.95367431640625
22;1673389262.888214;47.1306424;7.24062;-0.0020000000949949026;1673389262.9613059;-0.1554587185382843;-0.8246788382530212;89.80901336669922
23;1673389263.0923553;47.1306424;7.24062;-0.0020000000949949026;1673389263.1840715;-0.1648888885974884;-0.16695880889892578;90.06990814208984
24;1673389263.3365884;47.1306424;7.24062;-0.0010000000474974513;1673389263.424195;-0.01118502113968134;-0.533284068107605;89.99312591552734
25;1673389263.5300329;47.1306424;7.24062;-0.004000000189989805;1673389263.5951397;-0.2344493567943573;-0.57536381483078;90.07421112060547
26;1673389263.6971867;47.1306424;7.2406198999999996;-0.005000000353902578;1673389263.7710059;0.02324206568300724;-0.36825570464134216;90.06781768798828
27;1673389263.8771377;47.1306424;7.2406198999999996;-0.007000000216066837;1673389263.9500384;-0.3069450855255127;-0.5603797435760498;90.19401550292969
28;1673389264.0850973;47.1306424;7.2406198999999996;-0.010000000707805157;1673389264.146108;-0.15513324737548828;-0.507263720035553;90.2370376586914
29;1673389264.2871346;47.1306424;7.24062;-0.006000000052154064;1673389264.373284;-0.033415473997592926;-0.22662435472011566;90.37224578857422
30;1673389264.5046709;47.1306425;7.24062;-0.0010000000474974513;1673389264.5851505;-0.30562663078308105;-0.5726569890975952;90.4647445678711
31;1673389264.6982207;47.1306425;7.2406201;0.0020000000949949026;1673389264.7823021;-0.05138026177883148;-0.2150593250989914;89.95927429199219
32;1673389264.8978336;47.1306425;7.2406201999999995;0.005000000353902578;1673389264.9712138;1.9900649785995483;0.9377819299697876;89.5733413696289
33;1673389265.085144;47.130642699999996;7.2406204;0.020000001415610313;1673389265.1714013;6.389254093170166;2.9216020107269287;89.37560272216797
34;1673389265.284194;47.1306428;7.2406207;0.03400000184774399;1673389265.367108;8.41230297088623;7.5736589431762695;89.3701400756836
35;1673389265.4901342;47.1306429;7.2406209;0.0690000057220459;1673389265.5611122;7.861454010009766;8.731294631958008;88.89042663574219
36;1673389265.6709921;47.1306431;7.2406209;0.125;1673389265.7552807;7.231794357299805;4.455596446990967;88.348876953125
37;1673389265.8788328;47.130643;7.2406209;0.19300000369548798;1673389265.9591532;7.873793601989746;4.654016494750977;88.59640502929688
38;1673389266.0760763;47.130643;7.240620799999999;0.2760000228881836;1673389266.1583343;8.667657852172852;9.147505760192871;89.05923461914062
39;1673389266.2966383;47.130643;7.2406207;0.36900001764297485;1673389266.3850381;9.274195671081543;6.204494953155518;88.74757385253906
40;1673389266.5066826;47.130643;7.2406206;0.48100003600120544;1673389266.5833724;8.447338104248047;4.9881134033203125;88.08573150634766
41;1673389266.7010672;47.130643;7.2406204999999995;0.6040000319480896;1673389266.7845914;7.294228553771973;8.989590644836426;87.1407470703125
42;1673389266.9045408;47.130643;7.2406201999999995;0.7400000095367432;1673389266.9813397;7.183467388153076;6.6635236740112305;86.15338897705078
43;1673389267.097997;47.1306429;7.2406198999999996;0.8970000147819519;1673389267.1748376;6.726564407348633;2.9894704818725586;85.8629150390625
44;1673389267.2916374;47.130642599999995;7.2406196;1.0730000734329224;1673389267.373255;7.000383377075195;6.340173244476318;86.38270568847656
45;1673389267.493007;47.1306425;7.240619499999999;1.2590000629425049;1673389267.5697148;7.99800443649292;7.711778163909912;86.61595916748047
46;1673389267.6844795;47.1306424;7.2406194;1.4550000429153442;1673389267.7660897;7.790335655212402;3.1618711948394775;86.14897918701172
47;1673389267.8797224;47.1306424;7.2406194;1.6510000228881836;1673389267.9652457;6.599363803863525;6.813162326812744;87.54190826416016
48;1673389268.0868568;47.1306423;7.240619499999999;1.8410000801086426;1673389268.1781788;6.994020938873291;7.428960800170898;86.31320190429688
49;1673389268.2929184;47.1306423;7.240619499999999;2.0320000648498535;1673389268.374048;7.32814884185791;2.7094430923461914;85.50358581542969
50;1673389268.4976711;47.1306422;7.240619499999999;2.2269999980926514;1673389268.5781198;7.619325637817383;4.644020080566406;85.42381286621094
51;1673389268.6937203;47.130642099999996;7.2406196;2.4180002212524414;1673389268.785128;8.708984375;7.214040279388428;85.59996032714844
52;1673389268.9038541;47.1306422;7.2406197;2.6130001544952393;1673389268.9922335;8.914749145507812;4.12639856338501;85.30388641357422
53;1673389269.1023965;47.1306423;7.2406197;2.81000018119812;1673389269.1808355;7.9449872970581055;5.069845676422119;84.99351501464844
54;1673389269.2957292;47.1306423;7.2406197;3.004000186920166;1673389269.3763509;7.532407283782959;8.276477813720703;84.49633026123047
55;1673389269.4852502;47.1306424;7.2406197;3.204000234603882;1673389269.5693853;7.540505409240723;5.708688259124756;84.58216094970703
56;1673389269.677323;47.1306424;7.2406196;3.4060001373291016;1673389269.7557425;7.344040870666504;2.904831886291504;85.13574981689453
57;1673389269.8758106;47.1306423;7.240619499999999;3.6030001640319824;1673389269.9681683;7.628944396972656;7.42813777923584;85.8367919921875
58;1673389270.0869284;47.1306422;7.240619499999999;3.8000001907348633;1673389270.1735964;8.260815620422363;6.37630558013916;85.75778198242188
59;1673389270.2942805;47.1306423;7.240619499999999;4.0;1673389270.367087;8.238107681274414;3.5835964679718018;85.37870788574219
60;1673389270.4757507;47.1306423;7.240619499999999;4.200000286102295;1673389270.5565405;7.466681480407715;7.034693717956543;85.03665924072266
61;1673389270.6710675;47.1306422;7.2406196;4.394000053405762;1673389270.7537951;7.190767288208008;6.5777106285095215;84.9795150756836
62;1673389270.8938382;47.1306422;7.240619499999999;4.5920000076293945;1673389270.9803205;6.602215766906738;2.805225372314453;85.30198669433594
63;1673389271.0973995;47.1306422;7.240619499999999;4.788000106811523;1673389271.1858456;7.109949111938477;5.217772960662842;85.68303680419922
64;1673389271.3084722;47.130642099999996;7.240619499999999;4.985000133514404;1673389271.3900213;8.124313354492188;7.909036636352539;85.65245819091797
65;1673389271.5135434;47.130642099999996;7.240619499999999;5.186000347137451;1673389271.5836315;8.518837928771973;3.744058847427368;85.17060089111328
66;1673389271.7011855;47.1306423;7.2406196;5.38800048828125;1673389271.7799714;8.210413932800293;5.376042366027832;85.00751495361328
67;1673389271.8993337;47.1306424;7.2406197;5.586000442504883;1673389271.976024;7.716884136199951;8.413694381713867;85.18990325927734
68;1673389272.1007032;47.1306425;7.2406197;5.788000106811523;1673389272.1755776;6.996973037719727;4.439757823944092;85.23930358886719
69;1673389272.2922692;47.1306425;7.2406197;5.993000507354736;1673389272.38465;6.9828643798828125;4.2872700691223145;85.49012756347656
70;1673389272.5003545;47.1306424;7.240619799999999;6.191000461578369;1673389272.5859423;8.156022071838379;8.378266334533691;85.58082580566406
71;1673389272.7037928;47.1306424;7.2406198999999996;6.392000198364258;1673389272.7775564;8.652253150939941;5.309976100921631;85.00918579101562
72;1673389272.8846245;47.1306425;7.2406198999999996;6.590000152587891;1673389272.9632862;8.64548397064209;3.433471918106079;84.62964630126953
73;1673389273.0732007;47.1306425;7.24062;6.788000106811523;1673389273.156475;8.511877059936523;7.307445049285889;84.99424743652344
74;1673389273.3100119;47.1306424;7.24062;6.984000205993652;1673389273.400615;7.435457706451416;5.823309898376465;85.42298889160156
75;1673389273.5169992;47.1306424;7.24062;7.181000232696533;1673389273.6225162;6.775146961212158;3.057103395462036;85.75789642333984
76;1673389273.7348962;47.1306423;7.24062;7.37600040435791;1673389273.8169951;7.691606044769287;7.471138000488281;85.94976043701172
77;1673389273.94227;47.1306422;7.24062;7.576000213623047;1673389274.047551;8.317943572998047;7.452843189239502;85.53382110595703
78;1673389274.169982;47.1306423;7.24062;7.776000499725342;1673389274.2484155;8.543925285339355;3.185407876968384;84.708740234375
79;1673389274.3630264;47.1306424;7.2406201;7.978000164031982;1673389274.4462674;8.543039321899414;6.017762660980225;84.66389465332031
80;1673389274.585699;47.1306424;7.2406201;8.177000045776367;1673389274.6810086;7.985318660736084;7.236720085144043;85.02090454101562
81;1673389274.7773364;47.1306425;7.2406201;8.384000778198242;1673389274.898742;7.1319804191589355;3.2860426902770996;85.35283660888672
82;1673389274.9851844;47.130642599999995;7.2406201;8.588000297546387;1673389275.056001;7.201920986175537;6.550543308258057;85.7649154663086
83;1673389275.1409142;47.1306425;7.2406201;8.794000625610352;1673389275.2050996;8.00394344329834;8.822815895080566;85.63372802734375
84;1673389275.3003166;47.130642599999995;7.2406201999999995;8.996000289916992;1673389275.3730955;8.32462215423584;4.360254764556885;85.00054168701172
85;1673389275.479952;47.130642599999995;7.2406201999999995;9.197000503540039;1673389275.5674343;8.760725975036621;4.851357936859131;84.70118713378906
86;1673389275.690246;47.1306425;7.2406203;9.398000717163086;1673389275.7690403;8.426451683044434;7.786588668823242;85.11528015136719
87;1673389275.8849063;47.1306424;7.2406203;9.595000267028809;1673389275.9821296;7.673337936401367;3.8396201133728027;85.33924865722656
88;1673389276.094698;47.1306424;7.2406203;9.792000770568848;1673389276.172419;7.429215908050537;3.6790919303894043;85.49004364013672
89;1673389276.2901144;47.1306424;7.2406203;9.984000205993652;1673389276.3737793;7.657129764556885;8.125144004821777;85.45732879638672
90;1673389276.494689;47.1306425;7.2406203;10.192000389099121;1673389276.5797505;8.36824893951416;6.441761493682861;85.00318908691406
91;1673389276.6948946;47.1306425;7.2406201999999995;10.482000350952148;1673389276.7801304;9.757275581359863;6.178908348083496;84.65196990966797
92;1673389276.899493;47.1306424;7.24062;10.848000526428223;1673389276.985128;8.982721328735352;7.623942852020264;85.35472106933594
93;1673389277.0980542;47.130642099999996;7.240619799999999;11.234000205993652;1673389277.1707325;7.229856491088867;7.406645774841309;85.44200134277344
94;1673389277.301299;47.1306418;7.240619499999999;11.632000923156738;1673389277.3986049;6.150166034698486;2.4474759101867676;85.50040435791016
95;1673389277.5126982;47.130641499999996;7.240619199999999;12.029000282287598;1673389277.5962217;6.272472858428955;4.282551288604736;85.83062744140625
96;1673389277.7013814;47.130641399999995;7.2406191;12.434000968933105;1673389277.791783;6.880454063415527;6.770421028137207;85.66830444335938
97;1673389277.901779;47.130641399999995;7.2406191;12.846000671386719;1673389277.9973118;7.3656697273254395;2.883131742477417;85.2215576171875
98;1673389278.1105318;47.130641499999996;7.240619199999999;13.250000953674316;1673389278.1966677;7.133928298950195;3.6339306831359863;85.13964080810547
99;1673389278.3193812;47.1306416;7.2406193;13.656001091003418;1673389278.3946168;7.252008438110352;7.479605674743652;85.42172241210938
100;1673389278.5118563;47.1306418;7.2406194;14.059000968933105;1673389278.603945;6.936779975891113;4.410094738006592;85.43263244628906
101;1673389278.7393801;47.1306419;7.2406196;14.464000701904297;1673389278.8254583;7.016781806945801;4.0687642097473145;85.50179290771484
102;1673389278.9656675;47.1306419;7.2406197;14.871000289916992;1673389279.0341477;7.6551032066345215;8.313684463500977;85.60041046142578
103;1673389279.1403763;47.130642099999996;7.2406197;15.28800106048584;1673389279.2191017;8.360677719116211;6.161144256591797;85.2828598022461
104;1673389279.3320596;47.1306422;7.240619799999999;15.705000877380371;1673389279.4243991;8.535792350769043;3.7694382667541504;85.0914535522461
105;1673389279.537296;47.1306423;7.2406198999999996;16.119001388549805;1673389279.6152794;8.12047004699707;7.66533899307251;85.30224609375
106;1673389279.7312965;47.1306423;7.2406198999999996;16.527999877929688;1673389279.8676589;7.6827826499938965;6.949249267578125;85.47137451171875
107;1673389280.0150054;47.1306423;7.2406198999999996;16.93800163269043;1673389280.0722933;7.237174987792969;3.186758279800415;85.33619689941406
108;1673389280.1839488;47.1306422;7.2406198999999996;17.345001220703125;1673389280.2696047;7.319622039794922;6.046074390411377;85.4955062866211
109;1673389280.3876157;47.1306422;7.2406198999999996;17.759000778198242;1673389280.4521408;7.618619918823242;7.561530590057373;85.39669799804688
110;1673389280.552781;47.1306423;7.240619799999999;18.17300033569336;1673389280.6160092;8.005303382873535;3.6373631954193115;84.88323974609375
111;1673389280.7212667;47.1306423;7.240619799999999;18.58300018310547;1673389280.8004873;8.220612525939941;4.799471855163574;84.95905303955078
112;1673389280.9171212;47.1306423;7.240619799999999;18.987001419067383;1673389281.006655;7.9142303466796875;7.7975850105285645;85.46240997314453
113;1673389281.112709;47.1306423;7.240619799999999;19.381000518798828;1673389281.1989458;7.141935348510742;4.373706817626953;85.60403442382812
114;1673389281.3207638;47.1306423;7.240619799999999;19.7810001373291;1673389281.4004033;7.084428310394287;4.324274063110352;85.46371459960938
115;1673389281.5161142;47.1306423;7.240619799999999;20.183000564575195;1673389281.5977867;7.324007987976074;8.159232139587402;85.33448028564453
116;1673389281.742436;47.1306424;7.2406197;20.589000701904297;1673389281.8183682;7.755446434020996;5.468332290649414;85.16845703125
117;1673389281.9471796;47.130642599999995;7.2406197;20.986000061035156;1673389282.0239546;8.084081649780273;4.377711296081543;85.22407531738281
118;1673389282.1668332;47.130642699999996;7.2406197;21.384000778198242;1673389282.2470198;8.251265525817871;8.004114151000977;85.34765625
119;1673389282.3512385;47.130642699999996;7.2406197;21.77800178527832;1673389282.4308345;8.038619041442871;7.071585655212402;85.49848175048828
120;1673389282.5399852;47.130642599999995;7.2406196;22.17500114440918;1673389282.626449;7.849117279052734;3.766062021255493;85.52622985839844
121;1673389282.739361;47.130642599999995;7.2406196;22.576000213623047;1673389282.8285482;7.345604419708252;5.882596015930176;85.24441528320312
122;1673389282.9268432;47.1306425;7.2406196;22.98000144958496;1673389282.9977338;7.082655429840088;8.071908950805664;85.06533813476562
123;1673389283.106588;47.130642599999995;7.240619499999999;23.384000778198242;1673389283.1852183;7.632248401641846;3.930178165435791;84.97309112548828
124;1673389283.3089454;47.130642599999995;7.240619499999999;23.785001754760742;1673389283.3848033;7.6187744140625;5.149519443511963;85.22330474853516
125;1673389283.4967086;47.130642599999995;7.240619499999999;24.183000564575195;1673389283.5772986;7.9115800857543945;8.341841697692871;85.72123718261719
126;1673389283.6939697;47.130642599999995;7.240619499999999;24.576000213623047;1673389283.781372;8.179327964782715;5.181311130523682;85.54259490966797
127;1673389283.9018035;47.1306425;7.240619499999999;24.97800064086914;1673389283.9892197;7.9842848777771;3.9637463092803955;85.22440338134766
128;1673389284.1106052;47.1306425;7.240619499999999;25.384000778198242;1673389284.1902246;7.364444255828857;7.777472019195557;85.22911071777344
129;1673389284.3149276;47.1306425;7.2406194;25.79400062561035;1673389284.403202;7.21961784362793;5.692616939544678;85.29415893554688
130;1673389284.5219033;47.130642599999995;7.2406194;26.200000762939453;1673389284.5982935;7.249568462371826;3.827660083770752;85.2574691772461
131;1673389284.7110953;47.130642699999996;7.2406194;26.60300064086914;1673389284.7848768;7.5518364906311035;7.683182239532471;85.55750274658203
132;1673389284.8995392;47.130642699999996;7.2406194;26.9950008392334;1673389285.0090396;8.127886772155762;7.0449323654174805;85.6141357421875
133;1673389285.116767;47.130642699999996;7.240619499999999;27.38800048828125;1673389285.2229824;8.24874210357666;3.65964937210083;85.19361877441406
134;1673389285.3394158;47.130642599999995;7.240619499999999;27.784000396728516;1673389285.4099796;7.745265007019043;6.152524948120117;84.80879211425781
135;1673389285.5071964;47.130642599999995;7.240619499999999;28.192001342773438;1673389285.5840838;7.511938095092773;7.968144416809082;85.2117691040039
136;1673389285.703334;47.130642699999996;7.2406194;28.599000930786133;1673389285.7908413;7.009650707244873;4.028090953826904;85.4210205078125
137;1673389285.9124775;47.1306428;7.2406194;29.003002166748047;1673389286.000129;7.216423034667969;5.683023452758789;85.50536346435547
138;1673389286.1169422;47.130642699999996;7.2406194;29.4010009765625;1673389286.1996107;7.759891986846924;8.307536125183105;85.492431640625
139;1673389286.3125355;47.130642699999996;7.2406194;29.793001174926758;1673389286.3931231;8.181884765625;4.6526198387146;85.37962341308594
140;1673389286.5166235;47.130642599999995;7.240619499999999;30.18800163269043;1673389286.5991542;8.118409156799316;4.403139114379883;85.02168273925781
141;1673389286.7092671;47.1306425;7.2406196;30.589000701904297;1673389286.7916827;7.856754302978516;7.7920918464660645;85.02086639404297
142;1673389286.9012756;47.1306425;7.2406197;30.99100112915039;1673389286.9887028;7.436535358428955;5.136857509613037;85.29125213623047
143;1673389287.1045883;47.130642599999995;7.2406197;31.397001266479492;1673389287.203758;7.0222063064575195;4.129889488220215;85.50756072998047
144;1673389287.3213575;47.130642599999995;7.2406197;31.80000114440918;1673389287.4060318;7.4673309326171875;8.326201438903809;85.67151641845703
145;1673389287.5022833;47.130642599999995;7.2406197;32.19499969482422;1673389287.6014023;8.017070770263672;6.35676383972168;85.33638763427734
146;1673389287.7142751;47.130642599999995;7.240619799999999;32.592002868652344;1673389287.7861116;8.329687118530273;3.590561628341675;85.07579040527344
147;1673389287.8969705;47.1306425;7.240619799999999;32.99100112915039;1673389287.9766376;8.239055633544922;6.5012688636779785;85.15901947021484
148;1673389288.0954823;47.1306425;7.240619799999999;33.393001556396484;1673389288.179139;7.64685583114624;7.513708114624023;85.49551391601562
149;1673389288.3726463;47.130642599999995;7.2406198999999996;33.79199981689453;1673389288.4708743;7.372659683227539;4.1976752281188965;85.54881286621094
150;1673389288.5817769;47.130642699999996;7.2406198999999996;34.191001892089844;1673389288.6525874;7.363058567047119;5.81684684753418;85.50198364257812
151;1673389288.754385;47.130642599999995;7.2406198999999996;34.592002868652344;1673389288.8310633;7.553005695343018;8.119378089904785;85.42334747314453
152;1673389288.9458065;47.1306425;7.2406198999999996;34.986000061035156;1673389289.0333662;7.853316307067871;4.205315589904785;85.21260070800781
153;1673389289.1325285;47.1306425;7.2406198999999996;35.387001037597656;1673389289.2064116;8.147750854492188;4.175208568572998;85.16400909423828
154;1673389289.3136;47.1306425;7.240619799999999;35.794002532958984;1673389289.3990107;7.881221771240234;8.172892570495605;85.31724548339844
155;1673389289.5052657;47.130642599999995;7.240619799999999;36.20600128173828;1673389289.5800662;7.587024211883545;5.308969497680664;85.55829620361328
156;1673389289.6928446;47.1306428;7.240619799999999;36.61800003051758;1673389289.7900712;7.261331558227539;4.6850104331970215;85.3791275024414
157;1673389289.9222445;47.1306429;7.240619799999999;37.025001525878906;1673389290.007712;7.163787364959717;8.493280410766602;85.18841552734375
158;1673389290.1266975;47.1306429;7.240619799999999;37.42000198364258;1673389290.2097335;7.423393249511719;6.3749847412109375;85.29535675048828
159;1673389290.3313127;47.1306428;7.2406198999999996;37.81700134277344;1673389290.4070818;7.839041709899902;3.589078187942505;85.33686065673828
160;1673389290.532751;47.130642699999996;7.24062;38.21200180053711;1673389290.6143513;8.153535842895508;6.914191722869873;85.39720153808594
161;1673389290.7313664;47.130642699999996;7.24062;38.612003326416016;1673389290.80425;8.167365074157715;7.171217441558838;85.48275756835938
162;1673389290.9153366;47.1306428;7.24062;39.01000213623047;1673389291.001833;7.877841472625732;3.8212788105010986;85.43486022949219
163;1673389291.1148603;47.1306428;7.24062;39.41200256347656;1673389291.202283;7.378482818603516;6.5278096199035645;85.14865112304688
164;1673389291.3291934;47.1306428;7.2406198999999996;39.8120002746582;1673389291.4142675;7.26884126663208;7.822811603546143;84.74615478515625
165;1673389291.535045;47.130642699999996;7.2406198999999996;40.2030029296875;1673389291.6254795;7.660037040710449;3.6830482482910156;85.08059692382812
166;1673389291.7835524;47.130642699999996;7.2406198999999996;40.59800338745117;1673389291.8584943;7.630281448364258;4.899616241455078;85.45508575439453
167;1673389291.9656289;47.130642599999995;7.2406198999999996;40.99500274658203;1673389292.0413518;8.081281661987305;8.420125961303711;85.6580581665039
168;1673389292.1727026;47.130642699999996;7.240619799999999;41.402000427246094;1673389292.2476554;8.114043235778809;4.9009318351745605;85.46086883544922
169;1673389292.3596156;47.1306429;7.240619799999999;41.807003021240234;1673389292.4470923;7.868782043457031;4.619781494140625;85.2634048461914
170;1673389292.5749824;47.1306428;7.2406197;42.21000289916992;1673389292.6570013;7.217210292816162;8.28074836730957;85.19219970703125
171;1673389292.76711;47.1306428;7.2406197;42.60400390625;1673389292.8589728;7.109050273895264;5.50757360458374;85.13878631591797
172;1673389293.0100124;47.130642699999996;7.2406196;43.005001068115234;1673389293.081821;6.93134069442749;3.583430767059326;85.41688537597656
173;1673389293.1817584;47.130642599999995;7.240619499999999;43.406002044677734;1673389293.2500787;7.264148235321045;7.676274299621582;85.76915740966797
174;1673389293.3561585;47.130642699999996;7.2406194;43.810001373291016;1673389293.4321544;7.976156234741211;6.740210056304932;85.58702087402344
175;1673389293.5576134;47.1306428;7.2406194;44.2140007019043;1673389293.6367857;7.861358642578125;3.669315814971924;85.1248779296875
176;1673389293.764402;47.1306428;7.2406193;44.6140022277832;1673389293.8492236;7.510185241699219;6.776627063751221;85.15641021728516
177;1673389293.961717;47.130642699999996;7.2406193;45.01100158691406;1673389294.0327575;6.927713871002197;7.623041152954102;85.27204132080078
178;1673389294.1457026;47.130642699999996;7.2406194;45.40400314331055;1673389294.2197144;6.688072204589844;3.4420392513275146;85.4939193725586
179;1673389294.3341396;47.130642599999995;7.2406194;45.80400085449219;1673389294.4176474;7.090763568878174;5.510541915893555;85.58879089355469
180;1673389294.5355637;47.130642599999995;7.2406194;46.204002380371094;1673389294.6204302;7.905706405639648;8.403923034667969;85.62779235839844
181;1673389294.7357066;47.130642699999996;7.2406194;46.608001708984375;1673389294.8147802;7.94745397567749;4.575148582458496;85.27413177490234
182;1673389294.9331965;47.1306428;7.2406194;47.01300048828125;1673389295.0092616;7.857574462890625;4.893351078033447;85.01103973388672
183;1673389295.1343045;47.130642699999996;7.2406194;47.41400146484375;1673389295.2238054;7.571023464202881;7.981966018676758;85.13687896728516
184;1673389295.3533607;47.130642699999996;7.240619499999999;47.807003021240234;1673389295.4242194;7.011842727661133;4.662516117095947;85.32119750976562
185;1673389295.5598495;47.130642699999996;7.240619499999999;48.18600082397461;1673389295.6361744;7.188190460205078;4.447841644287109;85.0619125366211
186;1673389295.758143;47.130642699999996;7.240619499999999;48.52100372314453;1673389295.8404212;7.628657341003418;7.656478404998779;85.2655029296875
187;1673389295.9436495;47.1306429;7.2406196;48.80800247192383;1673389296.023255;7.744401931762695;5.5866169929504395;85.120849609375
188;1673389296.1382236;47.1306431;7.2406196;49.047000885009766;1673389296.2198412;7.570193767547607;3.998854398727417;85.0518798828125
189;1673389296.3435361;47.130643199999994;7.2406197;49.24400329589844;1673389296.4231324;9.038529396057129;8.797874450683594;85.33306884765625
190;1673389296.5413256;47.130643299999996;7.2406197;49.41200256347656;1673389296.6184607;24.92030906677246;22.464111328125;91.29167938232422
191;1673389296.7341647;47.130642699999996;7.2406188;49.560001373291016;1673389296.8201742;34.2050666809082;37.81013107299805;103.77078247070312
192;1673389296.9464564;47.130640899999996;7.2406156;49.68800354003906;1673389297.0232272;34.46363830566406;50.20642852783203;113.6338119506836
193;1673389297.1321285;47.130637;7.2406089;49.803001403808594;1673389297.2127593;22.34969711303711;57.839515686035156;122.4681396484375
194;1673389297.3326676;47.130631;7.240599;49.8900032043457;1673389297.4223402;3.9002883434295654;60.2686767578125;132.8489532470703
195;1673389297.5514014;47.1306229;7.2405862;49.93400192260742;1673389297.6429038;-13.623510360717773;54.58633804321289;143.90274047851562
196;1673389297.7591069;47.1306133;7.240571399999999;49.94300079345703;1673389297.8381464;-25.759552001953125;47.67871856689453;155.07139587402344
197;1673389297.9548917;47.130602499999995;7.240555199999999;49.932003021240234;1673389298.0394099;-36.48582077026367;43.54872512817383;164.56163024902344
198;1673389298.1557536;47.1305906;7.240537799999999;49.919002532958984;1673389298.243856;-44.426509857177734;38.8001708984375;176.60296630859375
199;1673389298.3695743;47.130577699999996;7.240519099999999;49.8900032043457;1673389298.4631603;-47.719024658203125;30.916709899902344;-171.63546752929688
200;1673389298.579389;47.130564;7.2404991999999995;49.84100341796875;1673389298.6620047;-44.111873626708984;23.58888816833496;-165.1354217529297
201;1673389298.7719936;47.13055;7.240478599999999;49.788002014160156;1673389298.864054;-44.84299850463867;18.698678970336914;-159.26092529296875
202;1673389299.0140083;47.130535699999996;7.2404576;49.7400016784668;1673389299.0843008;-47.08100509643555;13.789262771606445;-151.33331298828125
203;1673389299.1929986;47.1305213;7.240436099999999;49.69600296020508;1673389299.2819357;-46.780521392822266;8.40053939819336;-143.65870666503906
204;1673389299.3964405;47.1305067;7.2404145;49.665000915527344;1673389299.4823856;-45.4172477722168;4.478725433349609;-137.3143768310547
205;1673389299.593579;47.1304922;7.2403925;49.6410026550293;1673389299.6936214;-47.05339431762695;-1.294270634651184;-131.6755828857422
206;1673389299.7986252;47.1304778;7.2403702999999995;49.634002685546875;1673389299.87782;-47.02516555786133;-5.8607563972473145;-132.5724334716797
207;1673389299.9876814;47.130463;7.2403483;49.63600158691406;1673389300.070209;-47.39627456665039;-5.249851226806641;-135.50558471679688
208;1673389300.1763346;47.130448;7.2403265999999995;49.6400032043457;1673389300.252082;-48.2987174987793;-4.710925102233887;-136.5139617919922
209;1673389300.3611426;47.1304326;7.2403054;49.65400314331055;1673389300.4742095;-48.10609436035156;-2.8211803436279297;-137.6661834716797
210;1673389300.6148984;47.1304167;7.2402845;49.6660041809082;1673389300.6891494;-47.9709587097168;-1.0148212909698486;-138.4205780029297
211;1673389300.7987528;47.130400699999996;7.240263799999999;49.691001892089844;1673389300.873049;-48.78038024902344;-0.14149697124958038;-138.71043395996094
212;1673389300.9810393;47.1303845;7.2402431;49.71800231933594;1673389301.058145;-49.81230926513672;0.4637622833251953;-138.82994079589844
213;1673389301.1743636;47.1303681;7.2402222;49.743003845214844;1673389301.2534482;-49.75440216064453;0.7172930836677551;-138.70474243164062
214;1673389301.3802323;47.130351499999996;7.2402012;49.76300048828125;1673389301.4612813;-48.850547790527344;0.7813889384269714;-138.50025939941406
215;1673389301.5751352;47.1303348;7.24018;49.77900314331055;1673389301.648996;-48.09632873535156;0.764572024345398;-138.26429748535156
216;1673389301.7784677;47.1303181;7.2401588;49.78700256347656;1673389301.8450224;-47.86040496826172;0.6661129593849182;-138.03793334960938
217;1673389301.9564576;47.1303014;7.2401376;49.78400421142578;1673389302.0400145;-47.470298767089844;0.6051884889602661;-137.8551025390625
218;1673389302.1557076;47.1302848;7.2401162999999995;49.78300094604492;1673389302.2362893;-47.50316619873047;0.5358110070228577;-137.7462158203125
219;1673389302.3549678;47.130268199999996;7.240094999999999;49.79300308227539;1673389302.441196;-48.1331787109375;0.5546558499336243;-137.63719177246094
220;1673389302.553188;47.130251699999995;7.2400737;49.80500411987305;1673389302.6330338;-48.55516052246094;0.47337013483047485;-137.4660186767578
221;1673389302.7536309;47.1302351;7.2400522;49.81800079345703;1673389302.8359056;-48.6656379699707;0.46251121163368225;-137.37612915039062
222;1673389302.9616501;47.1302186;7.240030699999999;49.82600402832031;1673389303.040359;-48.42959213256836;0.4419945180416107;-137.27679443359375
223;1673389303.1493871;47.130202;7.2400091;49.82200241088867;1673389303.234933;-47.79338836669922;0.3752453625202179;-137.1715087890625
224;1673389303.3534465;47.130185499999996;7.2399873999999995;49.82100296020508;1673389303.434618;-47.71038818359375;0.36263880133628845;-137.14317321777344
225;1673389303.5516064;47.130169099999996;7.2399657;49.827003479003906;1673389303.6367984;-48.145748138427734;0.33275753259658813;-137.06333923339844
226;1673389303.7507505;47.130152599999995;7.2399439;49.83100128173828;1673389303.8255775;-48.48955535888672;0.31021422147750854;-137.00830078125
227;1673389303.9479742;47.130136199999995;7.239922;49.832000732421875;1673389304.0290532;-48.36209487915039;0.34795674681663513;-136.98851013183594
228;1673389304.1465938;47.130119799999996;7.2399001;49.83400344848633;1673389304.2261999;-48.0948371887207;0.3259340524673462;-136.95518493652344
229;1673389304.3500903;47.130103399999996;7.2398782;49.836002349853516;1673389304.4341645;-48.17321014404297;0.2719719409942627;-136.89988708496094
230;1673389304.5402281;47.130086999999996;7.239856199999999;49.832000732421875;1673389304.6198933;-48.23374557495117;0.31990140676498413;-136.87869262695312
231;1673389304.7407057;47.1300707;7.2398342;49.83400344848633;1673389304.8259778;-48.267845153808594;0.3335876762866974;-136.88470458984375
232;1673389304.9493103;47.1300544;7.239812199999999;49.836002349853516;1673389305.0373013;-48.43598937988281;0.3342759311199188;-136.8809814453125
233;1673389305.147367;47.1300381;7.2397902;49.840003967285156;1673389305.2358477;-48.443050384521484;0.25272583961486816;-136.81845092773438
234;1673389305.3577833;47.1300217;7.2397681;49.84100341796875;1673389305.4430802;-48.40998077392578;0.30453726649284363;-136.81979370117188
235;1673389305.5543427;47.130005399999995;7.239745999999999;49.8390007019043;1673389305.6325035;-48.21875762939453;0.2737694978713989;-136.80166625976562
236;1673389305.7580292;47.129988999999995;7.239723799999999;49.83400344848633;1673389305.8367379;-47.95563507080078;0.22171206772327423;-136.7851104736328
237;1673389305.9585156;47.129972699999996;7.2397015;49.83400344848633;1673389306.048583;-48.06600570678711;0.19165271520614624;-136.77435302734375
238;1673389306.1644583;47.1299564;7.2396793;49.836002349853516;1673389306.2578657;-48.4128532409668;0.23284409940242767;-136.79820251464844
239;1673389306.3833919;47.1299402;7.2396572;49.8380012512207;1673389306.4942558;-48.38999938964844;0.2110908180475235;-136.7767333984375
240;1673389306.6095088;47.129923899999994;7.239635;49.84300231933594;1673389306.6750927;-48.42033386230469;0.3098815977573395;-136.82308959960938
241;1673389306.7812068;47.129907599999996;7.2396126999999995;49.845001220703125;1673389306.8654087;-48.245609283447266;0.24900251626968384;-136.7991485595703
242;1673389307.0186148;47.1298913;7.239590499999999;49.84600067138672;1673389307.1091213;-47.99173355102539;0.23610444366931915;-136.76382446289062
243;1673389307.2199936;47.129875;7.2395682;49.84600067138672;1673389307.2855334;-48.05305480957031;0.2454489916563034;-136.79788208007812
244;1673389307.377089;47.1298587;7.239546;49.849002838134766;1673389307.4524622;-48.16456604003906;0.2941426634788513;-136.7890625
245;1673389307.5693142;47.1298424;7.2395238;49.85100173950195;1673389307.657548;-48.36661911010742;0.2636013329029083;-136.75502014160156
246;1673389307.7674036;47.1298262;7.239501499999999;49.855003356933594;1673389307.8483236;-48.41189956665039;0.295452356338501;-136.77992248535156
247;1673389307.9698873;47.1298099;7.2394792;49.85900115966797;1673389308.0537274;-48.351280212402344;0.27270781993865967;-136.7666015625
248;1673389308.168106;47.1297936;7.2394568999999995;49.8640022277832;1673389308.2409146;-48.322574615478516;0.19558085501194;-136.73617553710938
249;1673389308.3559358;47.1297773;7.2394345;49.8650016784668;1673389308.4336889;-48.29351043701172;0.29529792070388794;-136.80633544921875
250;1673389308.5477583;47.129760999999995;7.2394121;49.86600112915039;1673389308.62345;-48.25082015991211;0.21276211738586426;-136.75567626953125
251;1673389308.7496047;47.129744599999995;7.2393898;49.86100387573242;1673389308.8234408;-47.995689392089844;0.278781920671463;-136.80369567871094
252;1673389308.9427762;47.1297283;7.2393674;49.855003356933594;1673389309.023246;-47.69373321533203;0.25296682119369507;-136.76510620117188
253;1673389309.1412296;47.129712;7.2393450999999995;49.85200119018555;1673389309.2282465;-47.81416702270508;0.2718278765678406;-136.78916931152344
254;1673389309.3381019;47.1296958;7.2393228;49.85000228881836;1673389309.4118242;-47.92414855957031;0.2104491889476776;-136.76312255859375
255;1673389309.533464;47.129679499999995;7.2393005;49.85300064086914;1673389309.6229844;-48.123592376708984;0.33974847197532654;-136.8144073486328
256;1673389309.740831;47.1296633;7.239278199999999;49.858001708984375;1673389309.833003;-48.17116165161133;0.30261966586112976;-136.78338623046875
257;1673389309.9459264;47.129647;7.239255999999999;49.86000061035156;1673389310.0239933;-48.03861999511719;0.294543981552124;-136.76365661621094
258;1673389310.1280265;47.1296308;7.2392338;49.8650016784668;1673389310.2076187;-48.091278076171875;0.2776558995246887;-136.7591552734375
259;1673389310.3196743;47.129614499999995;7.2392115;49.875003814697266;1673389310.399021;-48.298675537109375;0.3103078305721283;-136.75006103515625
260;1673389310.534327;47.1295982;7.2391893;49.88100051879883;1673389310.6163864;-48.149024963378906;0.30422940850257874;-136.73379516601562
261;1673389310.7430053;47.1295819;7.239166999999999;49.88200378417969;1673389310.825314;-47.909000396728516;0.3046219050884247;-136.7341766357422
262;1673389310.94395;47.1295657;7.2391447;49.88500213623047;1673389311.0222487;-47.799739837646484;0.26158156991004944;-136.71841430664062
263;1673389311.137408;47.129549399999995;7.2391223;49.8910026550293;1673389311.224461;-48.01857376098633;0.3122585713863373;-136.73146057128906
264;1673389311.3384778;47.129533099999996;7.2391;49.89900207519531;1673389311.4229894;-48.24184799194336;0.3642858862876892;-136.7393341064453
265;1673389311.5456443;47.129516699999996;7.239077699999999;49.906002044677734;1673389311.6214135;-48.1890869140625;0.39669331908226013;-136.73631286621094
266;1673389311.7448845;47.1295004;7.2390552999999995;49.91200256347656;1673389311.824081;-48.09518814086914;0.3803470730781555;-136.7034149169922
267;1673389311.948919;47.129484;7.2390329;49.92000198364258;1673389312.033259;-48.18400192260742;0.36667895317077637;-136.68597412109375
268;1673389312.1440022;47.1294677;7.2390105;49.927001953125;1673389312.233341;-48.200927734375;0.30658453702926636;-136.6569061279297
269;1673389312.3480737;47.1294514;7.238988099999999;49.932003021240234;1673389312.427489;-48.0782470703125;0.279461532831192;-136.65878295898438
270;1673389312.5471852;47.129435;7.238965599999999;49.93700408935547;1673389312.6268735;-48.023193359375;0.10256578028202057;-136.59600830078125
271;1673389312.739508;47.129418699999995;7.2389432;49.941001892089844;1673389312.8229992;-48.14641189575195;0.9879745244979858;-136.88211059570312
272;1673389312.9477527;47.129402299999995;7.2389208;49.94400405883789;1673389313.0312638;-48.36751174926758;0.6538503170013428;-136.58343505859375
273;1673389313.1490526;47.129386;7.2388984;49.94900131225586;1673389313.2352715;-47.93655014038086;-0.08526867628097534;-136.42259216308594
274;1673389313.356004;47.1293697;7.2388759;49.9530029296875;1673389313.4443822;-48.17767333984375;0.2713528871536255;-136.586181640625
275;1673389313.570921;47.1293535;7.238853499999999;49.958003997802734;1673389313.6544719;-48.343605041503906;0.19279442727565765;-136.55859375
276;1673389313.7751281;47.129337199999995;7.2388311;49.9630012512207;1673389313.855983;-48.18674850463867;0.3689371347427368;-136.6249542236328
277;1673389313.9718711;47.129320899999996;7.2388086;49.967002868652344;1673389314.0583463;-48.185081481933594;0.5588414072990417;-136.6614227294922
278;1673389314.176024;47.129304499999996;7.2387862;49.970001220703125;1673389314.2742922;-48.09628677368164;0.5865244269371033;-136.6217498779297
279;1673389314.3901982;47.1292883;7.2387637;49.97200393676758;1673389314.475713;-47.975341796875;0.3889164328575134;-136.52377319335938
280;1673389314.5887468;47.129272;7.2387413;49.974002838134766;1673389314.6700068;-46.853126525878906;0.20947915315628052;-136.41343688964844
281;1673389314.802482;47.129255799999996;7.2387188;49.992000579833984;1673389314.8743687;-38.692901611328125;-0.14158731698989868;-136.17079162597656
282;1673389315.0024462;47.129239899999995;7.2386968;50.02900314331055;1673389315.116299;-25.846923828125;0.668369710445404;-136.3185272216797
283;1673389315.2243552;47.129224799999996;7.2386759;50.053001403808594;1673389315.3487842;-11.344356536865234;1.0202503204345703;-136.38003540039062
284;1673389315.4355056;47.129211;7.2386569;50.064002990722656;1673389315.5136926;-1.5299090147018433;1.1581956148147583;-136.20809936523438
285;1673389315.6193142;47.129199;7.2386403999999995;50.06500244140625;1673389315.6857193;5.224221706390381;2.634089231491089;-136.58253479003906
286;1673389315.7869284;47.129189;7.238626699999999;50.05800247192383;1673389315.8883293;8.855782508850098;-1.1687612533569336;-134.6352081298828
287;1673389316.000529;47.1291808;7.2386158;50.03900146484375;1673389316.0777595;6.427957057952881;-1.1190557479858398;-133.3589324951172
288;1673389316.2054574;47.1291745;7.2386076;50.02900314331055;1673389316.296872;2.830271005630493;0.40708646178245544;-134.4062042236328
289;1673389316.4016917;47.1291697;7.2386012;50.02900314331055;1673389316.4735854;-3.044708728790283;1.3228285312652588;-136.0039825439453
290;1673389316.6090927;47.1291659;7.2385964;50.03900146484375;1673389316.6828308;-7.147876739501953;6.955095291137695;-136.62612915039062
291;1673389316.796615;47.1291629;7.238592499999999;50.051002502441406;1673389316.884176;-9.897528648376465;4.202293872833252;-135.1735076904297
292;1673389316.9947057;47.129160399999996;7.2385890999999996;50.06300354003906;1673389317.0777278;-11.604702949523926;2.56038498878479;-134.31410217285156
293;1673389317.1876943;47.1291582;7.2385858999999995;50.07600402832031;1673389317.2615094;-13.099403381347656;0.9443247318267822;-134.0112762451172
294;1673389317.3735094;47.1291562;7.2385829;50.086002349853516;1673389317.4599833;-14.859748840332031;-1.5006742477416992;-134.04629516601562
295;1673389317.5768025;47.129154299999996;7.2385797;50.10400390625;1673389317.6575859;-32.38691711425781;-0.695884108543396;-137.19053649902344
296;1673389317.784954;47.129152;7.2385760999999995;50.16400146484375;1673389317.8722904;-31.87457275390625;0.3263435959815979;-137.9001007080078
297;1673389317.9847198;47.129149;7.2385714;50.262001037597656;1673389318.063545;-16.406232833862305;2.899416208267212;-137.86105346679688
298;1673389318.1692986;47.129145699999995;7.2385664;50.435001373291016;1673389318.2442083;-15.800459861755371;1.773023009300232;-137.72067260742188
299;1673389318.365065;47.1291423;7.238561499999999;50.70000076293945;1673389318.4485748;-29.037925720214844;0.4550776481628418;-137.23402404785156
300;1673389318.5850148;47.129138399999995;7.238555799999999;51.051002502441406;1673389318.6667776;-49.97835159301758;-1.6159168481826782;-136.4266357421875
301;1673389318.7789452;47.129132999999996;7.238548199999999;51.432003021240234;1673389318.8632975;-50.075199127197266;-1.6136348247528076;-135.5760955810547
302;1673389318.9764845;47.1291261;7.238538699999999;51.78300094604492;1673389319.0629544;-47.700897216796875;0.18599586188793182;-136.87985229492188
303;1673389319.1894507;47.1291179;7.238527599999999;52.112003326416016;1673389319.2750185;-44.829315185546875;0.5234261155128479;-136.2235870361328
304;1673389319.3856711;47.1291088;7.238515199999999;52.41800308227539;1673389319.4618807;-41.706233978271484;1.2191823720932007;-137.04220581054688
305;1673389319.5706947;47.1290991;7.2385018;52.73400115966797;1673389319.6571136;-38.50815200805664;1.1368306875228882;-136.58245849609375
306;1673389319.783751;47.1290889;7.2384879;53.048004150390625;1673389319.8748875;-36.382137298583984;1.1546489000320435;-136.8297119140625
307;1673389320.0034695;47.1290785;7.238473699999999;53.371002197265625;1673389320.0910583;-34.25679016113281;1.0307459831237793;-136.71786499023438
308;1673389320.1923277;47.1290682;7.2384594;53.7030029296875;1673389320.273704;-33.38909912109375;1.0901092290878296;-136.83155822753906
309;1673389320.3806791;47.1290579;7.2384451;54.0420036315918;1673389320.4671519;-32.66626739501953;1.1270753145217896;-136.896484375
310;1673389320.5748672;47.1290477;7.2384309;54.39200210571289;1673389320.6525116;-32.251651763916016;0.8538976311683655;-136.95326232910156
311;1673389320.7615206;47.1290376;7.2384167999999995;54.756004333496094;1673389320.8402572;-32.25101852416992;0.7748520374298096;-136.9823455810547
312;1673389320.9649045;47.1290276;7.238403;55.12200164794922;1673389321.0506465;-32.647361755371094;0.7925671935081482;-137.02728271484375
313;1673389321.1703827;47.1290177;7.238389199999999;55.49900436401367;1673389321.2577448;-32.992427825927734;0.5810514688491821;-136.99501037597656
314;1673389321.3765829;47.1290079;7.2383757;55.87700271606445;1673389321.457189;-33.66099166870117;0.5460959076881409;-136.9765167236328
315;1673389321.5811121;47.1289981;7.2383622;56.26100158691406;1673389321.6647592;-33.95048522949219;0.4861434996128082;-136.9256134033203
316;1673389321.7768023;47.128988199999995;7.2383488;56.65200424194336;1673389321.8561137;-34.36039733886719;0.6390983462333679;-136.9347381591797
317;1673389321.9833176;47.1289784;7.238335299999999;57.044002532958984;1673389322.065507;-34.56113815307617;0.663636326789856;-136.93716430664062
318;1673389322.1853256;47.1289685;7.2383218;57.441001892089844;1673389322.266942;-34.61748504638672;0.9289621114730835;-137.0122528076172
319;1673389322.384905;47.1289586;7.2383083;57.8380012512207;1673389322.4703698;-34.65034103393555;1.086154818534851;-137.0061492919922
320;1673389322.5817652;47.1289486;7.2382947;58.23400115966797;1673389322.6550164;-34.53704071044922;1.0807963609695435;-137.03468322753906
321;1673389322.7650924;47.1289387;7.2382811;58.62600326538086;1673389322.8397028;-34.44328308105469;1.1277071237564087;-137.01043701171875
322;1673389322.9527333;47.128928699999996;7.2382675;59.02000427246094;1673389323.051758;-34.51414489746094;0.9655657410621643;-136.9443817138672
323;1673389323.1704643;47.1289187;7.238253899999999;59.41400146484375;1673389323.252998;-34.38579559326172;0.8753662705421448;-136.880126953125
324;1673389323.364033;47.1289087;7.2382402;59.80600357055664;1673389323.456042;-34.43729019165039;0.8343645930290222;-136.91632080078125
325;1673389323.5709875;47.1288987;7.2382266;60.19900131225586;1673389323.6613712;-34.39984130859375;0.8788184523582458;-136.90652465820312
326;1673389323.787092;47.1288887;7.2382127999999994;60.592002868652344;1673389323.8759189;-34.38263702392578;0.9161355495452881;-136.953857421875
327;1673389323.9980142;47.128878799999995;7.2381991;60.98500442504883;1673389324.0737371;-34.30253601074219;0.9219269156455994;-136.99493408203125
328;1673389324.194327;47.1288688;7.2381854;61.38200378417969;1673389324.2708256;-34.35482406616211;1.1410112380981445;-137.00927734375
329;1673389324.3986037;47.128858799999996;7.2381717;61.78000259399414;1673389324.4841182;-34.349464416503906;0.89959317445755;-136.98268127441406
330;1673389324.5932975;47.1288487;7.2381579;62.178001403808594;1673389324.672801;-34.31974411010742;0.835334300994873;-136.9270782470703
331;1673389324.7866027;47.128838699999996;7.2381442;62.577003479003906;1673389324.862335;-34.29462814331055;0.8943896889686584;-136.9319610595703
332;1673389324.9763856;47.1288287;7.238130399999999;62.97500228881836;1673389325.0526228;-34.35038375854492;0.7365270853042603;-136.8564453125
333;1673389325.1690066;47.1288187;7.2381167;63.375003814697266;1673389325.260512;-34.26795959472656;0.8219321966171265;-136.9029083251953
334;1673389325.3818898;47.1288087;7.238103;63.772003173828125;1673389325.4690087;-34.36781692504883;0.8693843483924866;-136.93991088867188
335;1673389325.5846102;47.1287987;7.2380892999999995;64.17100524902344;1673389325.6685033;-34.38872528076172;1.077378273010254;-136.9825439453125
336;1673389325.7819407;47.1287887;7.238075599999999;64.56800079345703;1673389325.857758;-34.451416015625;1.1335322856903076;-137.02322387695312
337;1673389325.9694185;47.1287787;7.2380618;64.96900177001953;1673389326.0656393;-34.360389709472656;1.0118392705917358;-136.9767608642578
338;1673389326.1866238;47.128768699999995;7.238048099999999;65.36800384521484;1673389326.2689822;-34.41115188598633;0.8018134832382202;-136.91893005371094
339;1673389326.3878484;47.1287587;7.2380343;65.77000427246094;1673389326.4651172;-34.32902908325195;0.61103755235672;-136.8365478515625
340;1673389326.5745418;47.128748699999996;7.2380206;66.16699981689453;1673389326.6573904;-34.377681732177734;0.6713905930519104;-136.8695068359375
341;1673389326.779041;47.1287386;7.238006899999999;66.56500244140625;1673389326.8637824;-34.33871841430664;0.7046263217926025;-136.84519958496094
342;1673389326.9767206;47.128728599999995;7.2379932;66.96000671386719;1673389327.0560486;-34.342952728271484;0.9221652150154114;-136.90576171875
343;1673389327.1704426;47.1287186;7.2379793999999995;67.35700225830078;1673389327.261656;-34.33287048339844;1.2082314491271973;-136.97360229492188
344;1673389327.3839662;47.128708599999996;7.237965699999999;67.7560043334961;1673389327.462304;-34.33156967163086;1.1895623207092285;-136.96377563476562
345;1673389327.5692194;47.1286986;7.2379519;68.1500015258789;1673389327.6498163;-34.308197021484375;1.2945427894592285;-137.00531005859375
346;1673389327.777247;47.128688499999996;7.2379381;68.54300689697266;1673389327.8540533;-34.3207893371582;0.8988721370697021;-136.89895629882812
347;1673389327.9680462;47.1286786;7.2379244;68.93800354003906;1673389328.0505993;-34.35934829711914;0.7703754901885986;-136.84442138671875
348;1673389328.169732;47.1286686;7.237910599999999;69.33500671386719;1673389328.2568264;-34.46772003173828;0.46183350682258606;-136.77748107910156
349;1673389328.3842366;47.1286586;7.2378969;69.73200225830078;1673389328.4649837;-34.29844284057617;0.5759392976760864;-136.8577880859375
350;1673389328.5866716;47.1286486;7.2378832;70.1310043334961;1673389328.6652858;-30.124595642089844;0.9301632046699524;-136.87567138671875
351;1673389328.7730246;47.1286388;7.2378697;70.51100158691406;1673389328.8546932;-15.438929557800293;1.1299760341644287;-136.80714416503906
352;1673389328.9707124;47.128629499999995;7.237857099999999;70.85200500488281;1673389329.0503259;-12.930312156677246;1.3189804553985596;-137.01470947265625
353;1673389329.1718957;47.1286213;7.2378458;71.14700317382812;1673389329.2651865;-7.572099208831787;1.8259841203689575;-137.07882690429688
354;1673389329.3763463;47.128614;7.237835899999999;71.40400695800781;1673389329.4580822;-4.785373210906982;3.4367687702178955;-137.33355712890625
355;1673389329.5679932;47.1286078;7.237827299999999;71.62000274658203;1673389329.6522312;-1.5481067895889282;3.678837776184082;-137.9329376220703
356;1673389329.784808;47.1286026;7.2378202;71.81500244140625;1673389329.8606381;-2.1077401638031006;4.572779178619385;-138.4700469970703
357;1673389329.991145;47.1285984;7.2378143999999995;71.99000549316406;1673389330.0797822;-2.8281569480895996;3.7760114669799805;-137.30514526367188
358;1673389330.1967802;47.128595;7.2378097;72.14400482177734;1673389330.2753606;-4.752861022949219;3.2303147315979004;-136.8230438232422
359;1673389330.383494;47.1285923;7.237806;72.2770004272461;1673389330.4630845;-6.7447686195373535;9.915730476379395;-136.0142364501953
360;1673389330.5756836;47.1285903;7.2378028;72.39200592041016;1673389330.6504598;-4.07049560546875;29.485170364379883;-124.30675506591797
361;1673389330.7634952;47.1285897;7.2377991999999995;72.49100494384766;1673389330.8556445;-15.706419944763184;24.367372512817383;-114.03421783447266
362;1673389330.983242;47.1285905;7.2377951;72.552001953125;1673389331.0658941;-16.568614959716797;12.488182067871094;-102.53511047363281
363;1673389331.1766472;47.1285922;7.237790599999999;72.59300231933594;1673389331.26232;-20.404552459716797;6.503979682922363;-93.85237121582031
364;1673389331.3842473;47.1285945;7.2377857;72.6290054321289;1673389331.4628618;-19.24073028564453;1.7415192127227783;-84.36619567871094
365;1673389331.5815701;47.1285969;7.2377803;72.65900421142578;1673389331.6582422;-16.903505325317383;-3.882371187210083;-75.18504333496094
366;1673389331.7786667;47.1285995;7.2377746;72.68700408935547;1673389331.856196;-13.754903793334961;-7.564219951629639;-65.93978881835938
367;1673389331.9758637;47.128602099999995;7.2377689;72.71200561523438;1673389332.0535417;-9.98830795288086;-10.652929306030273;-57.15006637573242
368;1673389332.1694505;47.1286048;7.2377632;72.73100280761719;1673389332.2559588;-6.554298400878906;-12.593958854675293;-48.20412063598633
369;1673389332.3717139;47.1286074;7.2377576999999995;72.75100708007812;1673389332.4652345;-3.994506597518921;-12.937088012695312;-40.728492736816406
370;1673389332.5748987;47.1286097;7.2377524;72.77300262451172;1673389332.657406;-4.703424453735352;-13.366304397583008;-41.870670318603516
371;1673389332.778763;47.128612;7.2377473;72.79700469970703;1673389332.8586457;-22.06273078918457;-14.06467056274414;-43.84484100341797
372;1673389332.9665315;47.128614299999995;7.2377419;72.83500671386719;1673389333.056874;-45.418277740478516;-8.905872344970703;-45.65787887573242
373;1673389333.1736755;47.128617899999995;7.2377346;72.8790054321289;1673389333.2591236;-57.749916076660156;-5.096142292022705;-47.00373840332031
374;1673389333.3681598;47.1286236;7.237724699999999;72.91400146484375;1673389333.4507284;-61.47861099243164;-4.12721586227417;-47.7330436706543
375;1673389333.5745106;47.128631899999995;7.237711399999999;72.93700408935547;1673389333.6561737;-58.81340408325195;-2.0390987396240234;-49.163387298583984
376;1673389333.768081;47.1286425;7.2376952;72.95000457763672;1673389333.8460324;-56.950111389160156;-1.7048428058624268;-49.35485076904297
377;1673389333.9740486;47.128654999999995;7.2376765999999995;72.95600128173828;1673389334.0613534;-56.558712005615234;-1.913846492767334;-48.91015625
378;1673389334.1700938;47.128668999999995;7.2376561;72.95500183105469;1673389334.2498324;-56.089263916015625;-3.8469040393829346;-48.13848114013672
379;1673389334.3693469;47.128684199999995;7.2376339;72.94700622558594;1673389334.455895;-54.859153747558594;-4.746493816375732;-47.67718505859375
380;1673389334.5706637;47.1287003;7.2376105;72.9320068359375;1673389334.652389;-54.33224105834961;-5.143735408782959;-47.557857513427734
381;1673389334.7788422;47.1287172;7.237585999999999;72.90900421142578;1673389334.8679419;-47.429588317871094;-5.47196626663208;-48.04209899902344
382;1673389335.0029671;47.1287343;7.2375612;72.68099975585938;1673389335.0810933;-19.82894515991211;-3.4278724193573;-50.217864990234375
383;1673389335.1927838;47.128751199999996;7.2375367;72.09800720214844;1673389335.2687125;30.46409034729004;-1.4465190172195435;-51.85668182373047
384;1673389335.3878114;47.128768;7.2375126;71.12100219726562;1673389335.4720461;87.07984924316406;176.82286071777344;123.14432525634766
385;1673389335.5967374;47.1287848;7.2374883;69.75700378417969;1673389335.6788776;38.81885528564453;-177.98638916015625;124.85211181640625
386;1673389335.7997484;47.128801499999994;7.2374642;68.0260009765625;1673389335.8839185;18.190183639526367;-176.55259704589844;122.0060806274414
387;1673389336.0522218;47.1288179;7.2374405;65.9280014038086;1673389336.125809;25.45180320739746;-176.35081481933594;117.61742401123047
388;1673389336.230789;47.1288342;7.2374174;63.46200180053711;1673389336.336847;62.20623016357422;-169.9462890625;126.62739562988281
389;1673389336.4397764;47.128850299999996;7.237394699999999;60.650001525878906;1673389336.582044;50.538841247558594;-12.121779441833496;-74.71821594238281
390;1673389336.670007;47.1288665;7.2373718;57.474002838134766;1673389336.7334993;-19.633119583129883;-2.0260982513427734;-64.7798843383789
391;1673389336.8487566;47.128882499999996;7.2373492;53.88900375366211;1673389336.9250283;-62.02291488647461;-4.807626247406006;-56.58224868774414
392;1673389337.0308092;47.1288981;7.2373273;49.945003509521484;1673389337.1015365;-63.07648468017578;-7.663219928741455;-51.256771087646484
393;1673389337.2157764;47.1289136;7.237305699999999;45.691001892089844;1673389337.2946367;-20.830059051513672;-4.4406890869140625;-53.20219802856445
394;1673389337.396977;47.1289288;7.237284799999999;41.09100341796875;1673389337.4676685;50.199588775634766;2.066336154937744;-50.65836715698242
395;1673389337.5897338;47.1289441;7.237264;36.09100341796875;1673389337.6681447;77.15550994873047;156.7066192626953;100.87008666992188
396;1673389337.7807128;47.1289594;7.237242999999999;30.779001235961914;1673389337.8587825;74.6973876953125;151.15968322753906;94.7220458984375
397;1673389337.9757638;47.1289746;7.2372223;25.172000885009766;1673389338.058116;52.8547477722168;13.440287590026855;-40.461978912353516
398;1673389338.1796212;47.128989999999995;7.2372011999999994;19.243000030517578;1673389338.272464;-19.825027465820312;-0.5919970870018005;-44.04873275756836
399;1673389338.3998132;47.129005;7.2371802999999995;12.89900016784668;1673389338.498174;-58.14534378051758;-16.793865203857422;-32.30916976928711
400;1673389338.613648;47.129019799999995;7.2371602;6.24500036239624;1673389338.696997;-38.3722038269043;-9.473166465759277;-36.506431579589844
401;1673389338.8100517;47.129033299999996;7.2371421;0.10200000554323196;1673389338.879754;-14.803593635559082;-0.3994824290275574;-40.18117141723633
402;1673389338.9888759;47.1290431;7.23713;0.6060000061988831;1673389339.0696926;-15.41038990020752;-1.4825186729431152;-37.253273010253906
403;1673389339.1945188;47.1290532;7.237116899999999;0.8730000257492065;1673389339.2775624;-5.757302284240723;-2.008549451828003;-37.0008430480957
404;1673389339.3858263;47.1290634;7.2371037;1.0700000524520874;1673389339.4719293;-5.613677978515625;-2.544708013534546;-36.81401824951172
405;1673389339.5868266;47.1290736;7.237090299999999;1.3100000619888306;1673389339.6656802;-5.384519577026367;-2.468736410140991;-36.819366455078125
406;1673389339.7850037;47.1290823;7.2370791;1.4760000705718994;1673389339.8688984;-4.931286811828613;-2.2557497024536133;-36.934181213378906
407;1673389339.9974887;47.129089199999996;7.2370705;1.5940001010894775;1673389340.0755103;-4.49623966217041;-2.0938141345977783;-37.06923294067383
408;1673389340.1797986;47.129094099999996;7.2370646;1.6780000925064087;1673389340.2605424;-4.132147789001465;-1.9545300006866455;-37.15126037597656
409;1673389340.381331;47.1291011;7.2370556;1.7330000400543213;1673389340.4608047;-4.115450859069824;-1.9036248922348022;-37.14254379272461
410;1673389340.5816567;47.1291094;7.237044699999999;1.7750000953674316;1673389340.6696572;-4.010560989379883;-1.8155863285064697;-37.13005828857422
411;1673389340.7904887;47.1291185;7.2370325;1.812000036239624;1673389340.872726;-3.9491233825683594;-1.7922102212905884;-37.13795471191406
412;1673389340.9777617;47.129128099999996;7.2370195;1.90500009059906;1673389341.0628836;-3.9089195728302;-1.732131838798523;-37.14192581176758
413;1673389341.1901126;47.129137899999996;7.237006;1.9590001106262207;1673389341.2724242;-3.838531017303467;-1.6723777055740356;-37.16585159301758
414;1673389341.3856802;47.129148;7.236992099999999;1.9940000772476196;1673389341.4767761;-3.782632827758789;-1.60494065284729;-37.17097854614258
415;1673389341.601678;47.1291583;7.236977899999999;2.009999990463257;1673389341.6927493;-3.737593173980713;-1.5186221599578857;-37.16788101196289
416;1673389341.807186;47.1291687;7.2369634;2.0160000324249268;1673389341.8828764;-3.6992576122283936;-1.4280582666397095;-37.161521911621094
417;1673389342.0119205;47.129179199999996;7.2369485;2.0210001468658447;1673389342.0826557;-3.6162045001983643;-1.394927740097046;-37.180816650390625
418;1673389342.2058308;47.1291898;7.2369334;2.067000150680542;1673389342.289699;-3.602839708328247;-1.3683794736862183;-37.19325637817383
419;1673389342.405717;47.1292006;7.2369179;2.0850000381469727;1673389342.4880502;-3.5604069232940674;-1.3073197603225708;-37.19221496582031
