;pos_time;latitude;longitude;altitude;alt_time;pitch;roll;yaw
0;1673390167.9107807;47.1306425;7.2406198999999996;-0.01900000125169754;1673390167.931272;-0.1364317387342453;-0.11684086173772812;90.28952026367188
1;1673390168.0925114;47.1306425;7.240619799999999;-0.01600000075995922;1673390168.113178;-0.15893569588661194;-0.34874802827835083;90.49048614501953
2;1673390168.2947986;47.1306425;7.240619799999999;-0.013000000268220901;1673390168.3153028;-0.01495712623000145;-0.09280231595039368;90.42448425292969
3;1673390168.5086627;47.1306424;7.2406197;-0.014000000432133675;1673390168.5330648;0.19533145427703857;-0.2698154151439667;90.4759521484375
4;1673390168.7262976;47.1306424;7.2406197;-0.015000000596046448;1673390168.751692;-0.026915498077869415;-0.024924583733081818;90.34664154052734
5;1673390168.9382374;47.1306424;7.2406197;-0.01900000125169754;1673390168.957743;0.0582011342048645;-0.19349059462547302;90.32098388671875
6;1673390169.162438;47.1306423;7.2406197;-0.021000001579523087;1673390169.1880734;-0.11889376491308212;-0.09175216406583786;90.37248229980469
7;1673390169.3569891;47.1306423;7.2406197;-0.024000000208616257;1673390169.379456;-0.16259296238422394;-0.14250028133392334;90.45014953613281
8;1673390169.5415382;47.1306423;7.2406197;-0.029000001028180122;1673390169.5649114;0.0002350745489820838;-0.12207592278718948;90.42669677734375
9;1673390169.739122;47.1306423;7.2406197;-0.029000001028180122;1673390169.7656653;0.14454598724842072;-0.11380184441804886;90.23338317871094
10;1673390169.9294796;47.1306423;7.2406197;-0.030000001192092896;1673390169.949158;0.027272377163171768;-0.05488542094826698;90.27130889892578
11;1673390170.125378;47.1306423;7.2406197;-0.029000001028180122;1673390170.1488426;-0.22515597939491272;-0.15039733052253723;90.52112579345703
12;1673390170.324703;47.1306424;7.240619799999999;-0.029000001028180122;1673390170.3451972;-0.14698202908039093;0.011810709722340107;90.31813049316406
13;1673390170.5190797;47.1306424;7.2406198999999996;-0.029000001028180122;1673390170.541528;-0.12387678772211075;-0.14087089896202087;90.30194854736328
14;1673390170.722214;47.1306424;7.24062;0.0;1673390170.7475843;-0.01086912490427494;-1.2447865009307861;90.3874282836914
15;1673390170.9168024;47.1306425;7.24062;0.0010000000474974513;1673390170.940257;-0.18480786681175232;-1.0499632358551025;90.61698150634766
16;1673390171.1199872;47.1306425;7.2406201;0.003000000026077032;1673390171.14072;-0.4005788564682007;-0.8705161809921265;90.46871948242188
17;1673390171.305694;47.1306425;7.2406201999999995;0.006000000052154064;1673390171.3251793;-0.3726792335510254;-0.9046689867973328;90.44953155517578
18;1673390171.5053241;47.1306425;7.2406201;0.005000000353902578;1673390171.530219;-0.11030539870262146;-0.7472357749938965;90.29997253417969
19;1673390171.7052784;47.1306425;7.2406201;0.003000000026077032;1673390171.7320395;-0.06928833574056625;-1.3365368843078613;90.53923797607422
20;1673390171.9169798;47.1306425;7.2406201;0.0;1673390171.9389594;-0.4737909436225891;-1.3621701002120972;90.64340209960938
21;1673390172.11935;47.1306425;7.2406201;0.0;1673390172.1421375;-0.3248372972011566;-0.4742606282234192;90.65582275390625
22;1673390172.3310626;47.1306425;7.2406201;-0.0010000000474974513;1673390172.3520298;-0.6050722599029541;-0.08366914838552475;90.8570556640625
23;1673390172.5240624;47.1306425;7.2406201;0.0;1673390172.544001;-0.6739089488983154;-0.530963659286499;90.69359588623047
24;1673390172.7320383;47.1306425;7.24062;0.0;1673390172.7530322;-0.693924069404602;-0.8611541390419006;91.04867553710938
25;1673390172.9179819;47.1306425;7.24062;0.0;1673390172.9358876;-0.7348875403404236;-0.7226285934448242;90.90729522705078
26;1673390173.1159525;47.130642599999995;7.24062;-0.004000000189989805;1673390173.1356533;-0.9118448495864868;-1.379449486732483;91.3680648803711
27;1673390173.3160768;47.130642699999996;7.2406198999999996;-0.009000000543892384;1673390173.3380692;-1.0690028667449951;-1.127432942390442;92.16117095947266
28;1673390173.5092056;47.1306429;7.24062;-0.010000000707805157;1673390173.5279484;-0.7889121770858765;-0.849506676197052;95.04029083251953
29;1673390173.6907718;47.1306434;7.2406204;-0.017000000923871994;1673390173.7129953;-0.6292262673377991;-0.8708824515342712;104.4369125366211
30;1673390173.9003325;47.1306442;7.2406213;-0.029000001028180122;1673390173.925965;0.9805962443351746;0.7055126428604126;113.71469116210938
31;1673390174.103164;47.1306454;7.2406229;-0.027000000700354576;1673390174.125727;1.281465768814087;2.3390116691589355;109.42569732666016
32;1673390174.2942197;47.1306472;7.240625499999999;-0.02200000174343586;1673390174.3192284;5.053421497344971;5.550050735473633;103.12860107421875
33;1673390174.5121734;47.1306495;7.240628999999999;-0.006000000052154064;1673390174.5367994;7.330868244171143;9.482402801513672;101.89360809326172
34;1673390174.7242596;47.1306522;7.2406333;0.024000000208616257;1673390174.74696;7.967019081115723;13.203449249267578;101.87743377685547
35;1673390174.9172308;47.130655;7.240638;0.06800000369548798;1673390174.9413347;9.042618751525879;14.063796043395996;101.67566680908203
36;1673390175.1179814;47.130658;7.2406429999999995;0.125;1673390175.1394846;10.459783554077148;14.598145484924316;101.51498413085938
37;1673390175.3141298;47.1306611;7.2406482;0.20200000703334808;1673390175.3392377;11.823333740234375;16.94263458251953;101.54796600341797
38;1673390175.5201635;47.1306641;7.2406533;0.28700000047683716;1673390175.5435882;13.041486740112305;18.339860916137695;101.50726318359375
39;1673390175.7313175;47.130666999999995;7.2406583;0.359000027179718;1673390175.7557514;14.54647159576416;19.310684204101562;101.45064544677734
40;1673390175.9044065;47.1306697;7.2406631;0.4230000078678131;1673390175.9268553;16.098751068115234;21.128110885620117;101.34130859375
41;1673390176.1066039;47.1306723;7.2406676;0.47600001096725464;1673390176.1281164;17.581382751464844;22.573078155517578;101.21320343017578
42;1673390176.3148189;47.1306745;7.2406716;0.5220000147819519;1673390176.335315;19.2405948638916;23.844066619873047;101.0109634399414
43;1673390176.5054367;47.1306764;7.2406749999999995;0.5610000491142273;1673390176.5269682;20.91433334350586;25.337114334106445;100.82366180419922
44;1673390176.7107673;47.130677899999995;7.240677799999999;0.5950000286102295;1673390176.7312706;22.652271270751953;26.93050765991211;100.54602813720703
45;1673390176.9003541;47.130679;7.2406799;0.6240000128746033;1673390176.923763;24.53861427307129;28.177661895751953;100.16625213623047
46;1673390177.098581;47.1306796;7.2406811;0.6480000019073486;1673390177.1210515;26.54497718811035;29.30597686767578;99.6502456665039
47;1673390177.309488;47.130679799999996;7.2406814;0.6720000505447388;1673390177.331947;28.540992736816406;30.68341827392578;99.11035919189453
48;1673390177.5138628;47.1306793;7.2406808;0.6910000443458557;1673390177.5363169;30.788663864135742;31.763471603393555;98.41902923583984
49;1673390177.71506;47.1306782;7.2406790999999995;0.7100000381469727;1673390177.7384844;33.0927848815918;32.8301887512207;97.72704315185547
50;1673390177.9074829;47.1306764;7.240676199999999;0.7230000495910645;1673390177.9270022;35.64481735229492;33.728023529052734;96.91487121582031
51;1673390178.090407;47.1306739;7.2406722;0.7380000352859497;1673390178.1149645;38.27288055419922;34.40420913696289;95.84095001220703
52;1673390178.2913883;47.130670599999995;7.2406669;0.7490000128746033;1673390178.3143694;37.14600372314453;31.840829849243164;93.74644470214844
53;1673390178.5127208;47.1306668;7.240660699999999;0.7520000338554382;1673390178.5390723;33.242008209228516;27.690765380859375;91.84578704833984
54;1673390178.7170203;47.130662799999996;7.2406540999999995;0.7520000338554382;1673390178.7394795;28.845144271850586;23.52275276184082;90.55995178222656
55;1673390178.9212468;47.1306588;7.2406475;0.7470000386238098;1673390178.945647;23.79466438293457;19.559886932373047;89.96768951416016
56;1673390179.1124618;47.1306551;7.2406413999999995;0.7930000424385071;1673390179.1349597;20.714675903320312;17.580379486083984;90.31754302978516
57;1673390179.3082764;47.130651799999995;7.240635999999999;0.8690000176429749;1673390179.3336506;16.908674240112305;14.818854331970215;90.13868713378906
58;1673390179.5143974;47.1306491;7.2406315;0.9460000395774841;1673390179.5389478;14.206338882446289;13.788880348205566;90.51539611816406
59;1673390179.7265909;47.1306472;7.2406283;1.0320000648498535;1673390179.750992;13.74679183959961;13.570924758911133;90.71658325195312
60;1673390180.0018535;47.130645799999996;7.240626;1.125;1673390180.0213869;13.853586196899414;12.239334106445312;90.37229919433594
61;1673390180.2186706;47.130645;7.240624599999999;1.2290000915527344;1673390180.2333918;15.17507266998291;14.904744148254395;90.69204711914062
62;1673390180.3677022;47.1306446;7.2406239999999995;1.350000023841858;1673390180.3872883;17.251455307006836;17.385046005249023;91.02664184570312
63;1673390180.5534337;47.1306444;7.2406236999999996;1.4830000400543213;1673390180.5788095;19.01534652709961;16.076007843017578;90.60700225830078
64;1673390180.7488441;47.1306443;7.2406236999999996;1.628000020980835;1673390180.7694027;20.6370792388916;19.008838653564453;89.79550170898438
65;1673390180.9334536;47.1306444;7.2406238;1.784000039100647;1673390180.9578545;21.769636154174805;20.8566951751709;90.21797943115234
66;1673390181.127124;47.130644499999995;7.2406236999999996;1.9490001201629639;1673390181.145227;22.34937858581543;19.369876861572266;89.85482788085938
67;1673390181.3154716;47.130644499999995;7.2406235;2.125;1673390181.338897;22.477703094482422;20.627887725830078;89.8992691040039
68;1673390181.5090792;47.1306443;7.2406232;2.307000160217285;1673390181.5315347;22.246322631835938;21.632328033447266;90.18937683105469
69;1673390181.7133422;47.1306441;7.2406228;2.4860000610351562;1673390181.7349942;21.994070053100586;18.914709091186523;89.61673736572266
70;1673390181.9069085;47.130643899999995;7.2406223999999995;2.6650002002716064;1673390181.9293883;21.548404693603516;19.752094268798828;90.08306884765625
71;1673390182.1386228;47.1306437;7.2406219;2.8470001220703125;1673390182.1738698;20.889787673950195;20.91221809387207;90.42539978027344
72;1673390182.3570833;47.1306435;7.2406215;3.0320000648498535;1673390182.3775795;20.448970794677734;18.191225051879883;89.86844635009766
73;1673390182.5407043;47.130643299999996;7.240621099999999;3.2210001945495605;1673390182.559249;20.198244094848633;19.335290908813477;90.05292510986328
74;1673390182.7400906;47.130643199999994;7.2406207;3.4020001888275146;1673390182.7605882;19.859561920166016;20.226709365844727;90.40108489990234
75;1673390182.95003;47.130643;7.2406206;3.5810000896453857;1673390182.972472;19.942060470581055;17.66147232055664;90.00811004638672
76;1673390183.136186;47.1306428;7.2406204999999995;3.765000104904175;1673390183.157657;20.09756088256836;18.81193733215332;90.10260009765625
77;1673390183.318322;47.1306428;7.2406204999999995;3.952000141143799;1673390183.3427296;20.24856185913086;20.227378845214844;90.47877502441406
78;1673390183.512936;47.1306428;7.2406204999999995;4.140000343322754;1673390183.5392344;20.483070373535156;18.4827823638916;90.14006805419922
79;1673390183.7248356;47.1306428;7.2406204999999995;4.325000286102295;1673390183.7473114;20.536256790161133;18.95286750793457;89.96662139892578
80;1673390183.921084;47.1306428;7.2406206;4.510000228881836;1673390183.940591;20.7661190032959;20.510440826416016;90.43248748779297
81;1673390184.1195068;47.1306428;7.2406206;4.698000431060791;1673390184.1415198;20.769527435302734;18.482370376586914;89.9493637084961
82;1673390184.3236868;47.1306428;7.2406206;4.88700008392334;1673390184.345233;20.89536476135254;18.83962059020996;90.0015640258789
83;1673390184.5200412;47.1306428;7.2406206;5.076000213623047;1673390184.543466;20.80556869506836;20.665203094482422;90.44097137451172
84;1673390184.725874;47.130642699999996;7.2406206;5.267000198364258;1673390184.7484267;20.7333927154541;18.303646087646484;90.02024841308594
85;1673390184.9242742;47.130642599999995;7.2406204999999995;5.459000110626221;1673390184.9446685;20.792247772216797;18.564884185791016;90.05097961425781
86;1673390185.123715;47.130642599999995;7.2406204999999995;5.64900016784668;1673390185.1467016;20.788326263427734;20.475305557250977;90.46721649169922
87;1673390185.320189;47.130642599999995;7.2406204999999995;5.842000484466553;1673390185.3426366;20.643495559692383;18.20036506652832;89.95209503173828
88;1673390185.5117648;47.130642599999995;7.2406204999999995;6.0360002517700195;1673390185.5351894;20.868026733398438;18.74884796142578;90.00421905517578
89;1673390185.714027;47.130642699999996;7.2406204999999995;6.229000091552734;1673390185.7364771;20.779645919799805;20.6174373626709;90.34732055664062
90;1673390185.9252892;47.130642699999996;7.2406206;6.419000148773193;1673390185.948715;20.911041259765625;18.523183822631836;90.07283782958984
91;1673390186.1130962;47.130642699999996;7.2406204999999995;6.610000133514404;1673390186.1326666;20.908588409423828;18.71159553527832;89.98474884033203
92;1673390186.3056955;47.130642699999996;7.2406204999999995;6.800000190734863;1673390186.3312283;20.871877670288086;20.43568992614746;90.37862396240234
93;1673390186.5189364;47.130642699999996;7.2406204;6.991000175476074;1673390186.5404081;20.66064453125;18.5484561920166;90.05229187011719
94;1673390186.7194514;47.130642699999996;7.2406204;7.184000492095947;1673390186.7399461;20.706911087036133;18.88970947265625;89.9704360961914
95;1673390186.9140322;47.1306428;7.2406204;7.37600040435791;1673390186.9376118;20.67819595336914;20.956253051757812;90.31082916259766
96;1673390187.1099982;47.1306428;7.2406203;7.571000576019287;1673390187.1359532;20.5968074798584;18.82309341430664;89.99064636230469
97;1673390187.3058445;47.1306428;7.2406203;7.768000602722168;1673390187.3376255;20.733665466308594;19.032299041748047;90.02678680419922
98;1673390187.5557425;47.1306428;7.2406203;7.963000297546387;1673390187.5781896;20.533422470092773;20.73565673828125;90.42198944091797
99;1673390187.8084118;47.130642699999996;7.2406203;8.16200065612793;1673390187.828938;20.7486572265625;18.57050132751465;90.08992004394531
100;1673390187.9971027;47.1306428;7.2406203;8.362000465393066;1673390188.0343604;20.750797271728516;18.898540496826172;90.07575225830078
101;1673390188.2112024;47.1306428;7.2406201999999995;8.564000129699707;1673390188.2317576;20.57260513305664;20.69335174560547;90.44966125488281
102;1673390188.402165;47.1306428;7.2406201999999995;8.76200008392334;1673390188.418794;20.56003189086914;18.783489227294922;90.02003479003906
103;1673390188.5765903;47.1306428;7.2406201999999995;8.962000846862793;1673390188.598073;20.70070457458496;18.835296630859375;89.95549011230469
104;1673390188.7643838;47.130642699999996;7.2406201;9.157999992370605;1673390188.7848802;20.743080139160156;20.523094177246094;90.42001342773438
105;1673390188.9559455;47.130642699999996;7.2406201;9.357000350952148;1673390188.9783835;20.41077423095703;18.72554588317871;90.01512145996094
106;1673390189.1610484;47.1306428;7.2406201;9.562000274658203;1673390189.1822;20.5734806060791;18.821516036987305;89.9107437133789
107;1673390189.3541071;47.1306428;7.2406201;9.766000747680664;1673390189.3736265;20.588411331176758;20.621049880981445;90.3610610961914
108;1673390189.5269349;47.1306428;7.2406201;9.973000526428223;1673390189.553288;20.52806854248047;19.000751495361328;90.07080841064453
109;1673390189.752279;47.1306428;7.24062;10.188000679016113;1673390189.8082094;20.568111419677734;17.66852569580078;89.85765075683594
110;1673390189.9699543;47.130642699999996;7.240619799999999;10.504000663757324;1673390189.9894755;19.21173095703125;19.67371940612793;90.44974517822266
111;1673390190.1810563;47.1306425;7.240619499999999;10.894000053405762;1673390190.1986225;21.631473541259766;20.82620620727539;90.29322052001953
112;1673390190.3590631;47.1306423;7.2406191;11.294000625610352;1673390190.3805509;19.677453994750977;18.32602882385254;89.72115325927734
113;1673390190.5496256;47.130642099999996;7.2406188;11.701000213623047;1673390190.57305;19.24445343017578;19.41812515258789;90.49828338623047
114;1673390190.7519708;47.1306419;7.2406185;12.109000205993652;1673390190.7736058;18.864049911499023;18.04546356201172;90.26002502441406
115;1673390190.9282675;47.1306418;7.2406184;12.523000717163086;1673390190.9475274;18.77890968322754;16.91476058959961;90.0390625
116;1673390191.1235986;47.1306418;7.2406184;12.933000564575195;1673390191.144181;18.910356521606445;19.0513973236084;90.45103454589844
117;1673390191.3200762;47.1306418;7.2406185;13.337000846862793;1673390191.3425024;18.969552993774414;18.306337356567383;90.29691314697266
118;1673390191.5196965;47.1306419;7.2406185999999995;13.745000839233398;1673390191.5421634;19.480445861816406;17.30677032470703;90.04669952392578
119;1673390191.729554;47.130641999999995;7.2406188;14.156001091003418;1673390191.7500489;19.635786056518555;19.382003784179688;90.27546691894531
120;1673390191.9340777;47.130642099999996;7.240619;14.565000534057617;1673390191.9555316;19.98712921142578;19.066190719604492;90.22489929199219
121;1673390192.1312008;47.1306422;7.2406191;14.971000671386719;1673390192.153193;20.028244018554688;17.979598999023438;89.96977996826172
122;1673390192.322565;47.1306424;7.240619199999999;15.37600040435791;1673390192.348096;20.212669372558594;19.93657875061035;90.27144622802734
123;1673390192.5314133;47.1306424;7.2406193;15.778000831604004;1673390192.5528796;20.06915855407715;19.61918067932129;90.21907806396484
124;1673390192.7377584;47.1306424;7.2406193;16.176000595092773;1673390192.7592347;20.00440216064453;17.872108459472656;89.89906311035156
125;1673390192.9370532;47.1306425;7.2406193;16.58100128173828;1673390192.959474;19.93738555908203;19.74945068359375;90.21842193603516
126;1673390193.1381862;47.1306424;7.2406193;16.985000610351562;1673390193.1625838;19.94144058227539;19.45820426940918;90.21755981445312
127;1673390193.3424273;47.1306424;7.2406193;17.39000129699707;1673390193.3717165;19.935617446899414;17.8983154296875;89.98682403564453
128;1673390193.5476341;47.1306425;7.2406193;17.79400062561035;1673390193.5739863;19.827707290649414;19.391828536987305;90.18319702148438
129;1673390193.7355592;47.1306425;7.2406193;18.19700050354004;1673390193.755079;19.736783981323242;19.770389556884766;90.22960662841797
130;1673390193.958499;47.1306425;7.2406193;18.59400177001953;1673390193.9782045;19.825231552124023;17.752490997314453;89.940185546875
131;1673390194.1627898;47.1306425;7.2406194;18.993000030517578;1673390194.18719;19.81223487854004;19.370147705078125;90.16840362548828
132;1673390194.3669763;47.1306425;7.2406194;19.395000457763672;1673390194.388447;19.806072235107422;19.877389907836914;90.31288146972656
133;1673390194.554799;47.130642599999995;7.2406194;19.797000885009766;1673390194.5763953;19.77448844909668;18.041471481323242;89.99064636230469
134;1673390194.7559602;47.130642599999995;7.2406194;20.201000213623047;1673390194.7804277;19.795997619628906;19.44208335876465;90.14241790771484
135;1673390194.964818;47.130642599999995;7.2406194;20.604000091552734;1673390194.987267;19.67606544494629;20.011333465576172;90.31605529785156
136;1673390195.1631422;47.130642599999995;7.240619499999999;21.003000259399414;1673390195.1865706;19.7459774017334;18.11608123779297;90.02479553222656
137;1673390195.3668332;47.1306425;7.2406196;21.398000717163086;1673390195.3902504;20.044086456298828;18.833227157592773;90.05902099609375
138;1673390195.563624;47.1306425;7.2406196;21.797000885009766;1673390195.5852613;19.892131805419922;19.83212661743164;90.35580444335938
139;1673390195.7655358;47.1306424;7.2406196;22.198001861572266;1673390195.7861106;19.72591781616211;17.834203720092773;89.95227813720703
140;1673390195.98135;47.1306424;7.2406196;22.601001739501953;1673390196.0019152;19.988521575927734;19.01284408569336;90.14444732666016
141;1673390196.1421876;47.1306425;7.2406196;23.00400161743164;1673390196.1647959;19.795869827270508;19.928579330444336;90.32730102539062
142;1673390196.331206;47.1306424;7.2406197;23.407001495361328;1673390196.3536549;19.872411727905273;17.990219116210938;90.00688934326172
143;1673390196.5343819;47.1306424;7.2406197;23.802001953125;1673390196.5568166;19.602092742919922;18.673908233642578;90.0306625366211
144;1673390196.7376442;47.1306424;7.2406197;24.202001571655273;1673390196.7639961;19.867219924926758;20.060651779174805;90.34005737304688
145;1673390196.968228;47.1306424;7.240619799999999;24.606000900268555;1673390196.9887319;19.810731887817383;18.1023006439209;90.00670623779297
146;1673390197.1462255;47.1306425;7.240619799999999;25.01000213623047;1673390197.1687844;20.04677963256836;18.750368118286133;90.13172149658203
147;1673390197.3473828;47.1306425;7.2406198999999996;25.41400146484375;1673390197.3678792;19.867584228515625;20.32805824279785;90.38887023925781
148;1673390197.5601923;47.1306425;7.2406198999999996;25.81800079345703;1673390197.580853;19.91075897216797;18.21729850769043;90.00373077392578
149;1673390197.7682583;47.130642599999995;7.2406198999999996;26.22300148010254;1673390197.7985134;19.932239532470703;18.862546920776367;90.08950805664062
150;1673390197.9648707;47.1306425;7.2406198999999996;26.619001388549805;1673390197.9846964;19.936370849609375;19.915199279785156;90.34834289550781
151;1673390198.1601899;47.1306425;7.2406198999999996;27.019001007080078;1673390198.1846542;19.866418838500977;18.3238525390625;90.03500366210938
152;1673390198.4290628;47.1306425;7.2406198999999996;27.422000885009766;1673390198.4448078;19.948575973510742;18.60989761352539;90.0141372680664
153;1673390198.6072361;47.130642599999995;7.2406198999999996;27.825000762939453;1673390198.6370726;19.857336044311523;20.1838321685791;90.41183471679688
154;1673390198.7981498;47.130642599999995;7.2406198999999996;28.229001998901367;1673390198.8176801;19.591148376464844;18.566144943237305;90.06045532226562
155;1673390198.9677424;47.130642599999995;7.240619799999999;28.634000778198242;1673390198.9903607;19.87177848815918;18.51949691772461;90.05355072021484
156;1673390199.163365;47.130642599999995;7.240619799999999;29.030000686645508;1673390199.1849089;19.683195114135742;20.019784927368164;90.33374786376953
157;1673390199.3452559;47.130642599999995;7.2406197;29.4320011138916;1673390199.3663414;19.52398109436035;18.57605743408203;90.0024185180664
158;1673390199.536003;47.130642699999996;7.240619799999999;29.83100128173828;1673390199.5535529;19.765247344970703;18.66626739501953;90.06282043457031
159;1673390199.7418287;47.130642699999996;7.240619799999999;30.235000610351562;1673390199.762333;19.711469650268555;20.316028594970703;90.32913208007812
160;1673390199.943501;47.1306428;7.2406198999999996;30.638002395629883;1673390199.9679024;19.84182357788086;18.977636337280273;90.08015441894531
161;1673390200.1503024;47.1306428;7.2406198999999996;31.038002014160156;1673390200.174703;19.869401931762695;18.506248474121094;89.9614028930664
162;1673390200.3522303;47.1306428;7.24062;31.43800163269043;1673390200.3707607;19.883167266845703;20.48503303527832;90.32654571533203
163;1673390200.5240395;47.1306428;7.24062;31.830001831054688;1673390200.5467021;19.795982360839844;19.14128875732422;90.15923309326172
164;1673390200.7202427;47.1306428;7.24062;32.224002838134766;1673390200.7423308;19.948450088500977;18.42904281616211;89.97916412353516
165;1673390200.9245148;47.1306428;7.24062;32.621002197265625;1673390200.9465866;19.93372917175293;20.193981170654297;90.29521179199219
166;1673390201.1286886;47.130642699999996;7.24062;33.01700210571289;1673390201.1557171;19.830759048461914;19.109962463378906;90.14311218261719
167;1673390201.343547;47.130642699999996;7.24062;33.413002014160156;1673390201.3671155;19.96489906311035;18.266218185424805;89.98837280273438
168;1673390201.5436306;47.130642599999995;7.24062;33.810001373291016;1673390201.5700188;19.76569366455078;19.8569393157959;90.30631256103516
169;1673390201.746772;47.130642599999995;7.2406198999999996;34.20000076293945;1673390201.7722855;19.750869750976562;19.22585678100586;90.2355728149414
170;1673390201.9508133;47.130642599999995;7.2406198999999996;34.59800338745117;1673390201.9713085;19.805130004882812;17.882862091064453;89.95021057128906
171;1673390202.1454635;47.130642599999995;7.2406198999999996;34.99800109863281;1673390202.1661417;19.714200973510742;19.978252410888672;90.33129119873047
172;1673390202.3298728;47.130642599999995;7.2406198999999996;35.39800262451172;1673390202.3499277;19.67005157470703;19.368928909301758;90.19415283203125
173;1673390202.522271;47.130642599999995;7.2406198999999996;35.79500198364258;1673390202.5442894;19.775102615356445;18.06485366821289;90.02814483642578
174;1673390202.7225165;47.130642599999995;7.2406198999999996;36.19200134277344;1673390202.7445178;19.895416259765625;19.89815330505371;90.25881958007812
175;1673390202.918985;47.130642699999996;7.2406198999999996;36.59100341796875;1673390202.9435527;19.687355041503906;19.596237182617188;90.26545715332031
176;1673390203.1280344;47.130642599999995;7.2406198999999996;36.980003356933594;1673390203.1515737;19.824626922607422;18.024429321289062;89.96794128417969
177;1673390203.32639;47.130642599999995;7.2406198999999996;37.37700271606445;1673390203.3503652;19.817066192626953;19.61428451538086;90.1821517944336
178;1673390203.5261614;47.130642599999995;7.240619799999999;37.775001525878906;1673390203.5476723;19.54888153076172;19.87412452697754;90.2984619140625
179;1673390203.7371194;47.1306425;7.240619799999999;38.172000885009766;1673390203.761537;19.695066452026367;17.88420295715332;89.96556091308594
180;1673390203.9313273;47.130642599999995;7.240619799999999;38.56500244140625;1673390203.9552882;19.732812881469727;19.6840763092041;90.18798828125
181;1673390204.1392412;47.130642599999995;7.240619799999999;38.96500015258789;1673390204.1607761;19.643741607666016;19.7833251953125;90.28688049316406
182;1673390204.3414233;47.1306425;7.240619799999999;39.35700225830078;1673390204.3668034;19.647367477416992;17.941354751586914;89.89842987060547
183;1673390204.5495267;47.130642599999995;7.240619799999999;39.75600051879883;1673390204.5689802;19.636125564575195;19.43756675720215;90.10127258300781
184;1673390204.7468681;47.1306425;7.2406197;40.156002044677734;1673390204.7698872;19.55934715270996;19.833148956298828;90.3082504272461
185;1673390204.9586434;47.1306425;7.2406197;40.560001373291016;1673390204.985129;19.498979568481445;18.16656494140625;90.04203796386719
186;1673390205.1653106;47.130642599999995;7.2406196;40.96000289916992;1673390205.187841;19.50942611694336;19.280662536621094;90.23957824707031
187;1673390205.3579268;47.130642599999995;7.2406196;41.362003326416016;1673390205.3823266;19.5715274810791;20.1623477935791;90.35409545898438
188;1673390205.5532186;47.130642599999995;7.2406197;41.76700210571289;1673390205.5766137;19.625015258789062;18.279190063476562;90.00652313232422
189;1673390205.747758;47.1306425;7.2406197;42.16200256347656;1673390205.7672775;19.72776985168457;18.905981063842773;90.1158447265625
190;1673390205.9521348;47.1306425;7.240619799999999;42.56500244140625;1673390205.973607;19.695104598999023;20.049287796020508;90.36048889160156
191;1673390206.1876285;47.1306425;7.240619799999999;42.96500015258789;1673390206.2081246;19.800342559814453;18.373090744018555;90.072998046875
192;1673390206.368409;47.1306425;7.240619799999999;43.3640022277832;1673390206.3879306;19.82854652404785;18.713077545166016;90.08602142333984
193;1673390206.553198;47.130642599999995;7.240619799999999;43.7660026550293;1673390206.5766225;19.8222599029541;20.344505310058594;90.39976501464844
194;1673390206.7492566;47.130642599999995;7.240619799999999;44.165000915527344;1673390206.7726812;19.5598201751709;18.659900665283203;90.0398178100586
195;1673390206.944843;47.130642599999995;7.2406197;44.557003021240234;1673390206.968268;19.612323760986328;18.30343246459961;90.03580474853516
196;1673390207.1458254;47.130642599999995;7.2406197;44.95500183105469;1673390207.170267;19.594036102294922;20.137807846069336;90.34776306152344
197;1673390207.3488672;47.130642599999995;7.2406197;45.358001708984375;1673390207.371279;19.590803146362305;18.665666580200195;90.04595184326172
198;1673390207.5378969;47.130642599999995;7.240619799999999;45.762001037597656;1673390207.5609438;19.769418716430664;18.602710723876953;90.05199432373047
199;1673390207.7398517;47.130642699999996;7.240619799999999;46.165000915527344;1673390207.761327;19.687908172607422;20.496427536010742;90.35283660888672
200;1673390207.938775;47.130642699999996;7.240619799999999;46.56800079345703;1673390207.9637423;19.671863555908203;18.849639892578125;90.09318542480469
201;1673390208.151025;47.130642699999996;7.240619799999999;46.96900177001953;1673390208.1764;19.764705657958984;18.637775421142578;90.00501251220703
202;1673390208.3542469;47.130642699999996;7.2406198999999996;47.35900115966797;1673390208.3718517;19.71345329284668;20.314268112182617;90.31441497802734
203;1673390208.547078;47.130642699999996;7.2406198999999996;47.750003814697266;1673390208.5665982;19.753156661987305;19.006940841674805;90.11595153808594
204;1673390208.7203364;47.130642699999996;7.2406198999999996;48.13500213623047;1673390208.7423725;19.762556076049805;19.162368774414062;90.18781280517578
205;1673390208.916183;47.1306428;7.24062;48.47500228881836;1673390208.9397235;20.17523956298828;20.63959503173828;90.40660858154297
206;1673390209.1150472;47.1306429;7.2406201999999995;48.76700210571289;1673390209.1356146;19.96177101135254;19.233814239501953;90.20309448242188
207;1673390209.3035603;47.130643;7.2406204;49.01300048828125;1673390209.3309581;20.311758041381836;19.586063385009766;90.19468688964844
208;1673390209.5215876;47.130643199999994;7.2406207;49.20900344848633;1673390209.5474946;20.620548248291016;21.1558780670166;90.39453887939453
209;1673390209.7396214;47.1306434;7.2406209;49.38100051879883;1673390209.762631;28.16083335876465;27.155941009521484;92.9800796508789
210;1673390209.957368;47.1306431;7.2406204;49.544002532958984;1673390209.977865;36.634002685546875;41.60962677001953;104.72916412353516
211;1673390210.1534703;47.1306418;7.2406178;49.68800354003906;1673390210.1779745;35.87731170654297;53.40803527832031;114.74371337890625
212;1673390210.3654733;47.1306389;7.240612499999999;49.7920036315918;1673390210.3888974;27.244455337524414;58.84722137451172;123.17618560791016
213;1673390210.5610726;47.1306349;7.240604899999999;49.83100128173828;1673390210.5825682;5.878025054931641;49.699214935302734;132.97804260253906
214;1673390210.757215;47.1306304;7.2405962;49.836002349853516;1673390210.7787304;-6.047014236450195;45.02016830444336;144.22718811035156
215;1673390210.9468534;47.1306255;7.240587;49.82500076293945;1673390210.9665365;-16.826269149780273;41.56328201293945;154.21743774414062
216;1673390211.1459336;47.1306204;7.2405773;49.82200241088867;1673390211.1679869;-28.873106002807617;40.49130630493164;163.38926696777344
217;1673390211.3459363;47.1306148;7.2405671;49.82400131225586;1673390211.3664546;-40.66315460205078;37.40240478515625;174.57754516601562
218;1673390211.5383222;47.1306085;7.2405561;49.827003479003906;1673390211.560826;-49.72444534301758;32.074039459228516;-171.30508422851562
219;1673390211.7292948;47.1306016;7.240543799999999;49.80900192260742;1673390211.7503414;-49.843849182128906;24.137332916259766;-161.74771118164062
220;1673390211.9309535;47.1305943;7.2405307;49.762001037597656;1673390211.9546218;-45.80888366699219;17.57493782043457;-156.20021057128906
221;1673390212.1389253;47.1305869;7.2405174;49.70900344848633;1673390212.1616263;-44.4537353515625;12.0659761428833;-150.2378387451172
222;1673390212.339218;47.130579399999995;7.240504;49.67000198364258;1673390212.3641586;-45.961997985839844;7.350266456604004;-143.18312072753906
223;1673390212.527726;47.1305718;7.2404905;49.65200424194336;1673390212.5487616;-47.17259979248047;2.6933467388153076;-136.2971954345703
224;1673390212.7369158;47.130564199999995;7.2404768;49.6510009765625;1673390212.7532725;-48.67435836791992;-4.158965587615967;-130.79302978515625
225;1673390212.9339192;47.130556399999996;7.2404633;49.656002044677734;1673390212.9583938;-48.224205017089844;-6.551274299621582;-132.98785400390625
226;1673390213.1450346;47.1305482;7.2404500999999994;49.660003662109375;1673390213.165564;-47.61592483520508;-5.888181209564209;-135.72677612304688
227;1673390213.3441856;47.1305395;7.2404375;49.6670036315918;1673390213.3686357;-47.43627166748047;-4.690165996551514;-137.07955932617188
228;1673390213.5475674;47.1305304;7.2404255;49.67000198364258;1673390213.569237;-47.50187301635742;-3.0204262733459473;-137.99794006347656
229;1673390213.7499557;47.1305209;7.2404138;49.68400192260742;1673390213.7802107;-47.93854904174805;-1.6139700412750244;-138.63992309570312
230;1673390213.9522378;47.130511299999995;7.2404022999999995;49.71000289916992;1673390213.973708;-48.989723205566406;-0.9811961054801941;-138.8859100341797
231;1673390214.155469;47.1305014;7.240391;49.743003845214844;1673390214.1798663;-50.13764572143555;0.5718413591384888;-139.29940795898438
232;1673390214.3577232;47.130491299999996;7.2403794999999995;49.77300262451172;1673390214.3812459;-50.23960876464844;0.9116606116294861;-139.16958618164062
233;1673390214.5592563;47.1304811;7.240367699999999;49.79500198364258;1673390214.5836577;-49.29872131347656;0.6886124610900879;-138.84173583984375
234;1673390214.7673512;47.1304707;7.2403559;49.79600143432617;1673390214.7878592;-48.014251708984375;0.5241889953613281;-138.5369873046875
235;1673390214.946604;47.1304604;7.2403441;49.80400085449219;1673390214.967647;-47.63193130493164;0.40562301874160767;-138.3126983642578
236;1673390215.1431887;47.1304501;7.2403322;49.81300354003906;1673390215.1661813;-48.174041748046875;0.31741371750831604;-138.12071228027344
237;1673390215.3405066;47.1304397;7.2403203;49.82400131225586;1673390215.3595996;-48.61615753173828;0.3532404899597168;-137.99867248535156
238;1673390215.5476472;47.1304294;7.2403083;49.832000732421875;1673390215.571651;-48.66006851196289;0.3958340585231781;-137.87278747558594
239;1673390215.7625165;47.1304191;7.2402961999999995;49.840003967285156;1673390215.783013;-48.386661529541016;0.42182767391204834;-137.72415161132812
240;1673390215.9630318;47.1304087;7.240284;49.842002868652344;1673390215.984564;-48.03337097167969;0.4144791066646576;-137.57481384277344
241;1673390216.1619563;47.1303984;7.2402717999999995;49.83100128173828;1673390216.1824524;-47.55583190917969;0.37491607666015625;-137.4435577392578
242;1673390216.3520014;47.1303882;7.2402595;49.827003479003906;1673390216.3769348;-47.21685791015625;0.3451427221298218;-137.30392456054688
243;1673390216.557838;47.130378;7.2402473;49.83000183105469;1673390216.5793111;-47.86305236816406;0.40609580278396606;-137.2677001953125
244;1673390216.7468898;47.130367899999996;7.240234999999999;49.83100128173828;1673390216.7698634;-48.40282440185547;0.38838034868240356;-137.12644958496094
245;1673390216.9418042;47.1303578;7.2402226;49.83400344848633;1673390216.9635303;-48.41649627685547;0.4034867286682129;-137.0671844482422
246;1673390217.1438112;47.130347699999994;7.2402101;49.83400344848633;1673390217.1668122;-48.21253967285156;0.44077128171920776;-137.01792907714844
247;1673390217.353906;47.1303376;7.2401975;49.82400131225586;1673390217.3847115;-47.76804733276367;0.4174743592739105;-136.9338836669922
248;1673390217.5394573;47.1303276;7.2401848;49.820003509521484;1673390217.562448;-47.54801940917969;0.36953866481781006;-136.8628387451172
249;1673390217.7535365;47.1303176;7.2401722;49.82100296020508;1673390217.7779725;-48.0368766784668;0.5067480206489563;-136.86978149414062
250;1673390217.9444814;47.130307599999995;7.2401595;49.820003509521484;1673390217.9626086;-48.39385223388672;0.4175567030906677;-136.76451110839844
251;1673390218.1330664;47.1302977;7.2401466999999995;49.81700134277344;1673390218.1541426;-48.225921630859375;0.5092397928237915;-136.77764892578125
252;1673390218.3285258;47.1302877;7.2401339;49.81900405883789;1673390218.3519602;-48.00062942504883;0.463089257478714;-136.70191955566406
253;1673390218.530148;47.130277799999995;7.240120999999999;49.81700134277344;1673390218.5516646;-48.101898193359375;0.49822673201560974;-136.70266723632812
254;1673390218.7352948;47.1302679;7.2401081;49.80900192260742;1673390218.7557893;-47.87131118774414;0.44252458214759827;-136.65377807617188
255;1673390218.9267087;47.130258;7.2400951;49.80400085449219;1673390218.9481888;-47.65352249145508;0.5232079029083252;-136.63656616210938
256;1673390219.116312;47.1302482;7.2400822;49.80000305175781;1673390219.137799;-47.75522994995117;0.5581079125404358;-136.63101196289062
257;1673390219.3194718;47.130238299999995;7.2400692;49.798004150390625;1673390219.3438733;-47.93648910522461;0.578385591506958;-136.6078338623047
258;1673390219.5268009;47.1302285;7.2400563;49.801002502441406;1673390219.5492465;-48.20998001098633;0.5896499752998352;-136.59486389160156
259;1673390219.7200954;47.130218799999994;7.2400433;49.803001403808594;1673390219.746446;-48.249977111816406;0.582463800907135;-136.55227661132812
260;1673390219.9220984;47.130209;7.2400302;49.80000305175781;1673390219.9455285;-47.837303161621094;0.5769915580749512;-136.55630493164062
261;1673390220.1409965;47.1301992;7.240017099999999;49.80000305175781;1673390220.1573212;-47.748863220214844;0.5851050019264221;-136.5483856201172
262;1673390220.3384652;47.1301895;7.240004099999999;49.80400085449219;1673390220.3609848;-48.00159454345703;0.6582869291305542;-136.554443359375
263;1673390220.552926;47.1301797;7.239991;49.810001373291016;1673390220.5788536;-48.31880187988281;0.7022560238838196;-136.5659637451172
264;1673390220.7634788;47.1301699;7.239977799999999;49.81700134277344;1673390220.788897;-48.40227127075195;0.7104093432426453;-136.56520080566406
265;1673390220.9495988;47.1301602;7.2399645999999995;49.823001861572266;1673390220.9696586;-48.26572799682617;0.7109566330909729;-136.5355987548828
266;1673390221.1845112;47.1301504;7.2399512999999995;49.827003479003906;1673390221.2040308;-48.2257194519043;0.7341141104698181;-136.55624389648438
267;1673390221.360119;47.1301406;7.2399379999999995;49.82600402832031;1673390221.3816087;-48.07145690917969;0.673818826675415;-136.51373291015625
268;1673390221.549238;47.130130799999996;7.2399248;49.82500076293945;1673390221.5714736;-47.9348030090332;0.708308756351471;-136.53097534179688
269;1673390221.7661693;47.1301211;7.2399115;49.82200241088867;1673390221.7856987;-47.90916442871094;0.758252739906311;-136.5526580810547
270;1673390221.9509065;47.130111299999996;7.2398982;49.82200241088867;1673390221.9695277;-47.937294006347656;0.7523562908172607;-136.53433227539062
271;1673390222.1453888;47.130101599999996;7.2398849;49.82100296020508;1673390222.1639931;-48.073429107666016;0.7319386601448059;-136.51617431640625
272;1673390222.3403664;47.130091799999995;7.2398716;49.82100296020508;1673390222.364333;-48.16804504394531;0.7633300423622131;-136.53382873535156
273;1673390222.5609188;47.130082099999996;7.2398583;49.81800079345703;1673390222.5844266;-48.06737518310547;0.814140796661377;-136.54916381835938
274;1673390222.7563083;47.130072299999995;7.239845;49.81900405883789;1673390222.7778258;-48.02898025512695;0.7955007553100586;-136.54443359375
275;1673390222.9563375;47.130062599999995;7.2398316;49.81800079345703;1673390222.9768786;-48.067623138427734;0.7875345945358276;-136.52685546875
276;1673390223.1683586;47.1300528;7.2398183;49.81500244140625;1673390223.186902;-47.88386917114258;0.7435207962989807;-136.5198974609375
277;1673390223.3594897;47.130043;7.239804899999999;49.816001892089844;1673390223.3844116;-47.9423942565918;0.7981238961219788;-136.55624389648438
278;1673390223.5529416;47.1300333;7.2397915;49.81900405883789;1673390223.5759356;-48.119625091552734;0.7802811861038208;-136.552734375
279;1673390223.7389314;47.1300236;7.2397781;49.82200241088867;1673390223.7584565;-48.154502868652344;0.741162896156311;-136.53309631347656
280;1673390223.9307952;47.1300138;7.239764699999999;49.823001861572266;1673390223.95521;-48.106956481933594;0.7430267930030823;-136.52174377441406
281;1673390224.1439497;47.1300041;7.2397513;49.82500076293945;1673390224.1713629;-48.024208068847656;0.7464749813079834;-136.52249145507812
282;1673390224.3519597;47.1299943;7.2397379;49.83000183105469;1673390224.3715065;-48.11003494262695;0.7564396262168884;-136.52969360351562
283;1673390224.5539412;47.1299845;7.2397244;49.83400344848633;1673390224.5774534;-48.2005500793457;0.7276734113693237;-136.53848266601562
284;1673390224.7622294;47.1299748;7.239711;49.83500289916992;1673390224.784287;-48.084251403808594;0.7100346088409424;-136.52000427246094
285;1673390224.9493535;47.129965;7.239697499999999;49.832000732421875;1673390224.9649765;-47.88283157348633;0.7522703409194946;-136.5713348388672
286;1673390225.1471708;47.1299553;7.239684;49.83000183105469;1673390225.1766899;-47.818233489990234;0.7120371460914612;-136.57705688476562
287;1673390225.3710623;47.1299455;7.239670599999999;49.83100128173828;1673390225.3963928;-47.959068298339844;0.7477596402168274;-136.5875701904297
288;1673390225.5641794;47.1299357;7.2396572;49.83500289916992;1673390225.5896683;-48.21217346191406;0.7575476169586182;-136.5746307373047
289;1673390225.7662888;47.129925899999996;7.239643699999999;49.83700180053711;1673390225.7919128;-48.18049621582031;0.7495471835136414;-136.58619689941406
290;1673390225.9869988;47.129916099999996;7.2396303;49.83700180053711;1673390226.0055237;-47.95874786376953;0.7135636210441589;-136.56607055664062
291;1673390226.169695;47.129906299999995;7.239616799999999;49.83700180053711;1673390226.189216;-47.90990447998047;0.760887861251831;-136.5962677001953
292;1673390226.3510222;47.1298965;7.2396034;49.8390007019043;1673390226.370127;-47.929080963134766;0.7482967376708984;-136.58494567871094
293;1673390226.5365896;47.1298868;7.23959;49.840003967285156;1673390226.5629783;-47.942893981933594;0.6719167232513428;-136.55184936523438
294;1673390226.746819;47.129877099999995;7.2395765999999995;49.842002868652344;1673390226.7698379;-47.90384292602539;0.6882832646369934;-136.5682373046875
295;1673390226.9393303;47.1298673;7.2395632999999995;49.845001220703125;1673390226.9627955;-48.120391845703125;0.7611609101295471;-136.5916748046875
296;1673390227.1456542;47.1298575;7.2395499999999995;49.84700393676758;1673390227.1668482;-48.105194091796875;0.7958562970161438;-136.587158203125
297;1673390227.3380075;47.1298477;7.2395366;49.85000228881836;1673390227.36241;-48.08811569213867;0.7959114909172058;-136.57240295410156
298;1673390227.5455008;47.1298379;7.2395232;49.85300064086914;1673390227.5700896;-48.05419921875;0.7637431621551514;-136.54981994628906
299;1673390227.7572668;47.1298281;7.2395097999999996;49.855003356933594;1673390227.7812278;-48.070106506347656;0.7189424633979797;-136.53543090820312
300;1673390227.9479928;47.1298183;7.239496399999999;49.85700225830078;1673390227.9843981;-48.11408996582031;0.6902791857719421;-136.50674438476562
301;1673390228.174987;47.129808499999996;7.239483;49.858001708984375;1673390228.1984227;-48.07189178466797;0.7765337824821472;-136.53933715820312
302;1673390228.3656285;47.1297986;7.2394696;49.85700225830078;1673390228.3861709;-47.85402297973633;0.7695192694664001;-136.51490783691406
303;1673390228.5429199;47.1297888;7.2394563;49.85700225830078;1673390228.5663803;-47.87254333496094;0.8612440824508667;-136.52955627441406
304;1673390228.765023;47.129779;7.239442899999999;49.86000061035156;1673390228.7880177;-48.03461837768555;0.8530780673027039;-136.50973510742188
305;1673390228.9706533;47.1297692;7.2394295;49.8650016784668;1673390228.9922042;-48.10295867919922;0.8366174697875977;-136.47560119628906
306;1673390229.2207355;47.1297594;7.2394161;49.87000274658203;1673390229.2402573;-48.17255401611328;0.7200524210929871;-136.44448852539062
307;1673390229.4035716;47.1297496;7.239402699999999;49.88100051879883;1673390229.4221172;-48.445621490478516;0.7900193929672241;-136.47801208496094
308;1673390229.6009026;47.129739799999996;7.2393893;49.887001037597656;1673390229.6206133;-48.5228157043457;0.8557935357093811;-136.45819091796875
309;1673390229.8026335;47.129729999999995;7.2393757999999995;49.893001556396484;1673390229.8232894;-48.36500930786133;0.8173714876174927;-136.45904541015625
310;1673390229.9870725;47.1297202;7.2393623;49.89400100708008;1673390230.0095348;-47.99384307861328;0.7334476113319397;-136.43817138671875
311;1673390230.1866455;47.1297104;7.239348799999999;49.89400100708008;1673390230.2092593;-47.83141326904297;0.6823412775993347;-136.41268920898438
312;1673390230.4091187;47.1297007;7.2393353;49.89500427246094;1673390230.4286091;-48.04241943359375;0.7234702706336975;-136.44496154785156
313;1673390230.6259108;47.1296909;7.2393218;49.89800262451172;1673390230.6485333;-48.23657989501953;0.7363337278366089;-136.45236206054688
314;1673390230.797809;47.1296811;7.239308299999999;49.90500259399414;1673390230.8188217;-48.40447235107422;0.7148903608322144;-136.44631958007812
315;1673390230.986101;47.1296713;7.2392948;49.90700149536133;1673390231.003658;-48.360923767089844;0.7565961480140686;-136.45375061035156
316;1673390231.1776838;47.1296615;7.2392813;49.910003662109375;1673390231.1993234;-48.0909423828125;0.7626014351844788;-136.45933532714844
317;1673390231.3681242;47.129651599999995;7.2392677999999995;49.913002014160156;1673390231.391619;-48.179107666015625;0.799548864364624;-136.47100830078125
318;1673390231.5600867;47.129641799999995;7.2392541999999995;49.915000915527344;1673390231.5811315;-48.18987274169922;0.6799185276031494;-136.42210388183594
319;1673390231.748076;47.129632;7.2392407;49.9160041809082;1673390231.7724857;-48.10552215576172;0.6671764254570007;-136.419189453125
320;1673390231.9717321;47.1296223;7.239227199999999;49.91800308227539;1673390231.9932415;-48.07714080810547;0.650197446346283;-136.45616149902344
321;1673390232.1620169;47.1296125;7.2392137;49.919002532958984;1673390232.1840336;-48.169700622558594;0.7037402391433716;-136.46603393554688
322;1673390232.3660433;47.1296027;7.239200299999999;49.92100143432617;1673390232.3870757;-48.110382080078125;0.727881669998169;-136.4626007080078
323;1673390232.5476193;47.1295929;7.2391869;49.92000198364258;1673390232.5711477;-48.13893508911133;0.7325574159622192;-136.45401000976562
324;1673390232.7386744;47.1295831;7.239173399999999;49.922000885009766;1673390232.7630906;-48.11606979370117;0.7551367878913879;-136.47242736816406
325;1673390232.9518416;47.1295734;7.23916;49.92400360107422;1673390232.9716167;-48.051025390625;0.7619897127151489;-136.4695281982422
326;1673390233.1835914;47.1295636;7.2391466;49.926002502441406;1673390233.2041686;-48.199462890625;0.7125114798545837;-136.45008850097656
327;1673390233.398656;47.1295538;7.2391331;49.928001403808594;1673390233.4220805;-48.03651809692383;0.6151209473609924;-136.40028381347656
328;1673390233.6090496;47.129543999999996;7.2391195999999995;49.93100357055664;1673390233.630521;-48.22565460205078;0.6701226234436035;-136.4340362548828
329;1673390233.7966547;47.129534299999996;7.2391061;49.93800354003906;1673390233.818122;-48.3873176574707;0.6728838682174683;-136.4407196044922
330;1673390233.9952533;47.129524499999995;7.239092599999999;49.939002990722656;1673390234.016726;-48.278141021728516;0.6821495890617371;-136.4384307861328
331;1673390234.210134;47.1295146;7.2390792;49.939002990722656;1673390234.228678;-47.9901008605957;0.6834187507629395;-136.44020080566406
332;1673390234.4174745;47.1295049;7.239065699999999;49.939002990722656;1673390234.4340754;-47.85113525390625;0.7005742788314819;-136.43934631347656
333;1673390234.5826268;47.1294951;7.2390523;49.941001892089844;1673390234.601135;-47.970314025878906;0.6552764773368835;-136.40003967285156
334;1673390234.7581747;47.1294854;7.2390389;49.945003509521484;1673390234.7821476;-48.249839782714844;0.6407296657562256;-136.3856201171875
335;1673390234.955484;47.1294756;7.2390254999999994;49.94900131225586;1673390234.9769711;-48.2889404296875;0.6434323787689209;-136.3806610107422
336;1673390235.1508431;47.1294658;7.2390121;49.954002380371094;1673390235.1781752;-48.15843200683594;0.6555457711219788;-136.3835906982422
337;1673390235.3533022;47.129456;7.2389985999999995;49.95900344848633;1673390235.3786862;-48.160987854003906;0.6557603478431702;-136.37510681152344
338;1673390235.5535204;47.1294462;7.238985199999999;49.96200180053711;1673390235.5759902;-48.145362854003906;0.5807611346244812;-136.32814025878906
339;1673390235.7725778;47.129436399999996;7.2389718;49.965003967285156;1673390235.7917495;-48.16828155517578;0.48105138540267944;-136.29661560058594
340;1673390235.9891033;47.129426599999995;7.238958299999999;49.96800231933594;1673390236.007746;-48.25555419921875;0.7425702214241028;-136.3888397216797
341;1673390236.15813;47.1294168;7.2389449;49.970001220703125;1673390236.1757033;-48.303653717041016;1.327322006225586;-136.46969604492188
342;1673390236.3373363;47.129407;7.238931399999999;49.97200393676758;1673390236.356854;-48.06481170654297;0.843781054019928;-136.2274932861328
343;1673390236.537819;47.1293972;7.2389179;49.97800064086914;1673390236.5631945;-47.82284927368164;0.1991482824087143;-136.0746612548828
344;1673390236.741409;47.1293874;7.2389044;49.98400115966797;1673390236.7648325;-48.32700729370117;0.4989222288131714;-136.19784545898438
345;1673390236.948061;47.1293776;7.238891;49.98800277709961;1673390236.9754407;-48.56465148925781;0.6744452714920044;-136.23974609375
346;1673390237.147252;47.1293679;7.2388775;49.99100112915039;1673390237.169261;-48.35462188720703;0.7654454112052917;-136.25660705566406
347;1673390237.3442633;47.1293581;7.2388639999999995;49.99500274658203;1673390237.3677197;-48.09977340698242;0.6467224955558777;-136.18031311035156
348;1673390237.5546064;47.1293483;7.2388504;50.00100326538086;1673390237.57609;-48.269325256347656;0.6359636187553406;-136.1527557373047
349;1673390237.7383144;47.129338499999996;7.2388369;50.00600051879883;1673390237.761737;-48.44834899902344;0.7178247570991516;-136.15911865234375
350;1673390237.9384413;47.129328699999995;7.2388233;50.00800323486328;1673390237.9590883;-48.39231872558594;0.6996132135391235;-136.10107421875
351;1673390238.1491606;47.129318999999995;7.238809799999999;50.00700378417969;1673390238.1777222;-48.150177001953125;0.6834339499473572;-136.10391235351562
352;1673390238.3682222;47.129309199999994;7.2387961999999995;50.00800323486328;1673390238.392181;-48.04541015625;0.670016884803772;-136.0741424560547
353;1673390238.6019425;47.129299499999995;7.2387825999999995;50.01300048828125;1673390238.622439;-48.279457092285156;0.6330645084381104;-136.04298400878906
354;1673390238.7610018;47.129289799999995;7.2387691;50.0160026550293;1673390238.7795548;-48.65807342529297;0.6288427114486694;-136.01878356933594
355;1673390238.9408722;47.12928;7.2387554;50.018001556396484;1673390238.9623246;-48.69609451293945;0.6357854008674622;-136.02957153320312
356;1673390239.13225;47.129270299999995;7.2387418;50.01900100708008;1673390239.1534503;-48.4954833984375;0.74003005027771;-136.00772094726562
357;1673390239.3382468;47.1292605;7.238728099999999;50.0160026550293;1673390239.3607562;-48.201904296875;0.6842646598815918;-135.99183654785156
358;1673390239.5508578;47.1292508;7.2387144;50.01300048828125;1673390239.5713975;-47.966556549072266;0.652538001537323;-135.95364379882812
359;1673390239.7531512;47.129241099999994;7.238700799999999;50.01400375366211;1673390239.7756019;-48.19367218017578;0.8918983936309814;-136.01760864257812
360;1673390239.951508;47.129231399999995;7.2386871;50.0150032043457;1673390239.9750102;-48.3101692199707;0.7549855709075928;-135.95713806152344
361;1673390240.1797583;47.129221699999995;7.2386734;50.0160026550293;1673390240.2350557;-48.28004837036133;0.9027976989746094;-135.96189880371094
362;1673390240.419883;47.129211999999995;7.2386596999999995;50.018001556396484;1673390240.4355056;-48.08004379272461;0.5817692279815674;-135.80152893066406
363;1673390240.5934238;47.1292024;7.2386460999999995;50.03000259399414;1673390240.6129732;-43.398338317871094;0.8314294815063477;-135.8538360595703
364;1673390240.776039;47.129193;7.238632699999999;50.06100082397461;1673390240.7995193;-36.54176330566406;0.801839292049408;-136.00962829589844
365;1673390240.9759927;47.1291842;7.2386200999999994;50.08400344848633;1673390240.9995253;-26.545127868652344;1.1022876501083374;-135.71377563476562
366;1673390241.1827748;47.129176199999996;7.2386089;50.09600067138672;1673390241.203803;-19.166807174682617;0.9727537631988525;-135.9192352294922
367;1673390241.3678968;47.129169499999996;7.2385993;50.09600067138672;1673390241.3905594;-15.7858247756958;1.1795260906219482;-136.116455078125
368;1673390241.568023;47.129163999999996;7.2385917;50.0880012512207;1673390241.5875483;-14.54832935333252;1.2061446905136108;-136.07571411132812
369;1673390241.7557957;47.129159699999995;7.2385857;50.077003479003906;1673390241.7784061;-15.92365837097168;1.337028980255127;-136.0791015625
370;1673390241.9425907;47.129156599999995;7.2385813;50.066001892089844;1673390241.967983;-18.733417510986328;1.4037978649139404;-136.0279083251953
371;1673390242.139198;47.129154199999995;7.2385781;50.092002868652344;1673390242.1628957;-34.60904312133789;2.1536660194396973;-137.44384765625
372;1673390242.3471115;47.129151799999995;7.2385747;50.22200393676758;1673390242.3667119;-52.273193359375;2.496842622756958;-137.8177947998047
373;1673390242.5510015;47.129148199999996;7.2385696;50.42500305175781;1673390242.57414;-46.339134216308594;-0.3663114011287689;-137.22401428222656
374;1673390242.7560256;47.1291437;7.2385636;50.698001861572266;1673390242.7774973;-29.65801239013672;0.6933671236038208;-136.88125610351562
375;1673390242.9543486;47.129139099999996;7.2385575;51.048004150390625;1673390242.9768448;-40.753578186035156;2.1319940090179443;-137.1765594482422
376;1673390243.1787155;47.129134099999995;7.2385509;51.43400192260742;1673390243.201197;-59.93220138549805;0.8072142004966736;-137.24778747558594
377;1673390243.383739;47.1291278;7.2385423;51.78000259399414;1673390243.4013343;-56.547264099121094;1.8280415534973145;-136.72303771972656
378;1673390243.6073503;47.1291205;7.238532299999999;52.08000183105469;1673390243.6376057;-51.806800842285156;1.853114128112793;-136.87893676757812
379;1673390243.7949052;47.1291126;7.2385212999999995;52.35600280761719;1673390243.8134522;-48.48219299316406;0.685688316822052;-136.5833740234375
380;1673390243.9596214;47.129104399999996;7.2385098;52.62600326538086;1673390243.9801178;-45.636966705322266;0.9124831557273865;-136.62550354003906
381;1673390244.1454062;47.1290961;7.238498;52.897003173828125;1673390244.1654913;-44.09020233154297;0.733213484287262;-136.62234497070312
382;1673390244.3372865;47.1290876;7.2384862;53.17900085449219;1673390244.3607094;-43.53976058959961;0.7351394295692444;-136.631103515625
383;1673390244.5329661;47.1290792;7.2384745;53.4640007019043;1673390244.558341;-41.91452407836914;0.9005741477012634;-136.72377014160156
384;1673390244.74204;47.1290708;7.2384629;53.76400375366211;1673390244.7650764;-43.41590881347656;0.9616432189941406;-136.82363891601562
385;1673390244.9463737;47.129062399999995;7.2384512999999995;54.07600402832031;1673390244.968822;-43.6295166015625;0.9860297441482544;-136.84732055664062
386;1673390245.1578498;47.129054;7.2384397;54.397003173828125;1673390245.1793046;-44.44525146484375;0.5884532332420349;-136.67311096191406
387;1673390245.3600347;47.1290455;7.238428;54.72500228881836;1673390245.380676;-45.83658218383789;0.8161394000053406;-136.72386169433594
388;1673390245.5502837;47.129036899999996;7.2384162;55.048004150390625;1673390245.5737004;-44.17037582397461;1.117301344871521;-136.90013122558594
389;1673390245.7504795;47.1290282;7.2384043;55.37400436401367;1673390245.773906;-43.4766960144043;0.94102543592453;-136.8382110595703
390;1673390245.9605725;47.1290195;7.2383926;55.708003997802734;1673390245.9879029;-44.22956848144531;1.2268562316894531;-137.00157165527344
391;1673390246.1604373;47.129010799999996;7.2383808;56.04500198364258;1673390246.180021;-43.370479583740234;1.1712721586227417;-137.0176239013672
392;1673390246.3564098;47.129002199999995;7.238369;56.387001037597656;1673390246.3789685;-44.442237854003906;1.1769782304763794;-136.95919799804688
393;1673390246.557391;47.1289935;7.238357199999999;56.72500228881836;1673390246.580819;-43.92551040649414;0.8209490776062012;-136.7332000732422
394;1673390246.7484694;47.1289848;7.2383454;57.06100082397461;1673390246.7718925;-43.5354118347168;1.0077574253082275;-136.72763061523438
395;1673390246.9446073;47.128976099999996;7.2383336;57.406002044677734;1673390246.9670382;-44.572174072265625;1.2095131874084473;-136.8794403076172
396;1673390247.1515098;47.1289674;7.2383218;57.746002197265625;1673390247.1725476;-43.36690902709961;1.0469681024551392;-136.82725524902344
397;1673390247.3525393;47.1289588;7.238309999999999;58.0880012512207;1673390247.3719707;-44.41013717651367;1.2596163749694824;-136.8994598388672
398;1673390247.5527675;47.1289501;7.2382982;58.428001403808594;1673390247.576192;-43.68233108520508;1.1249027252197266;-136.82516479492188
399;1673390247.7541962;47.1289413;7.2382862999999995;58.77100372314453;1673390247.795198;-43.13873291015625;1.0578497648239136;-136.75149536132812
400;1673390248.0006678;47.1289326;7.238274499999999;59.11900329589844;1673390248.0207822;-44.701622009277344;1.312490701675415;-136.83535766601562
401;1673390248.18655;47.1289239;7.2382627;59.45900344848633;1673390248.208587;-43.331668853759766;0.8266786932945251;-136.56068420410156
402;1673390248.3721635;47.128915199999994;7.238250799999999;59.80400466918945;1673390248.3916855;-44.277549743652344;1.0645809173583984;-136.66236877441406
403;1673390248.5600538;47.1289066;7.238239;60.15300369262695;1673390248.581526;-44.412269592285156;1.0298124551773071;-136.74130249023438
404;1673390248.7556782;47.1288979;7.2382271;60.50300216674805;1673390248.7781196;-43.80086898803711;1.0364725589752197;-136.80567932128906
405;1673390248.978333;47.128889199999996;7.2382152;60.85000228881836;1673390248.9998066;-44.77039337158203;1.0215089321136475;-136.6508331298828
406;1673390249.1724222;47.1288805;7.2382032;61.195003509521484;1673390249.1899965;-43.22669219970703;0.8358822464942932;-136.501708984375
407;1673390249.3755426;47.1288717;7.2381912999999996;61.5420036315918;1673390249.4009216;-43.90685272216797;1.1485378742218018;-136.69383239746094
408;1673390249.5687451;47.128862999999996;7.2381793;61.89200210571289;1673390249.5921774;-44.608299255371094;0.8634694218635559;-136.69093322753906
409;1673390249.7674165;47.1288543;7.2381673;62.22900390625;1673390249.7919538;-43.270572662353516;0.8458099365234375;-136.65286254882812
410;1673390249.9749224;47.1288456;7.2381553;62.5680046081543;1673390249.998573;-44.117008209228516;0.925783097743988;-136.67401123046875
411;1673390250.2287605;47.128836899999996;7.238143399999999;62.913002014160156;1673390250.2492929;-42.971614837646484;0.7972206473350525;-136.6219940185547
412;1673390250.4201539;47.1288282;7.2381316;63.26000213623047;1673390250.438862;-43.79182434082031;1.0211681127548218;-136.6958770751953
413;1673390250.5975926;47.1288196;7.2381198;63.612003326416016;1673390250.618786;-44.91526412963867;0.9569304585456848;-136.67152404785156
414;1673390250.7888212;47.1288109;7.238107899999999;63.95700454711914;1673390250.8098578;-43.77395248413086;0.8741945028305054;-136.55520629882812
415;1673390251.0126762;47.128802199999996;7.238096;64.3080062866211;1673390251.035166;-44.711185455322266;1.040481448173523;-136.63856506347656
416;1673390251.200007;47.1287935;7.238084;64.66000366210938;1673390251.222487;-43.885047912597656;0.8031597137451172;-136.5747528076172
417;1673390251.384341;47.1287848;7.238072;65.01000213623047;1673390251.4028711;-44.21479797363281;0.9563742280006409;-136.5686492919922
418;1673390251.5720758;47.128775999999995;7.23806;65.35400390625;1673390251.5935822;-45.063838958740234;0.7846693396568298;-136.3800811767578
419;1673390251.772511;47.1287672;7.238048;65.69300079345703;1673390251.792138;-43.168609619140625;0.8882933855056763;-136.45452880859375
