;pos_time;latitude;longitude;altitude;alt_time;pitch;roll;yaw
0;1673389807.4260728;47.1306424;7.2406204;-0.03200000151991844;1673389807.516027;0.2863495945930481;0.05940239876508713;90.52651977539062
1;1673389807.622725;47.1306424;7.2406204;-0.030000001192092896;1673389807.6959324;0.09218264371156693;-0.1763385683298111;90.22761535644531
2;1673389807.8137233;47.1306424;7.2406204;-0.03200000151991844;1673389807.8993425;0.02497638575732708;-0.3069700300693512;90.5033950805664
3;1673389808.0273702;47.1306424;7.2406204999999995;-0.03500000014901161;1673389808.1122866;-0.173033207654953;-0.07637005299329758;90.25025939941406
4;1673389808.2375064;47.1306424;7.2406204999999995;-0.03400000184774399;1673389808.315785;0.039922624826431274;-0.21894517540931702;90.23095703125
5;1673389808.431062;47.1306424;7.2406204;-0.03100000135600567;1673389808.511307;-0.011967824772000313;-0.18151366710662842;90.35294342041016
6;1673389808.6423972;47.1306424;7.2406204;-0.032999999821186066;1673389808.7185652;0.35429492592811584;-0.18293984234333038;90.48487091064453
7;1673389808.8418088;47.1306423;7.2406203;-0.03500000014901161;1673389808.9190252;0.3118705153465271;-0.24164167046546936;90.4133529663086
8;1673389809.047036;47.1306423;7.2406203;-0.03400000184774399;1673389809.1316788;0.13399559259414673;-0.1992940902709961;90.40335083007812
9;1673389809.2442918;47.1306423;7.2406201999999995;-0.03400000184774399;1673389809.325825;0.08666924387216568;-0.14267949759960175;90.27669525146484
10;1673389809.4477272;47.1306423;7.2406201999999995;-0.039000000804662704;1673389809.530988;-0.03632073849439621;-0.22649511694908142;90.3801040649414
11;1673389809.6504843;47.1306423;7.2406201999999995;-0.04100000113248825;1673389809.7301002;-0.21373891830444336;-0.10443854331970215;90.26887512207031
12;1673389809.8478992;47.1306423;7.2406201999999995;-0.0430000014603138;1673389809.9392688;-0.1559816300868988;-0.17864292860031128;90.28032684326172
13;1673389810.0502827;47.1306423;7.2406201999999995;-0.04500000178813934;1673389810.1348467;-0.06218627467751503;-0.2035977989435196;90.21710968017578
14;1673389810.262513;47.1306424;7.2406201999999995;0.003000000026077032;1673389810.3423145;-0.1582859307527542;-1.0571057796478271;90.43738555908203
15;1673389810.4509254;47.1306424;7.2406201999999995;0.0020000000949949026;1673389810.5345714;-0.14286698400974274;-0.5093179941177368;90.28575134277344
16;1673389810.6965623;47.1306424;7.2406201;0.003000000026077032;1673389810.781538;0.12280640751123428;-0.8676620721817017;90.18818664550781
17;1673389810.9003987;47.1306424;7.2406201;0.004000000189989805;1673389810.9832518;0.11317948251962662;-0.6516398787498474;90.11537170410156
18;1673389811.087424;47.1306424;7.2406201;0.00800000037997961;1673389811.162921;0.03591444343328476;-0.7772074937820435;90.30833435058594
19;1673389811.2692304;47.1306424;7.2406201;0.009000000543892384;1673389811.3459802;-0.05913325399160385;-0.8459057807922363;90.31163024902344
20;1673389811.4709158;47.1306424;7.2406201;0.009000000543892384;1673389811.561911;-0.21908001601696014;-1.3468923568725586;90.31382751464844
21;1673389811.6799424;47.1306424;7.2406201999999995;0.0;1673389811.7700734;-0.25876039266586304;-1.3297119140625;90.19357299804688
22;1673389811.898013;47.1306424;7.2406201999999995;0.003000000026077032;1673389811.9700406;-0.19980378448963165;-0.8536155819892883;90.3970947265625
23;1673389812.0759294;47.1306424;7.2406201;0.005000000353902578;1673389812.1531305;-0.28091105818748474;-0.4171217679977417;90.42366790771484
24;1673389812.2695916;47.1306424;7.2406201;0.005000000353902578;1673389812.3608363;-0.29254141449928284;-0.3765794038772583;90.3273696899414
25;1673389812.4771087;47.1306425;7.2406201;0.0020000000949949026;1673389812.5607762;-0.3064587116241455;-0.4384240210056305;90.43512725830078
26;1673389812.6849356;47.1306425;7.2406201;0.0;1673389812.773099;-0.45598068833351135;-0.6161745190620422;90.52875518798828
27;1673389812.8829827;47.1306425;7.2406201999999995;-0.005000000353902578;1673389812.9641376;-0.6332760453224182;-0.4565669000148773;91.3121337890625
28;1673389813.077868;47.130642599999995;7.2406201999999995;-0.009000000543892384;1673389813.1609335;-0.37760671973228455;-0.4656022787094116;91.64405059814453
29;1673389813.2991235;47.130642599999995;7.2406201999999995;-0.00800000037997961;1673389813.3742106;-0.4275858998298645;-0.21526549756526947;92.45227813720703
30;1673389813.5309243;47.1306428;7.2406203;-0.006000000052154064;1673389813.616073;0.10306625813245773;0.011790135875344276;98.73976135253906
31;1673389813.7710433;47.130643199999994;7.240620799999999;-0.004000000189989805;1673389813.8329558;1.3544946908950806;2.454828977584839;96.64088439941406
32;1673389813.9627743;47.1306437;7.2406215;0.003000000026077032;1673389814.025395;5.133494853973389;5.042306423187256;92.63054656982422
33;1673389814.1199703;47.1306443;7.2406225;0.014000000432133675;1673389814.1860554;10.43984317779541;9.840031623840332;91.46365356445312
34;1673389814.29089;47.130645;7.2406236999999996;0.032999999821186066;1673389814.3660004;12.069612503051758;12.003009796142578;91.5140609741211
35;1673389814.5259595;47.130645699999995;7.240624899999999;0.06700000166893005;1673389814.620969;12.932398796081543;13.41109561920166;91.651611328125
36;1673389814.7269363;47.130646299999995;7.2406263;0.11800000816583633;1673389814.842732;13.936795234680176;14.286515235900879;91.7509536743164
37;1673389814.935838;47.130646899999995;7.2406274999999996;0.18200001120567322;1673389815.0360718;15.60754680633545;14.064674377441406;91.70875549316406
38;1673389815.162297;47.1306473;7.2406285;0.26100000739097595;1673389815.2562578;17.49957847595215;14.759557723999023;91.69993591308594
39;1673389815.3531775;47.130647499999995;7.2406292;0.36100003123283386;1673389815.4448104;18.749958038330078;17.215246200561523;91.73428344726562
40;1673389815.5770366;47.130647499999995;7.2406295;0.48100003600120544;1673389815.6358805;20.07325553894043;17.47385025024414;91.44427490234375
41;1673389815.7814126;47.1306473;7.2406292;0.6220000386238098;1673389815.8544621;21.28668212890625;15.612404823303223;90.80677795410156
42;1673389815.9643826;47.1306468;7.2406282;0.7770000100135803;1673389816.0401542;19.97576904296875;15.670624732971191;90.24227142333984
43;1673389816.1685503;47.1306461;7.2406267;0.9420000314712524;1673389816.2514317;17.350194931030273;16.101318359375;89.77888488769531
44;1673389816.363045;47.1306453;7.240625;1.1150000095367432;1673389816.4344275;15.314775466918945;11.627070426940918;88.49650573730469
45;1673389816.5632315;47.130644499999995;7.240623299999999;1.2970000505447388;1673389816.6312473;13.663541793823242;9.799627304077148;87.22769927978516
46;1673389816.7762997;47.1306437;7.2406217999999996;1.4900001287460327;1673389816.8334596;12.587544441223145;12.089179992675781;86.60041046142578
47;1673389816.987786;47.130643;7.2406206;1.6920000314712524;1673389817.0452392;11.37831974029541;8.599569320678711;91.55094146728516
48;1673389817.1394477;47.130642599999995;7.240619799999999;1.8940000534057617;1673389817.2107882;12.392780303955078;7.0673627853393555;89.30597686767578
49;1673389817.3604534;47.1306424;7.2406194;2.0900001525878906;1673389817.4283724;12.650703430175781;11.134858131408691;88.62638092041016
50;1673389817.53333;47.1306424;7.2406193;2.2829999923706055;1673389817.60682;13.848775863647461;9.252978324890137;87.53915405273438
51;1673389817.7587142;47.1306425;7.2406194;2.4740002155303955;1673389817.8364453;14.898324012756348;7.676881313323975;86.50517272949219
52;1673389817.966162;47.130642699999996;7.2406196;2.6690001487731934;1673389818.0303838;15.399615287780762;12.277624130249023;86.2450180053711
53;1673389818.1471221;47.1306428;7.240619799999999;2.869000196456909;1673389818.224893;16.31303596496582;10.777755737304688;86.00000762939453
54;1673389818.3669903;47.1306429;7.24062;3.070000171661377;1673389818.439902;16.62510108947754;8.926692962646484;85.7674331665039
55;1673389818.5634165;47.1306431;7.2406201999999995;3.2700002193450928;1673389818.6537526;16.70590591430664;12.366792678833008;86.25992584228516
56;1673389818.763472;47.130643199999994;7.2406204;3.4710001945495605;1673389818.8422248;16.983993530273438;12.304210662841797;86.20148468017578
57;1673389818.9612122;47.1306431;7.2406204999999995;3.6730000972747803;1673389819.0257497;16.96548080444336;8.527363777160645;85.77722930908203
58;1673389819.138581;47.130643;7.2406206;3.870000123977661;1673389819.2138186;16.644376754760742;10.942866325378418;86.11724853515625
59;1673389819.3478937;47.1306428;7.2406206;4.062000274658203;1673389819.4294765;16.657470703125;11.43036937713623;86.20089721679688
60;1673389819.5739725;47.130642599999995;7.2406206;4.25600004196167;1673389819.6452444;16.651670455932617;7.8282647132873535;85.75780487060547
61;1673389819.7619834;47.130642599999995;7.2406204999999995;4.455000400543213;1673389819.8368566;16.176239013671875;9.87051010131836;86.0201416015625
62;1673389819.9575703;47.1306425;7.2406204999999995;4.652000427246094;1673389820.0285444;16.24437713623047;12.191762924194336;86.37751770019531
63;1673389820.1588233;47.1306425;7.2406204;4.850000381469727;1673389820.2532926;16.20644760131836;8.541035652160645;86.00556182861328
64;1673389820.3687513;47.1306424;7.2406204;5.045000076293945;1673389820.4489202;15.894832611083984;9.039685249328613;85.84632110595703
65;1673389820.5530167;47.1306424;7.2406203;5.237000465393066;1673389820.6328113;15.902315139770508;12.410099983215332;86.29060363769531
66;1673389820.7620182;47.1306424;7.2406201999999995;5.435000419616699;1673389820.8354533;16.021358489990234;9.405684471130371;86.01870727539062
67;1673389820.9588718;47.1306425;7.2406201;5.63700008392334;1673389821.0366063;15.869815826416016;8.633430480957031;85.87979888916016
68;1673389821.1748185;47.130642599999995;7.24062;5.837000370025635;1673389821.2467344;15.800434112548828;12.712379455566406;86.20843505859375
69;1673389821.357635;47.130642599999995;7.24062;6.034000396728516;1673389821.4364128;16.035892486572266;11.024696350097656;86.1686782836914
70;1673389821.5665429;47.130642599999995;7.2406201;6.2300004959106445;1673389821.6355426;16.001575469970703;8.43281078338623;85.84883117675781
71;1673389821.768511;47.130642599999995;7.2406201;6.424000263214111;1673389821.8534682;15.921313285827637;12.309439659118652;86.24089050292969
72;1673389821.9682388;47.1306425;7.2406201;6.618000507354736;1673389822.0490294;16.14828109741211;10.858492851257324;86.07704162597656
73;1673389822.1778111;47.1306425;7.2406201;6.817000389099121;1673389822.264447;16.253746032714844;8.256213188171387;85.87449645996094
74;1673389822.3719916;47.130642599999995;7.2406201999999995;7.016000270843506;1673389822.4652925;15.877813339233398;11.707769393920898;86.26457977294922
75;1673389822.5839276;47.130642599999995;7.2406201999999995;7.213000297546387;1673389822.6694295;16.250276565551758;11.746550559997559;86.30889892578125
76;1673389822.7786357;47.130642599999995;7.2406203;7.4120001792907715;1673389822.8523955;16.425235748291016;8.02668285369873;85.84837341308594
77;1673389822.960356;47.1306425;7.2406203;7.610000133514404;1673389823.0380595;16.08002471923828;10.3685941696167;86.03242492675781
78;1673389823.155741;47.1306425;7.2406203;7.802000522613525;1673389823.235334;16.17240333557129;11.700289726257324;86.34602355957031
79;1673389823.3822408;47.1306425;7.2406204;8.00100040435791;1673389823.4511368;16.293716430664062;8.288409233093262;85.99395751953125
80;1673389823.5869236;47.130642599999995;7.2406204;8.200000762939453;1673389823.6543157;16.06549835205078;10.380122184753418;86.10650634765625
81;1673389823.778767;47.130642599999995;7.2406204;8.39900016784668;1673389823.8512292;16.051050186157227;12.786090850830078;86.50399017333984
82;1673389823.9562109;47.130642699999996;7.2406204;8.598000526428223;1673389824.0311081;16.145286560058594;8.873384475708008;86.1356430053711
83;1673389824.1451416;47.130642699999996;7.2406204;8.79800033569336;1673389824.2203596;16.126598358154297;9.235620498657227;86.03711700439453
84;1673389824.3629627;47.130642699999996;7.2406204;8.996000289916992;1673389824.4474452;15.972980499267578;12.74342155456543;86.47813415527344
85;1673389824.5692558;47.130642699999996;7.2406204;9.196000099182129;1673389824.6631613;16.077878952026367;9.804608345031738;86.15425109863281
86;1673389824.7899516;47.1306428;7.2406204;9.392000198364258;1673389824.8585155;16.037994384765625;9.184258460998535;86.114990234375
87;1673389824.9976764;47.1306429;7.2406204;9.585000038146973;1673389825.0668075;15.87762451171875;12.58135986328125;86.46278381347656
88;1673389825.1786075;47.1306428;7.2406204999999995;9.777000427246094;1673389825.2518396;16.297632217407227;11.026782989501953;86.34485626220703
89;1673389825.380779;47.1306428;7.2406204999999995;9.971000671386719;1673389825.4658673;16.275651931762695;8.45559024810791;85.89591217041016
90;1673389825.56695;47.1306428;7.2406204999999995;10.17300033569336;1673389825.6466496;15.901630401611328;11.608896255493164;86.54611206054688
91;1673389825.7887442;47.130642599999995;7.2406204;10.464000701904297;1673389825.857272;16.359960556030273;13.55218505859375;86.92794799804688
92;1673389825.9749467;47.1306423;7.2406201;10.8410005569458;1673389826.0571356;16.998899459838867;10.555500984191895;86.5450210571289
93;1673389826.1580687;47.130641999999995;7.240619799999999;11.23900032043457;1673389826.250517;15.690596580505371;10.068181991577148;86.51482391357422
94;1673389826.370983;47.1306416;7.2406196;11.636000633239746;1673389826.456648;15.152907371520996;11.251191139221191;86.74971771240234
95;1673389826.5587783;47.1306413;7.2406194;12.033000946044922;1673389826.632535;15.002236366271973;8.260415077209473;86.52494812011719
96;1673389826.7719386;47.130641;7.240619199999999;12.437000274658203;1673389826.8417833;14.650836944580078;6.477339267730713;86.17252349853516
97;1673389826.9557436;47.130641;7.2406191;12.837000846862793;1673389827.026602;14.573758125305176;10.313033103942871;86.50785827636719
98;1673389827.1347113;47.130640899999996;7.2406191;13.22900104522705;1673389827.2186677;14.823472023010254;8.698091506958008;86.23403930664062
99;1673389827.3278925;47.1306411;7.2406191;13.625000953674316;1673389827.4100456;15.111546516418457;7.116415500640869;85.96215057373047
100;1673389827.525081;47.130641399999995;7.240619199999999;14.017000198364258;1673389827.606212;15.102560043334961;11.035669326782227;86.25119018554688
101;1673389827.721315;47.1306417;7.2406193;14.406001091003418;1673389827.8081148;15.544746398925781;11.404192924499512;86.54570007324219
102;1673389827.9354007;47.1306419;7.2406194;14.795001029968262;1673389828.015764;15.761043548583984;8.650891304016113;86.24729919433594
103;1673389828.1473336;47.130641999999995;7.240619499999999;15.177000999450684;1673389828.229502;15.701131820678711;11.478342056274414;86.5513687133789
104;1673389828.3508887;47.130642099999996;7.2406196;15.558000564575195;1673389828.43758;15.838464736938477;12.136783599853516;86.55033111572266
105;1673389828.567948;47.1306422;7.2406196;15.943000793457031;1673389828.6563165;15.83864974975586;8.757537841796875;86.0743179321289
106;1673389828.7780333;47.1306423;7.2406196;16.334001541137695;1673389828.852585;15.656927108764648;10.993282318115234;86.4049072265625
107;1673389829.0019586;47.1306423;7.240619499999999;16.725000381469727;1673389829.063009;15.58663272857666;12.323372840881348;86.65229797363281
108;1673389829.1818097;47.1306422;7.240619499999999;17.112001419067383;1673389829.2596946;15.746994972229004;9.002067565917969;86.3035888671875
109;1673389829.372761;47.1306422;7.240619499999999;17.506000518798828;1673389829.4553826;15.456253051757812;9.478368759155273;86.1886215209961
110;1673389829.5888755;47.130642099999996;7.240619499999999;17.894001007080078;1673389829.665682;15.384756088256836;12.08336067199707;86.586669921875
111;1673389829.7765918;47.130642099999996;7.240619499999999;18.286001205444336;1673389829.8661618;15.586673736572266;9.233634948730469;86.32050323486328
112;1673389829.9859407;47.130642099999996;7.240619499999999;18.68000030517578;1673389830.058961;15.611390113830566;8.632235527038574;86.16036987304688
113;1673389830.1848347;47.1306422;7.240619499999999;19.075000762939453;1673389830.2588274;15.288056373596191;11.934103965759277;86.42298889160156
114;1673389830.3684459;47.1306422;7.240619499999999;19.470001220703125;1673389830.446135;15.752396583557129;10.087719917297363;86.3246078491211
115;1673389830.5561495;47.1306422;7.240619499999999;19.86600112915039;1673389830.6338696;15.583277702331543;8.22000503540039;86.02938842773438
116;1673389830.7703493;47.1306422;7.240619499999999;20.25400161743164;1673389830.838335;15.40565299987793;11.5895357131958;86.61544799804688
117;1673389830.9773788;47.1306422;7.240619499999999;20.645000457763672;1673389831.0531359;15.598462104797363;10.872281074523926;86.48483276367188
118;1673389831.1697059;47.1306423;7.240619499999999;21.036001205444336;1673389831.236657;15.876102447509766;8.266618728637695;86.06734466552734
119;1673389831.3652565;47.1306424;7.240619499999999;21.43000030517578;1673389831.4316156;15.49170970916748;11.020161628723145;86.17093658447266
120;1673389831.557621;47.1306424;7.240619499999999;21.823001861572266;1673389831.6393232;15.608518600463867;11.734811782836914;86.52534484863281
121;1673389831.767609;47.1306424;7.240619499999999;22.21700096130371;1673389831.8414557;15.620233535766602;8.542147636413574;86.11739349365234
122;1673389831.9556484;47.1306424;7.2406194;22.61100196838379;1673389832.0398583;15.399682998657227;9.903585433959961;86.34757995605469
123;1673389832.1497548;47.1306424;7.2406194;22.99700164794922;1673389832.2270203;15.482376098632812;12.273221969604492;86.60064697265625
124;1673389832.3562195;47.1306424;7.2406194;23.39000129699707;1673389832.4275267;15.659992218017578;9.509613990783691;86.15345764160156
125;1673389832.5286298;47.1306425;7.2406193;23.786001205444336;1673389832.6064234;15.546590805053711;9.459695816040039;86.19723510742188
126;1673389832.7203505;47.130642599999995;7.2406193;24.178001403808594;1673389832.7989647;15.334267616271973;12.403180122375488;86.57736206054688
127;1673389832.9169567;47.130642599999995;7.2406194;24.569000244140625;1673389832.99384;15.809759140014648;10.506850242614746;86.52810668945312
128;1673389833.1114314;47.1306425;7.2406194;24.961000442504883;1673389833.1986122;15.587190628051758;8.699173927307129;86.1386947631836
129;1673389833.3034546;47.1306425;7.240619499999999;25.345001220703125;1673389833.3811517;15.494828224182129;11.747763633728027;86.48973846435547
130;1673389833.5159442;47.1306424;7.240619499999999;25.733001708984375;1673389833.5952835;15.752163887023926;11.148774147033691;86.45188903808594
131;1673389833.7230542;47.1306425;7.240619499999999;26.125001907348633;1673389833.8070807;15.802416801452637;8.32107162475586;86.00936126708984
132;1673389833.9262917;47.130642599999995;7.240619499999999;26.51500129699707;1673389834.0102751;15.582047462463379;11.231002807617188;86.19210052490234
133;1673389834.1313794;47.130642599999995;7.240619499999999;26.906002044677734;1673389834.203254;15.698102951049805;11.694352149963379;86.39356231689453
134;1673389834.3241844;47.130642599999995;7.240619499999999;27.302001953125;1673389834.4023132;15.489326477050781;8.393217086791992;85.96528625488281
135;1673389834.5014307;47.130642599999995;7.240619499999999;27.69900131225586;1673389834.5868678;15.412995338439941;10.999533653259277;86.284423828125
136;1673389834.702726;47.130642599999995;7.240619499999999;28.086000442504883;1673389834.7862616;15.346003532409668;11.899478912353516;86.45188903808594
137;1673389834.9169085;47.1306425;7.240619499999999;28.474000930786133;1673389834.9927232;15.790443420410156;8.719660758972168;86.25189971923828
138;1673389835.134597;47.130642599999995;7.2406196;28.863000869750977;1673389835.214384;15.665413856506348;10.387547492980957;86.29742431640625
139;1673389835.3164363;47.130642599999995;7.2406197;29.251001358032227;1673389835.3981898;15.579819679260254;12.487804412841797;86.55970764160156
140;1673389835.5571723;47.1306425;7.2406197;29.639001846313477;1673389835.6333196;15.928024291992188;9.083566665649414;86.27619171142578
141;1673389835.7408214;47.1306425;7.240619799999999;30.029001235961914;1673389835.8189552;15.605009078979492;9.545644760131836;86.34046936035156
142;1673389835.932955;47.1306424;7.240619799999999;30.41200065612793;1673389836.0123217;15.678668975830078;12.328536987304688;86.62356567382812
143;1673389836.1233277;47.1306424;7.240619799999999;30.798002243041992;1673389836.2110703;15.757272720336914;9.512778282165527;86.13932800292969
144;1673389836.329517;47.1306424;7.240619799999999;31.191001892089844;1673389836.4234178;15.777466773986816;9.00037670135498;85.99907684326172
145;1673389836.5372708;47.1306425;7.240619799999999;31.58500099182129;1673389836.6258023;15.42055606842041;12.077635765075684;86.47603607177734
146;1673389836.7386982;47.1306424;7.240619799999999;31.98000144958496;1673389836.8360195;15.652663230895996;10.418590545654297;86.42901611328125
147;1673389836.9628181;47.1306424;7.240619799999999;32.37800216674805;1673389837.034378;15.627840995788574;8.449559211730957;85.91683197021484
148;1673389837.1620312;47.1306424;7.240619799999999;32.775001525878906;1673389837.236432;15.555691719055176;11.901512145996094;86.39281463623047
149;1673389837.3538291;47.1306424;7.2406198999999996;33.165000915527344;1673389837.4328833;15.6693754196167;10.924158096313477;86.3087387084961
150;1673389837.5698316;47.1306424;7.2406198999999996;33.560001373291016;1673389837.64947;15.728424072265625;8.453707695007324;86.20096588134766
151;1673389837.7606177;47.1306425;7.2406198999999996;33.95800018310547;1673389837.8439093;15.632072448730469;11.304877281188965;86.47805786132812
152;1673389837.9578106;47.1306424;7.24062;34.35700225830078;1673389838.044014;15.75947380065918;11.584037780761719;86.67888641357422
153;1673389838.1617763;47.1306424;7.24062;34.75699996948242;1673389838.2451644;15.92776107788086;8.224010467529297;86.1063232421875
154;1673389838.360987;47.1306424;7.24062;35.15700149536133;1673389838.433376;15.559494972229004;10.750969886779785;86.40518188476562
155;1673389838.5575626;47.1306424;7.24062;35.54800033569336;1673389838.6396184;15.494606018066406;11.941157341003418;86.55648040771484
156;1673389838.761077;47.1306424;7.2406198999999996;35.94700241088867;1673389838.8441896;15.6863431930542;8.703042984008789;86.2774658203125
157;1673389838.9651356;47.1306425;7.2406198999999996;36.34700012207031;1673389839.060566;15.514215469360352;10.348556518554688;86.1921615600586
158;1673389839.183459;47.1306425;7.2406198999999996;36.74500274658203;1673389839.2645025;15.562923431396484;12.477012634277344;86.57437896728516
159;1673389839.3989308;47.1306425;7.24062;37.14200210571289;1673389839.4747472;15.710771560668945;9.302616119384766;86.2732925415039
160;1673389839.6023846;47.1306425;7.24062;37.54100036621094;1673389839.6802464;15.550191879272461;9.434441566467285;86.2529296875
161;1673389839.79327;47.130642599999995;7.24062;37.941001892089844;1673389839.8768814;15.462172508239746;12.512227058410645;86.4448471069336
162;1673389839.9946852;47.130642599999995;7.24062;38.332000732421875;1673389840.0665233;15.800765991210938;10.31988525390625;86.23664855957031
163;1673389840.1922479;47.130642599999995;7.24062;38.72800064086914;1673389840.277808;15.791404724121094;9.236626625061035;86.23334503173828
164;1673389840.3949385;47.130642699999996;7.24062;39.12700271606445;1673389840.4755278;15.467721939086914;12.119394302368164;86.61884307861328
165;1673389840.5746908;47.130642599999995;7.24062;39.52100372314453;1673389840.6601403;15.785355567932129;11.626839637756348;86.76790618896484
166;1673389840.7836914;47.1306425;7.2406201;39.91800308227539;1673389840.8652265;15.923490524291992;8.530372619628906;86.18053436279297
167;1673389840.9920237;47.1306425;7.2406201;40.31700134277344;1673389841.0716891;15.802152633666992;10.498130798339844;86.37409210205078
168;1673389841.196295;47.1306425;7.2406201;40.707000732421875;1673389841.278128;15.687734603881836;12.300386428833008;86.58216094970703
169;1673389841.4084802;47.1306424;7.2406201;41.10300064086914;1673389841.474415;15.877772331237793;9.307520866394043;86.35906219482422
170;1673389841.5961957;47.1306425;7.2406201;41.50600051879883;1673389841.6736722;15.831182479858398;9.50803279876709;86.3377685546875
171;1673389841.8060305;47.1306425;7.24062;41.90800094604492;1673389841.8881984;15.610726356506348;12.343478202819824;86.6314697265625
172;1673389841.9907815;47.1306424;7.24062;42.30800247192383;1673389842.083154;15.879227638244629;10.045552253723145;86.3824462890625
173;1673389842.2076697;47.1306424;7.24062;42.71000289916992;1673389842.2778199;15.701586723327637;8.539346694946289;86.06253051757812
174;1673389842.3912954;47.1306424;7.2406198999999996;43.11000061035156;1673389842.4592028;15.445783615112305;12.016200065612793;86.4652099609375
175;1673389842.5816276;47.1306424;7.2406198999999996;43.499000549316406;1673389842.6661382;15.557419776916504;10.707870483398438;86.45750427246094
176;1673389842.8025546;47.1306424;7.2406198999999996;43.893001556396484;1673389842.886276;15.753615379333496;8.596306800842285;86.25904846191406
177;1673389843.0083416;47.1306425;7.240619799999999;44.28900146484375;1673389843.085489;15.314594268798828;11.514650344848633;86.28254699707031
178;1673389843.195147;47.1306425;7.240619799999999;44.682003021240234;1673389843.264845;15.56816577911377;11.468838691711426;86.35059356689453
179;1673389843.3747382;47.1306425;7.240619799999999;45.0780029296875;1673389843.4525747;15.662324905395508;8.290761947631836;85.99361419677734
180;1673389843.5741572;47.1306425;7.240619799999999;45.47600173950195;1673389843.648022;15.483240127563477;11.020220756530762;86.35612487792969
181;1673389843.7787385;47.1306425;7.240619799999999;45.8650016784668;1673389843.8701143;15.368712425231934;11.924765586853027;86.40461730957031
182;1673389843.9972405;47.1306425;7.240619799999999;46.26300048828125;1673389844.0696871;15.704497337341309;8.856087684631348;86.03166198730469
183;1673389844.183556;47.130642599999995;7.240619799999999;46.663002014160156;1673389844.2584274;15.590004920959473;10.140693664550781;86.29327392578125
184;1673389844.358659;47.130642599999995;7.240619799999999;47.06200408935547;1673389844.4328377;15.450119018554688;12.42751407623291;86.64155578613281
185;1673389844.5379393;47.1306425;7.2406198999999996;47.457000732421875;1673389844.6118255;15.671231269836426;10.026410102844238;86.51578521728516
186;1673389844.725595;47.1306425;7.2406198999999996;47.85200119018555;1673389844.8051853;15.651144027709961;8.652684211730957;86.10540008544922
187;1673389844.9218886;47.130642599999995;7.24062;48.23500061035156;1673389845.0035505;15.707316398620605;12.49051284790039;86.52468872070312
188;1673389845.1183307;47.130642599999995;7.2406201;48.55900192260742;1673389845.2021039;15.841099739074707;11.396890640258789;86.46903228759766
189;1673389845.3194788;47.130642699999996;7.2406203;48.8380012512207;1673389845.4065335;15.99348258972168;8.664216995239258;86.17012023925781
190;1673389845.5289533;47.1306429;7.2406204999999995;49.077003479003906;1673389845.6116776;16.19114875793457;11.131173133850098;85.97061157226562
191;1673389845.7271035;47.130643;7.240620799999999;49.28300094604492;1673389845.8096497;20.26535415649414;14.720819473266602;86.24187469482422
192;1673389845.930448;47.1306431;7.240620799999999;49.461002349853516;1673389846.0125074;33.98967742919922;27.6357479095459;95.67327117919922
193;1673389846.1300337;47.1306425;7.2406197;49.62800216674805;1673389846.208661;37.81661605834961;43.888671875;107.72566986083984
194;1673389846.3286295;47.1306404;7.2406159;49.75700378417969;1673389846.4160707;35.25497055053711;53.22671127319336;115.99263000488281
195;1673389846.5457523;47.1306363;7.240609399999999;49.855003356933594;1673389846.6249754;21.106996536254883;57.61964416503906;125.53788757324219
196;1673389846.760607;47.130630499999995;7.2406006;49.906002044677734;1673389846.8358743;3.0106306076049805;53.1542854309082;136.28121948242188
197;1673389846.9682176;47.130623299999996;7.2405902;49.93100357055664;1673389847.052451;-10.481728553771973;47.989498138427734;147.72341918945312
198;1673389847.1738224;47.1306151;7.240578999999999;49.93800354003906;1673389847.2525778;-21.588613510131836;46.01017379760742;156.19387817382812
199;1673389847.3852355;47.1306063;7.2405671;49.939002990722656;1673389847.4619563;-32.271202087402344;41.90406036376953;166.74986267089844
200;1673389847.5848703;47.1305966;7.240554299999999;49.94700241088867;1673389847.6541579;-44.365234375;40.51095199584961;178.2055206298828
201;1673389847.775482;47.1305863;7.240540299999999;49.939002990722656;1673389847.854769;-50.14157485961914;32.94451904296875;-167.37733459472656
202;1673389847.9813197;47.1305753;7.240524799999999;49.9160041809082;1673389848.0586731;-44.859134674072266;23.400285720825195;-159.7104949951172
203;1673389848.1623287;47.1305641;7.2405086999999995;49.87300109863281;1673389848.2443147;-44.97069549560547;19.30886459350586;-155.63816833496094
204;1673389848.4032915;47.130552699999996;7.240492199999999;49.83500289916992;1673389848.4833505;-48.268131256103516;15.051871299743652;-148.07040405273438
205;1673389848.5946205;47.1305414;7.240475099999999;49.814002990722656;1673389848.6699526;-48.792537689208984;9.40230941772461;-139.9662322998047
206;1673389848.7878392;47.13053;7.2404575;49.79500198364258;1673389848.857323;-48.442604064941406;4.563509464263916;-133.59628295898438
207;1673389848.977317;47.130518599999995;7.240439599999999;49.77300262451172;1673389849.0504153;-48.05109786987305;-3.1496822834014893;-129.3686981201172
208;1673389849.162371;47.1305073;7.2404214;49.746002197265625;1673389849.2380557;-46.609283447265625;-5.098011016845703;-132.6036834716797
209;1673389849.3730564;47.1304957;7.240403499999999;49.71600341796875;1673389849.4541054;-45.433902740478516;-3.0037081241607666;-135.68907165527344
210;1673389849.601575;47.130483999999996;7.240386;49.69600296020508;1673389849.6744878;-46.90445327758789;-2.230466604232788;-136.20030212402344
211;1673389849.807845;47.130472;7.2403691;49.69300079345703;1673389849.8777673;-48.389686584472656;-1.0611742734909058;-136.85238647460938
212;1673389849.9991717;47.130459699999996;7.240352499999999;49.69700241088867;1673389850.0727196;-48.47671127319336;0.4700567424297333;-137.63916015625
213;1673389850.1915808;47.1304472;7.240336;49.71200180053711;1673389850.2693372;-49.00920486450195;1.1351594924926758;-137.81373596191406
214;1673389850.3715968;47.1304344;7.2403197;49.72300338745117;1673389850.446733;-48.941429138183594;1.7767541408538818;-137.9267120361328
215;1673389850.559006;47.130421399999996;7.240303399999999;49.74500274658203;1673389850.636298;-48.910560607910156;2.0298044681549072;-137.9093780517578
216;1673389850.7504354;47.1304083;7.2402869;49.768001556396484;1673389850.8288016;-49.22931671142578;2.061492919921875;-137.81451416015625
217;1673389850.9651003;47.130395199999995;7.2402703;49.79500198364258;1673389851.037962;-49.384586334228516;2.0182645320892334;-137.6710968017578
218;1673389851.1506035;47.130382;7.2402536;49.820003509521484;1673389851.2326636;-49.57962417602539;2.011979818344116;-137.54954528808594
219;1673389851.3488941;47.1303686;7.2402368;49.8380012512207;1673389851.478526;-49.15142822265625;1.987601637840271;-137.40589904785156
220;1673389851.6188848;47.1303552;7.2402199;49.8390007019043;1673389851.690666;-48.23834228515625;1.973261833190918;-137.24673461914062
221;1673389851.7977502;47.130341699999995;7.2402029;49.84600067138672;1673389851.872672;-47.883277893066406;1.8979322910308838;-137.1570281982422
222;1673389851.989318;47.130328299999995;7.2401858;49.858001708984375;1673389852.0657146;-48.472808837890625;1.9045014381408691;-137.09873962402344
223;1673389852.1878357;47.130314999999996;7.2401687;49.871002197265625;1673389852.2692642;-49.09429168701172;1.8693063259124756;-136.99871826171875
224;1673389852.382764;47.130301599999996;7.2401515;49.880001068115234;1673389852.462003;-48.93706130981445;1.8388056755065918;-136.9073028564453
225;1673389852.5773919;47.130288199999995;7.2401342;49.88500213623047;1673389852.6615949;-48.43100357055664;1.7879916429519653;-136.82437133789062
226;1673389852.7811415;47.130274899999996;7.240116899999999;49.8910026550293;1673389852.8585346;-48.475616455078125;1.7699428796768188;-136.77554321289062
227;1673389852.982065;47.130261499999996;7.2400996;49.884002685546875;1673389853.060311;-48.26459503173828;1.7899373769760132;-136.6925506591797
228;1673389853.2048316;47.1302482;7.2400822;49.87800216674805;1673389853.281088;-47.98337936401367;1.765589952468872;-136.6437530517578
229;1673389853.4214482;47.1302349;7.2400648;49.87600326538086;1673389853.4932365;-48.114009857177734;1.75506591796875;-136.5929412841797
230;1673389853.6407778;47.1302216;7.2400474;49.87600326538086;1673389853.7053585;-48.668052673339844;1.8394147157669067;-136.5749053955078
231;1673389853.852706;47.1302083;7.2400299;49.87300109863281;1673389853.9364583;-48.721736907958984;1.7915228605270386;-136.54498291015625
232;1673389854.0214684;47.130195;7.2400123;49.871002197265625;1673389854.1028967;-48.47857666015625;1.7749865055084229;-136.51080322265625
233;1673389854.2052052;47.1301817;7.2399947;49.862003326416016;1673389854.2810903;-48.11554718017578;1.6857218742370605;-136.42054748535156
234;1673389854.4371562;47.130168499999996;7.239977199999999;49.855003356933594;1673389854.5006695;-48.106937408447266;1.7297827005386353;-136.4055938720703
235;1673389854.6119528;47.1301552;7.2399596;49.84700393676758;1673389854.682411;-48.237205505371094;1.752725601196289;-136.3802490234375
236;1673389854.7964144;47.130142;7.239942;49.842002868652344;1673389854.8956938;-48.337135314941406;1.7233034372329712;-136.3480682373047
237;1673389855.0190198;47.1301288;7.2399244;49.8390007019043;1673389855.0859957;-48.33667755126953;1.711389422416687;-136.3303985595703
238;1673389855.189996;47.1301157;7.2399068;49.83500289916992;1673389855.2710145;-48.32050704956055;1.7164522409439087;-136.32188415527344
239;1673389855.3798032;47.1301026;7.2398891999999995;49.832000732421875;1673389855.4618125;-48.3338737487793;1.7346177101135254;-136.29225158691406
240;1673389855.5949814;47.1300895;7.2398716;49.8280029296875;1673389855.6711996;-48.25343704223633;1.7176473140716553;-136.2749786376953
241;1673389855.7788272;47.1300763;7.2398539;49.82600402832031;1673389855.8759089;-48.140872955322266;1.7001112699508667;-136.2567901611328
242;1673389855.9847212;47.130063199999995;7.2398362999999994;49.82200241088867;1673389856.0635319;-48.06304168701172;1.6932719945907593;-136.1942901611328
243;1673389856.1613238;47.1300501;7.2398187;49.82400131225586;1673389856.2354734;-48.22840881347656;1.7800183296203613;-136.24050903320312
244;1673389856.351201;47.130036999999994;7.239801099999999;49.83000183105469;1673389856.4298813;-48.57475280761719;1.841286540031433;-136.22105407714844
245;1673389856.548537;47.1300239;7.2397835;49.836002349853516;1673389856.6224394;-48.756622314453125;1.7912616729736328;-136.16099548339844
246;1673389856.7587469;47.1300108;7.2397656999999995;49.836002349853516;1673389856.838563;-48.485836029052734;1.737622857093811;-136.15447998046875
247;1673389856.9593966;47.129997599999996;7.239748;49.83700180053711;1673389857.0342026;-48.282814025878906;1.7376166582107544;-136.10646057128906
248;1673389857.1559505;47.1299845;7.2397303;49.8390007019043;1673389857.2357159;-48.3459358215332;1.7732090950012207;-136.09080505371094
249;1673389857.343363;47.129971399999995;7.2397126;49.8390007019043;1673389857.4298995;-48.39776611328125;1.8966124057769775;-136.1338653564453
250;1673389857.5506642;47.1299582;7.239694999999999;49.8390007019043;1673389857.6342552;-48.36357116699219;1.8424594402313232;-136.072265625
251;1673389857.7668643;47.1299451;7.239677299999999;49.840003967285156;1673389857.8387976;-48.39378356933594;1.866102933883667;-136.08404541015625
252;1673389857.971193;47.129932;7.239659499999999;49.8380012512207;1673389858.0626922;-48.20638656616211;1.8286957740783691;-136.01681518554688
253;1673389858.1785624;47.129919;7.2396417;49.83500289916992;1673389858.2524076;-48.06307601928711;1.7410122156143188;-136.01438903808594
254;1673389858.3572628;47.1299059;7.2396237999999995;49.83100128173828;1673389858.4443781;-47.97679138183594;1.7022150754928589;-136.0004425048828
255;1673389858.5513105;47.1298928;7.2396061;49.832000732421875;1673389858.6266325;-48.17960739135742;1.829697608947754;-136.02618408203125
256;1673389858.7339938;47.1298797;7.239588299999999;49.833003997802734;1673389858.8084922;-48.28178405761719;1.8791249990463257;-136.0124969482422
257;1673389858.9320471;47.1298666;7.2395705999999995;49.83400344848633;1673389859.0133832;-48.24810028076172;1.9293490648269653;-136.00685119628906
258;1673389859.141354;47.129853499999996;7.2395529;49.83700180053711;1673389859.2268922;-48.22017288208008;1.8844259977340698;-135.97341918945312
259;1673389859.3515496;47.1298405;7.239535;49.840003967285156;1673389859.4278014;-48.27496337890625;1.8094619512557983;-135.935791015625
260;1673389859.5501652;47.129827399999996;7.2395171;49.84400177001953;1673389859.627812;-48.1638069152832;1.7371200323104858;-135.9054412841797
261;1673389859.7509344;47.1298144;7.239499299999999;49.85000228881836;1673389859.8526073;-48.3153076171875;1.810759425163269;-135.90570068359375
262;1673389859.9771194;47.1298013;7.2394815999999995;49.85600280761719;1673389860.0645921;-48.48228073120117;1.9147878885269165;-135.93026733398438
263;1673389860.2129433;47.1297882;7.239463799999999;49.858001708984375;1673389860.2906666;-48.27138900756836;1.9485121965408325;-135.9093017578125
264;1673389860.3946838;47.129774999999995;7.239446;49.86000061035156;1673389860.4766688;-48.06215286254883;1.9668922424316406;-135.91236877441406
265;1673389860.5858545;47.1297619;7.2394282;49.86100387573242;1673389860.6688046;-48.0196647644043;1.9345978498458862;-135.86488342285156
266;1673389860.7950315;47.129748899999996;7.2394102;49.86300277709961;1673389860.8711758;-48.1135368347168;1.8748964071273804;-135.85098266601562
267;1673389861.0004942;47.1297358;7.2393923;49.87200164794922;1673389861.064119;-48.45122528076172;1.8299959897994995;-135.8171844482422
268;1673389861.1880717;47.129722799999996;7.2393744;49.875003814697266;1673389861.2681358;-48.481929779052734;1.8147610425949097;-135.80670166015625
269;1673389861.3711739;47.1297097;7.2393564999999995;49.87700271606445;1673389861.453842;-48.21269607543945;1.8394863605499268;-135.81082153320312
270;1673389861.5856218;47.129696599999995;7.2393385;49.87900161743164;1673389861.673566;-48.03204345703125;1.8163537979125977;-135.80157470703125
271;1673389861.8101516;47.1296835;7.2393205;49.88100051879883;1673389861.8870378;-48.062591552734375;1.776652216911316;-135.7720184326172
272;1673389862.0207229;47.129670499999996;7.2393025;49.884002685546875;1673389862.1116946;-48.409461975097656;1.7762577533721924;-135.805419921875
273;1673389862.2370331;47.1296574;7.239284499999999;49.887001037597656;1673389862.308935;-48.39858627319336;1.7655032873153687;-135.80722045898438
274;1673389862.423939;47.1296444;7.239266499999999;49.88900375366211;1673389862.4994633;-48.31108474731445;1.8153152465820312;-135.8137969970703
275;1673389862.6289535;47.1296312;7.2392486;49.893001556396484;1673389862.6999147;-48.279415130615234;1.8558282852172852;-135.80674743652344
276;1673389862.835604;47.129618099999995;7.2392306;49.89800262451172;1673389862.9278576;-48.184810638427734;1.7674851417541504;-135.7489776611328
277;1673389863.0342138;47.129605;7.2392126;49.90400314331055;1673389863.114051;-48.35106658935547;1.816752314567566;-135.77037048339844
278;1673389863.2161098;47.1295919;7.2391947;49.90800094604492;1673389863.2898622;-48.35756301879883;1.8169764280319214;-135.7444305419922
279;1673389863.3920972;47.1295789;7.2391767;49.91100311279297;1673389863.4692028;-48.173458099365234;1.633152961730957;-135.67823791503906
280;1673389863.582037;47.129565899999996;7.2391586;49.913002014160156;1673389863.6619136;-48.019691467285156;1.5707364082336426;-135.66038513183594
281;1673389863.7760956;47.1295528;7.2391406;49.92000198364258;1673389863.8628526;-48.370201110839844;1.6534488201141357;-135.6918487548828
282;1673389863.9806933;47.129539699999995;7.2391226;49.92400360107422;1673389864.0647335;-48.44643020629883;1.7006198167800903;-135.68710327148438
283;1673389864.1790347;47.1295266;7.2391046;49.922000885009766;1673389864.2645333;-47.99108123779297;1.6015892028808594;-135.6424102783203
284;1673389864.38056;47.129513499999995;7.239086599999999;49.92100143432617;1673389864.4655192;-47.83565139770508;1.6369110345840454;-135.64088439941406
285;1673389864.5862834;47.1295004;7.2390685999999995;49.922000885009766;1673389864.6688163;-47.91133117675781;1.5549794435501099;-135.63101196289062
286;1673389864.789985;47.129487399999995;7.2390506;49.92500305175781;1673389864.867092;-48.15453338623047;1.4730873107910156;-135.57858276367188
287;1673389864.9857628;47.1294743;7.2390327;49.92900085449219;1673389865.0546634;-48.39042663574219;1.578460931777954;-135.6073455810547
288;1673389865.1794765;47.129461199999994;7.239014699999999;49.93300247192383;1673389865.2629817;-48.296844482421875;1.5792033672332764;-135.56625366210938
289;1673389865.3771608;47.1294481;7.2389966999999995;49.939002990722656;1673389865.4599597;-48.20899200439453;1.5397275686264038;-135.54933166503906
290;1673389865.5781171;47.129435099999995;7.2389788;49.94200134277344;1673389865.6862962;-48.15577697753906;1.5379656553268433;-135.50819396972656
291;1673389865.8017697;47.129422;7.2389608;49.948001861572266;1673389865.884864;-48.18580627441406;1.7863986492156982;-135.55320739746094
292;1673389866.0091121;47.129408999999995;7.238942799999999;49.954002380371094;1673389866.083411;-48.481712341308594;2.410595655441284;-135.60336303710938
293;1673389866.2155092;47.129396;7.2389247;49.95600128173828;1673389866.2948499;-47.89961624145508;1.247776985168457;-135.0906982421875
294;1673389866.408673;47.129382899999996;7.2389066;49.95600128173828;1673389866.5126624;-47.64573669433594;1.2850755453109741;-135.21612548828125
295;1673389866.6587508;47.1293699;7.238888599999999;49.958003997802734;1673389866.7572083;-48.19962692260742;1.7975637912750244;-135.3483428955078
296;1673389866.8768885;47.1293569;7.2388705;49.95900344848633;1673389866.9619687;-48.3120002746582;1.7539865970611572;-135.2281951904297
297;1673389867.047662;47.129343899999995;7.2388524;49.96000289916992;1673389867.1162362;-48.09400177001953;1.6021639108657837;-135.10911560058594
298;1673389867.2360432;47.129331;7.238834199999999;49.9630012512207;1673389867.30507;-48.058345794677734;1.6160718202590942;-135.0672149658203
299;1673389867.4061692;47.1293181;7.238816;49.96800231933594;1673389867.5169852;-48.33481979370117;1.7621163129806519;-135.0676727294922
300;1673389867.6190753;47.1293052;7.2387977999999995;49.97500228881836;1673389867.7172315;-48.58039093017578;1.971517562866211;-135.00975036621094
301;1673389867.8360605;47.129292299999996;7.2387796;49.980003356933594;1673389867.9098973;-48.44475173950195;2.132683277130127;-134.96536254882812
302;1673389868.0204525;47.129279399999994;7.238761299999999;49.98400115966797;1673389868.093663;-48.170494079589844;2.18200945854187;-134.82664489746094
303;1673389868.2046125;47.1292665;7.2387429999999995;49.98500061035156;1673389868.2787979;-48.02405548095703;2.302556037902832;-134.7338409423828
304;1673389868.393722;47.1292537;7.238724599999999;49.98600387573242;1673389868.4746373;-48.058685302734375;2.040144920349121;-134.49913024902344
305;1673389868.583984;47.129241;7.2387061;49.987003326416016;1673389868.6582546;-47.520233154296875;1.9169409275054932;-134.4084014892578
306;1673389868.778345;47.1292283;7.2386875999999996;49.996002197265625;1673389868.865422;-41.42271423339844;1.816689133644104;-134.23635864257812
307;1673389868.9752846;47.1292158;7.2386693;50.02400207519531;1673389869.0520558;-31.970829010009766;1.6815452575683594;-134.4009552001953
308;1673389869.1724448;47.129203999999994;7.2386519;50.053001403808594;1673389869.260855;-19.480300903320312;2.722960948944092;-134.79168701171875
309;1673389869.3913176;47.129193199999996;7.2386361;50.06800079345703;1673389869.4680133;-10.379873275756836;2.2338507175445557;-134.7798614501953
310;1673389869.5788832;47.1291838;7.238622299999999;50.06800079345703;1673389869.649701;-5.7001261711120605;2.314532995223999;-134.8404083251953
311;1673389869.7559116;47.129176099999995;7.238610899999999;50.06300354003906;1673389869.8342056;-3.5834667682647705;1.2142078876495361;-134.91024780273438
312;1673389869.9462261;47.129169999999995;7.2386018;50.05800247192383;1673389870.0298223;-4.154068946838379;0.8842453956604004;-136.35169982910156
313;1673389870.1425729;47.1291653;7.2385946;50.06300354003906;1673389870.2244086;-6.986934185028076;-0.16072821617126465;-138.8038330078125
314;1673389870.3608701;47.1291619;7.238588999999999;50.073001861572266;1673389870.4405966;-9.954476356506348;-0.9449952244758606;-138.43783569335938
315;1673389870.5701602;47.1291593;7.2385848;50.08500289916992;1673389870.6562674;-13.810081481933594;-0.9661254286766052;-136.20188903808594
316;1673389870.7779937;47.1291574;7.2385816;50.092002868652344;1673389870.8665228;-17.827892303466797;-0.01991431973874569;-135.4622802734375
317;1673389870.9863236;47.1291557;7.238579;50.112003326416016;1673389871.0679767;-38.087432861328125;2.074902057647705;-136.9368438720703
318;1673389871.189231;47.129153599999995;7.238575999999999;50.19300079345703;1673389871.2820551;-33.16612243652344;1.6398967504501343;-136.93801879882812
319;1673389871.3910992;47.1291508;7.238572;50.33100128173828;1673389871.4697778;-20.966501235961914;-0.9529125094413757;-136.3773651123047
320;1673389871.600448;47.1291477;7.2385683;50.56500244140625;1673389871.6839755;-30.208614349365234;3.220278739929199;-137.1344757080078
321;1673389871.7979884;47.1291444;7.2385642;50.93600082397461;1673389871.8717604;-57.127201080322266;2.807565212249756;-138.89981079101562
322;1673389872.0002642;47.1291398;7.2385581;51.329002380371094;1673389872.0951178;-54.218692779541016;1.8181447982788086;-136.6177520751953
323;1673389872.252872;47.1291334;7.2385496;51.67500305175781;1673389872.326663;-51.20322799682617;0.018856167793273926;-136.54232788085938
324;1673389872.42991;47.1291259;7.2385395;51.99100112915039;1673389872.5022933;-50.50191879272461;2.0133256912231445;-136.46119689941406
325;1673389872.6196368;47.1291174;7.238528199999999;52.28900146484375;1673389872.6959572;-47.084686279296875;1.7517062425613403;-136.48129272460938
326;1673389872.8130453;47.1291082;7.238516;52.58400344848633;1673389872.8957043;-45.10348129272461;2.20456600189209;-136.6826629638672
327;1673389872.9975293;47.1290985;7.2385031;52.875003814697266;1673389873.0793743;-42.9195556640625;2.1478018760681152;-136.65603637695312
328;1673389873.1947484;47.1290887;7.2384898;53.172000885009766;1673389873.2709284;-41.255306243896484;2.407343864440918;-136.72630310058594
329;1673389873.3863587;47.129078799999995;7.238476299999999;53.47500228881836;1673389873.4695518;-40.05827713012695;2.234217405319214;-136.7080078125
330;1673389873.591335;47.1290688;7.2384626999999995;53.790000915527344;1673389873.6760268;-39.59230422973633;2.2244715690612793;-136.73672485351562
331;1673389873.791606;47.129059;7.2384490999999995;54.11700439453125;1673389873.8849144;-39.346492767333984;1.8991367816925049;-136.74606323242188
332;1673389874.0104246;47.1290492;7.2384355;54.45500183105469;1673389874.089126;-39.26720428466797;1.9934945106506348;-136.81881713867188
333;1673389874.2031348;47.129039399999996;7.2384219;54.80600357055664;1673389874.2784054;-39.31614303588867;1.9152857065200806;-136.81471252441406
334;1673389874.3975754;47.1290297;7.238408499999999;55.1670036315918;1673389874.494098;-39.428367614746094;1.9029031991958618;-136.85011291503906
335;1673389874.6028144;47.129019899999996;7.2383951;55.53200149536133;1673389874.683085;-39.67948532104492;1.8892205953598022;-136.84237670898438
336;1673389874.791659;47.1290103;7.2383818;55.900001525878906;1673389874.8733745;-39.97791290283203;1.780616044998169;-136.8294219970703
337;1673389874.9885168;47.1290008;7.2383685;56.27300262451172;1673389875.0647511;-40.20224380493164;1.675523281097412;-136.83587646484375
338;1673389875.1887143;47.128991199999994;7.2383551;56.65300369262695;1673389875.2649198;-40.099639892578125;1.6120076179504395;-136.84194946289062
339;1673389875.375812;47.128981499999995;7.2383418;57.038002014160156;1673389875.458404;-40.14692687988281;1.5777983665466309;-136.8426971435547
340;1673389875.5859866;47.128971899999996;7.238328399999999;57.42000198364258;1673389875.6656182;-40.127830505371094;1.6352306604385376;-136.88038635253906
341;1673389875.7843502;47.1289623;7.2383150999999994;57.80000305175781;1673389875.8642712;-40.037925720214844;1.5758585929870605;-136.85752868652344
342;1673389875.9807806;47.1289527;7.2383017;58.182003021240234;1673389876.0653782;-40.20683670043945;1.643797755241394;-136.89137268066406
343;1673389876.17787;47.128943;7.2382884;58.56500244140625;1673389876.262478;-40.12236022949219;1.7389628887176514;-136.9127197265625
344;1673389876.3743849;47.1289334;7.2382751;58.94600296020508;1673389876.462846;-40.225215911865234;1.6959017515182495;-136.88270568847656
345;1673389876.6030717;47.128923799999995;7.2382618999999995;59.327003479003906;1673389876.685818;-40.26508331298828;1.6944329738616943;-136.88929748535156
346;1673389876.7989147;47.128914099999996;7.2382485999999995;59.70900344848633;1673389876.875267;-40.276084899902344;1.73131263256073;-136.89361572265625
347;1673389876.9866827;47.128904399999996;7.2382352999999995;60.090003967285156;1673389877.0644512;-40.17192840576172;1.7947189807891846;-136.87745666503906
348;1673389877.1819618;47.128894599999995;7.2382219999999995;60.471004486083984;1673389877.2617092;-40.176292419433594;1.8086392879486084;-136.85292053222656
349;1673389877.3880658;47.128884899999996;7.2382086999999995;60.85000228881836;1673389877.4682503;-40.18107223510742;1.8302500247955322;-136.87916564941406
350;1673389877.5741217;47.1288753;7.2381953999999995;61.23100280761719;1673389877.6592238;-40.25358581542969;1.762985348701477;-136.850830078125
351;1673389877.785531;47.1288656;7.238182;61.61700439453125;1673389877.8651488;-40.31559371948242;1.7163904905319214;-136.88104248046875
352;1673389878.0021033;47.128856;7.238168699999999;62.00300216674805;1673389878.0765226;-40.306175231933594;1.6797492504119873;-136.889892578125
353;1673389878.1923385;47.1288463;7.2381553;62.394004821777344;1673389878.3028157;-40.32572555541992;1.7595425844192505;-136.88731384277344
354;1673389878.3968675;47.1288366;7.238142;62.788002014160156;1673389878.4648337;-40.43115234375;1.6116447448730469;-136.8551025390625
355;1673389878.5699232;47.128827;7.2381287;63.17500305175781;1673389878.6456563;-40.40175247192383;1.6421310901641846;-136.91455078125
356;1673389878.7565002;47.128817299999994;7.2381153;63.557003021240234;1673389878.8370907;-40.51573944091797;1.6553983688354492;-136.88021850585938
357;1673389878.9508767;47.128807699999996;7.238102;63.93700408935547;1673389879.0356724;-40.53964614868164;1.6467303037643433;-136.94528198242188
358;1673389879.1494458;47.128797999999996;7.238088599999999;64.32100677490234;1673389879.2358057;-40.48823928833008;1.5255494117736816;-136.88760375976562
359;1673389879.375981;47.1287883;7.2380752;64.70700073242188;1673389879.459594;-40.45387649536133;1.668134093284607;-136.94715881347656
360;1673389879.5802612;47.1287786;7.2380618;65.09700012207031;1673389879.6671286;-40.51866912841797;1.639808177947998;-136.92538452148438
361;1673389879.8024218;47.128768799999996;7.238048399999999;65.48500061035156;1673389879.8884003;-40.39216232299805;1.7281854152679443;-136.89126586914062
362;1673389880.012912;47.128759099999996;7.238035;65.87000274658203;1673389880.10057;-40.50624084472656;1.533341407775879;-136.8878936767578
363;1673389880.2122607;47.1287494;7.2380217;66.25;1673389880.2905846;-40.52515411376953;1.67611563205719;-136.95944213867188
364;1673389880.4095006;47.128739599999996;7.2380083;66.6300048828125;1673389880.4859185;-40.52058410644531;1.5965297222137451;-136.90013122558594
365;1673389880.5989645;47.128729899999996;7.2379948;67.00700378417969;1673389880.6828566;-40.506046295166016;1.63106107711792;-136.9713897705078
366;1673389880.8008502;47.128720099999995;7.2379814;67.38500213623047;1673389880.8790746;-40.525970458984375;1.6471054553985596;-136.93258666992188
367;1673389880.9940655;47.128710399999996;7.237967899999999;67.76399993896484;1673389881.0694063;-40.57892990112305;1.5567268133163452;-136.94778442382812
368;1673389881.181382;47.128700599999995;7.2379544;68.14700317382812;1673389881.26015;-40.49250793457031;1.6527191400527954;-136.96231079101562
369;1673389881.383788;47.1286908;7.237940999999999;68.5300064086914;1673389881.460444;-40.49489974975586;1.6069163084030151;-136.95501708984375
370;1673389881.5793447;47.128681;7.2379275;68.91300201416016;1673389881.6606216;-40.48147201538086;1.6440905332565308;-136.94430541992188
371;1673389881.7835612;47.1286712;7.237914099999999;69.29600524902344;1673389881.8685064;-40.52511215209961;1.6363130807876587;-136.9515838623047
372;1673389881.9995346;47.1286614;7.2379006;69.6830062866211;1673389882.0747616;-40.42616271972656;1.6412774324417114;-136.97042846679688
373;1673389882.191774;47.1286515;7.2378871;70.07200622558594;1673389882.2703903;-39.15971374511719;1.5165622234344482;-136.91197204589844
374;1673389882.3902652;47.1286418;7.2378737;70.44499969482422;1673389882.4669366;-25.032346725463867;1.765123724937439;-136.6833953857422
375;1673389882.5827544;47.128632599999996;7.237861;70.78400421142578;1673389882.6624322;-22.80706214904785;1.8483788967132568;-136.95742797851562
376;1673389882.7823117;47.1286242;7.2378496;71.08300018310547;1673389882.869973;-18.33759880065918;1.8189232349395752;-136.9226531982422
377;1673389883.0224931;47.128616699999995;7.2378393999999995;71.34000396728516;1673389883.1772392;-15.483696937561035;2.778557538986206;-137.1415252685547
378;1673389883.2598307;47.1286102;7.2378304;71.55599975585938;1673389883.3257773;-13.28774356842041;2.446108818054199;-136.81333923339844
379;1673389883.4190762;47.128604599999996;7.2378228;71.73900604248047;1673389883.4874146;-12.463912963867188;2.6359200477600098;-137.03704833984375
380;1673389883.5857542;47.1286001;7.2378165;71.90400695800781;1673389883.6607268;-12.933677673339844;3.163141965866089;-137.22079467773438
381;1673389883.79061;47.1285964;7.2378113;72.05000305175781;1673389883.8737862;-13.73430347442627;3.609920024871826;-137.55104064941406
382;1673389883.9849403;47.1285935;7.2378070999999995;72.17400360107422;1673389884.089452;-15.377567291259766;3.713876247406006;-137.90347290039062
383;1673389884.1996129;47.1285911;7.2378038;72.29000091552734;1673389884.2807314;-23.141855239868164;16.387712478637695;-135.9678192138672
384;1673389884.3994167;47.128589399999996;7.237800399999999;72.42100524902344;1673389884.4722474;-29.229694366455078;36.0584831237793;-122.78026580810547
385;1673389884.5891771;47.1285891;7.2377953999999995;72.54800415039062;1673389884.6659575;-39.612525939941406;32.78777313232422;-111.56148529052734
386;1673389884.796807;47.1285909;7.2377880999999995;72.64900207519531;1673389884.8847086;-40.317813873291016;18.8375186920166;-100.61920928955078
387;1673389885.0140703;47.128594299999996;7.237779;72.7280044555664;1673389885.0891948;-33.525142669677734;7.590936183929443;-91.1969985961914
388;1673389885.2079475;47.128598499999995;7.2377689;72.78600311279297;1673389885.2919114;-32.83200454711914;-1.136616587638855;-82.78646850585938
389;1673389885.4028594;47.128603299999995;7.237758299999999;72.83000183105469;1673389885.4884603;-33.08186340332031;-3.6622729301452637;-74.41746520996094
390;1673389885.600368;47.1286085;7.2377473;72.86500549316406;1673389885.677063;-44.34589385986328;1.0558700561523438;-65.07241821289062
391;1673389885.789423;47.1286148;7.2377353;72.91200256347656;1673389885.8726285;-56.052276611328125;0.3790755569934845;-54.83587646484375
392;1673389885.9983902;47.1286231;7.2377215999999995;72.9540023803711;1673389886.0861812;-61.88200378417969;-2.654576063156128;-46.276710510253906
393;1673389886.2039883;47.128634;7.2377061;72.96700286865234;1673389886.2887022;-55.4714469909668;-7.240194797515869;-41.89227294921875
394;1673389886.4073703;47.128647199999996;7.2376891;72.96400451660156;1673389886.481345;-52.23506546020508;-8.339737892150879;-44.41758346557617
395;1673389886.597745;47.1286619;7.2376708999999995;72.97100067138672;1673389886.6756883;-54.533546447753906;-10.862360000610352;-46.997188568115234
396;1673389886.7943428;47.128677599999996;7.2376513;72.97300720214844;1673389886.875055;-55.50475311279297;-12.640191078186035;-47.938045501708984
397;1673389887.0008347;47.1286942;7.2376302;72.97200012207031;1673389887.0844238;-53.982391357421875;-12.28386402130127;-48.6689567565918
398;1673389887.208266;47.1287112;7.2376077;72.96100616455078;1673389887.281602;-52.004302978515625;-11.631967544555664;-49.13071823120117
399;1673389887.3974383;47.1287284;7.2375845;72.89200592041016;1673389887.4744873;-30.486343383789062;-5.665546417236328;-52.8763542175293
400;1673389887.605692;47.128745599999995;7.2375615;72.52000427246094;1673389887.68801;13.87034797668457;1.7050336599349976;-54.09226989746094
401;1673389887.8127148;47.1287625;7.2375389;71.76200103759766;1673389887.89947;74.78278350830078;29.27962303161621;-32.510047912597656
402;1673389888.006159;47.1287794;7.2375162;70.58100128173828;1673389888.097627;46.726951599121094;174.45774841308594;108.2411880493164
403;1673389888.1942697;47.1287963;7.2374936;69.05400085449219;1673389888.2702684;16.618024826049805;-179.30242919921875;112.07662200927734
404;1673389888.3893878;47.128813099999995;7.2374715;67.17100524902344;1673389888.4784787;13.551337242126465;-176.7851104736328;115.6500015258789
405;1673389888.5924706;47.1288297;7.237450099999999;64.90900421142578;1673389888.6705563;37.248023986816406;-170.0923309326172;124.91410064697266
406;1673389888.7934475;47.1288461;7.237429199999999;62.28300476074219;1673389888.8794677;73.00131225585938;-74.83311462402344;-143.96316528320312
407;1673389888.9964135;47.1288625;7.2374084;59.31300354003906;1673389889.074803;10.236425399780273;-2.388963222503662;-85.35344696044922
408;1673389889.200495;47.1288789;7.2373875;55.93800354003906;1673389889.2857552;-46.8369140625;16.723979949951172;-85.1813735961914
409;1673389889.401729;47.128895;7.237367399999999;52.17100143432617;1673389889.4860246;-67.96772003173828;23.285985946655273;-84.6244888305664
410;1673389889.6124556;47.128910999999995;7.2373476;48.0880012512207;1673389889.6900232;-46.48675537109375;4.388876914978027;-62.553131103515625
411;1673389889.7947462;47.128926799999995;7.2373284;43.685001373291016;1673389889.8715959;16.941082000732422;-0.0675344467163086;-52.17618942260742
412;1673389889.9835608;47.1289424;7.2373097;38.89200210571289;1673389890.0609684;80.30532836914062;47.84159469604492;-2.342073440551758
413;1673389890.1746507;47.1289582;7.2372907;33.73400115966797;1673389890.2547915;65.13399505615234;145.08712768554688;95.09320831298828
414;1673389890.3697948;47.128974;7.237272;28.282001495361328;1673389890.4496212;67.31490325927734;71.62287902832031;23.965810775756836
415;1673389890.5684934;47.1289896;7.237253399999999;22.52800178527832;1673389890.6585715;10.358610153198242;13.399807929992676;-27.648054122924805
416;1673389890.783679;47.1290055;7.237234699999999;16.405000686645508;1673389890.8866112;-50.20941162109375;-8.936651229858398;-25.543502807617188
417;1673389891.000515;47.129020999999995;7.2372165;9.92400074005127;1673389891.0775547;-58.76090621948242;-18.853778839111328;-17.834333419799805
418;1673389891.1896946;47.129036299999996;7.2371991;3.1540000438690186;1673389891.2736099;-19.188074111938477;3.4544906616210938;-24.152435302734375
