;pos_time;latitude;longitude;altitude;alt_time;pitch;roll;yaw
0;1673390826.7926707;47.1306424;7.2406201;-0.01900000125169754;1673390826.8287828;-0.024080350995063782;-0.4406454861164093;90.59027099609375
1;1673390826.993214;47.1306424;7.2406201999999995;-0.017000000923871994;1673390827.0381105;-0.07921275496482849;-0.003134672762826085;90.46859741210938
2;1673390827.2052643;47.1306424;7.2406201999999995;-0.017000000923871994;1673390827.2472534;-0.14834558963775635;-0.2855309247970581;90.52254486083984
3;1673390827.4105752;47.1306424;7.2406201999999995;-0.018000001087784767;1673390827.4535193;-0.1958729326725006;-0.09240987151861191;90.56877899169922
4;1673390827.6199348;47.1306424;7.2406201999999995;-0.015000000596046448;1673390827.658036;-0.2939281761646271;-0.11488338559865952;90.42036437988281
5;1673390827.8396113;47.1306424;7.2406201999999995;-0.013000000268220901;1673390827.873782;-0.1361791044473648;-0.3270657956600189;90.57594299316406
6;1673390828.0095892;47.1306424;7.2406201999999995;-0.015000000596046448;1673390828.0536182;-0.21671392023563385;-0.10898364335298538;90.4703598022461
7;1673390828.210083;47.1306425;7.2406201999999995;-0.017000000923871994;1673390828.2521896;-0.21457116305828094;-0.1486416757106781;90.3881607055664
8;1673390828.4028869;47.1306425;7.2406201999999995;-0.020000001415610313;1673390828.4626157;0.026459679007530212;-0.20839090645313263;90.4057388305664
9;1673390828.6033108;47.1306425;7.2406203;-0.024000000208616257;1673390828.6385314;0.051207318902015686;-0.21467091143131256;90.53570556640625
10;1673390828.8075547;47.1306424;7.2406203;-0.026000000536441803;1673390828.8485963;-0.2624841630458832;-0.09458017349243164;90.57136535644531
11;1673390828.9885404;47.1306424;7.2406201999999995;-0.026000000536441803;1673390829.0295334;-0.33598482608795166;-0.17468836903572083;90.49636840820312
12;1673390829.1897585;47.1306424;7.2406201999999995;-0.026000000536441803;1673390829.2387028;-0.03883354738354683;-0.18703457713127136;90.46012115478516
13;1673390829.4036052;47.1306424;7.2406201999999995;-0.024000000208616257;1673390829.444598;-0.1637442708015442;-0.17536574602127075;90.43453216552734
14;1673390829.594078;47.1306425;7.2406201999999995;0.0;1673390829.635067;-0.06748174130916595;-1.0260281562805176;90.40789794921875
15;1673390829.7893872;47.1306425;7.2406201999999995;0.0;1673390829.8330579;-0.2390170395374298;-0.7853958606719971;90.48453521728516
16;1673390830.0037382;47.1306425;7.2406201;0.0010000000474974513;1673390830.0457058;-0.09968353807926178;-0.8844233751296997;90.52141571044922
17;1673390830.20144;47.1306425;7.2406201;0.004000000189989805;1673390830.249265;-0.21337369084358215;-0.8341141939163208;90.52714538574219
18;1673390830.3824933;47.1306425;7.24062;0.007000000216066837;1673390830.4195707;-0.07433462142944336;-0.5989075303077698;90.45780944824219
19;1673390830.5686176;47.1306425;7.24062;0.009000000543892384;1673390830.6077425;0.024379238486289978;-1.1027966737747192;90.32789611816406
20;1673390830.7546518;47.1306425;7.24062;0.010000000707805157;1673390830.7965882;0.3015493154525757;-1.3248273134231567;90.58223724365234
21;1673390830.9575758;47.1306425;7.2406198999999996;0.00800000037997961;1673390831.001696;0.10934492945671082;-1.1675434112548828;90.35694885253906
22;1673390831.1625364;47.1306425;7.2406198999999996;-0.0010000000474974513;1673390831.2056978;0.16897252202033997;-1.0108479261398315;90.38897705078125
23;1673390831.3676472;47.1306425;7.240619799999999;-0.0020000000949949026;1673390831.4137614;0.10181917250156403;-1.0239108800888062;90.27611541748047
24;1673390831.5815551;47.1306424;7.2406197;-0.0020000000949949026;1673390831.6196406;0.22405453026294708;-0.5222675204277039;90.41708374023438
25;1673390831.7826164;47.1306424;7.2406197;0.0;1673390831.8197565;0.17610909044742584;-0.4955597519874573;90.10639190673828
26;1673390831.964693;47.1306424;7.2406196;-0.003000000026077032;1673390832.006642;0.384543776512146;-0.45662379264831543;90.01893615722656
27;1673390832.1556723;47.1306425;7.2406196;-0.0010000000474974513;1673390832.1965919;0.31294530630111694;-0.739385187625885;90.06027221679688
28;1673390832.353769;47.130642599999995;7.2406196;0.0020000000949949026;1673390832.3997037;0.20407283306121826;-0.8968498110771179;89.73524475097656
29;1673390832.5642176;47.130642599999995;7.2406196;0.007000000216066837;1673390832.6074758;0.15729758143424988;-0.556982696056366;89.03623962402344
30;1673390832.7867508;47.1306428;7.2406196;0.015000000596046448;1673390832.8287365;0.26338204741477966;-0.6395639777183533;87.29210662841797
31;1673390832.9895809;47.1306431;7.2406194;0.021000001579523087;1673390833.0315623;-1.204748511314392;0.6397801041603088;86.2989273071289
32;1673390833.1903155;47.1306435;7.240618899999999;0.039000000804662704;1673390833.2337413;-3.701859951019287;3.5854499340057373;88.98020935058594
33;1673390833.3867774;47.130644;7.2406182;0.06100000441074371;1673390833.4267561;-7.741701602935791;7.576028347015381;89.75334167480469
34;1673390833.5936651;47.1306446;7.240617299999999;0.08400000631809235;1673390833.6295905;-11.93195915222168;12.182287216186523;89.37578582763672
35;1673390833.7794962;47.1306453;7.2406163;0.11400000751018524;1673390833.8318644;-12.6954984664917;14.495441436767578;88.83332061767578
36;1673390833.9938366;47.1306459;7.2406153;0.1550000011920929;1673390834.0325654;-13.611671447753906;14.289447784423828;88.70246887207031
37;1673390834.1777265;47.130646299999995;7.240614399999999;0.20800000429153442;1673390834.2336915;-15.55681324005127;13.950536727905273;88.65316772460938
38;1673390834.394618;47.1306465;7.2406136;0.27800002694129944;1673390834.4395447;-16.367244720458984;16.489295959472656;88.26290893554688
39;1673390834.609071;47.130646399999996;7.2406131;0.3660000264644623;1673390834.6496434;-17.488319396972656;18.677597045898438;87.83711242675781
40;1673390834.7942927;47.1306461;7.2406131;0.4690000116825104;1673390834.8383286;-18.916616439819336;14.900961875915527;88.2143325805664
41;1673390834.985786;47.1306456;7.240613499999999;0.5800000429153442;1673390835.0277545;-17.653650283813477;13.132180213928223;88.46735382080078
42;1673390835.1878529;47.130645;7.240614399999999;0.7000000476837158;1673390835.23089;-16.02651596069336;16.817699432373047;87.67254638671875
43;1673390835.406486;47.1306444;7.2406155;0.8300000429153442;1673390835.449611;-14.224089622497559;13.074357986450195;88.10254669189453
44;1673390835.6059415;47.1306438;7.2406166;0.9700000286102295;1673390835.6449811;-13.39134693145752;10.366898536682129;88.35134887695312
45;1673390835.7946749;47.1306434;7.240617599999999;1.1260000467300415;1673390835.837683;-11.84913158416748;14.379046440124512;87.36529541015625
46;1673390835.9999266;47.1306431;7.2406185;1.2970000505447388;1673390836.0488358;-10.968398094177246;12.831337928771973;87.41270446777344
47;1673390836.209021;47.130642699999996;7.2406191;1.4780000448226929;1673390836.2570357;-10.989109992980957;9.274201393127441;88.08042907714844
48;1673390836.4000528;47.1306425;7.240619499999999;1.6720000505447388;1673390836.4420252;-10.700444221496582;13.958468437194824;83.78829956054688
49;1673390836.602259;47.1306423;7.2406196;1.8700001239776611;1673390836.6472952;-11.011419296264648;13.976557731628418;84.14850616455078
50;1673390836.809203;47.1306423;7.2406196;2.072000026702881;1673390836.8472822;-11.926024436950684;10.277456283569336;85.12984466552734
51;1673390836.9899645;47.1306423;7.2406194;2.2730000019073486;1673390837.0309572;-12.459303855895996;13.044877052307129;84.76422119140625
52;1673390837.1973133;47.1306425;7.2406193;2.4750001430511475;1673390837.2403882;-12.519331932067871;15.944580078125;84.19696807861328
53;1673390837.3904505;47.1306425;7.2406191;2.677000045776367;1673390837.4334729;-13.272465705871582;11.551593780517578;85.0249252319336
54;1673390837.6045604;47.130642599999995;7.240619;2.878000020980835;1673390837.6494958;-13.515632629394531;12.791905403137207;85.23436737060547
55;1673390837.8078208;47.130642599999995;7.240618899999999;3.075000047683716;1673390837.8490007;-13.363751411437988;15.972049713134766;84.61372375488281
56;1673390838.0082774;47.130642599999995;7.240619;3.2730002403259277;1673390838.048356;-13.325894355773926;13.676674842834473;84.83455657958984
57;1673390838.198457;47.1306428;7.2406191;3.4730000495910645;1673390838.240675;-13.429998397827148;12.696829795837402;85.25040435791016
58;1673390838.3987412;47.1306429;7.2406193;3.6690001487731934;1673390838.4417078;-12.706918716430664;16.990856170654297;84.72290802001953
59;1673390838.6003904;47.1306429;7.2406196;3.8610002994537354;1673390838.6414378;-12.31375503540039;14.259029388427734;85.10466766357422
60;1673390838.7998896;47.1306428;7.240619799999999;4.050000190734863;1673390838.83901;-12.556550025939941;11.703862190246582;85.23045349121094
61;1673390838.9943573;47.130642699999996;7.2406198999999996;4.240000247955322;1673390839.0392585;-12.319419860839844;15.30273723602295;84.5386962890625
62;1673390839.2005088;47.130642699999996;7.24062;4.434000015258789;1673390839.2484796;-11.817352294921875;15.288501739501953;84.4236831665039
63;1673390839.4089453;47.130642699999996;7.2406201;4.633000373840332;1673390839.4539192;-12.221453666687012;11.9151611328125;85.36676788330078
64;1673390839.6092315;47.1306428;7.2406201999999995;4.837000370025635;1673390839.650222;-12.286884307861328;14.213278770446777;84.98013305664062
65;1673390839.8045895;47.1306429;7.2406201;5.044000148773193;1673390839.845575;-12.167057991027832;17.24021339416504;84.48502349853516
66;1673390840.00039;47.1306429;7.2406201;5.25100040435791;1673390840.0493162;-12.602828025817871;12.447526931762695;85.0982437133789
67;1673390840.1967273;47.1306428;7.24062;5.453000068664551;1673390840.2358906;-13.057723999023438;12.943995475769043;85.10525512695312
68;1673390840.3997123;47.1306428;7.2406198999999996;5.654000282287598;1673390840.440709;-12.629137992858887;16.147966384887695;84.52103424072266
69;1673390840.6014972;47.130642699999996;7.2406198999999996;5.8510003089904785;1673390840.6415088;-12.689270973205566;14.641440391540527;84.62508392333984
70;1673390840.8065581;47.130642699999996;7.2406198999999996;6.048000335693359;1673390840.8543897;-12.965081214904785;11.907694816589355;85.39315032958984
71;1673390841.004765;47.1306428;7.2406198999999996;6.250000476837158;1673390841.0458128;-12.77314281463623;16.049161911010742;84.55516052246094
72;1673390841.1980886;47.1306428;7.24062;6.448000431060791;1673390841.2400997;-12.239749908447266;15.313075065612793;84.52748107910156
73;1673390841.3911915;47.1306428;7.24062;6.64400053024292;1673390841.4331613;-12.914972305297852;11.555191993713379;85.25674438476562
74;1673390841.596105;47.130642699999996;7.2406201;6.838000297546387;1673390841.6391737;-12.721935272216797;14.22819709777832;84.92668914794922
75;1673390841.804463;47.130642599999995;7.2406201999999995;7.0360002517700195;1673390841.8416371;-12.108010292053223;15.279068946838379;84.5899658203125
76;1673390841.993205;47.130642699999996;7.2406201999999995;7.2360005378723145;1673390842.0381029;-12.431562423706055;12.048324584960938;85.24373626708984
77;1673390842.202465;47.1306428;7.2406203;7.434000492095947;1673390842.2455363;-12.50039291381836;13.753931999206543;84.91606140136719
78;1673390842.3982377;47.1306429;7.2406204;7.630000591278076;1673390842.4421556;-12.0250244140625;17.248737335205078;84.42589569091797
79;1673390842.601738;47.1306429;7.2406204;7.827000141143799;1673390842.6475635;-12.231410026550293;12.407917022705078;85.17862701416016
80;1673390842.8147538;47.1306429;7.2406204999999995;8.026000022888184;1673390842.8618517;-12.537415504455566;13.452322959899902;84.90287017822266
81;1673390843.020291;47.1306429;7.2406204;8.22700023651123;1673390843.0671854;-12.25165843963623;16.646102905273438;84.50958251953125
82;1673390843.206167;47.1306429;7.2406204;8.429000854492188;1673390843.247166;-12.237215995788574;13.69941520690918;84.94304656982422
83;1673390843.4064245;47.1306429;7.2406204;8.631000518798828;1673390843.4495316;-12.635741233825684;12.304394721984863;85.24825286865234
84;1673390843.6067677;47.130643;7.2406204;8.832000732421875;1673390843.6526408;-12.374957084655762;16.678680419921875;84.64147186279297
85;1673390843.796318;47.130643;7.2406204;9.028000831604004;1673390843.8353705;-12.25635051727295;15.026135444641113;84.88658142089844
86;1673390844.007333;47.1306429;7.2406204;9.223000526428223;1673390844.048325;-12.593539237976074;11.808808326721191;85.14463806152344
87;1673390844.1979096;47.1306428;7.2406204;9.418000221252441;1673390844.2418275;-12.572928428649902;15.11716079711914;84.6167984008789
88;1673390844.3992074;47.1306428;7.2406204;9.613000869750977;1673390844.4412549;-12.238981246948242;15.710525512695312;84.54944610595703
89;1673390844.6017437;47.1306429;7.2406204;9.809000015258789;1673390844.6446915;-12.599878311157227;12.242426872253418;85.2966537475586
90;1673390844.7934518;47.130643;7.2406204;10.006000518798828;1673390844.8374324;-12.487749099731445;14.177163124084473;84.92621612548828
91;1673390844.9977896;47.1306431;7.2406204999999995;10.21500015258789;1673390845.0407827;-11.816170692443848;16.198759078979492;84.502197265625
92;1673390845.2019749;47.130643;7.2406206;10.51200008392334;1673390845.2461731;-13.24164867401123;14.104146003723145;85.17499542236328
93;1673390845.4087603;47.130642699999996;7.2406209;10.885000228881836;1673390845.4490802;-13.809070587158203;14.308307647705078;85.48846435546875
94;1673390845.6027546;47.1306423;7.2406212;11.272000312805176;1673390845.6462884;-11.933259010314941;15.649483680725098;84.76305389404297
95;1673390845.8285007;47.130641999999995;7.2406216;11.664000511169434;1673390845.8675272;-11.338959693908691;14.35474681854248;84.42291259765625
96;1673390846.0241091;47.1306418;7.240622;12.062000274658203;1673390846.062402;-11.049399375915527;10.406668663024902;85.23654174804688
97;1673390846.2203405;47.1306417;7.2406222;12.464000701904297;1673390846.263269;-10.652408599853516;12.877008438110352;84.65585327148438
98;1673390846.4139636;47.1306417;7.2406223;12.867000579833984;1673390846.4530187;-10.404643058776855;14.711536407470703;84.47000885009766
99;1673390846.6181371;47.1306417;7.2406222;13.268000602722168;1673390846.6622486;-10.890923500061035;10.929372787475586;85.16618347167969
100;1673390846.8215015;47.1306418;7.240622;13.670001029968262;1673390846.8615296;-11.52251148223877;12.42362117767334;84.9873046875
101;1673390847.0043921;47.1306419;7.240621699999999;14.077000617980957;1673390847.0492997;-11.557522773742676;15.771060943603516;84.52803802490234
102;1673390847.2105844;47.130641999999995;7.2406215;14.484001159667969;1673390847.2566597;-11.84854793548584;13.040201187133789;84.94967651367188
103;1673390847.4129653;47.1306422;7.2406213;14.894001007080078;1673390847.4578993;-12.354305267333984;12.624133110046387;85.21160125732422
104;1673390847.6239896;47.1306423;7.2406212;15.304000854492188;1673390847.661079;-11.830498695373535;16.505542755126953;84.49832153320312
105;1673390847.8083823;47.1306424;7.240621099999999;15.712000846862793;1673390847.8503876;-12.282575607299805;14.884798049926758;84.78349304199219
106;1673390848.0116348;47.1306424;7.240621;16.117000579833984;1673390848.05165;-12.383255958557129;11.800804138183594;85.3438949584961
107;1673390848.208168;47.1306423;7.240621;16.522001266479492;1673390848.2530334;-12.275206565856934;15.054899215698242;84.73564147949219
108;1673390848.3983285;47.1306422;7.240621;16.931001663208008;1673390848.4461532;-11.937729835510254;15.25858211517334;84.69584655761719
109;1673390848.612115;47.1306422;7.240621;17.34400177001953;1673390848.6571672;-12.08608341217041;11.970196723937988;85.26521301269531
110;1673390848.8465211;47.1306422;7.240621;17.76300048828125;1673390848.8875659;-11.932173728942871;13.321661949157715;84.98983001708984
111;1673390849.0302029;47.1306423;7.240621;18.177000045776367;1673390849.0741172;-11.46876335144043;16.257183074951172;84.49813079833984
112;1673390849.22928;47.1306423;7.240621;18.58100128173828;1673390849.272413;-11.713589668273926;12.550365447998047;85.06163024902344
113;1673390849.428721;47.1306423;7.240621;18.987001419067383;1673390849.4708881;-12.099041938781738;12.504105567932129;85.18751525878906
114;1673390849.6274424;47.1306423;7.2406209;19.398000717163086;1673390849.668549;-11.61872386932373;16.1638126373291;84.5291519165039
115;1673390849.8215208;47.1306423;7.2406209;19.80500030517578;1673390849.8605413;-11.66158390045166;13.697319030761719;84.80040740966797
116;1673390850.0150402;47.1306423;7.240620799999999;20.21200180053711;1673390850.05808;-12.202898025512695;11.927310943603516;85.37422943115234
117;1673390850.2136674;47.1306424;7.2406207;20.621000289916992;1673390850.2627134;-11.688885688781738;15.270978927612305;84.63359069824219
118;1673390850.4191344;47.1306424;7.2406207;21.02800178527832;1673390850.4632902;-11.70032024383545;15.529070854187012;84.61640167236328
119;1673390850.6295369;47.1306424;7.2406207;21.429000854492188;1673390850.674433;-12.158644676208496;11.457405090332031;85.286376953125
120;1673390850.8335264;47.1306424;7.2406206;21.830001831054688;1673390850.87377;-12.119586944580078;14.3403959274292;84.81492614746094
121;1673390851.0183833;47.1306423;7.2406204999999995;22.23200035095215;1673390851.0594127;-12.00284194946289;15.665567398071289;84.48914337158203
122;1673390851.20407;47.1306423;7.2406203;22.635000228881836;1673390851.2421486;-12.260167121887207;12.395849227905273;85.12553405761719
123;1673390851.407306;47.1306424;7.2406203;23.03900146484375;1673390851.4561067;-12.495363235473633;13.003402709960938;85.22264099121094
124;1673390851.614705;47.130642599999995;7.2406201999999995;23.44500160217285;1673390851.6586266;-11.875988006591797;16.654911041259766;84.55648040771484
125;1673390851.8268914;47.130642599999995;7.2406201999999995;23.847002029418945;1673390851.8688593;-12.006402015686035;13.341938972473145;85.0599365234375
126;1673390852.046815;47.130642599999995;7.2406203;24.246000289916992;1673390852.0868433;-12.079601287841797;12.691903114318848;85.18964385986328
127;1673390852.2247608;47.130642599999995;7.2406203;24.6460018157959;1673390852.2579598;-11.772950172424316;16.53777313232422;84.56981658935547
128;1673390852.398857;47.1306425;7.2406203;25.04800033569336;1673390852.4397812;-11.748888969421387;14.126618385314941;84.7564926147461
129;1673390852.6080942;47.1306425;7.2406203;25.453001022338867;1673390852.6492496;-12.13319206237793;12.343867301940918;85.16817474365234
130;1673390852.8470242;47.130642599999995;7.2406203;25.860000610351562;1673390852.8940582;-11.707796096801758;15.334784507751465;84.57235717773438
131;1673390853.0530744;47.130642599999995;7.2406203;26.26500129699707;1673390853.0872397;-11.576458930969238;16.142976760864258;84.5377197265625
132;1673390853.222122;47.1306425;7.2406201999999995;26.66400146484375;1673390853.2602282;-12.058039665222168;11.454826354980469;85.37894439697266
133;1673390853.4168303;47.1306425;7.2406201999999995;27.06300163269043;1673390853.4560084;-12.1522855758667;13.868523597717285;84.95060729980469
134;1673390853.6191752;47.1306424;7.2406201999999995;27.466001510620117;1673390853.6611428;-11.721089363098145;16.043228149414062;84.60115051269531
135;1673390853.8201375;47.1306423;7.2406201;27.871002197265625;1673390853.8660574;-12.003811836242676;12.603326797485352;84.9189224243164
136;1673390854.0109308;47.1306424;7.2406201;28.275001525878906;1673390854.0538757;-12.384146690368652;12.806107521057129;85.1080093383789
137;1673390854.2075782;47.1306425;7.2406201;28.677001953125;1673390854.2534835;-11.679323196411133;16.40249252319336;84.5509033203125
138;1673390854.410176;47.1306425;7.2406201;29.07200050354004;1673390854.449215;-11.856475830078125;14.925371170043945;84.86322021484375
139;1673390854.6075072;47.130642599999995;7.2406201;29.468002319335938;1673390854.6495156;-12.036953926086426;12.241615295410156;85.3504867553711
140;1673390854.8136683;47.130642599999995;7.2406201;29.867000579833984;1673390854.8575888;-12.186206817626953;14.984726905822754;84.85198974609375
141;1673390854.9977968;47.1306425;7.2406201;30.26700210571289;1673390855.0389798;-11.641315460205078;16.195817947387695;84.49530792236328
142;1673390855.198037;47.1306425;7.2406201;30.667001724243164;1673390855.240594;-12.061758041381836;12.65441608428955;84.97928619384766
143;1673390855.4066632;47.1306425;7.24062;31.067001342773438;1673390855.4496;-12.455633163452148;13.432514190673828;85.0459213256836
144;1673390855.6070507;47.1306425;7.24062;31.470001220703125;1673390855.6499922;-11.851532936096191;16.29111671447754;84.53610229492188
145;1673390855.8054383;47.1306425;7.2406201;31.871002197265625;1673390855.8483925;-11.922602653503418;13.815197944641113;84.95933532714844
146;1673390856.0066066;47.1306425;7.2406201;32.268001556396484;1673390856.0544372;-12.144710540771484;12.35266399383545;85.228759765625
147;1673390856.2116728;47.1306425;7.2406201;32.66600036621094;1673390856.2565672;-11.903355598449707;16.165485382080078;84.65278625488281
148;1673390856.414024;47.1306424;7.2406201999999995;33.06500244140625;1673390856.4571266;-11.711407661437988;14.715875625610352;84.67915344238281
149;1673390856.6387103;47.1306424;7.2406201999999995;33.46800231933594;1673390856.6798413;-12.171804428100586;11.954952239990234;85.15396118164062
150;1673390856.8263755;47.1306424;7.2406201999999995;33.87200164794922;1673390856.866508;-11.900518417358398;14.663832664489746;84.71896362304688
151;1673390857.0170767;47.1306425;7.2406201999999995;34.272003173828125;1673390857.0590487;-11.546051979064941;16.504812240600586;84.56538391113281
152;1673390857.2144732;47.130642599999995;7.2406203;34.67100143432617;1673390857.2574334;-11.979985237121582;12.361324310302734;85.26140594482422
153;1673390857.4095285;47.130642699999996;7.2406203;35.07400131225586;1673390857.4534497;-12.063711166381836;13.77366828918457;85.0288314819336
154;1673390857.6470313;47.130642699999996;7.2406203;35.47600173950195;1673390857.6852043;-11.705869674682617;16.89369773864746;84.5573501586914
155;1673390857.861678;47.130642599999995;7.2406203;35.875;1673390857.9009156;-11.751057624816895;13.653834342956543;84.96218872070312
156;1673390858.072388;47.130642599999995;7.2406203;36.2760009765625;1673390858.113031;-12.15757942199707;12.790753364562988;85.18086242675781
157;1673390858.2728949;47.130642699999996;7.2406203;36.677001953125;1673390858.309725;-11.76378059387207;16.362377166748047;84.3414535522461
158;1673390858.436794;47.130642699999996;7.2406203;37.07200241088867;1673390858.4751015;-11.62342357635498;15.463451385498047;84.68729400634766
159;1673390858.633641;47.130642699999996;7.2406203;37.46500015258789;1673390858.6795006;-12.170268058776855;12.080410957336426;85.34709167480469
160;1673390858.8172996;47.130642699999996;7.2406203;37.8640022277832;1673390858.8563747;-12.037169456481934;15.297662734985352;84.90914916992188
161;1673390859.0461524;47.130642699999996;7.2406203;38.262001037597656;1673390859.0892644;-11.568779945373535;15.917143821716309;84.53819274902344
162;1673390859.2508838;47.130642599999995;7.2406204;38.659000396728516;1673390859.2880123;-11.85598373413086;11.98263168334961;85.13520050048828
163;1673390859.43656;47.1306425;7.2406204;39.057003021240234;1673390859.477615;-11.915765762329102;14.276183128356934;84.89942169189453
164;1673390859.646639;47.130642599999995;7.2406204;39.45100021362305;1673390859.6886232;-11.491601943969727;16.441322326660156;84.49764251708984
165;1673390859.8491335;47.130642599999995;7.2406204;39.845001220703125;1673390859.8959832;-11.719701766967773;13.536274909973145;85.04993438720703
166;1673390860.0872166;47.130642599999995;7.2406204;40.246002197265625;1673390860.1254056;-12.049317359924316;13.003290176391602;85.22882843017578
167;1673390860.2980094;47.130642599999995;7.2406203;40.64800262451172;1673390860.342145;-11.804776191711426;16.975656509399414;84.5905532836914
168;1673390860.4982083;47.130642599999995;7.2406203;41.05000305175781;1673390860.529046;-11.778499603271484;14.466750144958496;84.88497161865234
169;1673390860.681248;47.1306425;7.2406203;41.4530029296875;1673390860.7160115;-12.16682243347168;12.370674133300781;85.16084289550781
170;1673390860.838746;47.1306425;7.2406201999999995;41.858001708984375;1673390860.876803;-11.815757751464844;15.635902404785156;84.6651382446289
171;1673390861.0333028;47.130642599999995;7.2406201999999995;42.255001068115234;1673390861.082267;-11.448648452758789;15.92026138305664;84.59778594970703
172;1673390861.2426505;47.130642599999995;7.2406201999999995;42.652000427246094;1673390861.2807155;-12.183335304260254;12.352002143859863;85.14544677734375
173;1673390861.4304018;47.130642599999995;7.2406201999999995;43.05500030517578;1673390861.4792066;-12.067051887512207;14.422017097473145;84.86221313476562
174;1673390861.6452818;47.130642599999995;7.2406201999999995;43.45500183105469;1673390861.6855536;-11.67072582244873;16.627870559692383;84.6035385131836
175;1673390861.8531086;47.1306425;7.2406201;43.85400390625;1673390861.8980646;-11.98226261138916;12.517045021057129;85.15668487548828
176;1673390862.0570579;47.1306425;7.2406201;44.25200271606445;1673390862.0978727;-12.266587257385254;13.493677139282227;85.06439971923828
177;1673390862.250829;47.1306425;7.2406201;44.64600372314453;1673390862.2840452;-11.639159202575684;16.550771713256836;84.47868347167969
178;1673390862.4244826;47.130642599999995;7.2406201;45.040000915527344;1673390862.4625776;-11.713385581970215;14.898540496826172;84.81905364990234
179;1673390862.635656;47.130642599999995;7.2406201;45.44000244140625;1673390862.6737206;-12.097137451171875;12.548011779785156;85.23550415039062
180;1673390862.826362;47.130642699999996;7.2406201;45.84100341796875;1673390862.871252;-11.899389266967773;16.621896743774414;84.55262756347656
181;1673390863.0325527;47.130642599999995;7.2406201;46.242000579833984;1673390863.0735445;-11.722098350524902;15.136569023132324;84.64236450195312
182;1673390863.2228441;47.1306425;7.2406201;46.64400100708008;1673390863.2677586;-12.146306991577148;12.606247901916504;85.14820098876953
183;1673390863.4252295;47.130642599999995;7.2406201;47.04600143432617;1673390863.4771945;-12.051225662231445;14.959187507629395;84.93668365478516
184;1673390863.630987;47.130642599999995;7.2406201;47.44200134277344;1673390863.664704;-11.498977661132812;16.355276107788086;84.50252532958984
185;1673390863.8096228;47.130642599999995;7.2406201;47.833003997802734;1673390863.8513174;-11.980057716369629;12.823567390441895;85.04283905029297
186;1673390864.0041409;47.130642699999996;7.24062;48.21000289916992;1673390864.052111;-12.292258262634277;15.239855766296387;84.99026489257812
187;1673390864.2341466;47.130642699999996;7.24062;48.5410041809082;1673390864.2800188;-11.864859580993652;17.2262020111084;84.87051391601562
188;1673390864.4324603;47.130642699999996;7.240619799999999;48.823001861572266;1673390864.473526;-12.060818672180176;13.143899917602539;85.18081665039062
189;1673390864.6230607;47.130642699999996;7.2406197;49.06200408935547;1673390864.6652055;-12.556944847106934;13.569947242736816;85.13700103759766
190;1673390864.8205578;47.1306429;7.2406194;49.25600051879883;1673390864.8654885;-11.923651695251465;17.028095245361328;84.51412200927734
191;1673390865.0491533;47.130643;7.2406191;49.41800308227539;1673390865.0911846;3.5948991775512695;30.10658073425293;91.7941665649414
192;1673390865.2576385;47.1306425;7.2406175;49.56900405883789;1673390865.3426876;13.7470121383667;45.41060256958008;105.05360412597656
193;1673390865.4750965;47.1306404;7.240613199999999;49.698001861572266;1673390865.51709;14.349075317382812;56.54042053222656;114.69419860839844
194;1673390865.6616354;47.130635899999994;7.2406049999999995;49.78700256347656;1673390865.6977546;0.9654621481895447;59.486873626708984;122.1213150024414
195;1673390865.8365664;47.1306292;7.2405931;49.833003997802734;1673390865.8785462;-14.318470001220703;57.15561294555664;131.60577392578125
196;1673390866.0309944;47.1306205;7.2405781;49.85600280761719;1673390866.0739386;-26.652650833129883;51.36128616333008;143.35299682617188
197;1673390866.2302318;47.13061;7.2405604;49.86900329589844;1673390866.2751265;-39.383399963378906;47.56071090698242;155.38449096679688
198;1673390866.4374032;47.130598;7.240539999999999;49.855003356933594;1673390866.487181;-47.628662109375;40.664527893066406;165.70223999023438
199;1673390866.635687;47.1305847;7.2405173;49.80800247192383;1673390866.6738327;-46.68842697143555;30.098609924316406;175.2480010986328
200;1673390866.8322785;47.130570399999996;7.2404929;49.743003845214844;1673390866.8781714;-44.71266174316406;22.26114845275879;-177.56198120117188
201;1673390867.0381343;47.1305556;7.2404673;49.682003021240234;1673390867.085959;-46.74198532104492;17.29409408569336;-170.47100830078125
202;1673390867.243086;47.130540499999995;7.240441;49.63100051879883;1673390867.285058;-46.097232818603516;10.753471374511719;-161.85862731933594
203;1673390867.4375813;47.130525299999995;7.2404141;49.59800338745117;1673390867.479537;-46.906551361083984;4.7540388107299805;-154.5772247314453
204;1673390867.6408536;47.1305099;7.2403869;49.582000732421875;1673390867.6878235;-48.21997833251953;-2.9833574295043945;-147.2850799560547
205;1673390867.8505855;47.130494299999995;7.240359199999999;49.57600402832031;1673390867.8954823;-47.87262725830078;-7.06139612197876;-141.40121459960938
206;1673390868.0559547;47.1304784;7.2403315;49.577003479003906;1673390868.1135733;-45.576541900634766;-14.383467674255371;-144.4605712890625
207;1673390868.2692213;47.1304623;7.2403045;49.55900192260742;1673390868.3111823;-38.46969223022461;-9.917850494384766;-159.4874267578125
208;1673390868.4480054;47.130446199999994;7.2402792;49.53700256347656;1673390868.4802203;-35.44281005859375;-6.157250881195068;-170.28582763671875
209;1673390868.651105;47.130430499999996;7.2402557;49.52300262451172;1673390868.6903126;-35.881591796875;-4.727975368499756;-178.99984741210938
210;1673390868.8398848;47.130415199999995;7.240234699999999;49.525001525878906;1673390868.8740332;-37.26171875;-3.6875784397125244;171.44873046875
211;1673390869.032347;47.1304003;7.2402161;49.547000885009766;1673390869.074358;-41.95827865600586;-6.57008695602417;165.09715270996094
212;1673390869.2313566;47.1303856;7.2402;49.59600067138672;1673390869.2725053;-42.753414154052734;-9.667646408081055;155.1240234375
213;1673390869.4268832;47.1303714;7.240187499999999;49.66100311279297;1673390869.4698474;-39.512001037597656;-26.45615577697754;144.67759704589844
214;1673390869.6150577;47.130358799999996;7.2401794;49.70900344848633;1673390869.6587026;-32.4764289855957;-36.16581344604492;134.07559204101562
215;1673390869.8152807;47.1303488;7.2401754;49.720001220703125;1673390869.8538842;-17.782108306884766;-20.571491241455078;127.67733764648438
216;1673390870.0146596;47.1303414;7.2401738;49.746002197265625;1673390870.0622349;-8.965489387512207;-30.99563980102539;146.72763061523438
217;1673390870.2240028;47.1303366;7.240174199999999;49.827003479003906;1673390870.2655523;-3.3709325790405273;-30.254037857055664;166.08189392089844
218;1673390870.4306414;47.130333799999995;7.240176099999999;49.927001953125;1673390870.4775321;-18.757431030273438;4.091797828674316;175.7361297607422
219;1673390870.6218348;47.1303315;7.2401770999999995;50.035003662109375;1673390870.6605701;-46.66881561279297;29.64242172241211;-175.6038818359375
220;1673390870.8196852;47.1303282;7.2401741;50.108001708984375;1673390870.8612132;-58.317264556884766;19.895851135253906;-159.22378540039062
221;1673390871.0262601;47.130323499999996;7.240166299999999;50.11000061035156;1673390871.0697448;-46.1861457824707;15.058897972106934;-152.25160217285156
222;1673390871.2268703;47.130317899999994;7.240154599999999;50.112003326416016;1673390871.2742643;-43.13426208496094;8.738395690917969;-146.53863525390625
223;1673390871.4395146;47.1303116;7.2401395;50.13300323486328;1673390871.4746573;-49.95823287963867;-4.008017539978027;-137.9019775390625
224;1673390871.6466386;47.1303042;7.240121599999999;50.173004150390625;1673390871.6973906;-56.071109771728516;-15.504570960998535;-132.60360717773438
225;1673390871.8480775;47.130295;7.2401013999999995;50.22600173950195;1673390871.89004;-59.0604362487793;-17.238014221191406;-136.8580322265625
226;1673390872.051122;47.1302836;7.2400797;50.2650032043457;1673390872.0921147;-56.96240997314453;-14.07117748260498;-140.729736328125
227;1673390872.2456772;47.1302704;7.2400571;50.28200149536133;1673390872.2905571;-55.84844970703125;-13.657050132751465;-140.6114044189453
228;1673390872.4402993;47.1302558;7.2400338;50.275001525878906;1673390872.4784145;-53.73258590698242;-12.701750755310059;-140.7774658203125
229;1673390872.640798;47.1302403;7.2400101;50.25300216674805;1673390872.6798398;-51.30929183959961;-15.10246753692627;-144.0045623779297
230;1673390872.8314857;47.1302239;7.2399866;50.21900177001953;1673390872.8724818;-49.09617614746094;-9.901947975158691;-154.80206298828125
231;1673390873.0317795;47.1302069;7.239963599999999;50.18400192260742;1673390873.0815575;-46.04634094238281;-2.3284919261932373;-164.68711853027344
232;1673390873.234192;47.1301896;7.2399413;50.156002044677734;1673390873.2781806;-45.89999771118164;4.104923248291016;-173.11801147460938
233;1673390873.4291234;47.1301722;7.2399197;50.12300109863281;1673390873.4726245;-43.78692626953125;9.168354988098145;178.1779327392578
234;1673390873.6270485;47.1301547;7.2398986;50.09800338745117;1673390873.6818445;-44.38310241699219;18.474971771240234;175.98480224609375
235;1673390873.8441088;47.1301371;7.2398776;50.09100341796875;1673390873.8852;-47.31605911254883;16.785686492919922;-168.96005249023438
236;1673390874.0464969;47.1301196;7.239855599999999;50.077003479003906;1673390874.084714;-46.025516510009766;9.479496955871582;-156.06809997558594
237;1673390874.2417905;47.1301025;7.2398324;50.05500411987305;1673390874.2905905;-44.95512008666992;3.913757562637329;-147.6328887939453
238;1673390874.4431844;47.1300859;7.2398083;50.02800369262695;1673390874.4824195;-42.09347915649414;-1.6028274297714233;-138.7523956298828
239;1673390874.6413558;47.1300697;7.2397835;50.00600051879883;1673390874.685433;-42.62028121948242;-7.838632106781006;-133.68594360351562
240;1673390874.8600514;47.130054;7.2397579;50.0160026550293;1673390874.9021916;-49.88877868652344;-13.275259971618652;-135.9969024658203
241;1673390875.0589468;47.1300379;7.2397319;50.03400421142578;1673390875.1010199;-51.24391174316406;-18.820587158203125;-140.14541625976562
242;1673390875.2612321;47.130021199999995;7.239706399999999;50.035003662109375;1673390875.3022382;-48.21699142456055;-13.949487686157227;-152.71859741210938
243;1673390875.4576092;47.130004;7.239681999999999;50.02400207519531;1673390875.4995773;-43.60472869873047;-7.02450704574585;-162.61599731445312
244;1673390875.6569595;47.1299868;7.2396587;50.00700378417969;1673390875.7009637;-43.02850341796875;-0.4485992193222046;-170.86138916015625
245;1673390875.8665915;47.1299695;7.2396366;49.99100112915039;1673390875.90969;-42.929832458496094;4.681493282318115;-179.48414611816406
246;1673390876.087196;47.1299523;7.2396156;49.97600173950195;1673390876.129486;-41.576927185058594;9.060370445251465;171.19467163085938
247;1673390876.2774687;47.1299352;7.2395957;49.9630012512207;1673390876.3185437;-40.96449279785156;11.270212173461914;162.6268310546875
248;1673390876.4727955;47.1299182;7.2395771;49.961002349853516;1673390876.5147982;-47.002777099609375;19.297607421875;161.85438537597656
249;1673390876.6848817;47.1299007;7.2395593;49.97800064086914;1673390876.7421381;-51.23967361450195;16.276521682739258;179.24066162109375
250;1673390876.8704176;47.129882599999995;7.239541099999999;49.99700164794922;1673390876.9096138;-51.58525848388672;4.274104118347168;-166.37689208984375
251;1673390877.0519588;47.1298643;7.2395223;50.00600051879883;1673390877.0980167;-50.08623504638672;4.999359607696533;-160.49612426757812
252;1673390877.2597644;47.129846;7.2395027999999995;49.98800277709961;1673390877.3039188;-43.425811767578125;4.534245014190674;-150.12213134765625
253;1673390877.4740405;47.1298282;7.239482199999999;49.948001861572266;1673390877.5170002;-37.117671966552734;4.515441417694092;-140.9793701171875
254;1673390877.6793208;47.129811499999995;7.2394604;49.900001525878906;1673390877.7212887;-34.565391540527344;1.3629920482635498;-133.05062866210938
255;1673390877.8766725;47.129796;7.239437499999999;49.89400100708008;1673390877.9254744;-44.73267364501953;-3.3049912452697754;-134.27908325195312
256;1673390878.0680642;47.1297812;7.2394133;49.92400360107422;1673390878.1111085;-49.32759475708008;-8.931388854980469;-136.0391082763672
257;1673390878.284073;47.1297661;7.239388099999999;49.96200180053711;1673390878.3231566;-53.11659622192383;-11.89844799041748;-138.38075256347656
258;1673390878.4697728;47.1297504;7.2393623;49.98500061035156;1673390878.513706;-51.274105072021484;-13.806509017944336;-139.3662109375
259;1673390878.6726253;47.1297341;7.2393364;50.00300216674805;1673390878.7206297;-49.47111892700195;-14.682284355163574;-140.0679168701172
260;1673390878.8790767;47.129717299999996;7.2393106;50.01700210571289;1673390878.9293578;-48.78113555908203;-14.64004898071289;-140.90127563476562
261;1673390879.092948;47.1297001;7.239285199999999;50.0160026550293;1673390879.1359148;-48.04630661010742;-10.140230178833008;-141.61936950683594
262;1673390879.271986;47.1296828;7.2392598999999995;50.00800323486328;1673390879.3119843;-46.33576965332031;-10.012131690979004;-140.84658813476562
263;1673390879.4616466;47.1296653;7.239234499999999;50.00300216674805;1673390879.5045898;-46.53685760498047;-10.40573787689209;-140.76364135742188
264;1673390879.658276;47.1296478;7.2392091999999995;50.00200271606445;1673390879.703065;-46.89148712158203;-10.719734191894531;-140.84988403320312
265;1673390879.8662302;47.1296302;7.239183799999999;50.005001068115234;1673390879.9122229;-47.14289093017578;-10.87407112121582;-140.97593688964844
266;1673390880.0617666;47.129612699999996;7.239158499999999;50.00700378417969;1673390880.1007524;-47.442237854003906;-10.996853828430176;-141.0450439453125
267;1673390880.2711258;47.129594999999995;7.2391333;50.005001068115234;1673390880.315072;-47.03474807739258;-10.943801879882812;-141.14064025878906
268;1673390880.5066495;47.1295773;7.239108099999999;49.99700164794922;1673390880.5659585;-46.3245735168457;-10.766871452331543;-141.24887084960938
269;1673390880.7216086;47.1295596;7.239083;49.9900016784668;1673390880.7611907;-46.184017181396484;-10.784952163696289;-141.27281188964844
270;1673390880.9544804;47.129542;7.239058;49.98600387573242;1673390881.021674;-46.46418380737305;-10.813990592956543;-141.3555450439453
271;1673390881.1654372;47.1295243;7.239033099999999;49.983001708984375;1673390881.2136114;-46.90730667114258;-10.831567764282227;-141.503173828125
272;1673390881.3576632;47.1295066;7.2390082;49.980003356933594;1673390881.394804;-46.97409439086914;-10.673783302307129;-141.72244262695312
273;1673390881.5281272;47.1294888;7.238983299999999;49.97600173950195;1673390881.5628273;-46.62533950805664;-10.488359451293945;-141.86648559570312
274;1673390881.690412;47.129471099999996;7.2389585;49.97200393676758;1673390881.7304332;-46.547664642333984;-10.337474822998047;-142.03103637695312
275;1673390881.8761313;47.129453299999994;7.2389337;49.96800231933594;1673390881.914204;-46.49892807006836;-11.088430404663086;-142.0007781982422
276;1673390882.0823421;47.1294356;7.2389091;49.970001220703125;1673390882.126298;-47.37388610839844;-11.84170913696289;-142.53335571289062
277;1673390882.2923212;47.1294177;7.2388846;49.974002838134766;1673390882.3411293;-47.53603744506836;-13.26796817779541;-142.71633911132812
278;1673390882.4852312;47.1293997;7.2388603;49.97700119018555;1673390882.5242186;-47.66555404663086;-13.498764991760254;-143.57725524902344
279;1673390882.6802533;47.1293814;7.2388363;49.980003356933594;1673390882.722222;-46.92529296875;-13.67620849609375;-143.864501953125
280;1673390882.8961132;47.129363;7.2388128;49.983001708984375;1673390882.9361453;-46.55414962768555;-14.445998191833496;-144.0843048095703
281;1673390883.077127;47.129344499999995;7.2387897;49.9890022277832;1673390883.1171806;-46.764862060546875;-15.777853965759277;-144.36802673339844
282;1673390883.2713573;47.1293258;7.2387671;49.99100112915039;1673390883.3212202;-46.64397430419922;-17.026805877685547;-144.81532287597656
283;1673390883.4862487;47.129306899999996;7.238745199999999;49.9890022277832;1673390883.5253038;-45.607669830322266;-18.51326560974121;-145.21356201171875
284;1673390883.6810756;47.1292879;7.2387241;49.98600387573242;1673390883.7373493;-44.38630676269531;-19.21370506286621;-145.63067626953125
285;1673390883.9056525;47.1292687;7.2387038;49.987003326416016;1673390883.946795;-36.54829788208008;-20.10395622253418;-145.9117889404297
286;1673390884.1082094;47.1292499;7.238684699999999;49.999000549316406;1673390884.1497564;-21.29443359375;-18.358034133911133;-144.93910217285156
287;1673390884.304796;47.129232099999996;7.2386669999999995;50.02300262451172;1673390884.3512216;-6.412268161773682;-16.218948364257812;-141.3776092529297
288;1673390884.4961214;47.1292161;7.2386509;50.0420036315918;1673390884.536305;6.0716447830200195;-12.44931411743164;-137.9699249267578
289;1673390884.6869197;47.1292025;7.2386368;50.05000305175781;1673390884.7251759;14.437248229980469;-11.757867813110352;-136.3331298828125
290;1673390884.879201;47.129191399999996;7.238624499999999;50.05000305175781;1673390884.9221542;16.848051071166992;-7.054488182067871;-137.2864990234375
291;1673390885.0855107;47.1291831;7.2386140999999995;50.047000885009766;1673390885.1284695;18.74782371520996;-12.384658813476562;-136.8307342529297
292;1673390885.2925818;47.129177;7.238605499999999;50.048004150390625;1673390885.3397355;13.212380409240723;-17.66109275817871;-136.23910522460938
293;1673390885.494536;47.129172499999996;7.2385985999999995;50.051002502441406;1673390885.5335665;5.586587429046631;-20.728601455688477;-136.38072204589844
294;1673390885.6753225;47.1291691;7.2385931;50.06200408935547;1673390885.7153244;-0.8151635527610779;-19.76402473449707;-138.27122497558594
295;1673390885.882563;47.1291663;7.2385886;50.0780029296875;1673390885.9207675;-3.8555245399475098;-18.979965209960938;-140.55435180664062
296;1673390886.0780504;47.1291638;7.2385847;50.092002868652344;1673390886.1278791;-6.287352561950684;-19.451427459716797;-142.027099609375
297;1673390886.2801468;47.129161499999995;7.238581399999999;50.10400390625;1673390886.3162606;-8.000152587890625;-20.799449920654297;-143.0032501220703
298;1673390886.4620209;47.129159099999995;7.2385782999999995;50.11300277709961;1673390886.5020688;-9.47803783416748;-21.271343231201172;-143.3580780029297
299;1673390886.6508257;47.129156699999996;7.2385753;50.12900161743164;1673390886.7001612;-21.5311279296875;-18.63994026184082;-138.66339111328125
300;1673390886.8722355;47.1291538;7.2385717;50.2030029296875;1673390886.917333;-38.810245513916016;-17.479108810424805;-134.33372497558594
301;1673390887.1085794;47.1291495;7.238565899999999;50.33500289916992;1673390887.1525037;-37.4921989440918;-12.194172859191895;-137.03248596191406
302;1673390887.3090162;47.1291438;7.2385579;50.52700424194336;1673390887.3593457;-26.380529403686523;-6.358055114746094;-138.77508544921875
303;1673390887.494771;47.129137899999996;7.238548499999999;50.78000259399414;1673390887.5328405;-20.807247161865234;-3.8555240631103516;-139.26145935058594
304;1673390887.6860805;47.1291321;7.238537999999999;51.11100387573242;1673390887.7231688;-29.997783660888672;-14.840107917785645;-138.37525939941406
305;1673390887.8793147;47.129125699999996;7.2385266999999995;51.499000549316406;1673390887.9235687;-44.67457962036133;-25.285036087036133;-138.0138397216797
306;1673390888.0785003;47.1291175;7.238515;51.884002685546875;1673390888.1214628;-39.30775451660156;-22.17336654663086;-139.7704315185547
307;1673390888.2875514;47.1291079;7.2385028;52.25400161743164;1673390888.3302562;-36.38287353515625;-20.56680679321289;-138.75900268554688
308;1673390888.49985;47.1290974;7.2384903;52.62000274658203;1673390888.5453207;-33.61345672607422;-18.585491180419922;-138.26759338378906
309;1673390888.6979342;47.1290865;7.238477499999999;52.9890022277832;1673390888.7418702;-31.27005958557129;-15.925834655761719;-137.872314453125
310;1673390888.9066799;47.1290753;7.2384644;53.362003326416016;1673390888.9506092;-28.606231689453125;-14.533638000488281;-137.62640380859375
311;1673390889.108178;47.1290641;7.2384511;53.73800277709961;1673390889.1492105;-26.682018280029297;-13.462523460388184;-137.2005157470703
312;1673390889.299618;47.1290532;7.2384375;54.118003845214844;1673390889.3386745;-25.380788803100586;-13.298650741577148;-136.9581298828125
313;1673390889.488716;47.1290425;7.2384238;54.500003814697266;1673390889.532685;-24.643484115600586;-13.936270713806152;-136.66595458984375
314;1673390889.6971111;47.1290322;7.238410099999999;54.88300323486328;1673390889.7381358;-24.353885650634766;-14.904627799987793;-136.5530242919922
315;1673390889.894575;47.129022299999995;7.2383964;55.268001556396484;1673390889.937618;-24.79563331604004;-15.831934928894043;-136.540283203125
316;1673390890.0932422;47.129012499999995;7.2383826;55.65900421142578;1673390890.1371999;-25.353681564331055;-16.42664909362793;-136.61624145507812
317;1673390890.3030784;47.129002799999995;7.238368899999999;56.05500411987305;1673390890.344065;-25.962602615356445;-16.667003631591797;-136.7864227294922
318;1673390890.4938385;47.1289933;7.238355299999999;56.452003479003906;1673390890.5367815;-26.912614822387695;-16.463674545288086;-136.97189331054688
319;1673390890.726596;47.1289837;7.238341699999999;56.85200119018555;1673390890.7619708;-27.64621925354004;-16.45050621032715;-137.1197509765625
320;1673390890.9050758;47.1289741;7.2383280999999995;57.24900436401367;1673390890.940198;-28.299291610717773;-16.399816513061523;-137.16856384277344
321;1673390891.0871744;47.1289644;7.2383146;57.64600372314453;1673390891.132181;-28.466957092285156;-16.374279022216797;-137.22027587890625
322;1673390891.2986894;47.1289545;7.238301099999999;58.04300308227539;1673390891.3379388;-28.676748275756836;-16.925439834594727;-137.02735900878906
323;1673390891.504279;47.1289446;7.2382876;58.44400405883789;1673390891.549191;-28.596094131469727;-17.2930908203125;-136.90509033203125
324;1673390891.6985703;47.1289346;7.2382741;58.846004486083984;1673390891.7407236;-28.471681594848633;-16.99660301208496;-136.95021057128906
325;1673390891.8959565;47.128924399999995;7.2382605;59.24800109863281;1673390891.937172;-28.029146194458008;-16.557849884033203;-137.00955200195312
326;1673390892.0997422;47.1289143;7.2382466999999995;59.650001525878906;1673390892.1448903;-27.577363967895508;-16.031055450439453;-137.1597900390625
327;1673390892.2969637;47.1289042;7.2382329;60.048004150390625;1673390892.346915;-27.538541793823242;-15.33763599395752;-137.24978637695312
328;1673390892.5075097;47.1288941;7.2382192;60.44700241088867;1673390892.5532079;-27.45092010498047;-15.174461364746094;-137.24490356445312
329;1673390892.714575;47.128884;7.2382054;60.84700393676758;1673390892.7639587;-27.4506778717041;-14.948423385620117;-137.26870727539062
330;1673390892.9218612;47.128873999999996;7.2381915999999995;61.24800109863281;1673390892.9692674;-27.406232833862305;-15.207229614257812;-137.17568969726562
331;1673390893.1204324;47.1288639;7.2381778;61.64800262451172;1673390893.1645856;-27.379850387573242;-15.703771591186523;-137.052734375
332;1673390893.3175716;47.128853899999996;7.2381641;62.04700469970703;1673390893.3607213;-27.470375061035156;-16.19971466064453;-136.962646484375
333;1673390893.5209367;47.128844;7.238150399999999;62.44400405883789;1673390893.5650961;-27.687583923339844;-16.763179779052734;-136.8679656982422
334;1673390893.7059677;47.128834;7.2381366;62.840003967285156;1673390893.7519665;-27.61162757873535;-17.20878791809082;-136.79632568359375
335;1673390893.9078643;47.128823999999994;7.238122799999999;63.237003326416016;1673390893.9577649;-27.62384796142578;-17.44944953918457;-136.75827026367188
336;1673390894.1130054;47.128814;7.238108899999999;63.63700485229492;1673390894.1540065;-27.684350967407227;-17.278228759765625;-136.84835815429688
337;1673390894.3210063;47.128803999999995;7.2380952;64.03800201416016;1673390894.3591027;-27.822216033935547;-16.960325241088867;-136.92173767089844
338;1673390894.5057397;47.1287939;7.2380813999999996;64.43700408935547;1673390894.5467145;-27.740610122680664;-16.533714294433594;-137.06399536132812
339;1673390894.7069492;47.128783899999995;7.2380676;64.83500671386719;1673390894.7450135;-27.754785537719727;-16.04044532775879;-137.19117736816406
340;1673390894.909395;47.1287738;7.238053799999999;65.23100280761719;1673390894.9545202;-27.87783432006836;-15.946882247924805;-137.19085693359375
341;1673390895.1230147;47.128763799999994;7.2380401999999995;65.6240005493164;1673390895.170801;-27.8445987701416;-15.662664413452148;-137.244140625
342;1673390895.3203566;47.1287537;7.238026499999999;66.02200317382812;1673390895.3545344;-27.827089309692383;-15.824186325073242;-137.14404296875
343;1673390895.5097146;47.1287436;7.2380128;66.42100524902344;1673390895.5556078;-27.937442779541016;-15.87142276763916;-137.09469604492188
344;1673390895.7204788;47.1287336;7.237998999999999;66.82200622558594;1673390895.7623725;-27.792205810546875;-16.0694522857666;-137.04147338867188
345;1673390895.9089644;47.1287235;7.2379853;67.22200012207031;1673390895.953872;-27.933536529541016;-16.529850006103516;-136.85350036621094
346;1673390896.1082013;47.128713499999996;7.2379716;67.61700439453125;1673390896.158955;-27.859336853027344;-16.71525764465332;-136.8641357421875
347;1673390896.3027573;47.1287034;7.237957799999999;68.01000213623047;1673390896.3439987;-27.732614517211914;-16.75779151916504;-136.86807250976562
348;1673390896.5059793;47.128693399999996;7.237944;68.4000015258789;1673390896.5510182;-27.730487823486328;-16.856021881103516;-136.89012145996094
349;1673390896.7036283;47.1286833;7.2379301;68.79199981689453;1673390896.7455971;-27.725627899169922;-16.687040328979492;-136.98345947265625
350;1673390896.905865;47.128673299999996;7.237916299999999;69.18700408935547;1673390896.9497738;-27.725460052490234;-16.225399017333984;-137.14234924316406
351;1673390897.1033945;47.1286632;7.2379026;69.58500671386719;1673390897.1472979;-27.811931610107422;-15.977312088012695;-137.2327880859375
352;1673390897.3064213;47.128653199999995;7.2378887999999995;69.98400115966797;1673390897.3464475;-27.812875747680664;-15.862126350402832;-137.2223358154297
353;1673390897.5044143;47.1286432;7.237875099999999;70.37700653076172;1673390897.5463824;-15.501738548278809;-17.225706100463867;-137.93646240234375
354;1673390897.7309072;47.1286336;7.237862;70.73400115966797;1673390897.771504;-6.692741394042969;-18.322689056396484;-137.42787170410156
355;1673390897.9339917;47.1286249;7.237850099999999;71.05000305175781;1673390897.9735725;-2.272780656814575;-19.014326095581055;-136.7959442138672
356;1673390898.122799;47.1286171;7.2378393999999995;71.32600402832031;1673390898.1619318;3.126793384552002;-19.60303497314453;-136.5391082763672
357;1673390898.3198612;47.1286105;7.2378301;71.56200408935547;1673390898.3579295;5.395709037780762;-19.326679229736328;-136.346435546875
358;1673390898.5212817;47.1286049;7.2378222999999995;71.77000427246094;1673390898.567362;6.897414207458496;-19.640249252319336;-136.40098571777344
359;1673390898.7319078;47.128600299999995;7.237815899999999;71.9540023803711;1673390898.7725356;6.791231632232666;-20.07856559753418;-136.3739776611328
360;1673390898.9214673;47.1285968;7.2378105999999995;72.11600494384766;1673390898.9624865;5.494147300720215;-20.307371139526367;-136.69393920898438
361;1673390899.1148705;47.128594;7.2378063;72.25800323486328;1673390899.1549351;3.532017230987549;-20.490829467773438;-137.453125
362;1673390899.311401;47.128592;7.237802599999999;72.38200378417969;1673390899.3573182;5.272772312164307;1.0078730583190918;-132.4205322265625
363;1673390899.5217245;47.128591;7.2377986;72.47900390625;1673390899.5657454;6.5005950927734375;9.774007797241211;-120.730224609375
364;1673390899.7304726;47.1285914;7.2377940999999995;72.54400634765625;1673390899.7685392;2.6640784740448;1.1998628377914429;-109.8950424194336
365;1673390899.9295354;47.1285929;7.237788999999999;72.59100341796875;1673390899.9657118;0.9730180501937866;1.4821102619171143;-100.54266357421875
366;1673390900.124309;47.128595;7.2377834;72.63500213623047;1673390900.1694837;1.0244234800338745;-1.1247165203094482;-91.90131378173828
367;1673390900.3233082;47.1285975;7.2377774;72.6780014038086;1673390900.3662694;1.89326810836792;-3.2574422359466553;-82.76353454589844
368;1673390900.5186353;47.1286002;7.2377711;72.71900177001953;1673390900.565525;4.550901889801025;-5.002680778503418;-73.67984771728516
369;1673390900.7258093;47.128603;7.2377647;72.76000213623047;1673390900.7658055;7.2184295654296875;-6.074649333953857;-64.30419921875
370;1673390900.9311569;47.1286057;7.2377584;72.79500579833984;1673390900.971293;10.517499923706055;-5.51446533203125;-55.209564208984375
371;1673390901.1235998;47.128608299999996;7.2377522;72.8280029296875;1673390901.166528;12.410737037658691;-2.733539581298828;-46.12541580200195
372;1673390901.3213353;47.1286108;7.237746199999999;72.85700225830078;1673390901.3615184;13.928899765014648;0.13573198020458221;-39.68926239013672
373;1673390901.510853;47.1286132;7.2377405999999995;72.8800048828125;1673390901.555751;0.18317539989948273;-1.4859520196914673;-40.40846252441406
374;1673390901.702072;47.1286163;7.2377346;72.9000015258789;1673390901.7430737;-34.037174224853516;0.4680238962173462;-42.52922821044922
375;1673390901.902462;47.1286209;7.237726599999999;72.89700317382812;1673390901.9454107;-49.31496047973633;0.41176602244377136;-44.78367233276367
376;1673390902.1156726;47.1286278;7.2377154;72.86500549316406;1673390902.1566687;-43.54289245605469;-1.1280462741851807;-45.59772872924805
377;1673390902.322031;47.1286366;7.2377011;72.84000396728516;1673390902.3602219;-45.997337341308594;-3.3678226470947266;-44.96238327026367
378;1673390902.519655;47.1286474;7.2376835999999996;72.85600280761719;1673390902.5665367;-55.624820709228516;-2.2833902835845947;-45.24996566772461
379;1673390902.7324202;47.1286603;7.2376624;72.89800262451172;1673390902.7770467;-61.15800094604492;-0.42837396264076233;-45.8270149230957
380;1673390902.938454;47.128675799999996;7.237637299999999;72.94600677490234;1673390902.9790258;-61.011112213134766;-0.529060423374176;-46.16685104370117
381;1673390903.1240823;47.128693299999995;7.237609099999999;72.95700073242188;1673390903.1620007;-48.47353744506836;-0.16326092183589935;-46.381473541259766
382;1673390903.3110049;47.1287112;7.237580299999999;72.6820068359375;1673390903.3535683;-18.3875675201416;0.450664222240448;-45.991943359375
383;1673390903.5089214;47.128729;7.2375514999999995;72.03500366210938;1673390903.5548894;28.531259536743164;1.3092206716537476;-45.084991455078125
384;1673390903.7239912;47.128746899999996;7.2375226999999995;70.98300170898438;1673390903.7687247;83.72061920166016;12.729948997497559;-33.18408966064453
385;1673390903.9266193;47.1287648;7.2374939;69.53600311279297;1673390903.9707942;52.298912048339844;177.66343688964844;131.89617919921875
386;1673390904.1338885;47.1287826;7.2374651;67.72900390625;1673390904.176831;30.7222843170166;176.23399353027344;129.7140350341797
387;1673390904.3168454;47.128800299999995;7.2374367;65.56200408935547;1673390904.3587902;33.096107482910156;173.86109924316406;126.76380920410156
388;1673390904.5107744;47.1288177;7.237408599999999;63.035003662109375;1673390904.5509586;61.71075439453125;166.7858428955078;121.74535369873047
389;1673390904.7156503;47.128834999999995;7.2373807;60.1660041809082;1673390904.7557752;61.09113311767578;8.61742877960205;-35.05055618286133
390;1673390904.9100273;47.1288524;7.2373527;56.93100357055664;1673390904.9537668;-8.20691967010498;1.1691962480545044;-41.985050201416016
391;1673390905.1149905;47.128869699999996;7.2373249;53.288002014160156;1673390905.1609724;-58.79535675048828;-2.1569151878356934;-40.210994720458984
392;1673390905.3240774;47.1288866;7.2372977;49.28900146484375;1673390905.3620303;-71.80989837646484;-4.342752933502197;-38.36214828491211
393;1673390905.529723;47.1289033;7.2372708;44.974002838134766;1673390905.5700543;-43.970130920410156;0.2382512092590332;-41.93328857421875
394;1673390905.7464144;47.1289197;7.2372442999999995;40.32200241088867;1673390905.7929947;20.065080642700195;1.5397956371307373;-40.29031753540039
395;1673390905.9466352;47.128935999999996;7.2372179;35.263999938964844;1673390905.993064;80.8968734741211;23.19615936279297;-18.258926391601562
396;1673390906.1458743;47.1289526;7.2371912;29.8700008392334;1673390906.1849132;78.67363739013672;156.72569274902344;115.44263458251953
397;1673390906.3320038;47.1289691;7.2371646;24.18600082397461;1673390906.3735268;67.20772552490234;11.9808988571167;-28.5350341796875
398;1673390906.5191164;47.128985799999995;7.2371379;18.179000854492188;1673390906.5629945;-2.3218088150024414;1.9414715766906738;-37.87471008300781
399;1673390906.727659;47.1290025;7.237111199999999;11.7760009765625;1673390906.7764883;-56.66566467285156;-2.794942617416382;-35.53615951538086
400;1673390906.9419446;47.129018699999996;7.2370852;5.050000190734863;1673390906.981743;-56.154945373535156;-2.6627612113952637;-34.534996032714844
401;1673390907.1381536;47.1290349;7.237061499999999;0.12700000405311584;1673390907.1768467;-29.395328521728516;-2.8031835556030273;-37.50130844116211
402;1673390907.3238935;47.1290567;7.237036;0.36000001430511475;1673390907.365023;-30.776100158691406;0.9173961877822876;-38.964595794677734
403;1673390907.5228188;47.1290803;7.237008899999999;0.45000001788139343;1673390907.5660715;-30.347103118896484;-0.17658700048923492;-37.74190902709961
404;1673390907.7302103;47.1291053;7.236980399999999;0.4910000264644623;1673390907.765085;-30.229333877563477;-0.6671923398971558;-37.27922821044922
405;1673390907.921856;47.1291319;7.2369501;0.48000001907348633;1673390907.9700723;-30.10798454284668;-2.1357576847076416;-36.943153381347656
406;1673390908.1410038;47.1291599;7.2369181;0.42900002002716064;1673390908.197772;-30.004369735717773;-3.1011314392089844;-36.71902847290039
407;1673390908.3468966;47.1291893;7.2368847;0.33800002932548523;1673390908.3898623;-29.87662124633789;-3.69779634475708;-36.56111526489258
408;1673390908.5422552;47.129219899999995;7.2368498;0.22100001573562622;1673390908.5810366;-29.759897232055664;-3.8900046348571777;-36.505828857421875
409;1673390908.7301242;47.1292517;7.236813499999999;0.08700000494718552;1673390908.7748692;-29.677169799804688;-3.8773317337036133;-36.52510070800781
410;1673390908.93103;47.1292845;7.236776;-0.05900000408291817;1673390908.9740462;-29.546586990356445;-3.771559000015259;-36.55548858642578
411;1673390909.134158;47.1293187;7.2367368999999995;-0.25;1673390909.1820395;-29.43143653869629;-3.6819422245025635;-36.571258544921875
412;1673390909.3440292;47.1293539;7.2366968;-0.45600003004074097;1673390909.3850157;-29.272050857543945;-3.56565260887146;-36.616451263427734
413;1673390909.5389097;47.1293898;7.236655799999999;-0.6420000195503235;1673390909.5821002;-29.14078140258789;-3.44482159614563;-36.6744384765625
414;1673390909.7578194;47.1294263;7.2366141;-0.8160000443458557;1673390909.8028216;-28.945838928222656;-3.275273561477661;-36.77353286743164
415;1673390909.9559581;47.1294635;7.2365715999999995;-0.9830000400543213;1673390909.9968476;-28.682695388793945;-3.1347978115081787;-36.82416534423828
416;1673390910.1528857;47.1295012;7.2365286;-1.1460000276565552;1673390910.1951482;-28.43658447265625;-2.9126431941986084;-36.90283203125
417;1673390910.3620088;47.1295393;7.236485;-1.2970000505447388;1673390910.3860788;-28.183307647705078;-2.772757053375244;-36.97806167602539
418;1673390910.5299993;47.129579;7.2364397;-1.5200001001358032;1673390910.5730972;-28.096904754638672;-2.653759479522705;-37.00847244262695
