;pos_time;latitude;longitude;altitude;alt_time;pitch;roll;yaw
0;1673391711.565885;47.1306423;7.2406201999999995;0.0;1673391711.624453;-0.008466179482638836;-0.6131181716918945;90.05261993408203
1;1673391711.7643478;47.1306423;7.24062;0.003000000026077032;1673391711.8250153;0.05825824290513992;-0.4868062436580658;90.13475036621094
2;1673391711.9637651;47.1306423;7.24062;0.005000000353902578;1673391712.0186567;-0.06903170794248581;-0.3158469796180725;90.08698272705078
3;1673391712.174728;47.1306423;7.2406201;0.009000000543892384;1673391712.228585;-0.10751564800739288;-0.3771434724330902;90.18858337402344
4;1673391712.3632903;47.1306423;7.2406201;0.01600000075995922;1673391712.4198985;0.016427485272288322;-0.1730450540781021;90.14996337890625
5;1673391712.5795262;47.1306423;7.2406201;0.01900000125169754;1673391712.6415577;-0.05729500576853752;-0.44328027963638306;90.1450424194336
6;1673391712.7825458;47.1306423;7.2406201;0.018000001087784767;1673391712.838191;-0.04997273534536362;-0.23630599677562714;90.08924102783203
7;1673391712.972485;47.1306423;7.2406201;0.01600000075995922;1673391713.0330057;0.17097124457359314;-0.2566336393356323;90.21049499511719
8;1673391713.1679025;47.1306423;7.24062;0.015000000596046448;1673391713.2303987;0.2856297492980957;-0.43488889932632446;90.17908477783203
9;1673391713.3593793;47.1306423;7.24062;0.003000000026077032;1673391713.417978;0.16290158033370972;-0.23899772763252258;90.12549591064453
10;1673391713.5655403;47.1306423;7.24062;0.0010000000474974513;1673391713.6213648;0.018423646688461304;-0.45363649725914;90.27731323242188
11;1673391713.772061;47.1306424;7.24062;0.0;1673391713.8347497;0.3417465090751648;-0.19917148351669312;90.17752838134766
12;1673391713.9697392;47.1306424;7.24062;-0.0020000000949949026;1673391714.0302627;0.15847134590148926;-0.43372222781181335;90.26253509521484
13;1673391714.1691706;47.1306424;7.2406198999999996;-0.003000000026077032;1673391714.223418;0.21218128502368927;-0.25463470816612244;90.21467590332031
14;1673391714.348062;47.1306424;7.2406198999999996;-0.0020000000949949026;1673391714.4042187;0.23064301908016205;-0.33049505949020386;90.04339599609375
15;1673391714.5608122;47.1306424;7.2406198999999996;-0.004000000189989805;1673391714.6242986;0.023938177153468132;-0.12447910010814667;90.12944793701172
16;1673391714.7812958;47.1306424;7.2406198999999996;-0.004000000189989805;1673391714.838226;0.02738778106868267;0.11291029304265976;90.14359283447266
17;1673391714.9901726;47.1306424;7.240619799999999;-0.003000000026077032;1673391715.0492845;0.055018480867147446;-0.25145095586776733;90.1783676147461
18;1673391715.1824186;47.1306424;7.2406197;0.0020000000949949026;1673391715.2376077;0.21503710746765137;-0.14471633732318878;90.18374633789062
19;1673391715.3660228;47.1306424;7.2406197;0.0020000000949949026;1673391715.4222283;0.15328092873096466;0.2540377080440521;90.18913269042969
20;1673391715.572319;47.1306424;7.2406196;0.0010000000474974513;1673391715.6343658;0.27198848128318787;-0.522513747215271;90.20755767822266
21;1673391715.774328;47.1306424;7.2406197;0.0;1673391715.8334506;0.38351988792419434;0.19141130149364471;90.19790649414062
22;1673391715.9908328;47.1306424;7.2406197;0.007000000216066837;1673391716.0491707;0.6575268507003784;-0.3771499693393707;90.7201919555664
23;1673391716.2103295;47.1306424;7.2406197;0.014000000432133675;1673391716.264114;0.9536686539649963;0.18375228345394135;90.48722839355469
24;1673391716.397442;47.1306423;7.2406197;0.013000000268220901;1673391716.4543152;1.7268768548965454;-0.19061364233493805;89.9604721069336
25;1673391716.5842948;47.1306423;7.2406197;0.012000000104308128;1673391716.639286;2.4075732231140137;-0.13988496363162994;89.10765075683594
26;1673391716.7825277;47.1306423;7.240619499999999;0.004000000189989805;1673391716.8462946;-1.3002903461456299;-0.05027012154459953;87.8062744140625
27;1673391716.999098;47.1306423;7.2406187;0.010000000707805157;1673391717.0691452;-7.020664691925049;-0.4211459457874298;86.33146667480469
28;1673391717.2177045;47.1306423;7.2406175;0.027000000700354576;1673391717.2713263;-13.702119827270508;-0.42688092589378357;86.31952667236328
29;1673391717.3992646;47.1306423;7.2406159;0.04700000211596489;1673391717.4580579;-15.227398872375488;3.472541332244873;86.23397827148438
30;1673391717.6015127;47.130642099999996;7.240614099999999;0.08900000154972076;1673391717.6612074;-15.887561798095703;-0.1684388667345047;87.2748031616211
31;1673391717.794218;47.130642099999996;7.2406123;0.14600001275539398;1673391717.851253;-17.719802856445312;-2.5749289989471436;88.28166198730469
32;1673391717.9924572;47.130642099999996;7.2406106999999995;0.2200000137090683;1673391718.0401773;-19.489608764648438;2.1744863986968994;87.72602844238281
33;1673391718.169662;47.130642099999996;7.2406093;0.3070000112056732;1673391718.2254918;-21.52592658996582;1.335974097251892;88.04576110839844
34;1673391718.370775;47.1306422;7.2406083;0.4140000343322754;1673391718.4323032;-23.43326759338379;-2.9524996280670166;89.29073333740234
35;1673391718.5740075;47.1306423;7.240607799999999;0.5380000472068787;1673391718.625814;-25.53902816772461;0.8367581963539124;88.732421875
36;1673391718.7604096;47.1306422;7.240608099999999;0.6760000586509705;1673391718.8280048;-26.44048309326172;1.750954031944275;88.59088134765625
37;1673391718.9741876;47.1306422;7.240609;0.8180000185966492;1673391719.0332093;-24.24259376525879;-2.86881422996521;89.86054229736328
38;1673391719.1745563;47.1306422;7.2406105;0.9660000205039978;1673391719.2331326;-22.502952575683594;-0.7914944887161255;89.35137939453125
39;1673391719.3778386;47.1306422;7.2406124;1.1190000772476196;1673391719.4315171;-19.917823791503906;1.5761739015579224;88.52010345458984
40;1673391719.5714316;47.1306423;7.2406143;1.2920000553131104;1673391719.6292064;-17.839622497558594;-1.9341917037963867;89.53091430664062
41;1673391719.7815964;47.1306424;7.2406160999999996;1.4780000448226929;1673391719.835353;-16.017169952392578;-1.580653190612793;82.25499725341797
42;1673391719.964842;47.1306424;7.2406175;1.6740000247955322;1673391720.0180893;-14.971833229064941;3.269042491912842;82.14866638183594
43;1673391720.1665764;47.1306422;7.2406185999999995;1.8700001239776611;1673391720.2295754;-14.842741012573242;-2.1022210121154785;84.20576477050781
44;1673391720.3860981;47.1306422;7.240619199999999;2.065000057220459;1673391720.4456904;-14.900957107543945;-2.6383190155029297;85.30299377441406
45;1673391720.594046;47.1306423;7.2406193;2.26200008392334;1673391720.6613941;-15.738237380981445;2.5752243995666504;84.76630401611328
46;1673391720.7942698;47.1306424;7.240619199999999;2.4560000896453857;1673391720.8539622;-16.592973709106445;-0.29121559858322144;85.80831146240234
47;1673391720.9894557;47.1306425;7.240619;2.6570000648498535;1673391721.05002;-17.724225997924805;-1.5907902717590332;86.82490539550781
48;1673391721.185031;47.130642599999995;7.2406187;2.8620002269744873;1673391721.2436316;-18.367538452148438;3.2441937923431396;85.78762817382812
49;1673391721.3784351;47.1306425;7.2406184;3.068000078201294;1673391721.434068;-19.02225685119629;0.30752691626548767;86.04557800292969
50;1673391721.5729249;47.1306424;7.2406182;3.2750000953674316;1673391721.6305165;-19.739343643188477;-2.7520456314086914;86.76029205322266
51;1673391721.7741485;47.1306423;7.2406181;3.4830002784729004;1673391721.8337755;-19.78005027770996;2.024648666381836;85.78720092773438
52;1673391721.97955;47.1306424;7.2406182;3.684000253677368;1673391722.0371747;-19.47938346862793;2.192883014678955;85.52642822265625
53;1673391722.1790416;47.1306424;7.2406184;3.88700008392334;1673391722.23693;-19.365392684936523;-1.689791202545166;86.56342315673828
54;1673391722.3789139;47.1306423;7.2406185999999995;4.089000225067139;1673391722.4385316;-18.992210388183594;1.8819257020950317;85.5330810546875
55;1673391722.585516;47.130642099999996;7.240619;4.289000034332275;1673391722.6499548;-18.479101181030273;1.4170681238174438;85.35169982910156
56;1673391722.797368;47.1306418;7.2406193;4.494000434875488;1673391722.8549533;-18.12516212463379;-3.373131513595581;86.2627182006836
57;1673391722.9880066;47.1306417;7.2406196;4.694000244140625;1673391723.0418358;-18.13254165649414;0.2595839202404022;85.7703857421875
58;1673391723.181601;47.1306417;7.240619799999999;4.89900016784668;1673391723.2411387;-17.946182250976562;2.1916775703430176;85.24205017089844
59;1673391723.3859222;47.1306417;7.2406198999999996;5.0980000495910645;1673391723.435698;-17.805274963378906;-2.6292803287506104;86.34385681152344
60;1673391723.5632799;47.1306418;7.24062;5.298000335693359;1673391723.6194923;-17.907129287719727;-0.06329575926065445;85.88331604003906
61;1673391723.7666192;47.1306418;7.24062;5.500000476837158;1673391723.825905;-18.09209442138672;2.687833070755005;85.0605697631836
62;1673391723.983199;47.1306417;7.24062;5.704000473022461;1673391724.0369294;-18.285215377807617;-1.4767160415649414;85.98092651367188
63;1673391724.1802826;47.1306418;7.2406198999999996;5.9070000648498535;1673391724.2350316;-18.283864974975586;-0.22488188743591309;85.8788833618164
64;1673391724.3813381;47.130641999999995;7.2406198999999996;6.1080002784729;1673391724.4379637;-18.382383346557617;3.7043139934539795;85.13492584228516
65;1673391724.5688558;47.130642099999996;7.2406198999999996;6.306000232696533;1673391724.6241722;-18.38948631286621;-0.51274573802948;86.04084777832031
66;1673391724.78454;47.1306422;7.2406198999999996;6.511000156402588;1673391724.8452206;-18.68669891357422;-0.39340054988861084;86.20506286621094
67;1673391724.9938004;47.1306422;7.2406198999999996;6.717000484466553;1673391725.0566027;-18.570301055908203;3.787872552871704;84.97764587402344
68;1673391725.194121;47.130642099999996;7.2406198999999996;6.927000522613525;1673391725.247974;-18.517820358276367;-0.1465802788734436;85.92829132080078
69;1673391725.384869;47.130641999999995;7.2406198999999996;7.133000373840332;1673391725.438717;-18.711509704589844;-1.6956367492675781;86.2342529296875
70;1673391725.5784526;47.130642099999996;7.2406198999999996;7.334000110626221;1673391725.6389668;-18.5007381439209;2.744635820388794;85.35758972167969
71;1673391725.8089325;47.130641999999995;7.240619799999999;7.5360002517700195;1673391725.889701;-18.73469352722168;0.37115344405174255;85.7374267578125
72;1673391726.0314763;47.130641999999995;7.240619799999999;7.7330002784729;1673391726.0852494;-18.60251235961914;-2.1450657844543457;86.40670776367188
73;1673391726.214671;47.130641999999995;7.240619799999999;7.933000564575195;1673391726.2654262;-18.759939193725586;2.977205753326416;85.29904174804688
74;1673391726.3942912;47.1306419;7.240619799999999;8.131000518798828;1673391726.4460614;-18.428321838378906;0.9294753670692444;85.50265502929688
75;1673391726.5840218;47.1306419;7.2406198999999996;8.329999923706055;1673391726.6454735;-18.78113555908203;-2.5973711013793945;86.56272888183594
76;1673391726.7864716;47.130642099999996;7.2406198999999996;8.523000717163086;1673391726.848205;-18.440656661987305;2.7261383533477783;85.2662124633789
77;1673391726.9848604;47.130642099999996;7.2406198999999996;8.720000267028809;1673391727.0478842;-18.573535919189453;2.6246445178985596;85.1585693359375
78;1673391727.1822264;47.130642099999996;7.2406198999999996;8.917000770568848;1673391727.2417572;-18.546077728271484;-2.0412228107452393;86.2748794555664
79;1673391727.3782697;47.130642099999996;7.24062;9.119000434875488;1673391727.4442844;-18.573816299438477;2.085392713546753;85.40486907958984
80;1673391727.589918;47.130641999999995;7.24062;9.315999984741211;1673391727.6505485;-18.42746353149414;2.3682432174682617;85.06526184082031
81;1673391727.7943552;47.130641999999995;7.24062;9.516000747680664;1673391727.8549716;-18.55723762512207;-2.050098419189453;86.20957946777344
82;1673391728.0054145;47.130642099999996;7.24062;9.713000297546387;1673391728.0660944;-18.720905303955078;0.8115532398223877;85.71009826660156
83;1673391728.2073867;47.1306422;7.2406201;9.91100025177002;1673391728.2583036;-18.627365112304688;3.513462781906128;84.91439056396484
84;1673391728.3920639;47.1306422;7.2406201;10.106000900268555;1673391728.4506328;-18.519756317138672;-0.9436942338943481;85.9670181274414
85;1673391728.5972207;47.1306422;7.2406201;10.34000015258789;1673391728.654842;-20.995853424072266;-1.8960597515106201;86.0721435546875
86;1673391728.7838435;47.1306422;7.2406206;10.666000366210938;1673391728.840552;-22.908838272094727;1.6225348711013794;85.33584594726562
87;1673391728.9821773;47.1306423;7.2406215;11.031000137329102;1673391729.0389862;-19.05858612060547;0.6856998205184937;85.52739715576172
88;1673391729.1699274;47.1306425;7.2406226;11.415000915527344;1673391729.2251306;-17.497682571411133;-1.935188889503479;86.5732192993164
89;1673391729.3783116;47.1306428;7.2406235;11.802000999450684;1673391729.4726288;-15.379551887512207;3.035634756088257;85.51616668701172
90;1673391729.6306193;47.130643;7.2406242;12.195000648498535;1673391729.689715;-14.440390586853027;3.081935405731201;85.39947509765625
91;1673391729.829882;47.1306431;7.2406244;12.589000701904297;1673391729.889091;-14.558717727661133;-1.1167786121368408;86.3929443359375
92;1673391730.0325058;47.1306431;7.2406244;12.987000465393066;1673391730.09012;-14.861274719238281;2.403407573699951;85.7664794921875
93;1673391730.2370665;47.130643;7.2406241;13.386000633239746;1673391730.3196545;-15.53071403503418;2.8887217044830322;85.32858276367188
94;1673391730.4625945;47.1306429;7.240623599999999;13.78600025177002;1673391730.5129552;-16.748647689819336;-1.6044758558273315;86.31466674804688
95;1673391730.6375878;47.1306429;7.240622999999999;14.188000679016113;1673391730.692802;-17.38503074645996;0.9920620918273926;85.9747085571289
96;1673391730.8202064;47.1306428;7.2406225;14.588000297546387;1673391730.8828812;-18.29963493347168;3.479039192199707;85.2865219116211
97;1673391731.0128984;47.130642699999996;7.240622;14.99000072479248;1673391731.07246;-18.549949645996094;-1.8145946264266968;86.30560302734375
98;1673391731.2093627;47.1306425;7.2406216;15.391000747680664;1673391731.2670233;-19.126365661621094;-0.32064089179039;86.02984619140625
99;1673391731.4059355;47.1306424;7.2406213;15.796000480651855;1673391731.4615989;-18.83997344970703;2.759948492050171;85.32772827148438
100;1673391731.6071575;47.1306423;7.2406213;16.204999923706055;1673391731.6659164;-18.80406951904297;-1.185058832168579;86.3023910522461
101;1673391731.8085818;47.1306423;7.2406213;16.613000869750977;1673391731.8642192;-18.454059600830078;-1.0076661109924316;86.46575164794922
102;1673391732.0083525;47.1306425;7.2406213;17.020999908447266;1673391732.070005;-18.169660568237305;3.5158026218414307;85.43207550048828
103;1673391732.2062242;47.1306425;7.240621399999999;17.431001663208008;1673391732.2610712;-17.798446655273438;0.14694365859031677;86.05619049072266
104;1673391732.4019425;47.1306425;7.2406215;17.834001541137695;1673391732.4616694;-17.82801055908203;-1.1593191623687744;86.43302154541016
105;1673391732.5995388;47.1306424;7.2406216;18.244001388549805;1673391732.656199;-17.663982391357422;3.219628095626831;85.45242309570312
106;1673391732.7986705;47.1306424;7.2406216;18.657001495361328;1673391732.8533247;-17.490306854248047;0.8734142780303955;85.81574249267578
107;1673391732.992179;47.1306424;7.240621699999999;19.06599998474121;1673391733.0460045;-17.614870071411133;-1.7923171520233154;86.57730865478516
108;1673391733.190938;47.1306425;7.240621699999999;19.476001739501953;1673391733.2494986;-17.43086814880371;2.9340906143188477;85.6599349975586
109;1673391733.387898;47.1306425;7.2406216;19.887001037597656;1673391733.4460552;-17.7728214263916;1.7625006437301636;85.65483856201172
110;1673391733.5802596;47.1306425;7.2406216;20.303001403808594;1673391733.6453822;-17.605262756347656;-1.93821382522583;86.49022674560547
111;1673391733.7978735;47.1306425;7.2406215;20.714000701904297;1673391733.85643;-17.921310424804688;2.218658208847046;85.65747833251953
112;1673391734.0012279;47.1306424;7.2406215;21.12700080871582;1673391734.0662313;-17.794015884399414;2.334712505340576;85.55599212646484
113;1673391734.202614;47.1306425;7.240621399999999;21.543001174926758;1673391734.2592638;-17.93655776977539;-1.7767683267593384;86.57916259765625
114;1673391734.4012012;47.130642599999995;7.240621399999999;21.963001251220703;1673391734.4597938;-17.860387802124023;1.4056427478790283;86.07279968261719
115;1673391734.5966418;47.130642699999996;7.2406213;22.385000228881836;1673391734.6574233;-17.958433151245117;3.5692648887634277;85.4440689086914
116;1673391734.7988718;47.130642599999995;7.2406212;22.804000854492188;1673391734.8547313;-18.032392501831055;-1.13901686668396;86.34368133544922
117;1673391734.9994562;47.130642599999995;7.240621099999999;23.214000701904297;1673391735.0582407;-18.063753128051758;0.3400244414806366;86.05219268798828
118;1673391735.199046;47.1306425;7.240621099999999;23.62700080871582;1673391735.2546892;-17.800262451171875;3.211104393005371;85.21890258789062
119;1673391735.3993874;47.1306425;7.240621099999999;24.03900146484375;1673391735.456051;-18.06902503967285;-0.8201121091842651;86.2677993774414
120;1673391735.5987048;47.130642599999995;7.240621;24.448001861572266;1673391735.6564372;-17.738561630249023;-0.30782127380371094;86.3857192993164
121;1673391735.7992826;47.130642599999995;7.2406209;24.862001419067383;1673391735.8608706;-18.112287521362305;3.828134298324585;85.5150375366211
122;1673391736.01368;47.130642599999995;7.240620799999999;25.272001266479492;1673391736.0686355;-17.961301803588867;-0.07210449874401093;86.21415710449219
123;1673391736.2293136;47.130642599999995;7.2406207;25.68000030517578;1673391736.2888613;-18.158594131469727;-0.7840004563331604;86.40148162841797
124;1673391736.427635;47.130642599999995;7.2406206;26.07900047302246;1673391736.4813259;-18.259180068969727;3.4452626705169678;85.69902801513672
125;1673391736.5973494;47.130642599999995;7.2406206;26.48400115966797;1673391736.6510267;-18.13189125061035;0.9008980393409729;86.0450210571289
126;1673391736.7917902;47.130642699999996;7.2406204999999995;26.886001586914062;1673391736.8475244;-18.219736099243164;-1.0192049741744995;86.48241424560547
127;1673391736.9911218;47.1306428;7.2406204999999995;27.290000915527344;1673391737.0568774;-17.981870651245117;2.8307104110717773;85.77906036376953
128;1673391737.1982734;47.1306428;7.2406206;27.692001342773438;1673391737.2638214;-17.99325942993164;2.7112152576446533;85.66901397705078
129;1673391737.406557;47.130642699999996;7.2406206;28.09600067138672;1673391737.465114;-18.07914161682129;-1.650578498840332;86.45143127441406
130;1673391737.6077409;47.130642599999995;7.2406206;28.494001388549805;1673391737.6644492;-17.887874603271484;1.947028398513794;85.63687133789062
131;1673391737.8073738;47.1306425;7.2406206;28.8960018157959;1673391737.8692248;-17.913406372070312;2.6815950870513916;85.41130828857422
132;1673391738.0174549;47.1306424;7.2406206;29.302001953125;1673391738.0721924;-18.086299896240234;-1.8879331350326538;86.39730834960938
133;1673391738.205018;47.1306425;7.2406204999999995;29.71000099182129;1673391738.2606554;-17.896883010864258;1.3602426052093506;85.82749938964844
134;1673391738.4020345;47.1306425;7.2406204999999995;30.11800193786621;1673391738.4617877;-18.120920181274414;3.8502392768859863;85.2552261352539
135;1673391738.6036859;47.1306425;7.2406204;30.52800178527832;1673391738.663284;-18.040239334106445;-1.1052753925323486;86.38016510009766
136;1673391738.814785;47.1306425;7.2406204;30.93600082397461;1673391738.8831046;-18.173019409179688;0.5280227661132812;86.17223358154297
137;1673391739.023809;47.1306425;7.2406203;31.33100128173828;1673391739.0854704;-17.801380157470703;3.8719980716705322;85.2703857421875
138;1673391739.2262685;47.1306425;7.2406203;31.729001998901367;1673391739.2888029;-18.273536682128906;0.47183695435523987;86.01343536376953
139;1673391739.4304738;47.130642599999995;7.2406201999999995;32.130001068115234;1673391739.4892807;-18.1939754486084;-0.4717999994754791;86.36314392089844
140;1673391739.6296132;47.1306425;7.2406201999999995;32.53200149536133;1673391739.6843;-18.122888565063477;4.276487350463867;85.28407287597656
141;1673391739.8048997;47.1306424;7.2406201999999995;32.930999755859375;1673391739.86744;-18.152551651000977;0.5765319466590881;85.95059967041016
142;1673391740.018662;47.1306423;7.2406201999999995;33.33300018310547;1673391740.0779755;-18.38447380065918;-1.384405255317688;86.3561019897461
143;1673391740.2139275;47.1306422;7.2406201999999995;33.72700119018555;1673391740.2764022;-18.34480857849121;3.1691675186157227;85.36846160888672
144;1673391740.4130828;47.1306422;7.2406201999999995;34.12800216674805;1673391740.4716454;-18.087175369262695;1.404396414756775;85.7877426147461
145;1673391740.6124797;47.1306423;7.2406201999999995;34.53000259399414;1673391740.6652822;-18.393274307250977;-1.8626132011413574;86.62501525878906
146;1673391740.807967;47.1306424;7.2406201999999995;34.935001373291016;1673391740.8686597;-18.068939208984375;3.0110766887664795;85.4708251953125
147;1673391741.0023973;47.1306424;7.2406201999999995;35.34000015258789;1673391741.0690541;-18.230112075805664;2.776898145675659;85.58502960205078
148;1673391741.2309256;47.1306423;7.2406203;35.742000579833984;1673391741.2834675;-18.131397247314453;-1.4265342950820923;86.36711120605469
149;1673391741.4242718;47.1306423;7.2406201999999995;36.145999908447266;1673391741.4810317;-18.369131088256836;1.5862879753112793;85.8828353881836
150;1673391741.617617;47.1306424;7.2406201999999995;36.53900146484375;1673391741.6774204;-18.042577743530273;3.571436882019043;85.4996109008789
151;1673391741.827646;47.1306424;7.2406203;36.939002990722656;1673391741.8902905;-18.14354133605957;-0.2905116081237793;86.21055603027344
152;1673391742.0272222;47.130642599999995;7.2406203;37.342002868652344;1673391742.0809886;-18.101558685302734;0.9236084222793579;86.06265258789062
153;1673391742.223649;47.1306425;7.2406203;37.749000549316406;1673391742.2802927;-18.208147048950195;4.241203308105469;85.11119079589844
154;1673391742.4268663;47.1306424;7.2406203;38.15500259399414;1673391742.4844391;-18.22376823425293;-0.08445315062999725;86.07300567626953
155;1673391742.6263866;47.1306424;7.2406203;38.560001373291016;1673391742.6801426;-18.148303985595703;-0.12370224297046661;86.30352783203125
156;1673391742.8134005;47.1306424;7.2406203;38.9530029296875;1673391742.8720462;-18.00081443786621;3.6547060012817383;85.3237533569336
157;1673391743.0136983;47.1306424;7.2406204;39.35200119018555;1673391743.0771353;-18.184040069580078;1.287207007408142;85.93367004394531
158;1673391743.2161582;47.1306425;7.2406204;39.75300216674805;1673391743.2688584;-18.130083084106445;-0.9633216261863708;86.47598266601562
159;1673391743.4066634;47.1306425;7.2406204;40.160003662109375;1673391743.4671786;-18.10683822631836;3.542752981185913;85.46746063232422
160;1673391743.6223648;47.1306425;7.2406204;40.566001892089844;1673391743.6801038;-18.07394027709961;2.2510573863983154;85.58901977539062
161;1673391743.822955;47.1306424;7.2406204;40.970001220703125;1673391743.880607;-18.36791229248047;-1.4094759225845337;86.51226043701172
162;1673391744.0371;47.1306424;7.2406204;41.37200164794922;1673391744.0901175;-18.091835021972656;2.346025228500366;85.67216491699219
163;1673391744.2227113;47.1306425;7.2406204;41.76300048828125;1673391744.2765214;-18.09381103515625;3.2887589931488037;85.38616943359375
164;1673391744.4152484;47.1306425;7.2406203;42.160003662109375;1673391744.4758358;-18.39076042175293;-0.9584402441978455;86.48174285888672
165;1673391744.6184092;47.130642599999995;7.2406203;42.56300354003906;1673391744.6789217;-18.0987606048584;1.463836669921875;86.06590270996094
166;1673391744.81105;47.130642599999995;7.2406203;42.96800231933594;1673391744.8706856;-18.132305145263672;3.9686496257781982;85.4024429321289
167;1673391745.0103793;47.1306425;7.2406203;43.37300109863281;1673391745.0690715;-18.159379959106445;-0.8215705156326294;86.39265441894531
168;1673391745.2124207;47.1306425;7.2406203;43.77800369262695;1673391745.2691932;-18.393260955810547;0.9277833700180054;86.08476257324219
169;1673391745.4391801;47.1306425;7.2406203;44.172000885009766;1673391745.4977734;-18.0203800201416;4.29893684387207;85.34037780761719
170;1673391745.628101;47.1306425;7.2406201999999995;44.573001861572266;1673391745.6856863;-18.321531295776367;0.3822472393512726;86.18768310546875
171;1673391745.8158674;47.1306425;7.2406201999999995;44.97300338745117;1673391745.8727307;-18.231210708618164;-0.129580557346344;86.4428939819336
172;1673391746.0169294;47.1306425;7.2406201999999995;45.37700271606445;1673391746.075511;-18.279794692993164;4.272925853729248;85.40521240234375
173;1673391746.2243464;47.1306424;7.2406201;45.78300094604492;1673391746.288093;-18.17292594909668;0.9530813694000244;85.92106628417969
174;1673391746.469569;47.1306424;7.2406201;46.191001892089844;1673391746.5414581;-18.297571182250977;-1.034049391746521;86.3857421875
175;1673391746.6641748;47.1306424;7.24062;46.59300231933594;1673391746.7194483;-18.312076568603516;3.455115795135498;85.50338745117188
176;1673391746.8381634;47.1306424;7.24062;46.98200225830078;1673391746.9045866;-18.311948776245117;2.887747287750244;85.44174194335938
177;1673391747.0748963;47.1306425;7.24062;47.37800216674805;1673391747.125805;-18.503175735473633;-0.8638781309127808;86.4106216430664
178;1673391747.2413366;47.1306425;7.2406198999999996;47.7760009765625;1673391747.29338;-18.4794864654541;3.045252799987793;85.56460571289062
179;1673391747.4630663;47.1306424;7.2406198999999996;48.16800308227539;1673391747.5143688;-19.05130958557129;4.007199764251709;85.43151092529297
180;1673391747.651932;47.1306423;7.240619799999999;48.51700210571289;1673391747.7139797;-18.554073333740234;-1.544082522392273;86.42770385742188
181;1673391747.8686485;47.1306423;7.2406197;48.816001892089844;1673391747.9200163;-18.544963836669922;2.891633987426758;85.458984375
182;1673391748.048546;47.1306423;7.2406194;49.05400085449219;1673391748.1003423;-18.4598445892334;3.4269769191741943;85.30362701416016
183;1673391748.2334726;47.1306423;7.240619;49.25800323486328;1673391748.29008;-18.19856834411621;0.011268253438174725;86.36869812011719
184;1673391748.4317255;47.1306423;7.2406185;49.42900085449219;1673391748.4893363;1.0029757022857666;20.76064682006836;90.45120239257812
185;1673391748.6292217;47.130641399999995;7.2406168;49.57500076293945;1673391748.6879587;15.234222412109375;41.45452117919922;103.68817138671875
186;1673391748.8240004;47.130638499999996;7.240611899999999;49.69300079345703;1673391748.8796525;17.936826705932617;55.1336784362793;111.82976531982422
187;1673391749.0262482;47.130632999999996;7.2406029;49.76100158691406;1673391749.0887597;6.366275310516357;56.04893493652344;119.19945526123047
188;1673391749.2335877;47.1306247;7.2405897999999995;49.802001953125;1673391749.3009677;-7.542780876159668;55.4769172668457;130.54888916015625
189;1673391749.4429266;47.130614099999995;7.2405728;49.81900405883789;1673391749.4965906;-21.2707576751709;50.650474548339844;142.15444946289062
190;1673391749.642426;47.1306011;7.2405531;49.82500076293945;1673391749.700647;-34.463836669921875;49.89859390258789;151.42581176757812
191;1673391749.8276663;47.130586199999996;7.2405306;49.82100296020508;1673391749.88439;-44.48534393310547;45.31599044799805;163.33963012695312
192;1673391750.0183218;47.1305695;7.2405051;49.80000305175781;1673391750.0781252;-46.25312423706055;31.83418083190918;175.1951446533203
193;1673391750.2104988;47.1305516;7.2404775;49.77300262451172;1673391750.2696366;-48.66673278808594;24.485647201538086;-177.22271728515625
194;1673391750.4149776;47.1305325;7.2404483;49.74400329589844;1673391750.472206;-51.01723861694336;17.597797393798828;-169.02540588378906
195;1673391750.6178713;47.1305128;7.2404182;49.7140007019043;1673391750.6863885;-50.96228790283203;9.857500076293945;-160.8004150390625
196;1673391750.8340702;47.1304923;7.2403868;49.67000198364258;1673391750.8945758;-50.3799934387207;4.8984880447387695;-153.93170166015625
197;1673391751.0401025;47.130471299999996;7.2403547999999995;49.624000549316406;1673391751.097692;-47.49325942993164;1.067834734916687;-147.68142700195312
198;1673391751.246538;47.130449999999996;7.2403223;49.58500289916992;1673391751.303443;-45.39241027832031;-4.2677741050720215;-140.25306701660156
199;1673391751.4427679;47.130428599999995;7.2402896;49.55400085449219;1673391751.50817;-43.60150909423828;-11.677302360534668;-133.34568786621094
200;1673391751.6395252;47.1304071;7.240256899999999;49.5420036315918;1673391751.6931624;-44.336891174316406;-16.547447204589844;-134.23727416992188
201;1673391751.833927;47.130385399999994;7.2402245999999995;49.54600143432617;1673391751.890529;-46.606300354003906;-14.206069946289062;-138.6107177734375
202;1673391752.0368786;47.1303634;7.2401933;49.56700134277344;1673391752.0972059;-48.28584289550781;-13.256327629089355;-140.0479736328125
203;1673391752.2368279;47.1303409;7.2401621;49.58500289916992;1673391752.3017728;-48.44539260864258;-11.527865409851074;-140.86627197265625
204;1673391752.4393015;47.130317999999995;7.240131099999999;49.60300064086914;1673391752.4970808;-48.59028244018555;-9.889958381652832;-141.1370086669922
205;1673391752.6336849;47.130294799999994;7.240100099999999;49.61900329589844;1673391752.7011096;-47.55866622924805;-9.377191543579102;-140.80780029296875
206;1673391752.8429885;47.1302715;7.2400693;49.63800048828125;1673391752.9064856;-46.48948287963867;-9.006000518798828;-140.5207977294922
207;1673391753.0472684;47.1302482;7.2400385;49.66100311279297;1673391753.1087615;-46.84589385986328;-9.020801544189453;-140.1658172607422
208;1673391753.2409286;47.130224999999996;7.2400079999999996;49.682003021240234;1673391753.303392;-47.22979736328125;-8.906208038330078;-139.91969299316406
209;1673391753.4418359;47.1302017;7.2399774;49.69900131225586;1673391753.510512;-46.93138885498047;-8.85881519317627;-139.73448181152344
210;1673391753.6467166;47.1301783;7.239946499999999;49.7130012512207;1673391753.7003958;-46.453372955322266;-8.800498008728027;-139.5751190185547
211;1673391753.8332644;47.130154999999995;7.2399156;49.730003356933594;1673391753.8937747;-46.60544967651367;-8.859292984008789;-139.4100341796875
212;1673391754.038706;47.1301317;7.2398846;49.742000579833984;1673391754.0972664;-46.855133056640625;-8.960299491882324;-139.32772827148438
213;1673391754.2341423;47.1301085;7.2398536;49.755001068115234;1673391754.2927024;-47.053260803222656;-9.037158966064453;-139.2750701904297
214;1673391754.4435012;47.1300853;7.2398225;49.76900100708008;1673391754.5051548;-47.19224166870117;-9.12696647644043;-139.22567749023438
215;1673391754.635241;47.130062099999996;7.239791599999999;49.77700424194336;1673391754.6870382;-46.87160110473633;-8.90125846862793;-139.2076416015625
216;1673391754.818352;47.130038899999995;7.2397605;49.78200149536133;1673391754.8810158;-46.57992172241211;-8.908963203430176;-139.17581176757812
217;1673391755.025669;47.130015799999995;7.239729199999999;49.790000915527344;1673391755.0814807;-46.72576904296875;-9.040144920349121;-139.1339874267578
218;1673391755.229748;47.129992699999995;7.2396978999999995;49.79900360107422;1673391755.2863472;-47.17988586425781;-9.163070678710938;-139.12130737304688
219;1673391755.4466622;47.1299695;7.239666499999999;49.807003021240234;1673391755.5180047;-47.317874908447266;-9.225286483764648;-139.1429901123047
220;1673391755.6828496;47.129946399999994;7.239635;49.81500244140625;1673391755.76153;-47.08900451660156;-9.193914413452148;-139.16177368164062
221;1673391755.9385536;47.1299232;7.239603799999999;49.82100296020508;1673391756.0363898;-47.040748596191406;-9.066414833068848;-139.1697998046875
222;1673391756.1866426;47.1299001;7.239572399999999;49.827003479003906;1673391756.223776;-47.09127426147461;-9.138253211975098;-139.10940551757812
223;1673391756.3216226;47.1298769;7.239541;49.83400344848633;1673391756.3680828;-47.290470123291016;-9.109959602355957;-139.14698791503906
224;1673391756.4848952;47.1298537;7.2395095;49.8380012512207;1673391756.535488;-47.22078323364258;-9.063241004943848;-139.1832733154297
225;1673391756.66114;47.1298305;7.239478;49.83700180053711;1673391756.7141535;-46.81196594238281;-9.000064849853516;-139.17967224121094
226;1673391756.8495493;47.1298074;7.239446399999999;49.836002349853516;1673391756.9043758;-46.74359130859375;-8.998224258422852;-139.1658935546875
227;1673391757.039135;47.1297843;7.2394149;49.83400344848633;1673391757.0979207;-46.82719421386719;-9.016133308410645;-139.1642303466797
228;1673391757.2334778;47.1297612;7.2393835;49.83500289916992;1673391757.2883;-46.950111389160156;-8.990304946899414;-139.19630432128906
229;1673391757.4272482;47.129737999999996;7.2393519;49.8380012512207;1673391757.4873197;-47.15026092529297;-9.003449440002441;-139.20867919921875
230;1673391757.638117;47.129714899999996;7.239320299999999;49.842002868652344;1673391757.7007725;-47.35112762451172;-8.991052627563477;-139.2245330810547
231;1673391757.8419878;47.129691699999995;7.2392886;49.84100341796875;1673391757.904548;-47.19343566894531;-8.925414085388184;-139.32369995117188
232;1673391758.0536356;47.129668599999995;7.239256999999999;49.84300231933594;1673391758.111473;-47.01266860961914;-8.91226863861084;-139.33987426757812
233;1673391758.2571578;47.1296454;7.2392254;49.84100341796875;1673391758.3137655;-46.9354248046875;-8.91794490814209;-139.34637451171875
234;1673391758.449437;47.1296223;7.2391938;49.84400177001953;1673391758.5090039;-47.11865997314453;-8.898921966552734;-139.37586975097656
235;1673391758.6662626;47.1295991;7.2391622;49.845001220703125;1673391758.7170362;-47.236671447753906;-8.866557121276855;-139.42672729492188
236;1673391758.8578045;47.129576;7.239130599999999;49.85000228881836;1673391758.9167104;-47.24554443359375;-8.852057456970215;-139.45909118652344
237;1673391759.057385;47.1295529;7.2390989999999995;49.85200119018555;1673391759.1172318;-47.145381927490234;-8.75271224975586;-139.53274536132812
238;1673391759.2565444;47.1295298;7.239067299999999;49.85200119018555;1673391759.3091593;-46.959896087646484;-8.710332870483398;-139.59913635253906
239;1673391759.4394207;47.1295066;7.2390357;49.85300064086914;1673391759.5078268;-46.86674880981445;-8.655375480651855;-139.6417694091797
240;1673391759.6425803;47.1294835;7.2390041;49.85600280761719;1673391759.702302;-47.029605865478516;-8.555670738220215;-139.7376251220703
241;1673391759.8465972;47.1294604;7.2389724;49.8640022277832;1673391759.9090624;-47.21121597290039;-8.565166473388672;-139.81993103027344
242;1673391760.0537317;47.1294372;7.2389408;49.87200164794922;1673391760.1134174;-47.2249755859375;-9.871783256530762;-139.6207275390625
243;1673391760.2661226;47.129414;7.238909199999999;49.88300323486328;1673391760.321828;-48.018585205078125;-11.555920600891113;-140.00926208496094
244;1673391760.4525185;47.1293906;7.2388778;49.89600372314453;1673391760.5072935;-47.22612380981445;-14.894551277160645;-140.0888214111328
245;1673391760.6433868;47.129366999999995;7.2388468999999995;49.90800094604492;1673391760.7081263;-47.40922164916992;-14.473637580871582;-141.1849822998047
246;1673391760.8565853;47.1293431;7.2388164999999995;49.919002532958984;1673391760.9113972;-45.261993408203125;-15.889533996582031;-141.5426788330078
247;1673391761.041432;47.1293191;7.2387869;49.94300079345703;1673391761.0951717;-32.91258239746094;-15.107527732849121;-142.08331298828125
248;1673391761.222911;47.129295299999995;7.2387584;49.97700119018555;1673391761.280067;-13.847546577453613;-15.091324806213379;-140.3612060546875
249;1673391761.4341736;47.1292729;7.2387317;49.99800109863281;1673391761.4903517;4.809977054595947;-11.62877368927002;-137.6647491455078
250;1673391761.6425033;47.1292525;7.2387074;50.00600051879883;1673391761.704063;18.30898094177246;-8.569580078125;-136.1337432861328
251;1673391761.846945;47.129235099999995;7.238685899999999;49.99100112915039;1673391761.9105508;27.588096618652344;-7.960170745849609;-136.46969604492188
252;1673391762.0512676;47.129220499999995;7.2386674;49.922000885009766;1673391762.1226847;20.723711013793945;-5.21845817565918;-135.84242248535156
253;1673391762.2635698;47.1292087;7.2386515;49.83700180053711;1673391762.3240805;24.045785903930664;-9.910782814025879;-133.8744354248047
254;1673391762.4629662;47.129199299999996;7.238638099999999;49.80000305175781;1673391762.5245113;31.61208152770996;-15.64020824432373;-133.7740478515625
255;1673391762.665364;47.129191999999996;7.238627699999999;49.810001373291016;1673391762.7200704;25.07796287536621;-18.208833694458008;-134.19068908691406
256;1673391762.8405542;47.129186399999995;7.23862;49.84600067138672;1673391762.8953607;18.082971572875977;-17.213367462158203;-135.58401489257812
257;1673391763.0289907;47.1291817;7.2386142;49.887001037597656;1673391763.0924852;10.860872268676758;-14.010734558105469;-136.12747192382812
258;1673391763.234674;47.1291775;7.2386094;49.92400360107422;1673391763.2947598;3.493826389312744;-13.468045234680176;-137.12884521484375
259;1673391763.4474077;47.1291735;7.2386047;49.954002380371094;1673391763.5099518;-0.2543177902698517;-13.662394523620605;-136.81356811523438
260;1673391763.6505375;47.129169399999995;7.2385997;49.98400115966797;1673391763.7111733;-0.6431397795677185;-12.423832893371582;-136.1453399658203
261;1673391763.8653555;47.1291655;7.2385945;50.009002685546875;1673391763.9212246;1.2990742921829224;-10.81566333770752;-135.5701904296875
262;1673391764.0673175;47.1291618;7.2385893;50.0260009765625;1673391764.1309369;5.019371509552002;-10.909525871276855;-135.46786499023438
263;1673391764.2702956;47.1291583;7.2385841;50.0410041809082;1673391764.3617136;10.178670883178711;-10.12564468383789;-135.76487731933594
264;1673391764.486353;47.1291552;7.2385791;50.05800247192383;1673391764.5332122;10.060922622680664;-9.789654731750488;-136.1624755859375
265;1673391764.6750472;47.1291522;7.2385744;50.095001220703125;1673391764.741167;-18.126237869262695;-13.84444808959961;-135.69837951660156
266;1673391764.8931453;47.1291486;7.2385687999999995;50.17500305175781;1673391764.9610786;-21.50044822692871;-10.335084915161133;-136.77740478515625
267;1673391765.0844603;47.1291438;7.2385611;50.34100341796875;1673391765.139158;-22.94118881225586;-6.300326347351074;-137.86358642578125
268;1673391765.2663696;47.1291381;7.2385516;50.605003356933594;1673391765.3210256;-19.152629852294922;-5.239706993103027;-137.86331176757812
269;1673391765.4540462;47.129131699999995;7.238540599999999;50.95500183105469;1673391765.5020366;-32.597206115722656;-19.84581756591797;-137.6295928955078
270;1673391765.6428792;47.1291237;7.2385284;51.35200119018555;1673391765.712177;-30.70465660095215;-16.15314292907715;-139.25579833984375
271;1673391765.855722;47.1291142;7.2385155;51.756004333496094;1673391765.9202187;-25.892961502075195;-17.6911563873291;-138.3470001220703
272;1673391766.074667;47.1291036;7.2385021;52.15700149536133;1673391766.1354306;-21.205869674682617;-16.508840560913086;-138.00022888183594
273;1673391766.262619;47.1290925;7.2384885;52.551002502441406;1673391766.3211882;-17.851200103759766;-15.206225395202637;-137.18353271484375
274;1673391766.4474807;47.129081199999995;7.2384746;52.948001861572266;1673391766.5090384;-14.120867729187012;-13.8775634765625;-136.951904296875
275;1673391766.662346;47.12907;7.2384606;53.34800338745117;1673391766.7249815;-11.655807495117188;-11.308238983154297;-136.94833374023438
276;1673391766.8658159;47.1290591;7.2384466;53.74700164794922;1673391766.9234185;-9.910847663879395;-9.022601127624512;-137.0218963623047
277;1673391767.054455;47.1290486;7.2384327;54.14900207519531;1673391767.1151445;-9.774091720581055;-8.010454177856445;-136.95965576171875
278;1673391767.248224;47.1290385;7.2384189;54.547000885009766;1673391767.3097227;-10.496733665466309;-9.406490325927734;-136.77757263183594
279;1673391767.4719903;47.1290287;7.238405299999999;54.945003509521484;1673391767.5241058;-11.786837577819824;-11.997505187988281;-136.45208740234375
280;1673391767.666624;47.1290191;7.2383919;55.33900451660156;1673391767.7284577;-13.155183792114258;-14.390777587890625;-136.22584533691406
281;1673391767.8649101;47.129009599999996;7.2383786;55.737003326416016;1673391767.929328;-14.137417793273926;-15.29675579071045;-136.15452575683594
282;1673391768.070939;47.1290001;7.2383653;56.13600158691406;1673391768.1236436;-14.876774787902832;-15.485248565673828;-136.24038696289062
283;1673391768.2565627;47.128990599999995;7.238352;56.53300094604492;1673391768.3160992;-15.785608291625977;-14.506694793701172;-136.49322509765625
284;1673391768.4607344;47.128980899999995;7.2383387;56.928001403808594;1673391768.5154378;-16.148500442504883;-13.237144470214844;-136.72921752929688
285;1673391768.64483;47.128971;7.238325199999999;57.32500457763672;1673391768.6990383;-16.45897102355957;-11.454235076904297;-137.16297912597656
286;1673391768.8461866;47.1289611;7.238311599999999;57.71800231933594;1673391768.9062672;-16.38534164428711;-11.00222396850586;-137.2917938232422
287;1673391769.0463595;47.128951;7.2382979999999995;58.11300277709961;1673391769.102564;-15.821283340454102;-10.552937507629395;-137.39259338378906
288;1673391769.245776;47.128940799999995;7.2382843;58.509002685546875;1673391769.3108144;-15.514595031738281;-11.7606782913208;-137.14991760253906
289;1673391769.451413;47.1289306;7.238270699999999;58.906002044677734;1673391769.511909;-14.964140892028809;-13.51694107055664;-136.82852172851562
290;1673391769.6547136;47.1289204;7.238257;59.301002502441406;1673391769.725014;-14.417880058288574;-14.382429122924805;-136.71726989746094
291;1673391769.8737452;47.1289103;7.238243199999999;59.69900131225586;1673391769.9323082;-14.111855506896973;-13.767154693603516;-136.84527587890625
292;1673391770.0807493;47.1289002;7.2382292999999995;60.095001220703125;1673391770.1354117;-13.990628242492676;-12.78150463104248;-136.90455627441406
293;1673391770.293786;47.128890299999995;7.2382155;60.4890022277832;1673391770.3494408;-14.037039756774902;-11.573383331298828;-137.01312255859375
294;1673391770.4822745;47.1288804;7.238201699999999;60.884002685546875;1673391770.5398643;-14.41591739654541;-11.155376434326172;-137.02377319335938
295;1673391770.67954;47.1288706;7.2381879;61.28200149536133;1673391770.7322414;-14.848249435424805;-10.769051551818848;-137.0523681640625
296;1673391770.8583877;47.128860599999996;7.238174099999999;61.68300247192383;1673391770.9229217;-14.904351234436035;-11.210736274719238;-136.96287536621094
297;1673391771.0735953;47.1288507;7.2381604;62.08700180053711;1673391771.1205156;-15.241240501403809;-11.875520706176758;-136.74557495117188
298;1673391771.2472413;47.1288407;7.2381467;62.49400329589844;1673391771.3063521;-15.27958869934082;-12.398221015930176;-136.74609375
299;1673391771.4464495;47.128830799999996;7.2381329999999995;62.894004821777344;1673391771.5055318;-15.14974308013916;-13.051915168762207;-136.6575469970703
300;1673391771.6588564;47.1288208;7.2381193999999995;63.298004150390625;1673391771.720344;-15.126509666442871;-13.943710327148438;-136.4579315185547
301;1673391771.8581834;47.1288109;7.238105699999999;63.69900131225586;1673391771.9138148;-15.055180549621582;-14.572941780090332;-136.4274444580078
302;1673391772.0490885;47.128800999999996;7.2380922;64.10100555419922;1673391772.1130748;-15.175126075744629;-14.626291275024414;-136.5677490234375
303;1673391772.2664478;47.128791;7.2380786;64.5;1673391772.3152652;-15.186666488647461;-14.580160140991211;-136.53004455566406
304;1673391772.4607706;47.1287811;7.2380648999999995;64.89800262451172;1673391772.5203059;-15.241559028625488;-14.568741798400879;-136.59954833984375
305;1673391772.6629624;47.128771099999994;7.238051199999999;65.29800415039062;1673391772.720548;-15.201942443847656;-13.736594200134277;-136.81332397460938
306;1673391772.8623996;47.1287611;7.2380375;65.69200134277344;1673391772.9180162;-15.262693405151367;-13.38803482055664;-136.83128356933594
307;1673391773.0684354;47.128751099999995;7.2380236;66.09200286865234;1673391773.1270084;-15.27487564086914;-12.504791259765625;-137.13743591308594
308;1673391773.2516592;47.1287411;7.2380096;66.49000549316406;1673391773.3114681;-15.136175155639648;-12.107414245605469;-137.35655212402344
309;1673391773.4543455;47.1287312;7.2379957;66.88700103759766;1673391773.5135925;-15.22812271118164;-11.33284854888916;-137.36749267578125
310;1673391773.6547182;47.1287212;7.237981899999999;67.28400421142578;1673391773.7063448;-15.244583129882812;-11.619682312011719;-137.3706817626953
311;1673391773.8489387;47.1287112;7.2379679999999995;67.68099975585938;1673391773.9080303;-15.048555374145508;-11.449369430541992;-137.50418090820312
312;1673391774.0605395;47.128701199999995;7.237954299999999;68.07200622558594;1673391774.119175;-15.146012306213379;-11.266427040100098;-137.59254455566406
313;1673391774.256999;47.128690999999996;7.2379406;68.46700286865234;1673391774.3147235;-15.1490478515625;-11.311716079711914;-137.4783477783203
314;1673391774.4549196;47.1286809;7.237927;68.86199951171875;1673391774.511893;-15.28756046295166;-11.1218900680542;-137.28665161132812
315;1673391774.6576831;47.128670799999995;7.2379134999999994;69.25900268554688;1673391774.7172205;-15.264265060424805;-10.838804244995117;-137.2303009033203
316;1673391774.8591762;47.1286607;7.2378998999999995;69.65400695800781;1673391774.9148421;-15.434500694274902;-10.643318176269531;-136.9856719970703
317;1673391775.0570216;47.1286506;7.2378862999999996;70.05000305175781;1673391775.1244075;-15.136813163757324;-10.951692581176758;-136.84019470214844
318;1673391775.253389;47.1286407;7.237872599999999;70.43900299072266;1673391775.3135529;4.022358417510986;-12.454445838928223;-137.4142303466797
319;1673391775.47011;47.128631399999996;7.2378597;70.79300689697266;1673391775.5247395;7.63247537612915;-12.530708312988281;-136.54063415527344
320;1673391775.6646545;47.128623;7.237848;71.11700439453125;1673391775.7213166;13.545659065246582;-12.746969223022461;-136.32679748535156
321;1673391775.8700423;47.128615499999995;7.2378374;71.4010009765625;1673391775.9276679;17.595111846923828;-13.406133651733398;-136.2332305908203
322;1673391776.0616055;47.1286091;7.237828299999999;71.64000701904297;1673391776.1174188;19.183658599853516;-13.255671501159668;-136.3760528564453
323;1673391776.2607388;47.1286037;7.2378206;71.84000396728516;1673391776.325212;19.728269577026367;-14.36046314239502;-136.6044921875
324;1673391776.455178;47.1285993;7.237814299999999;72.01200103759766;1673391776.5187948;19.074066162109375;-14.700003623962402;-136.72328186035156
325;1673391776.6664412;47.1285958;7.2378092;72.16100311279297;1673391776.7250993;17.708742141723633;-14.68933391571045;-137.0745086669922
326;1673391776.8583086;47.128592999999995;7.237805;72.29400634765625;1673391776.9095764;17.05921173095703;-6.077436447143555;-135.9252166748047
327;1673391777.0566947;47.1285911;7.2378010999999995;72.40400695800781;1673391777.1243548;21.39610481262207;15.470819473266602;-125.55188751220703
328;1673391777.2709196;47.1285905;7.237796899999999;72.48800659179688;1673391777.324587;14.04527759552002;15.37354564666748;-116.31996154785156
329;1673391777.4588637;47.1285911;7.2377921999999995;72.53900146484375;1673391777.511848;13.492196083068848;8.987203598022461;-105.7954330444336
330;1673391777.6466715;47.128592499999996;7.237787;72.58100128173828;1673391777.707716;9.033499717712402;10.446571350097656;-96.80697631835938
331;1673391777.840118;47.1285945;7.2377816;72.625;1673391777.9002032;7.829700469970703;8.355403900146484;-87.28823852539062
332;1673391778.0563283;47.1285969;7.2377758;72.66699981689453;1673391778.124681;5.561643600463867;7.331842422485352;-77.56641387939453
333;1673391778.2667801;47.1285995;7.2377698;72.71000671386719;1673391778.3225927;3.8099374771118164;8.754880905151367;-67.81587219238281
334;1673391778.4668431;47.128602199999996;7.2377636999999995;72.75100708007812;1673391778.5206773;3.8492343425750732;9.869857788085938;-58.92167663574219
335;1673391778.653153;47.128605;7.2377575;72.78700256347656;1673391778.7141974;4.446168899536133;11.439531326293945;-49.88504409790039
336;1673391778.8622103;47.128607699999996;7.237751299999999;72.81700134277344;1673391778.9213119;4.7709856033325195;12.887758255004883;-41.485755920410156
337;1673391779.0620604;47.1286103;7.2377452;72.84500122070312;1673391779.1217186;4.308807849884033;13.542776107788086;-39.85523223876953
338;1673391779.2752166;47.1286127;7.2377391;72.86700439453125;1673391779.3347566;-12.169532775878906;14.042824745178223;-44.87869644165039
339;1673391779.4698534;47.1286158;7.2377322;72.89700317382812;1673391779.526499;-39.05979919433594;10.918889045715332;-46.407108306884766
340;1673391779.6621501;47.128620399999996;7.237723;72.93000030517578;1673391779.721853;-55.462894439697266;6.852413177490234;-44.24189376831055
341;1673391779.8710256;47.1286272;7.2377101999999995;72.93400573730469;1673391779.9352705;-52.02928161621094;4.404857635498047;-44.52617263793945
342;1673391780.0797539;47.128636199999995;7.2376936999999995;72.93700408935547;1673391780.1375413;-53.43384552001953;4.498473167419434;-45.049259185791016
343;1673391780.2890077;47.128647199999996;7.2376736;72.9540023803711;1673391780.3495016;-57.51594924926758;3.8275575637817383;-44.058876037597656
344;1673391780.485282;47.1286603;7.2376499999999995;72.97300720214844;1673391780.5401187;-58.96921920776367;4.813581943511963;-43.00693130493164
345;1673391780.68273;47.128675099999995;7.2376235;72.97900390625;1673391780.7437837;-57.399253845214844;5.719545841217041;-42.79704666137695
346;1673391780.9162445;47.128691599999996;7.2375948;72.9780044555664;1673391780.966167;-53.84014892578125;7.097070693969727;-43.248592376708984
347;1673391781.0990047;47.128709099999995;7.2375649;72.88600158691406;1673391781.1522262;-39.685218811035156;4.293280601501465;-41.40562057495117
348;1673391781.2883809;47.1287266;7.2375349;72.4520034790039;1673391781.3401036;-7.135904312133789;-0.7398200035095215;-40.09646224975586
349;1673391781.4782822;47.128743799999995;7.2375051;71.64000701904297;1673391781.5333855;44.607337951660156;-9.841127395629883;-44.368553161621094
350;1673391781.6764202;47.128761;7.2374753;70.41900634765625;1673391781.7330852;75.45072174072266;-146.0496368408203;-176.8867950439453
351;1673391781.8698373;47.1287781;7.2374456;68.80900573730469;1673391781.9245753;39.30669021606445;-175.55860900878906;154.93167114257812
352;1673391782.0674155;47.1287951;7.237416;66.85700225830078;1673391782.1262527;27.227914810180664;-178.2846221923828;151.1374969482422
353;1673391782.2671533;47.1288118;7.2373867;64.55000305175781;1673391782.3263917;42.26935577392578;-175.83168029785156;152.4005889892578
354;1673391782.4652452;47.1288282;7.237357599999999;61.88600158691406;1673391782.5253406;84.75450134277344;-130.22340393066406;-164.10508728027344
355;1673391782.6623955;47.1288445;7.2373286;58.87600326538086;1673391782.717121;25.52888298034668;-0.7522034049034119;-39.0966911315918
356;1673391782.8573349;47.1288609;7.2372995;55.471004486083984;1673391782.917328;-37.604148864746094;4.766556262969971;-38.67865753173828
357;1673391783.0493507;47.1288768;7.2372708;51.68000411987305;1673391783.1063838;-67.01761627197266;6.201135158538818;-38.10380935668945
358;1673391783.2552547;47.1288924;7.2372425;47.55000305175781;1673391783.3141985;-55.3341178894043;1.4234731197357178;-32.55244445800781
359;1673391783.4601886;47.1289077;7.2372144;43.10600280761719;1673391783.5272534;-2.488142490386963;-0.8892326354980469;-30.211990356445312
360;1673391783.684253;47.1289227;7.2371865;38.281002044677734;1673391783.7418616;66.2633056640625;-0.36191871762275696;-27.61174964904785
361;1673391783.8821409;47.1289379;7.2371585;33.08100128173828;1673391783.9441278;77.03978729248047;168.8145294189453;141.58946228027344
362;1673391784.0982268;47.1289531;7.2371305999999995;27.577001571655273;1673391784.1521463;85.29988098144531;65.44853210449219;37.74470138549805
363;1673391784.2991667;47.1289683;7.2371026999999994;21.77800178527832;1673391784.3503883;26.668298721313477;4.645241737365723;-23.09804344177246
364;1673391784.4903657;47.1289837;7.2370747;15.596000671386719;1673391784.5581872;-40.39091873168945;0.2562233805656433;-24.578657150268555
365;1673391784.69469;47.128998599999996;7.237047;9.04900074005127;1673391784.752287;-60.78821563720703;-4.15812873840332;-21.12255096435547
366;1673391784.8991182;47.129013;7.237019699999999;2.2110002040863037;1673391784.9563813;-26.86998748779297;-0.7141692638397217;-19.6739501953125
367;1673391785.0855367;47.1290231;7.237006099999999;0.2990000247955322;1673391785.1453254;-9.855996131896973;-5.813419818878174;-27.512496948242188
368;1673391785.2782674;47.1290355;7.2369973;0.49400001764297485;1673391785.346369;-9.285475730895996;-2.554734230041504;-27.49785041809082
369;1673391785.4820127;47.1290488;7.2369886;0.6670000553131104;1673391785.5410664;-9.09288215637207;-7.416162490844727;-26.48174285888672
370;1673391785.6863837;47.1290615;7.2369802;0.8030000329017639;1673391785.7453084;-8.82866096496582;-7.889005661010742;-26.00809097290039
371;1673391785.8831537;47.129074499999994;7.236971199999999;0.9500000476837158;1673391785.9411318;-8.607730865478516;-9.22675609588623;-25.768945693969727
372;1673391786.0872767;47.129087999999996;7.2369616;1.0320000648498535;1673391786.149233;-8.497671127319336;-9.993793487548828;-25.581274032592773
373;1673391786.2950408;47.1291018;7.2369514;1.0789999961853027;1673391786.3532124;-8.372437477111816;-10.217168807983398;-25.480789184570312
374;1673391786.4941597;47.1291158;7.2369407;1.1050000190734863;1673391786.553173;-8.318305015563965;-10.236413955688477;-25.520360946655273
375;1673391786.6982765;47.1291302;7.236929399999999;1.1200000047683716;1673391786.7601779;-8.190023422241211;-10.223885536193848;-25.596529006958008
376;1673391786.9093246;47.1291449;7.2369176;1.127000093460083;1673391786.9631412;-8.13672161102295;-10.031352043151855;-25.660493850708008
377;1673391787.089499;47.1291598;7.2369050999999995;1.165000081062317;1673391787.161311;-8.038068771362305;-9.778975486755371;-25.73253059387207
378;1673391787.296304;47.1291751;7.236892;1.1770000457763672;1673391787.3522096;-7.976797580718994;-9.504535675048828;-25.781938552856445
379;1673391787.5003965;47.1291906;7.2368784999999995;1.1750000715255737;1673391787.5593;-7.926779747009277;-9.234535217285156;-25.8502140045166
380;1673391787.695562;47.1292064;7.2368643;1.165000081062317;1673391787.7724037;-7.873083591461182;-9.013154983520508;-25.88456153869629
381;1673391787.917415;47.1292226;7.236849599999999;1.1490000486373901;1673391787.976219;-7.80258846282959;-8.754023551940918;-25.943283081054688
382;1673391788.1044302;47.129239;7.2368343;1.128000020980835;1673391788.1602106;-7.78492546081543;-8.461709022521973;-25.987815856933594
383;1673391788.2920494;47.129255699999995;7.2368185;1.1060000658035278;1673391788.344127;-7.749578952789307;-8.148542404174805;-26.028778076171875
384;1673391788.4910848;47.1292726;7.236802;1.097000002861023;1673391788.5542283;-7.690945625305176;-7.939846992492676;-26.07175636291504
385;1673391788.6984408;47.129289899999996;7.236784999999999;1.0750000476837158;1673391788.758201;-7.628004550933838;-7.631852149963379;-26.112594604492188
386;1673391788.8941634;47.129307399999995;7.2367675;1.0480000972747803;1673391788.9532454;-7.567394256591797;-7.372523784637451;-26.163890838623047
387;1673391789.08952;47.1293252;7.2367493;1.0160000324249268;1673391789.1504633;-7.516838550567627;-7.1081438064575195;-26.211484909057617
388;1673391789.287362;47.1293432;7.2367306;0.9790000319480896;1673391789.3477893;-7.477639675140381;-6.827975273132324;-26.25162696838379
389;1673391789.4942544;47.129361499999995;7.2367114;0.9440000653266907;1673391789.555323;-7.46913480758667;-6.56005334854126;-26.300785064697266
390;1673391789.7033255;47.1293801;7.2366917;0.9130000472068787;1673391789.7593563;-7.384795188903809;-6.275565147399902;-26.354259490966797
391;1673391789.8945315;47.1293988;7.2366714;0.8760000467300415;1673391789.9577706;-7.384902477264404;-5.9974589347839355;-26.390527725219727
392;1673391790.103127;47.1294179;7.2366506;0.8360000252723694;1673391790.1623204;-7.302577495574951;-5.7317376136779785;-26.460702896118164
393;1673391790.3006098;47.1294372;7.236629199999999;0.7950000166893005;1673391790.3573384;-7.256801605224609;-5.475464820861816;-26.529132843017578
394;1673391790.4941185;47.1294567;7.2366074;0.7500000596046448;1673391790.5573256;-7.205623149871826;-5.247608184814453;-26.59242820739746
395;1673391790.6974573;47.129460699999996;7.236603;0.7160000205039978;1673391790.7568133;-7.201686382293701;-5.014456748962402;-26.64577293395996
396;;;;;1673391790.965381;-7.213988304138184;-4.79155969619751;-26.6878662109375
397;;;;;1673391791.157399;-7.140932559967041;-4.002701282501221;-26.756200790405273
