;pos_time;latitude;longitude;altitude;alt_time;pitch;roll;yaw
0;1673390608.3280947;47.1306425;7.2406193;-0.03200000151991844;1673390608.4276743;0.08988024294376373;-0.09132020175457001;90.07032012939453
1;1673390608.53559;47.1306425;7.2406194;-0.030000001192092896;1673390608.635751;0.13064272701740265;-0.07898667454719543;90.02497863769531
2;1673390608.7243087;47.1306425;7.2406193;-0.030000001192092896;1673390608.8255856;-0.017802126705646515;-0.1361948698759079;90.0564956665039
3;1673390608.9218764;47.1306425;7.2406194;-0.029000001028180122;1673390609.0226479;-0.047628697007894516;0.05097145587205887;90.00598907470703
4;1673390609.125194;47.1306425;7.240619499999999;-0.02500000037252903;1673390609.2292497;0.16055679321289062;-0.132472425699234;89.90531921386719
5;1673390609.3227022;47.1306425;7.2406196;-0.021000001579523087;1673390609.4228485;0.1338522881269455;-0.017307380214333534;90.03315734863281
6;1673390609.5192618;47.1306424;7.2406197;-0.021000001579523087;1673390609.6137779;0.09785027801990509;0.0647205337882042;89.97209167480469
7;1673390609.7063062;47.1306424;7.240619799999999;-0.023000001907348633;1673390609.8224046;0.2243705838918686;-0.09629783034324646;90.14414978027344
8;1673390609.9260728;47.1306424;7.2406198999999996;-0.02500000037252903;1673390610.0380874;-0.15574325621128082;0.06741440296173096;89.96825408935547
9;1673390610.1460068;47.1306423;7.2406198999999996;-0.026000000536441803;1673390610.2331877;-0.09486924856901169;-0.1682540327310562;90.00106811523438
10;1673390610.3357465;47.1306423;7.24062;-0.027000000700354576;1673390610.4400468;-0.09871664643287659;-0.050664547830820084;90.13331604003906
11;1673390610.5351071;47.1306423;7.24062;-0.03100000135600567;1673390610.6342418;-0.1236327663064003;-0.038813743740320206;90.00933074951172
12;1673390610.7266238;47.1306423;7.24062;-0.03500000014901161;1673390610.8298187;-0.08363557606935501;-0.2356640100479126;90.14585876464844
13;1673390610.931219;47.1306423;7.24062;-0.039000000804662704;1673390611.0372336;-0.0771208330988884;-0.05112851783633232;90.16073608398438
14;1673390611.1246307;47.1306423;7.2406198999999996;0.0;1673390611.221289;-0.07133173942565918;-0.9797080755233765;90.11993408203125
15;1673390611.3219178;47.1306424;7.240619799999999;0.0010000000474974513;1673390611.424999;-0.11186645179986954;-0.6586987376213074;90.04376220703125
16;1673390611.5243244;47.1306424;7.240619799999999;0.003000000026077032;1673390611.6236353;0.13379965722560883;-0.7148917317390442;89.86139678955078
17;1673390611.7160218;47.1306424;7.240619799999999;0.005000000353902578;1673390611.8220243;0.056613653898239136;-0.7115930318832397;90.00261688232422
18;1673390611.9422364;47.1306424;7.2406198999999996;0.007000000216066837;1673390612.0391529;0.10463134944438934;-0.553528368473053;89.94329833984375
19;1673390612.1432137;47.1306424;7.2406198999999996;0.01100000087171793;1673390612.2592287;0.23881229758262634;-0.9341077208518982;89.91963195800781
20;1673390612.3551354;47.1306424;7.24062;0.013000000268220901;1673390612.4541547;0.12337112426757812;-1.3056180477142334;89.82515716552734
21;1673390612.5652719;47.1306424;7.2406201;0.014000000432133675;1673390612.6661365;0.17107172310352325;-1.0392075777053833;89.89629364013672
22;1673390612.77621;47.1306424;7.2406201999999995;0.0;1673390612.8751276;0.009710393846035004;-1.1413888931274414;89.79325103759766
23;1673390612.979172;47.1306424;7.2406201999999995;0.0020000000949949026;1673390613.0801368;0.1730114221572876;-0.5334572792053223;89.71434783935547
24;1673390613.177196;47.1306424;7.2406201999999995;0.003000000026077032;1673390613.2760036;0.2525116503238678;-0.9497583508491516;89.20204162597656
25;1673390613.3760822;47.1306425;7.2406201999999995;0.005000000353902578;1673390613.473388;0.35650137066841125;-0.6372525691986084;89.31077575683594
26;1673390613.5614214;47.1306425;7.2406201999999995;0.003000000026077032;1673390613.6557343;0.6141216158866882;-0.690624475479126;88.89042663574219
27;1673390613.748075;47.130642599999995;7.2406201999999995;0.0;1673390613.8539386;0.7303571701049805;-0.9028609991073608;88.3652114868164
28;1673390613.9413166;47.130642699999996;7.2406201999999995;0.0020000000949949026;1673390614.0373328;1.545149564743042;-0.8754642009735107;87.56671142578125
29;1673390614.132285;47.130642699999996;7.2406201;0.009000000543892384;1673390614.229133;2.2711892127990723;-0.5860373973846436;85.98997497558594
30;1673390614.3272617;47.1306429;7.24062;0.017000000923871994;1673390614.4252803;0.6320672035217285;0.7209964990615845;77.07054901123047
31;1673390614.5222597;47.130643199999994;7.240619499999999;0.021000001579523087;1673390614.6252742;-0.05081180855631828;2.390806198120117;68.33885192871094
32;1673390614.7213538;47.1306438;7.2406187;0.02800000086426735;1673390614.8333716;-0.5733308792114258;5.501849174499512;70.90428924560547
33;1673390614.9312124;47.1306444;7.2406175;0.03800000250339508;1673390615.0332341;-4.281039714813232;8.254427909851074;78.1521224975586
34;1673390615.131231;47.130645099999995;7.2406159;0.05300000309944153;1673390615.2402804;-9.160778999328613;12.743182182312012;80.1214370727539
35;1673390615.347594;47.130645799999996;7.240614;0.07500000298023224;1673390615.450217;-10.990011215209961;14.388103485107422;80.62247467041016
36;1673390615.5421357;47.1306466;7.240612199999999;0.10700000822544098;1673390615.6422803;-12.498372077941895;15.10075855255127;81.14196014404297
37;1673390615.7461712;47.1306473;7.2406105;0.15200001001358032;1673390615.8603747;-13.78981876373291;16.607419967651367;81.49376678466797
38;1673390615.957234;47.1306479;7.2406090999999995;0.20800000429153442;1673390616.0612812;-14.978730201721191;17.977476119995117;81.8301773071289
39;1673390616.1543243;47.1306483;7.2406082;0.27400001883506775;1673390616.2500234;-16.813291549682617;18.173295974731445;82.34406280517578
40;1673390616.3671088;47.1306486;7.2406077;0.3490000069141388;1673390616.4703794;-18.9827823638916;18.72121238708496;82.72565460205078
41;1673390616.5676043;47.1306485;7.240607799999999;0.43800002336502075;1673390616.6667242;-20.24056625366211;20.87559700012207;83.03640747070312
42;1673390616.7602735;47.130648099999995;7.2406085;0.5390000343322754;1673390616.8649356;-18.922216415405273;22.215843200683594;83.17875671386719
43;1673390616.9582648;47.130647499999995;7.2406099;0.6500000357627869;1673390617.0613503;-16.500957489013672;16.207014083862305;84.17520141601562
44;1673390617.162577;47.1306467;7.2406117;0.7710000276565552;1673390617.264743;-14.664495468139648;14.79276180267334;84.36227416992188
45;1673390617.3697839;47.130645799999996;7.2406136;0.8960000276565552;1673390617.4846396;-11.73602294921875;16.253616333007812;83.6650619506836
46;1673390617.583996;47.1306449;7.240615399999999;1.0320000648498535;1673390617.67921;-9.835262298583984;12.895012855529785;83.90255737304688
47;1673390617.7717097;47.1306441;7.240616999999999;1.183000087738037;1673390617.8679786;-9.333349227905273;10.051403999328613;84.2082290649414
48;1673390617.9642913;47.1306434;7.2406182;1.3440001010894775;1673390618.0665047;-8.779511451721191;13.570528030395508;83.15083312988281
49;1673390618.1638157;47.130643;7.240619;1.5140000581741333;1673390618.2690995;-8.461063385009766;13.619757652282715;79.54936218261719
50;1673390618.3632376;47.1306428;7.2406193;1.696000099182129;1673390618.4645412;-9.192595481872559;10.704507827758789;80.3406982421875
51;1673390618.554552;47.130642699999996;7.2406194;1.8870000839233398;1673390618.652237;-10.434126853942871;14.575641632080078;80.31299591064453
52;1673390618.759221;47.130642699999996;7.240619199999999;2.0830001831054688;1673390618.8690972;-10.649060249328613;16.11579132080078;80.11896514892578
53;1673390618.9625552;47.130642599999995;7.240619;2.2760000228881836;1673390619.0694816;-11.729711532592773;12.974265098571777;80.61510467529297
54;1673390619.165794;47.130642599999995;7.2406188;2.4680001735687256;1673390619.2610426;-12.533137321472168;12.827549934387207;80.5901870727539
55;1673390619.352837;47.130642599999995;7.2406185999999995;2.6640000343322754;1673390619.4542747;-12.176913261413574;17.238615036010742;79.96562957763672
56;1673390619.552175;47.130642599999995;7.2406185;2.868000030517578;1673390619.6554718;-12.223960876464844;14.298367500305176;80.67024993896484
57;1673390619.7529285;47.130642699999996;7.2406185999999995;3.071000099182129;1673390619.8531275;-12.919075012207031;13.791475296020508;80.82571411132812
58;1673390619.9771292;47.1306428;7.2406187;3.2690000534057617;1673390620.070396;-12.109487533569336;17.778165817260742;80.11097717285156
59;1673390620.162833;47.1306428;7.240618899999999;3.4680001735687256;1673390620.2680528;-11.426506042480469;16.267459869384766;80.384765625
60;1673390620.3684;47.1306429;7.2406191;3.6680002212524414;1673390620.472437;-11.725772857666016;13.151110649108887;80.96915435791016
61;1673390620.5688646;47.1306428;7.2406194;3.8680002689361572;1673390620.6757965;-11.257712364196777;16.203445434570312;80.18511962890625
62;1673390620.7641928;47.130642699999996;7.2406196;4.070000171661377;1673390620.8491073;-10.711318016052246;16.837818145751953;80.12525177001953
63;1673390620.9350789;47.130642699999996;7.2406197;4.273000240325928;1673390621.0432549;-10.912177085876465;13.350320816040039;80.83033752441406
64;1673390621.169308;47.130642699999996;7.2406198999999996;4.470000267028809;1673390621.2890704;-11.230303764343262;14.933618545532227;80.61573791503906
65;1673390621.3824172;47.130642599999995;7.24062;4.6660003662109375;1673390621.4787104;-10.676787376403809;17.416786193847656;79.9757308959961
66;1673390621.5711186;47.1306425;7.24062;4.861000061035156;1673390621.6619327;-11.002649307250977;14.047122955322266;80.56669616699219
67;1673390621.7664337;47.1306424;7.24062;5.057000160217285;1673390621.869619;-11.575691223144531;12.929566383361816;80.75270080566406
68;1673390621.963861;47.1306422;7.24062;5.25600004196167;1673390622.0587466;-11.113903045654297;16.7385311126709;80.03610229492188
69;1673390622.1473322;47.1306422;7.24062;5.458000183105469;1673390622.256639;-11.332362174987793;15.074102401733398;80.45925903320312
70;1673390622.3665886;47.1306423;7.2406198999999996;5.659000396728516;1673390622.4774895;-11.664731979370117;12.935948371887207;80.88121032714844
71;1673390622.577544;47.1306423;7.2406198999999996;5.8580002784729;1673390622.669083;-11.697327613830566;16.8555850982666;80.27909851074219
72;1673390622.7665255;47.1306424;7.2406198999999996;6.055000305175781;1673390622.8667839;-10.960396766662598;16.554895401000977;80.13385772705078
73;1673390622.959622;47.1306425;7.24062;6.253000259399414;1673390623.064602;-11.339784622192383;13.424009323120117;80.80506134033203
74;1673390623.1627426;47.1306424;7.24062;6.448000431060791;1673390623.257097;-11.433874130249023;15.084942817687988;80.25802612304688
75;1673390623.355302;47.1306424;7.24062;6.640000343322754;1673390623.453579;-10.862610816955566;17.820785522460938;80.0184555053711
76;1673390623.5595903;47.1306424;7.24062;6.833000183105469;1673390623.657981;-11.251041412353516;13.148486137390137;80.7860107421875
77;1673390623.7570927;47.1306425;7.24062;7.029000282287598;1673390623.8650858;-11.791363716125488;14.834927558898926;80.5864028930664
78;1673390623.9554172;47.1306425;7.24062;7.225000381469727;1673390624.0535781;-11.038527488708496;17.886219024658203;80.13996887207031
79;1673390624.1517038;47.1306425;7.24062;7.4210004806518555;1673390624.2488606;-11.031847953796387;14.79542350769043;80.49324798583984
80;1673390624.344127;47.1306425;7.24062;7.615000247955322;1673390624.4530945;-11.458173751831055;13.110289573669434;80.75312042236328
81;1673390624.5616317;47.1306424;7.2406201;7.809000492095947;1673390624.6879017;-11.228201866149902;17.08949089050293;80.1190414428711
82;1673390624.783123;47.1306424;7.2406201;8.003000259399414;1673390624.8775856;-10.980368614196777;15.20140266418457;80.46199035644531
83;1673390624.9738634;47.1306424;7.2406201;8.201000213623047;1673390625.0778904;-11.49590015411377;13.097269058227539;80.65929412841797
84;1673390625.1787455;47.1306425;7.2406201;8.39900016784668;1673390625.2730632;-11.398548126220703;17.225614547729492;80.23174285888672
85;1673390625.3692963;47.1306425;7.2406201;8.595000267028809;1673390625.4713478;-10.773394584655762;16.41209602355957;80.24031066894531
86;1673390625.57836;47.130642599999995;7.2406201999999995;8.789000511169434;1673390625.6803837;-11.128350257873535;13.33949089050293;80.85092163085938
87;1673390625.7672386;47.1306425;7.2406201999999995;8.981000900268555;1673390625.8624873;-11.329655647277832;15.440253257751465;80.35838317871094
88;1673390625.960698;47.1306425;7.2406201999999995;9.17400074005127;1673390626.0916173;-10.645803451538086;17.74955940246582;80.19647979736328
89;1673390626.1868162;47.1306425;7.2406201999999995;9.369000434875488;1673390626.2871482;-11.05617904663086;13.510947227478027;80.69503021240234
90;1673390626.3723571;47.130642599999995;7.2406201999999995;9.56100082397461;1673390626.4673245;-11.528181076049805;14.276591300964355;80.75643157958984
91;1673390626.5567875;47.1306425;7.2406201999999995;9.753000259399414;1673390626.6578507;-11.025351524353027;17.631332397460938;80.07018280029297
92;1673390626.759008;47.1306425;7.2406201999999995;9.94800090789795;1673390626.858264;-10.842072486877441;14.741321563720703;80.38829040527344
93;1673390626.9497564;47.1306424;7.2406203;10.148000717163086;1673390627.0617192;-10.688959121704102;12.57471752166748;80.70828247070312
94;1673390627.170794;47.1306423;7.2406204;10.415000915527344;1673390627.2841911;-12.030633926391602;17.522153854370117;80.0781021118164
95;1673390627.3924026;47.130642099999996;7.2406206;10.783000946044922;1673390627.4819741;-11.864189147949219;17.926496505737305;80.62647247314453
96;1673390627.577988;47.130641999999995;7.2406209;11.176000595092773;1673390627.683065;-10.993800163269043;12.563374519348145;81.11725616455078
97;1673390627.7793448;47.1306418;7.2406213;11.575000762939453;1673390627.874738;-10.501729965209961;15.07663631439209;80.36626434326172
98;1673390627.970459;47.1306416;7.2406216;11.975000381469727;1673390628.0705633;-9.441054344177246;15.444887161254883;80.10542297363281
99;1673390628.1591835;47.130641499999996;7.2406217999999996;12.380000114440918;1673390628.2661207;-9.384461402893066;11.911121368408203;80.77606964111328
100;1673390628.3690772;47.130641399999995;7.240622;12.784000396728516;1673390628.477608;-9.855765342712402;13.040104866027832;80.52368927001953
101;1673390628.5776303;47.1306413;7.2406219;13.188000679016113;1673390628.6796885;-9.602059364318848;16.07718276977539;80.04615020751953
102;1673390628.7770474;47.1306413;7.240621699999999;13.594000816345215;1673390628.8727403;-9.946277618408203;12.836565971374512;80.46121215820312
103;1673390628.9704664;47.130641399999995;7.2406215;13.999000549316406;1673390629.076636;-10.766549110412598;13.14497184753418;80.49166870117188
104;1673390629.1667092;47.130641499999996;7.2406213;14.399001121520996;1673390629.2711883;-10.680705070495605;16.92856216430664;80.2474594116211
105;1673390629.3734496;47.1306417;7.240621099999999;14.802000999450684;1673390629.478213;-10.89659309387207;15.086273193359375;80.51585388183594
106;1673390629.580141;47.1306418;7.2406209;15.208001136779785;1673390629.6711302;-11.453980445861816;13.09436321258545;80.89497375488281
107;1673390629.7624393;47.1306417;7.240620799999999;15.610000610351562;1673390629.8547397;-11.147645950317383;16.270797729492188;80.23455047607422
108;1673390629.9472275;47.1306417;7.2406207;16.01500129699707;1673390630.0502653;-10.762750625610352;16.004758834838867;80.30805206298828
109;1673390630.147646;47.1306418;7.2406206;16.428001403808594;1673390630.2615714;-11.179354667663574;12.783778190612793;80.70305633544922
110;1673390630.3658476;47.1306419;7.2406206;16.838001251220703;1673390630.4718218;-11.084976196289062;16.10103988647461;80.33879089355469
111;1673390630.568004;47.1306419;7.2406207;17.248001098632812;1673390630.6735516;-10.272082328796387;16.410232543945312;80.23709869384766
112;1673390630.7806795;47.1306419;7.2406207;17.660001754760742;1673390630.8887815;-10.57125186920166;13.283639907836914;80.78001403808594
113;1673390630.98187;47.1306419;7.240620799999999;18.072999954223633;1673390631.0776837;-10.817904472351074;14.063141822814941;80.48065185546875
114;1673390631.1822443;47.1306418;7.240620799999999;18.490001678466797;1673390631.2780807;-10.170214653015137;17.149572372436523;80.01332092285156
115;1673390631.383759;47.1306418;7.2406207;18.9060001373291;1673390631.4917042;-10.47298526763916;13.599309921264648;80.57009887695312
116;1673390631.5987074;47.1306418;7.2406207;19.31599998474121;1673390631.7077792;-11.045766830444336;13.343542098999023;80.69865417480469
117;1673390631.8059206;47.1306419;7.2406207;19.72100067138672;1673390631.9374068;-10.626923561096191;16.753578186035156;80.17882537841797
118;1673390632.0408068;47.1306419;7.2406206;20.123001098632812;1673390632.159743;-10.284603118896484;15.377671241760254;80.33377075195312
119;1673390632.2380905;47.1306419;7.2406206;20.52800178527832;1673390632.3214781;-10.872344970703125;12.91499137878418;80.85944366455078
120;1673390632.4131906;47.1306419;7.2406204999999995;20.928001403808594;1673390632.5258904;-10.907923698425293;15.253890037536621;80.22833251953125
121;1673390632.619467;47.1306419;7.2406204999999995;21.330001831054688;1673390632.722362;-10.475786209106445;16.638498306274414;80.0853500366211
122;1673390632.8195963;47.1306419;7.2406204;21.73900032043457;1673390632.9060416;-10.917876243591309;12.907780647277832;80.86554718017578
123;1673390632.9934611;47.130641999999995;7.2406204;22.1460018157959;1673390633.1211581;-11.000240325927734;14.67358112335205;80.65424346923828
124;1673390633.214175;47.130642099999996;7.2406203;22.549001693725586;1673390633.313211;-10.543389320373535;17.780532836914062;80.1215591430664
125;1673390633.3922067;47.1306422;7.2406201999999995;22.95400047302246;1673390633.4932966;-10.674118041992188;14.615160942077637;80.48550415039062
126;1673390633.592489;47.1306422;7.2406201999999995;23.35700035095215;1673390633.705401;-11.116944313049316;13.678191184997559;80.73098754882812
127;1673390633.8055685;47.1306422;7.2406201;23.756000518798828;1673390633.910709;-10.486946105957031;16.821977615356445;79.98123168945312
128;1673390634.0132902;47.130642099999996;7.2406201;24.157001495361328;1673390634.1137195;-10.61016845703125;15.343484878540039;80.47603607177734
129;1673390634.197999;47.1306422;7.2406201;24.56100082397461;1673390634.3164902;-10.991252899169922;12.664302825927734;80.84679412841797
130;1673390634.430409;47.1306422;7.2406201;24.96200180053711;1673390634.529338;-10.799731254577637;16.576618194580078;80.26517486572266
131;1673390634.6190119;47.1306422;7.2406201;25.356000900268555;1673390634.7239985;-10.291229248046875;16.807695388793945;80.1625747680664
132;1673390634.8077586;47.1306423;7.24062;25.751001358032227;1673390634.9280124;-10.605499267578125;13.844653129577637;80.6889419555664
133;1673390635.0201519;47.1306422;7.24062;26.149002075195312;1673390635.121931;-11.16930103302002;14.17280387878418;80.64492797851562
134;1673390635.2233093;47.130642099999996;7.24062;26.55000114440918;1673390635.322515;-10.611587524414062;17.07424545288086;80.0411148071289
135;1673390635.4155943;47.130642099999996;7.2406198999999996;26.955001831054688;1673390635.5137713;-10.634393692016602;14.4753999710083;80.54207611083984
136;1673390635.6100361;47.130642099999996;7.2406198999999996;27.35700035095215;1673390635.7082553;-11.13994312286377;12.893000602722168;80.64495086669922
137;1673390635.7997117;47.130642099999996;7.2406198999999996;27.759000778198242;1673390635.8978615;-10.589029312133789;17.46612548828125;80.12520599365234
138;1673390635.9940536;47.1306422;7.2406198999999996;28.16400146484375;1673390636.0902326;-10.461441993713379;15.51916217803955;80.40953063964844
139;1673390636.1912966;47.1306422;7.2406198999999996;28.567001342773438;1673390636.2924488;-11.056764602661133;13.365473747253418;80.8255844116211
140;1673390636.3825972;47.1306422;7.2406198999999996;28.970001220703125;1673390636.48514;-10.819585800170898;16.16065788269043;80.18682098388672
141;1673390636.5806262;47.130642099999996;7.2406198999999996;29.374000549316406;1673390636.6865833;-10.335332870483398;16.616113662719727;80.19412231445312
142;1673390636.784882;47.130642099999996;7.2406198999999996;29.77800178527832;1673390636.8914485;-10.788260459899902;12.870851516723633;80.82878875732422
143;1673390637.009185;47.1306422;7.24062;30.176000595092773;1673390637.0977619;-11.094522476196289;15.359983444213867;80.48316955566406
144;1673390637.1899064;47.1306422;7.24062;30.57400131225586;1673390637.2941282;-10.45950698852539;17.42607307434082;80.17298889160156
145;1673390637.4003272;47.1306422;7.24062;30.977001190185547;1673390637.5080743;-10.674371719360352;13.93173885345459;80.60255432128906
146;1673390637.6074657;47.1306423;7.24062;31.38100242614746;1673390637.70957;-10.88323974609375;14.22275161743164;80.51622772216797
147;1673390637.8036747;47.1306422;7.24062;31.785001754760742;1673390637.902672;-10.472846984863281;17.57485580444336;79.9998550415039
148;1673390637.9902492;47.1306422;7.24062;32.189002990722656;1673390638.105839;-10.444899559020996;15.005871772766113;80.5368423461914
149;1673390638.2141187;47.1306422;7.24062;32.5880012512207;1673390638.3192663;-11.111481666564941;13.195036888122559;80.72993469238281
150;1673390638.4106793;47.1306422;7.24062;32.98500061035156;1673390638.5098102;-10.769028663635254;17.134557723999023;80.2774658203125
151;1673390638.5925386;47.1306422;7.24062;33.387001037597656;1673390638.6915696;-10.391196250915527;15.949167251586914;80.2713851928711
152;1673390638.7794616;47.1306423;7.24062;33.79199981689453;1673390638.886809;-10.767990112304688;13.243535995483398;80.76131439208984
153;1673390639.0037992;47.1306422;7.2406201;34.19600296020508;1673390639.125867;-10.963483810424805;15.418265342712402;80.41071319580078
154;1673390639.205496;47.130642099999996;7.2406201;34.59700012207031;1673390639.2960799;-10.471151351928711;16.9547061920166;80.17510223388672
155;1673390639.406103;47.130642099999996;7.24062;34.99800109863281;1673390639.5091255;-10.818848609924316;13.150869369506836;80.75601196289062
156;1673390639.6099882;47.130642099999996;7.24062;35.397003173828125;1673390639.71789;-11.041991233825684;14.494108200073242;80.4909439086914
157;1673390639.844593;47.1306422;7.24062;35.79100036621094;1673390639.9704237;-10.559985160827637;18.045347213745117;80.08421325683594
158;1673390640.0648503;47.1306424;7.2406201;36.189002990722656;1673390640.1523929;-10.317255020141602;14.624382019042969;80.49774169921875
159;1673390640.2428927;47.1306424;7.2406201;36.5880012512207;1673390640.3340404;-11.056257247924805;14.114169120788574;80.6600570678711
160;1673390640.4322069;47.1306424;7.2406201;36.9900016784668;1673390640.5215771;-10.514785766601562;17.041852951049805;80.19864654541016
161;1673390640.6180174;47.1306424;7.2406201;37.397003173828125;1673390640.7152216;-10.328948020935059;15.743471145629883;80.43812561035156
162;1673390640.8124664;47.1306424;7.2406201;37.80000305175781;1673390640.9176626;-10.932809829711914;13.19548511505127;80.77516174316406
163;1673390641.0013292;47.1306424;7.2406201;38.19900131225586;1673390641.099335;-10.702781677246094;16.814241409301758;80.27090454101562
164;1673390641.2192316;47.1306424;7.2406201;38.60000228881836;1673390641.3176763;-10.376912117004395;16.92445182800293;80.18562316894531
165;1673390641.4256868;47.1306425;7.2406201;39.0;1673390641.508481;-10.650636672973633;13.741165161132812;80.71771240234375
166;1673390641.5925212;47.1306424;7.2406201;39.39800262451172;1673390641.7000508;-11.030749320983887;14.298164367675781;80.69798278808594
167;1673390641.810719;47.1306423;7.2406201;39.79800033569336;1673390641.9150174;-10.386147499084473;17.266185760498047;80.0477294921875
168;1673390642.0230927;47.1306423;7.2406201;40.20100021362305;1673390642.2235699;-10.519740104675293;14.349695205688477;80.52696990966797
169;1673390642.284069;47.1306424;7.2406201;40.60100173950195;1673390642.370685;-10.931756973266602;13.740962028503418;80.61209106445312
170;1673390642.4493742;47.1306424;7.2406201;40.999000549316406;1673390642.5475638;-10.432116508483887;17.726572036743164;80.0923843383789
171;1673390642.6380947;47.1306425;7.2406201;41.4010009765625;1673390642.738786;-10.318620681762695;15.2971830368042;80.49003601074219
172;1673390642.827636;47.1306425;7.2406201;41.801002502441406;1673390642.9271472;-10.818902015686035;13.500164985656738;80.83427429199219
173;1673390643.0235538;47.1306425;7.2406201;42.20000076293945;1673390643.1290824;-10.581802368164062;16.86087989807129;80.15599822998047
174;1673390643.2125878;47.1306424;7.2406201;42.599002838134766;1673390643.300997;-10.151434898376465;16.279977798461914;80.20841979980469
175;1673390643.3865297;47.1306423;7.2406201;42.996002197265625;1673390643.4851635;-10.709776878356934;12.669452667236328;80.7615966796875
176;1673390643.59807;47.1306423;7.24062;43.39200210571289;1673390643.697183;-10.795272827148438;15.994916915893555;80.24820709228516
177;1673390643.8045955;47.1306423;7.24062;43.79500198364258;1673390643.9146235;-10.47347354888916;16.99239730834961;80.27056884765625
178;1673390644.007916;47.1306424;7.2406198999999996;44.20100021362305;1673390644.1032164;-10.954755783081055;14.030895233154297;80.75898742675781
179;1673390644.187384;47.1306424;7.240619799999999;44.60400390625;1673390644.278726;-11.0408353805542;14.888442039489746;80.51364135742188
180;1673390644.3701167;47.1306424;7.240619799999999;45.00400161743164;1673390644.4809632;-10.360745429992676;17.542448043823242;79.96593475341797
181;1673390644.5838237;47.1306424;7.240619799999999;45.40800094604492;1673390644.68367;-10.600635528564453;14.496612548828125;80.67874145507812
182;1673390644.7801347;47.1306424;7.240619799999999;45.80900192260742;1673390644.8855062;-11.181135177612305;13.587470054626465;80.74042510986328
183;1673390644.9911256;47.1306424;7.240619799999999;46.20500183105469;1673390645.0983458;-10.589465141296387;17.95002555847168;80.130126953125
184;1673390645.2043636;47.1306425;7.240619799999999;46.60300064086914;1673390645.30122;-10.337427139282227;15.418877601623535;80.40180206298828
185;1673390645.4106667;47.1306425;7.240619799999999;47.00200271606445;1673390645.528517;-10.995589256286621;13.796178817749023;80.7818374633789
186;1673390645.618639;47.1306425;7.240619799999999;47.39900207519531;1673390645.7216794;-10.859124183654785;16.675844192504883;80.25083923339844
187;1673390645.8189898;47.1306424;7.2406197;47.797000885009766;1673390645.9249623;-10.237789154052734;16.929655075073242;80.20809173583984
188;1673390646.0144258;47.1306424;7.2406197;48.18000411987305;1673390646.117695;-11.301836967468262;13.656070709228516;80.92793273925781
189;1673390646.2072203;47.1306424;7.2406197;48.512001037597656;1673390646.3011932;-10.981677055358887;16.253503799438477;80.5443344116211
190;1673390646.3995235;47.1306424;7.240619499999999;48.80000305175781;1673390646.4987469;-10.697565078735352;17.022558212280273;80.3397445678711
191;1673390646.5920763;47.130642599999995;7.2406193;49.04600143432617;1673390646.6941814;-11.136655807495117;14.036283493041992;80.7543716430664
192;1673390646.7926826;47.130642699999996;7.2406191;49.25100326538086;1673390646.8894475;-5.939299583435059;19.518936157226562;80.9735107421875
193;1673390646.9944935;47.130642699999996;7.2406187;49.423004150390625;1673390647.1015372;14.312554359436035;36.381343841552734;90.78268432617188
194;1673390647.202709;47.130641999999995;7.2406169;49.57500076293945;1673390647.31177;23.106616973876953;50.174072265625;102.43306732177734
195;1673390647.4113688;47.1306395;7.240611899999999;49.69600296020508;1673390647.5095162;21.459386825561523;57.353553771972656;110.74307250976562
196;1673390647.6032476;47.130634699999995;7.2406028;49.77900314331055;1673390647.7067904;6.451169013977051;56.620975494384766;119.4372329711914
197;1673390647.8057044;47.1306278;7.2405905;49.81800079345703;1673390647.8975196;-7.860822677612305;55.40182876586914;128.9210205078125
198;1673390647.989827;47.1306191;7.240575199999999;49.84100341796875;1673390648.098884;-22.034080505371094;51.80154800415039;139.203857421875
199;1673390648.226627;47.1306088;7.240557399999999;49.858001708984375;1673390648.32003;-36.38510513305664;46.75536346435547;151.63790893554688
200;1673390648.429589;47.130596999999995;7.2405374;49.85400390625;1673390648.5287423;-47.265830993652344;44.35847854614258;163.84335327148438
201;1673390648.6029668;47.1305839;7.2405151;49.81500244140625;1673390648.6964817;-46.26512145996094;30.94844627380371;175.1619873046875
202;1673390648.7977011;47.13057;7.2404908;49.743003845214844;1673390648.9040658;-41.84080123901367;21.957942962646484;-179.2211151123047
203;1673390648.9997609;47.1305555;7.2404654;49.663002014160156;1673390649.1018705;-45.74143981933594;17.568098068237305;-172.86534118652344
204;1673390649.2039936;47.130540599999996;7.2404394;49.608001708984375;1673390649.2973943;-47.20614242553711;11.507403373718262;-163.85702514648438
205;1673390649.394639;47.1305255;7.240412699999999;49.57400131225586;1673390649.4966984;-47.29956817626953;4.652833461761475;-155.92010498046875
206;1673390649.5948448;47.130510099999995;7.2403854999999995;49.553001403808594;1673390649.7142165;-47.9384651184082;-2.0394065380096436;-149.32876586914062
207;1673390649.81237;47.1304946;7.240358199999999;49.552001953125;1673390649.9644496;-48.50151062011719;-8.893322944641113;-145.69677734375
208;1673390650.085183;47.1304787;7.2403312;49.547000885009766;1673390650.177558;-41.96282196044922;-6.63474702835083;-159.51307678222656
209;1673390650.2571907;47.130462699999995;7.2403051;49.525001525878906;1673390650.3534238;-35.941261291503906;-3.0356664657592773;-172.10142517089844
210;1673390650.4408271;47.130447;7.2402805;49.50100326538086;1673390650.563135;-33.95445251464844;0.16736166179180145;177.7670440673828
211;1673390650.6594818;47.130431699999995;7.2402577;49.48800277709961;1673390650.7528348;-37.024539947509766;0.7219321727752686;169.50259399414062
212;1673390650.8957288;47.1304168;7.240236899999999;49.50100326538086;1673390650.9719381;-38.77956771850586;3.022653341293335;159.1736297607422
213;1673390651.054553;47.1304021;7.2402184;49.53600311279297;1673390651.1429372;-46.03860092163086;-0.5495240688323975;153.5111083984375
214;1673390651.238247;47.1303875;7.2402029;49.59100341796875;1673390651.3346736;-44.640411376953125;-3.567790985107422;142.32107543945312
215;1673390651.4280953;47.1303731;7.240190999999999;49.67100143432617;1673390651.5422788;-39.44876480102539;-26.862302780151367;131.69236755371094
216;1673390651.6777637;47.1303602;7.240183399999999;49.76700210571289;1673390651.7574112;-40.08810806274414;-34.32566833496094;129.89303588867188
217;1673390651.8351443;47.1303501;7.2401801;49.81800079345703;1673390651.933394;-22.11577606201172;-29.613786697387695;132.9450225830078
218;1673390652.0394921;47.1303427;7.240179899999999;49.83700180053711;1673390652.1387272;-4.896701812744141;-29.858638763427734;151.3229217529297
219;1673390652.2408605;47.1303379;7.240181499999999;49.897003173828125;1673390652.3509061;0.6130341291427612;-20.28634262084961;166.22454833984375
220;1673390652.4442494;47.1303353;7.2401842;49.97200393676758;1673390652.5853217;-21.436832427978516;18.45361328125;173.3684539794922
221;1673390652.6717741;47.1303333;7.2401857;50.044002532958984;1673390652.7866757;-48.584415435791016;36.61794662475586;-177.86180114746094
222;1673390652.8752007;47.1303305;7.240183099999999;50.07600402832031;1673390652.9822633;-44.2601203918457;18.399856567382812;-157.45082092285156
223;1673390653.0570235;47.1303269;7.2401757;50.066001892089844;1673390653.1534655;-41.09825134277344;19.74274253845215;-156.17913818359375
224;1673390653.2428412;47.1303227;7.2401645;50.05900192260742;1673390653.3387518;-40.08625030517578;8.502172470092773;-146.78472900390625
225;1673390653.4311004;47.130317899999994;7.2401504;50.066001892089844;1673390653.5162055;-48.6209831237793;-4.386686325073242;-137.93287658691406
226;1673390653.606481;47.1303121;7.2401336;50.10400390625;1673390653.710775;-54.28486251831055;-17.445951461791992;-131.58056640625
227;1673390653.8104808;47.130304599999995;7.2401143;50.1660041809082;1673390653.911793;-57.45717239379883;-19.525440216064453;-135.580810546875
228;1673390654.0039105;47.1302946;7.2400936;50.215003967285156;1673390654.1026385;-56.480682373046875;-15.182814598083496;-140.28277587890625
229;1673390654.2164757;47.1302826;7.2400718;50.246002197265625;1673390654.321116;-56.591739654541016;-14.49504566192627;-140.3579864501953
230;1673390654.4259136;47.130269;7.240049399999999;50.27100372314453;1673390654.5260255;-54.85124588012695;-15.245503425598145;-143.57022094726562
231;1673390654.6252556;47.130254099999995;7.240026599999999;50.27700424194336;1673390654.7282705;-53.28373718261719;-8.740620613098145;-154.3761749267578
232;1673390654.8887706;47.130238;7.2400039;50.262001037597656;1673390654.9882631;-50.50990676879883;-1.9169738292694092;-163.78375244140625
233;1673390655.070281;47.1302212;7.2399816999999995;50.2390022277832;1673390655.1774106;-46.46857452392578;5.33969259262085;-172.8870391845703
234;1673390655.2948952;47.130204;7.23996;50.204002380371094;1673390655.3814123;-44.00004959106445;12.062676429748535;178.47897338867188
235;1673390655.4676492;47.130186599999995;7.2399388;50.165000915527344;1673390655.5600145;-40.090087890625;16.75163459777832;169.95753479003906
236;1673390655.6436753;47.1301693;7.2399179;50.130001068115234;1673390655.730144;-40.69963073730469;25.145994186401367;168.01307678222656
237;1673390655.8233984;47.130151999999995;7.239897099999999;50.1150016784668;1673390655.921623;-45.91058349609375;25.803958892822266;-176.68756103515625
238;1673390656.022755;47.1301346;7.239875199999999;50.09700393676758;1673390656.127894;-45.147159576416016;16.728960037231445;-162.34986877441406
239;1673390656.2157996;47.1301176;7.2398519;50.077003479003906;1673390656.3158996;-44.924827575683594;11.054893493652344;-154.40576171875
240;1673390656.4302692;47.1301011;7.2398273;50.052001953125;1673390656.523366;-43.141204833984375;2.4060842990875244;-145.2113037109375
241;1673390656.6161206;47.130085099999995;7.2398017999999995;50.03000259399414;1673390656.7191744;-44.26637268066406;-5.076300144195557;-137.50689697265625
242;1673390656.8076105;47.1300695;7.2397756;50.02300262451172;1673390656.9147558;-47.70762634277344;-16.018041610717773;-134.3328094482422
243;1673390657.011925;47.1300538;7.2397491;50.03700256347656;1673390657.114288;-48.447357177734375;-14.758081436157227;-149.35157775878906
244;1673390657.2233994;47.1300375;7.239723199999999;50.03400421142578;1673390657.3360658;-46.0576286315918;-8.736467361450195;-162.09402465820312
245;1673390657.4363334;47.1300209;7.2396986;50.022003173828125;1673390657.5384395;-42.94350051879883;-2.5185904502868652;-171.52529907226562
246;1673390657.6277816;47.130004199999995;7.2396755;50.005001068115234;1673390657.7241273;-42.264339447021484;2.533142328262329;-179.9145965576172
247;1673390657.81724;47.1299874;7.239653799999999;49.987003326416016;1673390657.9187942;-41.09909439086914;6.670470237731934;170.87762451171875
248;1673390658.0122733;47.129970799999995;7.2396337;49.967002868652344;1673390658.126741;-40.063926696777344;9.219839096069336;161.3186798095703
249;1673390658.2276487;47.1299542;7.2396151;49.94700241088867;1673390658.3354607;-40.75261688232422;11.981311798095703;151.85018920898438
250;1673390658.4406924;47.1299378;7.2395983;49.93300247192383;1673390658.5586421;-42.68669128417969;8.171424865722656;143.2500762939453
251;1673390658.6470926;47.129921599999996;7.2395837;49.932003021240234;1673390658.7581294;-36.636878967285156;2.765909433364868;142.0559539794922
252;1673390658.8501782;47.1299059;7.239571799999999;49.941001892089844;1673390658.9551895;-21.29167366027832;-7.988882541656494;157.27169799804688
253;1673390659.0465455;47.1298915;7.2395619;49.97500228881836;1673390659.1584013;-10.342945098876953;-6.1427412033081055;173.91351318359375
254;1673390659.2691877;47.1298787;7.239553099999999;50.00400161743164;1673390659.3652234;-15.945372581481934;11.588295936584473;-177.06752014160156
255;1673390659.447068;47.1298676;7.2395442;50.02900314331055;1673390659.5423753;-36.59516906738281;31.63149642944336;-171.5471954345703
256;1673390659.6445847;47.1298574;7.2395331;50.047000885009766;1673390659.74208;-54.1312255859375;26.23739242553711;-158.56272888183594
257;1673390659.8334444;47.129847299999994;7.2395179;50.02900314331055;1673390659.9421995;-46.56884002685547;11.773510932922363;-145.5762939453125
258;1673390660.045065;47.129836999999995;7.2394991;50.00300216674805;1673390660.146503;-46.4211540222168;7.305412769317627;-141.26966857910156
259;1673390660.2376277;47.129826699999995;7.2394775;50.00300216674805;1673390660.3361177;-48.37784194946289;-4.987265586853027;-133.50315856933594
260;1673390660.432436;47.1298161;7.2394539;50.02700424194336;1673390660.534658;-55.252742767333984;-17.123779296875;-132.08470153808594
261;1673390660.6216679;47.1298044;7.2394288;50.066001892089844;1673390660.7208574;-56.107608795166016;-19.880573272705078;-136.5963134765625
262;1673390660.841237;47.1297911;7.2394032;50.0880012512207;1673390660.9442475;-51.42841339111328;-14.427032470703125;-141.13865661621094
263;1673390661.0386207;47.1297765;7.2393776999999995;50.0880012512207;1673390661.1464424;-51.32223892211914;-15.024368286132812;-140.66427612304688
264;1673390661.248592;47.129760999999995;7.2393525;50.08500289916992;1673390661.3524575;-50.341033935546875;-17.181724548339844;-143.98171997070312
265;1673390661.4418511;47.129744699999996;7.2393278;50.07200241088867;1673390661.5427744;-46.48184585571289;-9.526013374328613;-156.40219116210938
266;1673390661.665386;47.1297278;7.2393041;50.04500198364258;1673390661.7490852;-45.14457702636719;-3.872169017791748;-165.29580688476562
267;1673390661.8377447;47.1297107;7.2392815;50.01700210571289;1673390661.943761;-43.374732971191406;0.8221441507339478;-174.144775390625
268;1673390662.0397646;47.1296933;7.23926;49.98800277709961;1673390662.1419065;-42.802711486816406;3.603776216506958;177.5560302734375
269;1673390662.2451255;47.129675999999996;7.2392397;49.95900344848633;1673390662.3468037;-41.40320587158203;4.0181379318237305;169.62747192382812
270;1673390662.4498532;47.1296587;7.239221;49.941001892089844;1673390662.553852;-47.20521545410156;10.455839157104492;173.4455108642578
271;1673390662.6579874;47.129641299999996;7.2392034999999995;49.94900131225586;1673390662.764494;-52.24147033691406;1.156442642211914;-168.47164916992188
272;1673390662.8664174;47.1296233;7.2391860999999995;49.97100067138672;1673390662.9628365;-51.0696907043457;-6.204483509063721;-158.8251190185547
273;1673390663.0519452;47.129604799999996;7.2391688;49.9900016784668;1673390663.1500788;-48.104923248291016;-6.286549091339111;-151.44952392578125
274;1673390663.2531319;47.1295861;7.239151199999999;49.983001708984375;1673390663.3386347;-41.53304672241211;-4.584397315979004;-143.0020294189453
275;1673390663.429441;47.129567699999996;7.2391331;49.948001861572266;1673390663.5297997;-35.904991149902344;-3.6461195945739746;-134.8046112060547
276;1673390663.6307118;47.1295502;7.239114;49.9170036315918;1673390663.728325;-42.65966796875;-2.4428281784057617;-135.99354553222656
277;1673390663.8266606;47.1295335;7.2390937;49.90900421142578;1673390663.9248905;-47.40456008911133;-1.8895341157913208;-137.6725616455078
278;1673390664.017234;47.129517299999996;7.2390718;49.91800308227539;1673390664.1216152;-46.52727127075195;-5.943353176116943;-137.346923828125
279;1673390664.2176402;47.129501499999996;7.2390485;49.932003021240234;1673390664.3330631;-49.154109954833984;-8.118088722229004;-138.2244415283203
280;1673390664.4306734;47.129485599999995;7.2390244;49.948001861572266;1673390664.527154;-49.25108337402344;-9.480435371398926;-138.2618408203125
281;1673390664.6232538;47.1294695;7.2389996;49.958003997802734;1673390664.7308676;-50.174129486083984;-10.469037055969238;-138.5074920654297
282;1673390664.8316793;47.1294531;7.2389743;49.96900177001953;1673390664.9345646;-49.25795364379883;-11.942623138427734;-138.89344787597656
283;1673390665.0326827;47.129436399999996;7.2389487;49.983001708984375;1673390665.1385846;-48.53213119506836;-11.72490406036377;-139.82974243164062
284;1673390665.2317824;47.129419399999996;7.238923;49.99100112915039;1673390665.3435116;-48.21422576904297;-12.545914649963379;-140.02294921875
285;1673390665.4483306;47.1294022;7.2388973;49.992000579833984;1673390665.5455601;-47.83378219604492;-12.151779174804688;-140.6434783935547
286;1673390665.638876;47.129384699999996;7.2388718999999995;49.992000579833984;1673390665.7287068;-46.94560241699219;-12.446783065795898;-140.79246520996094
287;1673390665.820137;47.129366999999995;7.2388467;49.99100112915039;1673390665.919462;-47.0255126953125;-13.289254188537598;-140.99493408203125
288;1673390666.0254743;47.1293491;7.2388217;49.9900016784668;1673390666.1379538;-46.93102264404297;-14.329988479614258;-141.3824920654297
289;1673390666.2256637;47.129331099999995;7.238797;49.9890022277832;1673390666.337073;-46.08406066894531;-15.638104438781738;-141.80426025390625
290;1673390666.4373164;47.129312899999995;7.2387729;49.98800277709961;1673390666.5513153;-45.86916732788086;-17.04252815246582;-142.2622528076172
291;1673390666.6485462;47.1292945;7.2387494;49.9890022277832;1673390666.754678;-45.314239501953125;-19.16292381286621;-142.5172882080078
292;1673390666.847128;47.129275899999996;7.2387267;49.993003845214844;1673390666.9502704;-40.05263137817383;-18.33042335510254;-143.64930725097656
293;1673390667.0453217;47.1292572;7.2387049999999995;50.00400161743164;1673390667.1454735;-25.33910369873047;-17.94097328186035;-142.7649383544922
294;1673390667.2418396;47.1292391;7.2386845;50.03200149536133;1673390667.3440127;-8.449040412902832;-16.696880340576172;-139.52452087402344
295;1673390667.4402003;47.129222299999995;7.238665699999999;50.05400085449219;1673390667.537536;5.465587615966797;-12.926794052124023;-136.30682373046875
296;1673390667.625765;47.129207699999995;7.238649;50.06500244140625;1673390667.7263887;14.15212631225586;-10.467013359069824;-134.83485412597656
297;1673390667.820833;47.129195599999996;7.2386345;50.06900405883789;1673390667.9315026;18.301240921020508;-9.962337493896484;-134.705810546875
298;1673390668.0389833;47.1291861;7.238622299999999;50.06500244140625;1673390668.1378431;19.62607765197754;-11.974401473999023;-134.0843048095703
299;1673390668.2305717;47.129179099999995;7.2386123;50.060001373291016;1673390668.3316;12.063164710998535;-12.282170295715332;-135.59982299804688
300;1673390668.4260097;47.1291741;7.238604199999999;50.070003509521484;1673390668.529056;8.554323196411133;-15.379764556884766;-136.39865112304688
301;1673390668.6352139;47.1291705;7.2385975;50.08000183105469;1673390668.734401;3.7401931285858154;-19.340835571289062;-137.32061767578125
302;1673390668.828993;47.129167699999996;7.2385921;50.090003967285156;1673390668.935555;-1.3200106620788574;-20.959033966064453;-139.03480529785156
303;1673390669.0297923;47.1291653;7.2385874999999995;50.09800338745117;1673390669.1412468;-6.142631530761719;-23.139047622680664;-140.89047241210938
304;1673390669.232049;47.1291631;7.2385835;50.10700225830078;1673390669.3363638;-10.253623962402344;-23.352537155151367;-142.55548095703125
305;1673390669.4312644;47.129160899999995;7.23858;50.117000579833984;1673390669.5264947;-11.921670913696289;-21.15123176574707;-144.06881713867188
306;1673390669.6236382;47.1291586;7.2385769;50.124000549316406;1673390669.7336185;-15.219045639038086;-17.013578414916992;-143.0164794921875
307;1673390669.8348548;47.1291562;7.2385739;50.14800262451172;1673390669.9423218;-31.276752471923828;-14.210820198059082;-135.84718322753906
308;1673390670.0379794;47.129152999999995;7.2385701;50.23600387573242;1673390670.1428382;-39.88679122924805;-13.775654792785645;-135.5698699951172
309;1673390670.272235;47.1291485;7.2385641;50.37300109863281;1673390670.3763747;-33.69236755371094;-9.91100025177002;-138.4645233154297
310;1673390670.4648685;47.129142699999996;7.238556099999999;50.566001892089844;1673390670.5808444;-22.480655670166016;-5.301103115081787;-138.80117797851562
311;1673390670.6722386;47.129136599999995;7.2385465;50.83400344848633;1673390670.8024495;-23.125537872314453;-9.164776802062988;-138.2585906982422
312;1673390670.8820667;47.129130499999995;7.238535799999999;51.177001953125;1673390670.9743896;-39.7452392578125;-24.443544387817383;-136.56689453125
313;1673390671.0657804;47.1291235;7.2385243;51.56300354003906;1673390671.159082;-42.05556106567383;-23.821121215820312;-138.76913452148438
314;1673390671.258303;47.129114699999995;7.2385123;51.9530029296875;1673390671.3566628;-37.26836013793945;-20.875362396240234;-139.4089813232422
315;1673390671.447677;47.1291047;7.2385000999999995;52.33700180053711;1673390671.5450797;-35.19892883300781;-18.841781616210938;-138.40892028808594
316;1673390671.648161;47.1290939;7.2384875;52.717002868652344;1673390671.7612307;-32.21757888793945;-15.757220268249512;-138.27322387695312
317;1673390671.8656378;47.1290827;7.2384746;53.09800338745117;1673390671.9735596;-29.188993453979492;-14.60330867767334;-137.52957153320312
318;1673390672.0621228;47.1290714;7.2384613;53.47800064086914;1673390672.1555333;-27.139019012451172;-13.398961067199707;-137.21420288085938
319;1673390672.2517738;47.1290603;7.238447799999999;53.858001708984375;1673390672.349211;-25.458385467529297;-13.57239055633545;-136.80783081054688
320;1673390672.4429178;47.1290494;7.2384341;54.246002197265625;1673390672.5363452;-24.56968879699707;-13.843759536743164;-136.6742706298828
321;1673390672.645572;47.1290389;7.2384204;54.637001037597656;1673390672.7486463;-24.30617904663086;-14.49576473236084;-136.5240478515625
322;1673390672.8476107;47.1290287;7.238406599999999;55.031002044677734;1673390672.955719;-24.195085525512695;-14.789176940917969;-136.6294708251953
323;1673390673.0530417;47.129018699999996;7.2383929;55.426002502441406;1673390673.1558878;-24.863981246948242;-14.987889289855957;-136.85910034179688
324;1673390673.2560334;47.129008999999996;7.2383792;55.823001861572266;1673390673.3524556;-25.67620086669922;-14.644842147827148;-137.15643310546875
325;1673390673.4565554;47.1289995;7.2383656;56.217002868652344;1673390673.5657768;-26.712129592895508;-14.882438659667969;-137.2787628173828
326;1673390673.6627405;47.128989999999995;7.238352099999999;56.61300277709961;1673390673.7655969;-27.61538314819336;-15.044386863708496;-137.2356719970703
327;1673390673.865865;47.1289805;7.2383386;57.013004302978516;1673390673.967063;-27.947629928588867;-15.481999397277832;-137.1940155029297
328;1673390674.0564978;47.1289709;7.238325;57.41400146484375;1673390674.1538298;-28.482807159423828;-15.890127182006836;-137.15335083007812
329;1673390674.2437842;47.1289612;7.2383114;57.81300354003906;1673390674.3441331;-28.46923065185547;-16.2501163482666;-137.01712036132812
330;1673390674.4557555;47.1289514;7.2382979;58.2130012512207;1673390674.5580208;-28.288801193237305;-16.691665649414062;-136.9657440185547
331;1673390674.6668231;47.128941499999996;7.2382843;58.60900115966797;1673390674.7708006;-28.40256690979004;-16.72280502319336;-136.8792266845703
332;1673390674.8611808;47.1289316;7.2382706;59.00400161743164;1673390674.968215;-27.987281799316406;-17.04246711730957;-136.82264709472656
333;1673390675.0822299;47.1289216;7.238256799999999;59.40400314331055;1673390675.200961;-27.67084503173828;-17.384002685546875;-136.7919158935547
334;1673390675.2854424;47.1289115;7.2382428999999995;59.80500411987305;1673390675.379078;-27.441814422607422;-17.0946102142334;-136.82322692871094
335;1673390675.4694376;47.1289014;7.2382291;60.20500183105469;1673390675.5578125;-27.234834671020508;-16.836294174194336;-136.9000244140625
336;1673390675.644928;47.1288913;7.238215299999999;60.605003356933594;1673390675.7376344;-27.30068016052246;-16.437780380249023;-136.96730041503906
337;1673390675.8481538;47.128881199999995;7.2382015;61.006004333496094;1673390675.9495223;-27.47597885131836;-15.934239387512207;-137.07537841796875
338;1673390676.0775576;47.1288712;7.2381877999999995;61.40300369262695;1673390676.1973565;-27.58623504638672;-15.79560375213623;-137.09561157226562
339;1673390676.3060453;47.128861199999996;7.238174099999999;61.79700469970703;1673390676.4003239;-27.713008880615234;-15.65512752532959;-137.08432006835938
340;1673390676.4935048;47.1288512;7.238160499999999;62.195003509521484;1673390676.5926218;-27.78987693786621;-15.20578670501709;-137.11679077148438
341;1673390676.6807745;47.1288412;7.2381468;62.595001220703125;1673390676.7809258;-27.852466583251953;-15.284771919250488;-137.1179656982422
342;1673390676.880396;47.1288312;7.2381331;62.996002197265625;1673390676.9795783;-27.99718475341797;-15.306290626525879;-137.1112060546875
343;1673390677.0677953;47.128821099999996;7.2381193999999995;63.39600372314453;1673390677.1581688;-27.84782600402832;-15.68506908416748;-137.0033416748047
344;1673390677.256343;47.1288111;7.238105699999999;63.7910041809082;1673390677.35123;-27.890323638916016;-16.046932220458984;-136.9178466796875
345;1673390677.444671;47.1288011;7.2380919;64.18099975585938;1673390677.550089;-27.877050399780273;-16.5675048828125;-136.84461975097656
346;1673390677.6458085;47.1287911;7.238078;64.57400512695312;1673390677.7400746;-27.8971004486084;-16.752277374267578;-136.8494415283203
347;1673390677.8373067;47.1287811;7.238064199999999;64.97100067138672;1673390677.95221;-27.762998580932617;-16.88968849182129;-136.84181213378906
348;1673390678.0511806;47.128771;7.238050299999999;65.36800384521484;1673390678.158777;-27.763381958007812;-16.986568450927734;-136.88018798828125
349;1673390678.249685;47.128761;7.2380363999999995;65.76399993896484;1673390678.3515012;-27.84735870361328;-16.88775062561035;-136.94320678710938
350;1673390678.4502468;47.128751;7.2380226;66.15900421142578;1673390678.5532668;-27.730575561523438;-16.667861938476562;-137.02923583984375
351;1673390678.6520083;47.1287409;7.238008799999999;66.5510025024414;1673390678.7610464;-27.858261108398438;-16.457975387573242;-137.07199096679688
352;1673390678.8562617;47.1287309;7.2379951;66.94100189208984;1673390678.962331;-27.97432518005371;-16.081466674804688;-137.1272430419922
353;1673390679.0555937;47.128720799999996;7.2379814;67.33600616455078;1673390679.1494932;-28.008962631225586;-15.805913925170898;-137.10614013671875
354;1673390679.2540944;47.1287107;7.2379677;67.73400115966797;1673390679.3571107;-27.840782165527344;-15.701587677001953;-137.144775390625
355;1673390679.442998;47.128700599999995;7.2379539;68.13300323486328;1673390679.5571015;-27.831491470336914;-15.609817504882812;-137.1209716796875
356;1673390679.6593013;47.1286905;7.237940099999999;68.5300064086914;1673390679.7673934;-27.8564395904541;-15.848587036132812;-136.98779296875
357;1673390679.8553815;47.128680499999994;7.2379264;68.92500305175781;1673390679.9606595;-27.869953155517578;-15.924110412597656;-137.0294952392578
358;1673390680.0515869;47.1286705;7.2379126;69.31800079345703;1673390680.1668496;-27.719942092895508;-16.253503799438477;-137.0309295654297
359;1673390680.2991693;47.1286604;7.2378987;69.71400451660156;1673390680.3927362;-27.765586853027344;-16.470808029174805;-137.00379943847656
360;1673390680.4920185;47.1286504;7.2378849;70.10900115966797;1673390680.5844185;-23.302223205566406;-16.911273956298828;-137.36810302734375
361;1673390680.6640239;47.128640499999996;7.2378711;70.49000549316406;1673390680.7583568;-8.358466148376465;-18.433486938476562;-137.90672302246094
362;1673390680.8566034;47.1286312;7.2378583;70.83800506591797;1673390680.9608102;-4.817099571228027;-18.913318634033203;-137.12347412109375
363;1673390681.0640783;47.128622799999995;7.237846599999999;71.14200592041016;1673390681.1813388;1.4160542488098145;-19.095434188842773;-137.2134552001953
364;1673390681.3068836;47.1286153;7.2378364;71.4020004272461;1673390681.4033766;4.878836154937744;-19.088464736938477;-136.96046447753906
365;1673390681.5041134;47.128609;7.237827599999999;71.62200164794922;1673390681.6131296;6.014387607574463;-18.13987159729004;-137.02427673339844
366;1673390681.7074614;47.1286038;7.2378203;71.81600189208984;1673390681.8136077;7.159740447998047;-17.783796310424805;-137.4589080810547
367;1673390681.902104;47.1285995;7.2378142;71.99000549316406;1673390682.0043914;6.169058322906494;-17.090618133544922;-137.7681427001953
368;1673390682.0978765;47.128596099999996;7.2378092999999994;72.14300537109375;1673390682.1948361;4.434197902679443;-18.020944595336914;-138.05979919433594
369;1673390682.279378;47.1285934;7.2378053;72.2750015258789;1673390682.3785467;2.1817245483398438;-11.071379661560059;-137.13739013671875
370;1673390682.4749258;47.1285913;7.2378019;72.38200378417969;1673390682.5799298;8.263471603393555;12.670188903808594;-126.36551666259766
371;1673390682.6723557;47.1285904;7.237798199999999;72.46600341796875;1673390682.7723682;-0.23748548328876495;10.299484252929688;-116.81533813476562
372;1673390682.8627641;47.1285911;7.2377937;72.5250015258789;1673390682.9595096;-1.1755201816558838;-0.13178065419197083;-106.03936767578125
373;1673390683.050839;47.1285927;7.2377885;72.57400512695312;1673390683.1559336;-1.3162381649017334;-3.6993906497955322;-97.27086639404297
374;1673390683.245352;47.128595;7.2377828;72.61700439453125;1673390683.3570404;2.24959397315979;-6.699157238006592;-88.12051391601562
375;1673390683.4542494;47.1285976;7.2377768;72.66200256347656;1673390683.55359;5.683316230773926;-8.397384643554688;-78.74335479736328
376;1673390683.6517704;47.128600399999996;7.2377705;72.70700073242188;1673390683.7452028;9.621389389038086;-9.050203323364258;-69.71063995361328
377;1673390683.8325138;47.1286031;7.237764299999999;72.75100708007812;1673390683.9337857;12.653756141662598;-5.776371002197266;-60.0853157043457
378;1673390684.0388389;47.1286056;7.2377582;72.78900146484375;1673390684.1422477;14.26368522644043;-2.7250661849975586;-50.886226654052734
379;1673390684.2458522;47.1286081;7.2377522999999995;72.82400512695312;1673390684.3485982;13.602166175842285;1.40835440158844;-42.33557891845703
380;1673390684.4570823;47.1286105;7.2377465999999995;72.85600280761719;1673390684.553392;11.292380332946777;3.1323413848876953;-39.438533782958984
381;1673390684.6555462;47.1286128;7.2377411;72.8800048828125;1673390684.7577193;-19.185697555541992;1.0116217136383057;-41.02922821044922
382;1673390684.8565512;47.1286157;7.2377351;72.89500427246094;1673390684.9690726;-47.25328063964844;-0.01568533107638359;-43.44915771484375
383;1673390685.0680685;47.128620299999994;7.237726899999999;72.8790054321289;1673390685.1695557;-47.36646270751953;-1.290818452835083;-44.871246337890625
384;1673390685.2624552;47.128627099999996;7.2377154;72.8340072631836;1673390685.370023;-43.22079086303711;-3.0618934631347656;-44.87234115600586
385;1673390685.4618046;47.128636;7.2377011;72.80400085449219;1673390685.572093;-47.803070068359375;-3.4976744651794434;-45.25249099731445
386;1673390685.6719508;47.1286468;7.2376838;72.81400299072266;1673390685.7692041;-56.156890869140625;-1.6430578231811523;-45.800228118896484
387;1673390685.8703706;47.128659899999995;7.2376628;72.85600280761719;1673390685.9652314;-60.7480354309082;-0.10081023722887039;-46.024147033691406
388;1673390686.062399;47.1286755;7.237637899999999;72.9050064086914;1673390686.1618376;-60.865901947021484;-0.41997483372688293;-46.28399658203125
389;1673390686.2614326;47.1286932;7.2376097999999995;72.94300079345703;1673390686.3641431;-59.51222610473633;-0.056885235011577606;-46.39468002319336
390;1673390686.4583938;47.1287126;7.237578999999999;72.96500396728516;1673390686.5744257;-48.25938034057617;0.203487366437912;-46.392127990722656
391;1673390686.6785243;47.1287325;7.2375473999999995;72.76399993896484;1673390686.7855325;-21.135013580322266;0.6289358139038086;-45.94213104248047
392;1673390686.8831153;47.128752399999996;7.2375158;72.20500183105469;1673390686.9883559;25.415124893188477;1.4353773593902588;-44.90435791015625
393;1673390687.095377;47.1287721;7.2374844;71.25200653076172;1673390687.1914113;82.91251373291016;12.7924222946167;-32.825050354003906
394;1673390687.3053806;47.128791899999996;7.2374529;69.89800262451172;1673390687.4115813;50.69633483886719;177.35638427734375;131.9746551513672
395;1673390687.534418;47.1288118;7.2374214;68.18400573730469;1673390687.639491;28.4406681060791;175.87033081054688;129.596923828125
396;1673390687.7452807;47.128831299999995;7.2373902999999995;66.10000610351562;1673390687.8224926;32.784202575683594;173.7064971923828;127.26042175292969
397;1673390687.902316;47.1288505;7.2373597;63.643001556396484;1673390687.9906125;64.07608032226562;163.56588745117188;119.5337142944336
398;1673390688.086413;47.128869599999994;7.2373292;60.840003967285156;1673390688.1816156;54.49855041503906;7.535830020904541;-34.95542907714844
399;1673390688.27452;47.1288888;7.237298699999999;57.682003021240234;1673390688.4095094;-14.799680709838867;1.035272240638733;-40.6789665222168
400;1673390688.5354893;47.128907899999994;7.237268299999999;54.1140022277832;1673390688.6424525;-60.479347229003906;-2.150486946105957;-39.12627410888672
401;1673390688.7263994;47.1289266;7.2372384;50.19300079345703;1673390688.8403506;-66.8763198852539;-1.594459891319275;-39.46015167236328
402;1673390688.951211;47.128945099999996;7.237208799999999;45.958003997802734;1673390689.0332956;-31.090267181396484;1.769917368888855;-41.08674621582031
403;1673390689.1144636;47.1289632;7.2371798;41.38500213623047;1673390689.2056208;36.629188537597656;3.8184404373168945;-37.21154022216797
404;1673390689.3025417;47.1289811;7.237151099999999;36.406002044677734;1673390689.4052935;84.77261352539062;119.99298858642578;79.87287902832031
405;1673390689.498666;47.1289994;7.237121999999999;31.088001251220703;1673390689.5993218;78.97444152832031;152.8418426513672;113.52076721191406
406;1673390689.702456;47.129017499999996;7.2370931;25.477001190185547;1673390689.8008575;56.5738525390625;8.195256233215332;-30.124834060668945
407;1673390689.8985264;47.1290359;7.2370640999999996;19.55900001525879;1673390689.997659;-15.106949806213379;1.4344836473464966;-36.36386489868164
408;1673390690.0864632;47.1290543;7.237035;13.243000984191895;1673390690.1755786;-59.61135482788086;-1.571036458015442;-34.79060745239258
409;1673390690.27533;47.129072199999996;7.2370066;6.586000442504883;1673390690.3734522;-46.34340286254883;1.1258035898208618;-35.41740036010742
410;1673390690.4592948;47.1290893;7.2369802;0.11900000274181366;1673390690.563452;-22.752552032470703;-3.751580238342285;-37.97349166870117
411;1673390690.6665356;47.1291127;7.2369584;0.30100002884864807;1673390690.7705312;-23.108091354370117;3.0618298053741455;-35.75314712524414
412;1673390690.8623807;47.1291382;7.2369346;0.2330000102519989;1673390690.9643998;-29.29763412475586;0.09071004390716553;-34.60480499267578
413;1673390691.0565414;47.129165;7.2369099;0.2110000103712082;1673390691.1534262;-29.855398178100586;-3.6197144985198975;-34.3151741027832
414;1673390691.255858;47.129193699999995;7.2368836;0.14600001275539398;1673390691.367551;-29.791288375854492;-3.6993932723999023;-34.18527603149414
415;1673390691.4627233;47.1292238;7.2368558;0.055000003427267075;1673390691.5676115;-29.769996643066406;-3.8758721351623535;-34.144779205322266
416;1673390691.6765783;47.129255099999995;7.236826499999999;-0.07000000029802322;1673390691.7884448;-29.65249252319336;-3.736973762512207;-34.17819595336914
417;1673390691.8775117;47.1292878;7.236796;-0.2240000069141388;1673390691.9706192;-29.537567138671875;-3.6589057445526123;-34.18120574951172
418;1673390692.0587409;47.1293217;7.2367643;-0.37800002098083496;1673390692.1635811;-29.431560516357422;-3.5817885398864746;-34.18744659423828
419;1673390692.276585;47.1293566;7.2367314;-0.5370000004768372;1673390692.3904376;-29.330827713012695;-3.4586026668548584;-34.1845817565918
