;pos_time;latitude;longitude;altitude;alt_time;pitch;roll;yaw
0;1673388942.1546543;47.1306424;7.2406201;-0.021000001579523087;1673388942.3197317;0.04649542272090912;-0.6539680361747742;90.27198791503906
1;1673388942.3811011;47.1306424;7.2406201;-0.021000001579523087;1673388942.523562;0.11730938404798508;-0.20704904198646545;90.51128387451172
2;1673388942.5802727;47.1306424;7.24062;-0.021000001579523087;1673388942.729269;0.02357189543545246;-0.15209531784057617;90.299072265625
3;1673388942.7825189;47.1306424;7.2406198999999996;-0.020000001415610313;1673388942.9183168;-0.10546316206455231;-0.3377036154270172;90.45748901367188
4;1673388942.9761097;47.1306424;7.2406198999999996;-0.018000001087784767;1673388943.131312;-0.15970182418823242;-0.16100361943244934;90.31298828125
5;1673388943.187329;47.1306425;7.24062;-0.017000000923871994;1673388943.3264918;-0.15869571268558502;-0.31497541069984436;90.35430145263672
6;1673388943.3846712;47.1306425;7.24062;-0.01600000075995922;1673388943.51572;-0.16207601130008698;-0.24644587934017181;90.32989501953125
7;1673388943.5686092;47.1306424;7.2406198999999996;-0.014000000432133675;1673388943.7238026;-0.1567918211221695;-0.3428364098072052;90.36022186279297
8;1673388943.7845063;47.1306424;7.240619799999999;-0.01100000087171793;1673388943.9314954;0.09849908202886581;-0.23550760746002197;90.3252944946289
9;1673388943.9927568;47.1306424;7.2406197;-0.010000000707805157;1673388944.1428175;0.11006034910678864;-0.26477599143981934;90.38961791992188
10;1673388944.2145677;47.1306424;7.2406197;-0.012000000104308128;1673388944.3625226;0.2575909495353699;-0.3001208007335663;90.42890167236328
11;1673388944.4212568;47.1306424;7.2406196;-0.01600000075995922;1673388944.569684;0.03987592086195946;-0.25979503989219666;90.27781677246094
12;1673388944.6214542;47.1306424;7.2406196;-0.020000001415610313;1673388944.7759693;-0.07554170489311218;-0.24043768644332886;90.2630615234375
13;1673388944.833575;47.1306424;7.2406197;0.0;1673388944.9560947;-0.18587324023246765;-0.25054723024368286;90.36383056640625
14;1673388945.0132828;47.1306424;7.2406197;0.0;1673388945.160203;-0.2634729743003845;-0.18663130700588226;90.28951263427734
15;1673388945.2194064;47.1306425;7.240619799999999;0.0010000000474974513;1673388945.3588767;0.0948459729552269;-0.3907601833343506;90.348388671875
16;1673388945.4135814;47.1306425;7.240619799999999;0.003000000026077032;1673388945.5512707;0.002861635759472847;-0.1862577348947525;90.24603271484375
17;1673388945.6030347;47.1306425;7.240619799999999;0.004000000189989805;1673388945.7529497;0.11936856806278229;-0.2236296683549881;90.15277862548828
18;1673388945.8054018;47.1306425;7.240619799999999;0.004000000189989805;1673388945.947752;-0.10800100117921829;-0.5378084182739258;90.3785629272461
19;1673388946.0039866;47.1306425;7.240619799999999;0.0020000000949949026;1673388946.152963;-0.03197776898741722;-0.5787261128425598;90.48696899414062
20;1673388946.2078764;47.1306425;7.240619799999999;-0.0020000000949949026;1673388946.3588314;0.14167539775371552;-0.22603444755077362;90.30535125732422
21;1673388946.422477;47.130642599999995;7.240619799999999;-0.0010000000474974513;1673388946.5570672;-0.07540243864059448;0.13247127830982208;90.21456909179688
22;1673388946.6100693;47.130642599999995;7.240619799999999;-0.003000000026077032;1673388946.7459414;0.02533373050391674;0.5925588607788086;90.202392578125
23;1673388946.7928324;47.130642599999995;7.240619799999999;-0.005000000353902578;1673388946.9352684;0.019651906564831734;-0.28247854113578796;90.37832641601562
24;1673388946.996245;47.130642599999995;7.240619799999999;-0.005000000353902578;1673388947.1431193;-0.09869416058063507;-0.22779080271720886;90.286376953125
25;1673388947.2012436;47.1306425;7.240619799999999;-0.006000000052154064;1673388947.3402593;0.006848611403256655;-0.181394562125206;90.18994140625
26;1673388947.3881395;47.1306425;7.240619799999999;-0.00800000037997961;1673388947.5278466;-0.01983017288148403;-0.1699216216802597;90.4292984008789
27;1673388947.5889583;47.1306425;7.240619799999999;-0.006000000052154064;1673388947.7298715;-0.005222718231379986;0.035817306488752365;90.44832611083984
28;1673388947.7899206;47.1306425;7.240619799999999;-0.005000000353902578;1673388947.9298582;-0.028278648853302002;-0.0017214613035321236;90.3210678100586
29;1673388947.991153;47.1306425;7.240619799999999;-0.010000000707805157;1673388948.1501539;0.009111011400818825;-0.17268840968608856;90.39237213134766
30;1673388948.2179253;47.1306425;7.2406197;-0.014000000432133675;1673388948.3760574;-0.35407453775405884;-0.5325736403465271;90.36465454101562
31;1673388948.4278226;47.1306425;7.2406197;-0.01900000125169754;1673388948.5899208;-0.7205919623374939;-0.12421157211065292;91.14835357666016
32;1673388948.6519318;47.1306424;7.2406197;-0.020000001415610313;1673388948.8021212;0.23918494582176208;-3.863849639892578;91.28599548339844
33;1673388948.8501039;47.1306425;7.2406197;-0.0010000000474974513;1673388948.9860127;0.9233044981956482;1.4055951833724976;90.898681640625
34;1673388949.0630734;47.1306425;7.240619799999999;0.0430000014603138;1673388949.1929367;0.04802461341023445;1.3005750179290771;90.92742919921875
35;1673388949.2479444;47.1306425;7.2406198999999996;0.1080000028014183;1673388949.3798904;-0.09611126035451889;-3.0943665504455566;91.37785339355469
36;1673388949.4377787;47.1306425;7.2406198999999996;0.1810000091791153;1673388949.5850365;0.1815492957830429;0.11888625472784042;91.21783447265625
37;1673388949.6339931;47.1306425;7.24062;0.2670000195503235;1673388949.7714272;0.5384871363639832;1.891172170639038;90.99559020996094
38;1673388949.8276184;47.130642599999995;7.24062;0.36900001764297485;1673388949.9648983;1.0842455625534058;-2.792388916015625;91.1400146484375
39;1673388950.0226645;47.130642699999996;7.24062;0.484000027179718;1673388950.1623814;1.03336763381958;-0.6322393417358398;90.91425323486328
40;1673388950.2160707;47.1306428;7.24062;0.6140000224113464;1673388950.3519373;0.9750904440879822;2.7170944213867188;90.68000793457031
41;1673388950.4038534;47.1306428;7.2406198999999996;0.7590000629425049;1673388950.538582;-0.2355424463748932;-1.4956218004226685;91.0821533203125
42;1673388950.5942185;47.1306428;7.2406198999999996;0.9170000553131104;1673388950.7407396;-0.4198683202266693;-1.875023603439331;91.36138153076172
43;1673388950.8023534;47.130642699999996;7.240619799999999;1.0850000381469727;1673388950.9377995;-0.14533473551273346;2.4463741779327393;90.93441772460938
44;1673388951.0013685;47.130642599999995;7.240619799999999;1.2660000324249268;1673388951.1362915;0.5384312272071838;-0.6508230566978455;91.12247467041016
45;1673388951.199663;47.130642599999995;7.2406197;1.4560000896453857;1673388951.3530724;0.5522280335426331;-2.9047234058380127;91.13204956054688
46;1673388951.4127076;47.130642699999996;7.2406197;1.6510000228881836;1673388951.5512745;0.2892700731754303;2.3120968341827393;90.76996612548828
47;1673388951.6128469;47.1306428;7.2406197;1.8470001220703125;1673388951.748992;0.014676074497401714;0.6297850012779236;90.88861083984375
48;1673388951.805613;47.130642699999996;7.2406197;2.0450000762939453;1673388951.955873;-0.30869603157043457;-3.254100799560547;91.19514465332031
49;1673388952.0087461;47.130642599999995;7.240619799999999;2.242000102996826;1673388952.1505024;0.05071629211306572;1.3142844438552856;91.06575012207031
50;1673388952.2080855;47.130642699999996;7.2406198999999996;2.438000202178955;1673388952.3487482;0.6152047514915466;1.5679621696472168;91.10218811035156
51;1673388952.4053674;47.130642699999996;7.2406198999999996;2.633000135421753;1673388952.540144;0.9132686853408813;-2.667865037918091;91.31853485107422
52;1673388952.5949392;47.1306428;7.240619799999999;2.829000234603882;1673388952.740626;0.5998764634132385;1.136303424835205;91.13459777832031
53;1673388952.8092053;47.1306428;7.2406197;3.0280001163482666;1673388952.9417996;0.010737056843936443;2.424938440322876;91.30033111572266
54;1673388953.0019648;47.130642699999996;7.2406196;3.2310001850128174;1673388953.1393936;-0.4772789180278778;-2.9623684883117676;91.58272552490234
55;1673388953.1952393;47.1306425;7.2406196;3.432000160217285;1673388953.3431535;-0.18959854543209076;-1.0979053974151611;91.33020782470703
56;1673388953.3941276;47.1306424;7.2406197;3.633000135421753;1673388953.5459778;-0.16616031527519226;1.8897860050201416;90.9259033203125
57;1673388953.609454;47.1306423;7.2406197;3.8310000896453857;1673388953.7567542;-0.08045986294746399;-2.297227382659912;91.35884857177734
58;1673388953.8134034;47.1306423;7.2406197;4.027000427246094;1673388953.951201;0.7736347317695618;-1.8522611856460571;91.29875946044922
59;1673388954.0058007;47.1306423;7.2406197;4.223999977111816;1673388954.1468236;0.7755047082901001;2.342135190963745;91.18940734863281
60;1673388954.2034178;47.1306423;7.240619799999999;4.423000335693359;1673388954.3391995;0.11218196898698807;-1.6044235229492188;91.58650207519531
61;1673388954.3920023;47.1306422;7.240619799999999;4.624000072479248;1673388954.5337903;0.027049044147133827;-2.7982399463653564;91.40360260009766
62;1673388954.5913892;47.1306422;7.240619799999999;4.828999996185303;1673388954.7351203;-0.07886811345815659;1.9062106609344482;90.9495849609375
63;1673388954.794859;47.1306422;7.240619799999999;5.0320000648498535;1673388954.9303901;-0.1829216629266739;0.42167073488235474;90.89306640625
64;1673388954.9875355;47.1306423;7.240619799999999;5.234000205993652;1673388955.1350403;-0.06195078790187836;-2.6966207027435303;91.54525756835938
65;1673388955.1947918;47.1306424;7.2406197;5.442000389099121;1673388955.3337333;-0.04227977991104126;1.7956324815750122;91.40748596191406
66;1673388955.3922756;47.1306424;7.2406196;5.650000095367432;1673388955.5465283;0.040506865829229355;1.2853280305862427;91.19824981689453
67;1673388955.6015458;47.1306423;7.240619499999999;5.8550004959106445;1673388955.7378657;0.05544417351484299;-3.0703840255737305;91.37471771240234
68;1673388955.7966473;47.1306422;7.240619499999999;6.059000492095947;1673388955.9431946;-0.026007840409874916;-0.7318004369735718;91.07044982910156
69;1673388956.0037222;47.1306422;7.240619499999999;6.259000301361084;1673388956.1581376;-0.5205081105232239;1.991260051727295;90.99434661865234
70;1673388956.2137709;47.1306422;7.240619499999999;6.462000370025635;1673388956.3526282;-0.8029661178588867;-2.3686084747314453;91.4009780883789
71;1673388956.409303;47.1306423;7.2406196;6.6670002937316895;1673388956.5539207;-0.38020801544189453;-0.6530895829200745;91.2790756225586
72;1673388956.6069472;47.1306423;7.2406196;6.867000102996826;1673388956.7508206;-0.1989230364561081;2.6289775371551514;91.1708984375
73;1673388956.8064463;47.1306422;7.2406196;7.066000461578369;1673388956.9537165;0.2103622704744339;-2.310096025466919;91.16946411132812
74;1673388957.0103238;47.130641999999995;7.2406196;7.264000415802002;1673388957.1606193;0.4207491874694824;-2.9687612056732178;91.17875671386719
75;1673388957.2191703;47.1306419;7.2406197;7.460000514984131;1673388957.3650532;0.4616113603115082;1.8974586725234985;91.09757232666016
76;1673388957.4149852;47.130641999999995;7.240619799999999;7.653000354766846;1673388957.5441961;-0.0027938673738390207;-0.6815630197525024;91.34197235107422
77;1673388957.5959084;47.130642099999996;7.240619799999999;7.8460001945495605;1673388957.7252889;-0.03400420397520065;-2.636282444000244;91.44514465332031
78;1673388957.7777388;47.130642099999996;7.24062;8.043000221252441;1673388957.928703;-0.26809465885162354;2.164764642715454;90.98400115966797
79;1673388957.9985435;47.130642099999996;7.2406201;8.247000694274902;1673388958.1539598;0.45785215497016907;-0.016382532194256783;91.23313903808594
80;1673388958.2138069;47.130641999999995;7.2406201999999995;8.455000877380371;1673388958.3361702;0.8139448165893555;-3.4745066165924072;91.2177963256836
81;1673388958.3903952;47.130641999999995;7.2406201999999995;8.66100025177002;1673388958.5447567;0.7476171255111694;1.1309400796890259;91.17040252685547
82;1673388958.606243;47.130641999999995;7.2406201999999995;8.86400032043457;1673388958.7489247;0.6633338928222656;1.316410779953003;91.3836898803711
83;1673388958.8046718;47.130642099999996;7.2406201;9.065000534057617;1673388958.9505508;0.10189280658960342;-3.2888453006744385;91.3965835571289
84;1673388959.009123;47.130642099999996;7.2406201;9.265000343322754;1673388959.1491392;-0.09713911265134811;0.47463148832321167;91.16521453857422
85;1673388959.207834;47.130642099999996;7.2406201;9.463000297546387;1673388959.354451;-0.16569633781909943;1.6408668756484985;91.01475524902344
86;1673388959.406308;47.130641999999995;7.2406201999999995;9.66100025177002;1673388959.5470116;0.09393605589866638;-3.2334036827087402;91.52360534667969
87;1673388959.6028001;47.130641999999995;7.2406201999999995;9.861000061035156;1673388959.7483974;0.9599251747131348;-0.744594931602478;91.21315002441406
88;1673388959.8032773;47.130641999999995;7.2406201999999995;10.063000679016113;1673388959.9446886;0.6527634859085083;2.4131064414978027;91.12384033203125
89;1673388960.0052657;47.130642099999996;7.2406201999999995;10.285000801086426;1673388960.1499739;0.7560115456581116;-1.4809417724609375;91.35226440429688
90;1673388960.2125912;47.1306422;7.2406201;10.604000091552734;1673388960.3494391;0.6901463270187378;-2.4068899154663086;91.27631378173828
91;1673388960.4022887;47.1306423;7.2406201;10.97700023651123;1673388960.556941;0.33364787697792053;2.370877742767334;90.99990844726562
92;1673388960.6155589;47.1306422;7.2406201;11.368000984191895;1673388960.7809737;0.09524118900299072;-0.5717737674713135;91.24083709716797
93;1673388960.8348477;47.130642099999996;7.2406201;11.768000602722168;1673388960.969275;-0.017019443213939667;-2.842937469482422;91.39456176757812
94;1673388961.0191798;47.130642099999996;7.2406201;12.166000366210938;1673388961.1629465;-0.007907597348093987;1.4956529140472412;91.14087677001953
95;1673388961.218615;47.1306422;7.2406201;12.564000129699707;1673388961.3640056;0.15587998926639557;1.111046314239502;91.13072204589844
96;1673388961.4196568;47.1306423;7.24062;12.963000297546387;1673388961.5704246;0.22679519653320312;-2.550893783569336;91.41875457763672
97;1673388961.630162;47.1306423;7.24062;13.366000175476074;1673388961.7730803;0.20170240104198456;0.6442763805389404;91.26494598388672
98;1673388961.8249054;47.1306423;7.2406198999999996;13.771000862121582;1673388961.967988;0.507319450378418;1.7411075830459595;91.15596008300781
99;1673388962.0266542;47.1306422;7.2406198999999996;14.180000305175781;1673388962.1516135;0.13491705060005188;-3.009992837905884;91.38837432861328
100;1673388962.2064872;47.130641999999995;7.240619799999999;14.5910005569458;1673388962.3602788;-0.18874770402908325;-0.8999041318893433;91.07128143310547
101;1673388962.418845;47.130641999999995;7.240619799999999;15.00100040435791;1673388962.5663579;-0.4018084406852722;1.898007869720459;90.99578094482422
102;1673388962.627129;47.130642099999996;7.240619799999999;15.406001091003418;1673388962.766534;-0.301891565322876;-2.1466357707977295;91.2999496459961
103;1673388962.8194466;47.130642099999996;7.240619799999999;15.807001113891602;1673388962.9582474;-0.10592268407344818;-1.1902520656585693;91.4403076171875
104;1673388963.015832;47.1306422;7.2406197;16.211000442504883;1673388963.154549;0.06278951466083527;2.2372241020202637;91.07325744628906
105;1673388963.2218912;47.1306422;7.2406197;16.621000289916992;1673388963.3581214;0.2364526242017746;-1.1902375221252441;91.2165298461914
106;1673388963.4127774;47.130642099999996;7.2406197;17.033000946044922;1673388963.554505;0.17816342413425446;-3.074674367904663;91.33251190185547
107;1673388963.6140485;47.130642099999996;7.2406197;17.446001052856445;1673388963.7672162;0.07052983343601227;1.5041463375091553;91.12422180175781
108;1673388963.825888;47.130642099999996;7.2406197;17.85700035095215;1673388963.9960155;-0.4090176224708557;0.963641881942749;91.3534164428711
109;1673388964.0712605;47.1306422;7.2406197;18.266000747680664;1673388964.2480242;-0.3241294026374817;-2.614863872528076;91.49839782714844
110;1673388964.2900362;47.1306423;7.2406197;18.676000595092773;1673388964.417546;-0.30251526832580566;0.6014809012413025;91.23918914794922
111;1673388964.4828823;47.1306423;7.240619799999999;19.086000442504883;1673388964.6066341;0.0551518090069294;1.681210994720459;91.07938385009766
112;1673388964.6589289;47.1306422;7.240619799999999;19.496000289916992;1673388964.78855;0.2577841579914093;-3.0083582401275635;91.29592895507812
113;1673388964.8444126;47.1306422;7.240619799999999;19.9060001373291;1673388964.9731047;0.5479415059089661;-0.5643993616104126;91.21543884277344
114;1673388965.0443811;47.1306422;7.240619799999999;20.310001373291016;1673388965.1930103;0.36752110719680786;2.0432558059692383;91.19409942626953
115;1673388965.2512524;47.1306423;7.240619799999999;20.70800018310547;1673388965.3857863;0.25818899273872375;-1.5274299383163452;91.35518646240234
116;1673388965.4404373;47.1306424;7.240619799999999;21.102001190185547;1673388965.5899525;0.11682944744825363;-1.2586463689804077;91.22460174560547
117;1673388965.6387649;47.1306424;7.240619799999999;21.499000549316406;1673388965.7728055;0.21288317441940308;2.3428235054016113;91.0125961303711
118;1673388965.8286614;47.1306424;7.240619799999999;21.9010009765625;1673388965.96842;0.015361548401415348;-0.7559995055198669;91.23552703857422
119;1673388966.0246825;47.1306423;7.240619799999999;22.301000595092773;1673388966.1612139;0.3107001781463623;-3.243790864944458;91.34944152832031
120;1673388966.2179544;47.1306423;7.240619799999999;22.698001861572266;1673388966.363477;0.32240861654281616;1.560713529586792;91.11370086669922
121;1673388966.4309936;47.1306423;7.240619799999999;23.09400177001953;1673388966.5786822;0.5679929256439209;0.6768229603767395;91.23284912109375
122;1673388966.6303935;47.1306424;7.2406197;23.49100112915039;1673388966.7709332;0.5865858793258667;-2.6596572399139404;91.30887603759766
123;1673388966.842294;47.1306425;7.2406197;23.88800048828125;1673388966.9932435;0.14959998428821564;1.1029527187347412;91.16674041748047
124;1673388967.0449805;47.130642599999995;7.2406197;24.288002014160156;1673388967.169104;0.0638597160577774;1.799431324005127;91.12950134277344
125;1673388967.219031;47.1306425;7.2406197;24.691001892089844;1673388967.3644447;-0.030149521306157112;-2.5707240104675293;91.39790344238281
126;1673388967.416374;47.1306424;7.2406197;25.09400177001953;1673388967.5668323;0.10972484201192856;-0.16171500086784363;91.28732299804688
127;1673388967.6205704;47.1306425;7.2406197;25.496000289916992;1673388967.7644272;0.08394423127174377;2.2440426349639893;91.01322937011719
128;1673388967.8210316;47.1306425;7.2406197;25.89200210571289;1673388967.9615362;0.269927054643631;-1.9286545515060425;91.23285675048828
129;1673388968.0264404;47.130642599999995;7.2406197;26.286001205444336;1673388968.1793518;0.3128819167613983;-1.1834901571273804;91.23041534423828
130;1673388968.2401335;47.130642599999995;7.2406197;26.681001663208008;1673388968.3837225;0.2573666274547577;2.759000062942505;91.12812042236328
131;1673388968.4390552;47.130642599999995;7.2406196;27.07900047302246;1673388968.5765064;0.2088576853275299;-0.6548066139221191;91.3154296875
132;1673388968.6272585;47.1306425;7.240619499999999;27.479001998901367;1673388968.7640975;-0.1428787261247635;-2.5204458236694336;91.31639862060547
133;1673388968.8187664;47.1306424;7.240619499999999;27.881000518798828;1673388968.9654934;-0.26450395584106445;2.1581404209136963;90.97090148925781
134;1673388969.0152683;47.1306425;7.240619499999999;28.280000686645508;1673388969.1697855;-0.3880540430545807;0.5721302032470703;91.24696350097656
135;1673388969.2314622;47.1306425;7.240619499999999;28.678001403808594;1673388969.3751905;-0.3811768591403961;-2.637826681137085;91.43183135986328
136;1673388969.428889;47.130642599999995;7.2406194;29.078001022338867;1673388969.5706875;-0.1406301110982895;1.705285906791687;91.28392028808594
137;1673388969.6273623;47.130642599999995;7.2406194;29.47800064086914;1673388969.777633;0.0019590368028730154;1.1253938674926758;91.15393829345703
138;1673388969.8333666;47.1306424;7.2406194;29.875001907348633;1673388969.9704456;0.003141353139653802;-3.135741949081421;91.28182220458984
139;1673388970.0251362;47.1306423;7.2406193;30.273000717163086;1673388970.181637;0.14779925346374512;0.26034918427467346;91.16848754882812
140;1673388970.2569356;47.1306423;7.2406193;30.673002243041992;1673388970.3974955;0.028323939070105553;2.074768543243408;91.19705200195312
141;1673388970.4472752;47.1306424;7.2406193;31.071001052856445;1673388970.5791547;-0.09964077174663544;-2.343402147293091;91.34757232666016
142;1673388970.6357641;47.1306424;7.2406193;31.465002059936523;1673388970.7792776;-0.39942753314971924;-0.6729073524475098;91.2266616821289
143;1673388970.8378909;47.1306425;7.2406194;31.85900115966797;1673388970.974803;-0.45507222414016724;2.7044050693511963;91.0519027709961
144;1673388971.0343833;47.1306424;7.2406194;32.26000213623047;1673388971.1731136;-0.18657584488391876;-1.2679582834243774;91.12874603271484
145;1673388971.2287445;47.1306423;7.240619499999999;32.665000915527344;1673388971.3591917;0.2919360101222992;-2.371835947036743;91.42855834960938
146;1673388971.4134154;47.1306423;7.2406196;33.06999969482422;1673388971.5579123;0.517937183380127;1.9652880430221558;91.16666412353516
147;1673388971.6146693;47.1306423;7.2406196;33.47200012207031;1673388971.752139;0.48139020800590515;0.31498509645462036;91.2164535522461
148;1673388971.8117166;47.1306424;7.2406196;33.871002197265625;1673388971.962345;0.5047786831855774;-2.6499860286712646;91.32022857666016
149;1673388972.0151818;47.1306424;7.2406197;34.27300262451172;1673388972.1646364;0.35649481415748596;1.3863898515701294;91.107177734375
150;1673388972.228076;47.1306424;7.2406197;34.678001403808594;1673388972.3975446;0.11045344918966293;1.0644097328186035;91.2394027709961
151;1673388972.464228;47.1306423;7.2406197;35.08300018310547;1673388972.6097322;-0.18107394874095917;-3.0141761302948;91.52567291259766
152;1673388972.6649518;47.1306423;7.240619799999999;35.48500061035156;1673388972.8081212;-0.1804184466600418;0.37950778007507324;91.1884536743164
153;1673388972.8580966;47.1306423;7.240619799999999;35.88600158691406;1673388972.9966528;0.1113179475069046;2.0012199878692627;91.0020751953125
154;1673388973.0475082;47.1306424;7.240619799999999;36.28300094604492;1673388973.1899047;0.5259513258934021;-2.4714581966400146;91.31330871582031
155;1673388973.2369394;47.1306425;7.240619799999999;36.677001953125;1673388973.3647523;0.5709016919136047;-0.23361334204673767;91.15033721923828
156;1673388973.423366;47.130642599999995;7.240619799999999;37.073001861572266;1673388973.5651035;0.1841612011194229;2.854339361190796;91.23533630371094
157;1673388973.6266508;47.130642599999995;7.2406197;37.47300338745117;1673388973.790559;-0.035235241055488586;-1.8888193368911743;91.46439361572266
158;1673388973.8481712;47.1306425;7.240619799999999;37.874000549316406;1673388973.9747665;-0.2224443405866623;-1.065204381942749;91.29277801513672
159;1673388974.0325954;47.1306425;7.240619799999999;38.275001525878906;1673388974.1726081;-0.08872226625680923;2.560232162475586;90.98465728759766
160;1673388974.2282414;47.130642599999995;7.2406198999999996;38.67000198364258;1673388974.3729799;-0.183418408036232;-0.8640872240066528;91.25723266601562
161;1673388974.4345124;47.130642599999995;7.2406198999999996;39.0620002746582;1673388974.576299;0.0814281478524208;-1.8714501857757568;91.34477996826172
162;1673388974.629978;47.130642699999996;7.2406198999999996;39.457000732421875;1673388974.763095;0.41078442335128784;2.4767467975616455;91.10404205322266
163;1673388974.8282125;47.130642599999995;7.2406198999999996;39.85300064086914;1673388974.9718077;0.25471287965774536;-0.05629229545593262;91.18575286865234
164;1673388975.0293908;47.1306425;7.2406198999999996;40.24800109863281;1673388975.1877491;0.43574345111846924;-2.774301767349243;91.31964111328125
165;1673388975.2424378;47.1306425;7.2406198999999996;40.64400100708008;1673388975.3659189;-0.1071595847606659;1.6591969728469849;91.08455657958984
166;1673388975.4235518;47.1306425;7.240619799999999;41.0420036315918;1673388975.5648184;-0.24175840616226196;1.284380555152893;91.12133026123047
167;1673388975.6804013;47.1306425;7.240619799999999;41.43800354003906;1673388975.8366356;-0.4797223210334778;-2.673419237136841;91.6093978881836
168;1673388975.8875327;47.130642599999995;7.2406197;41.83400344848633;1673388976.0228345;-0.09398642927408218;0.7983781695365906;91.30952453613281
169;1673388976.076826;47.1306425;7.2406197;42.23200225830078;1673388976.2082372;0.1452241688966751;2.0205039978027344;91.14018249511719
170;1673388976.2589967;47.1306424;7.2406196;42.63200378417969;1673388976.3919475;0.12358542531728745;-2.6670639514923096;91.22470092773438
171;1673388976.4407308;47.1306424;7.240619499999999;43.031002044677734;1673388976.5916438;0.004496451932936907;-0.939566969871521;91.2053451538086
172;1673388976.6433902;47.1306424;7.240619499999999;43.428001403808594;1673388976.787455;-0.033155448734760284;2.5019054412841797;91.0560302734375
173;1673388976.840168;47.1306425;7.240619499999999;43.82200241088867;1673388976.9841816;-0.20298627018928528;-1.3722811937332153;91.308837890625
174;1673388977.0391479;47.1306425;7.240619499999999;44.215003967285156;1673388977.1775546;-0.46181169152259827;-1.3094264268875122;91.41236114501953
175;1673388977.2284703;47.130642599999995;7.240619499999999;44.60900115966797;1673388977.3821275;-0.40188682079315186;2.573702335357666;91.05091857910156
176;1673388977.4486372;47.130642599999995;7.2406194;45.005001068115234;1673388977.6181607;-0.3964489996433258;-0.20488037168979645;91.0909423828125
177;1673388977.6753707;47.1306425;7.2406194;45.40500259399414;1673388977.8322628;-0.11743663996458054;-2.5991263389587402;91.23252868652344
178;1673388977.8833563;47.1306425;7.2406194;45.810001373291016;1673388978.0275238;0.20049932599067688;2.342559337615967;91.22079467773438
179;1673388978.0719872;47.1306425;7.2406194;46.215003967285156;1673388978.1956265;0.28110185265541077;1.1136314868927002;91.23649597167969
180;1673388978.2513487;47.1306425;7.240619499999999;46.617000579833984;1673388978.3950925;0.1257578581571579;-2.814114570617676;91.40391540527344
181;1673388978.4536538;47.1306425;7.240619499999999;47.018001556396484;1673388978.5894532;0.07333456724882126;0.4011090099811554;91.12708282470703
182;1673388978.639322;47.1306425;7.240619499999999;47.42000198364258;1673388978.7778242;-0.10980185866355896;1.9005649089813232;91.15200805664062
183;1673388978.8385248;47.1306424;7.2406196;47.81900405883789;1673388979.0019603;-0.07630454003810883;-2.133769989013672;91.12883758544922
184;1673388979.0548153;47.1306423;7.2406196;48.19700241088867;1673388979.1921475;-0.15480071306228638;-0.9238622188568115;91.23933410644531
185;1673388979.2527137;47.1306423;7.2406196;48.525001525878906;1673388979.394253;0.022527670487761497;2.2402772903442383;91.080810546875
186;1673388979.4469612;47.1306424;7.2406196;48.797000885009766;1673388979.584766;0.1731136441230774;-2.6777095794677734;91.19218444824219
187;1673388979.6347868;47.1306424;7.2406196;49.02400207519531;1673388979.7754276;0.16954678297042847;-0.33034929633140564;91.18330383300781
188;1673388979.83896;47.1306425;7.2406196;49.2140007019043;1673388979.9821708;3.4215493202209473;5.063404083251953;91.45622253417969
189;1673388980.034875;47.1306424;7.2406196;49.37300109863281;1673388980.172523;20.53873062133789;23.99947738647461;98.90013885498047
190;1673388980.2262049;47.1306418;7.2406187;49.518001556396484;1673388980.3635852;28.004112243652344;42.37965393066406;110.82559204101562
191;1673388980.41878;47.1306398;7.2406155;49.647003173828125;1673388980.5850139;26.151599884033203;54.194740295410156;119.77330017089844
192;1673388980.6465385;47.1306357;7.2406086;49.75300216674805;1673388980.7709537;9.932890892028809;58.84110641479492;128.7075653076172
193;1673388980.820917;47.1306289;7.2405979;49.82200241088867;1673388980.956138;-7.626655578613281;54.83205032348633;139.2882843017578
194;1673388981.0091176;47.1306197;7.2405839;49.85700225830078;1673388981.1485717;-21.048290252685547;51.46328353881836;148.65216064453125
195;1673388981.2041216;47.130608699999996;7.2405677;49.874000549316406;1673388981.3461962;-32.808494567871094;45.7294807434082;159.864501953125
196;1673388981.4044583;47.1305962;7.240549799999999;49.87900161743164;1673388981.5524352;-43.058807373046875;39.55268096923828;173.6717071533203
197;1673388981.6177516;47.1305821;7.2405301;49.87900161743164;1673388981.769468;-51.82020568847656;33.70392990112305;-173.261962890625
198;1673388981.8481221;47.130566699999996;7.240508299999999;49.86300277709961;1673388981.9890542;-48.446693420410156;24.188833236694336;-165.3193359375
199;1673388982.0409834;47.1305505;7.240485;49.81800079345703;1673388982.1929028;-46.60986328125;18.07250213623047;-159.56346130371094
200;1673388982.2506802;47.1305336;7.240460799999999;49.762001037597656;1673388982.3903992;-48.51485824584961;13.352021217346191;-152.68914794921875
201;1673388982.4460654;47.1305163;7.240435799999999;49.70600128173828;1673388982.5837665;-46.12699890136719;7.8871169090271;-145.127197265625
202;1673388982.6340163;47.130498499999995;7.2404104;49.65500259399414;1673388982.768707;-44.873130798339844;5.767423629760742;-139.03562927246094
203;1673388982.821498;47.1304807;7.2403846;49.62300109863281;1673388982.9596558;-46.5982780456543;0.35479992628097534;-132.31784057617188
204;1673388983.0177984;47.130463;7.240358499999999;49.60900115966797;1673388983.1677394;-46.35491180419922;-6.167943000793457;-131.17691040039062
205;1673388983.2298703;47.130445099999996;7.2403322;49.60400390625;1673388983.3718622;-47.29441452026367;-5.779952049255371;-134.30535888671875
206;1673388983.4272478;47.130426899999996;7.240306299999999;49.61100387573242;1673388983.576235;-47.766319274902344;-4.556335926055908;-136.05970764160156
207;1673388983.6414838;47.1304084;7.240280599999999;49.62700271606445;1673388983.782724;-48.28336715698242;-2.9966585636138916;-137.10935974121094
208;1673388983.8463218;47.1303895;7.2402551;49.6510009765625;1673388983.9819512;-48.79887008666992;-1.5925673246383667;-137.75091552734375
209;1673388984.032741;47.130370299999996;7.240229599999999;49.676002502441406;1673388984.1875408;-48.42103576660156;-0.3943924009799957;-138.18080139160156
210;1673388984.2493546;47.130350899999996;7.2402041;49.69900131225586;1673388984.3785746;-48.97575378417969;0.2573823034763336;-138.28466796875
211;1673388984.42948;47.130331299999995;7.240178599999999;49.72200393676758;1673388984.5645435;-48.8399772644043;0.5905135273933411;-138.2668914794922
212;1673388984.6206384;47.1303116;7.2401529;49.737003326416016;1673388984.763281;-48.110877990722656;0.6758610606193542;-138.049072265625
213;1673388984.8337426;47.130292;7.2401272;49.74800109863281;1673388984.983062;-47.70607376098633;0.5607419610023499;-137.90423583984375
214;1673388985.0446265;47.130272299999994;7.2401013;49.76000213623047;1673388985.1870553;-47.44680404663086;0.48169463872909546;-137.74685668945312
215;1673388985.235172;47.1302527;7.240075399999999;49.77700424194336;1673388985.3777442;-48.15339660644531;0.3304343819618225;-137.6004180908203
216;1673388985.440741;47.130233;7.2400493;49.79500198364258;1673388985.578097;-48.5790901184082;0.2914133667945862;-137.50502014160156
217;1673388985.636741;47.1302133;7.240023099999999;49.810001373291016;1673388985.7955277;-48.36979675292969;0.2510100305080414;-137.441650390625
218;1673388985.8483899;47.1301936;7.239996799999999;49.82400131225586;1673388985.9729466;-48.263031005859375;0.2514651119709015;-137.37527465820312
219;1673388986.0232654;47.130173799999994;7.2399705;49.83100128173828;1673388986.1785617;-47.75975799560547;0.1766173243522644;-137.2499237060547
220;1673388986.2569509;47.1301541;7.2399441;49.83500289916992;1673388986.4140081;-47.6183967590332;0.14518079161643982;-137.2339630126953
221;1673388986.4709353;47.1301345;7.2399176999999995;49.84100341796875;1673388986.5994742;-48.00234603881836;0.10809279978275299;-137.1907958984375
222;1673388986.6505196;47.1301148;7.2398913;49.84700393676758;1673388986.7777004;-48.153926849365234;0.1120821163058281;-137.14663696289062
223;1673388986.841672;47.1300952;7.2398649;49.85100173950195;1673388987.0008278;-48.063724517822266;0.10329805314540863;-137.12356567382812
224;1673388987.0594728;47.1300756;7.2398384;49.85700225830078;1673388987.192469;-48.101593017578125;0.07000105082988739;-137.08892822265625
225;1673388987.2422712;47.130055899999995;7.239811899999999;49.8640022277832;1673388987.371023;-48.2808723449707;0.09543062001466751;-137.0410614013672
226;1673388987.4242585;47.1300363;7.2397854;49.86900329589844;1673388987.5707054;-48.220603942871094;0.14719587564468384;-137.02926635742188
227;1673388987.626685;47.1300167;7.2397588;49.87000274658203;1673388987.7823498;-47.86885070800781;0.1265077143907547;-137.00184631347656
228;1673388987.8399386;47.129996999999996;7.2397322;49.86900329589844;1673388988.0011275;-47.852787017822266;0.09513126313686371;-136.9813995361328
229;1673388988.0753183;47.1299774;7.2397054999999995;49.87000274658203;1673388988.2142794;-48.184749603271484;0.08998849987983704;-136.9587860107422
230;1673388988.2699568;47.1299578;7.2396788999999995;49.87200164794922;1673388988.3976746;-48.358097076416016;0.08530634641647339;-136.9502410888672
231;1673388988.450378;47.1299382;7.2396522;49.87600326538086;1673388988.5817137;-48.375694274902344;0.07434365153312683;-136.97238159179688
232;1673388988.6390054;47.1299187;7.2396255;49.87600326538086;1673388988.7724116;-48.081485748291016;-0.014852502383291721;-136.93153381347656
233;1673388988.8295703;47.129899099999996;7.239598699999999;49.87200164794922;1673388988.9889307;-47.81746292114258;-0.02018049731850624;-136.92539978027344
234;1673388989.0485299;47.1298795;7.2395719;49.868003845214844;1673388989.1913157;-47.84079360961914;-0.022939682006835938;-136.92835998535156
235;1673388989.24894;47.12986;7.239545199999999;49.867000579833984;1673388989.3972077;-48.067378997802734;-0.07197313010692596;-136.92347717285156
236;1673388989.4549553;47.1298404;7.2395184;49.871002197265625;1673388989.5953496;-48.24915313720703;-0.04860883951187134;-136.93780517578125
237;1673388989.6452878;47.1298209;7.239491699999999;49.875003814697266;1673388989.7834322;-48.386688232421875;-0.0024606583174318075;-136.97128295898438
238;1673388989.8386333;47.1298014;7.2394649;49.87800216674805;1673388989.9791563;-48.1625862121582;-0.030468735843896866;-136.94544982910156
239;1673388990.0465415;47.129781799999996;7.2394381;49.87800216674805;1673388990.1883411;-47.892982482910156;0.013988534919917583;-136.9602508544922
240;1673388990.239173;47.129762199999995;7.2394112999999995;49.87800216674805;1673388990.3949075;-47.80070495605469;-0.05909838154911995;-136.955322265625
241;1673388990.4534678;47.1297426;7.2393844;49.87700271606445;1673388990.5923011;-47.69887161254883;-0.06621111929416656;-136.9300537109375
242;1673388990.655738;47.1297231;7.239357699999999;49.880001068115234;1673388990.791675;-48.04863739013672;-0.01527981273829937;-136.9850616455078
243;1673388990.843387;47.1297035;7.2393309;49.88500213623047;1673388990.9801538;-48.2650260925293;-0.027097655460238457;-136.9560089111328
244;1673388991.045117;47.129684;7.2393041;49.88800048828125;1673388991.2261512;-48.119136810302734;-0.0312691293656826;-136.94052124023438
245;1673388991.279967;47.129664399999996;7.2392772999999995;49.887001037597656;1673388991.4198155;-47.880977630615234;0.04426512494683266;-136.9779815673828
246;1673388991.4716995;47.129644899999995;7.2392506;49.88800048828125;1673388991.61152;-47.82123565673828;0.006698496639728546;-136.9599609375
247;1673388991.6651993;47.1296253;7.2392237999999995;49.8910026550293;1673388991.8090453;-47.94275665283203;-0.08032860606908798;-136.9270477294922
248;1673388991.8636498;47.1296058;7.2391969;49.89600372314453;1673388992.0006344;-48.24496841430664;0.025758828967809677;-136.98214721679688
249;1673388992.0555408;47.1295862;7.2391701;49.90400314331055;1673388992.209178;-48.38546371459961;-0.06888391822576523;-136.93218994140625
250;1673388992.2688296;47.1295667;7.239143299999999;49.90900421142578;1673388992.4058185;-48.17525100708008;0.02763911709189415;-136.99435424804688
251;1673388992.4606378;47.129547099999996;7.2391165;49.91200256347656;1673388992.5958369;-47.85580825805664;-0.04813716188073158;-136.9452667236328
252;1673388992.6524932;47.129527499999995;7.2390896;49.9170036315918;1673388992.7854047;-47.997623443603516;-0.05276554450392723;-136.95364379882812
253;1673388992.8449745;47.1295079;7.2390627;49.92400360107422;1673388992.9794643;-48.16899871826172;-0.049157533794641495;-136.94967651367188
254;1673388993.0465932;47.1294883;7.239035899999999;49.93000411987305;1673388993.1720507;-48.14170455932617;0.09548637270927429;-136.98439025878906
255;1673388993.2263312;47.1294687;7.2390091;49.93400192260742;1673388993.3804655;-47.93841552734375;0.09262518584728241;-136.95729064941406
256;1673388993.4353127;47.129449;7.2389823;49.93600082397461;1673388993.5754695;-47.7786979675293;-0.029551919549703598;-136.9014129638672
257;1673388993.6316543;47.1294294;7.2389554;49.93800354003906;1673388993.7694829;-47.8249626159668;0.2649462819099426;-137.04116821289062
258;1673388993.8244538;47.1294098;7.2389285999999995;49.941001892089844;1673388993.9721816;-48.19227981567383;0.7161515951156616;-136.99365234375
259;1673388994.029227;47.1293903;7.2389016999999996;49.945003509521484;1673388994.1624742;-47.50417709350586;-0.7473518252372742;-136.57240295410156
260;1673388994.2192721;47.129370699999996;7.2388748;49.94900131225586;1673388994.3644998;-47.91517639160156;-0.22782382369041443;-136.82431030273438
261;1673388994.4282007;47.129351199999995;7.238848;49.9530029296875;1673388994.5946007;-48.245330810546875;-0.36149778962135315;-136.80674743652344
262;1673388994.6469743;47.1293316;7.2388211;49.95900344848633;1673388994.7970443;-48.29644012451172;0.12619821727275848;-137.02609252929688
263;1673388994.8547864;47.129312;7.2387942999999995;49.96600341796875;1673388995.0013857;-46.503440856933594;-0.033564940094947815;-136.92355346679688
264;1673388995.0512133;47.1292924;7.2387673999999995;49.97900390625;1673388995.179835;-36.94309616088867;-0.6005154252052307;-136.7467803955078
265;1673388995.232908;47.129273;7.2387409;50.01300048828125;1673388995.3629482;-21.02488899230957;-0.009280677884817123;-136.57284545898438
266;1673388995.416708;47.1292543;7.238715399999999;50.038002014160156;1673388995.5647964;-5.448697090148926;0.6589345335960388;-136.42022705078125
267;1673388995.6222804;47.129236999999996;7.2386919999999995;50.04900360107422;1673388995.77028;6.279629707336426;0.6366541981697083;-136.42771911621094
268;1673388995.8294232;47.129221699999995;7.2386710999999995;50.044002532958984;1673388995.997889;13.535148620605469;0.336679607629776;-136.19210815429688
269;1673388996.0634565;47.1292087;7.2386534;50.022003173828125;1673388996.2460604;20.15226173400879;3.3642637729644775;-136.69639587402344
270;1673388996.3090656;47.129197999999995;7.2386387;49.967002868652344;1673388996.4345622;18.381589889526367;3.676088809967041;-137.98236083984375
271;1673388996.4985967;47.1291896;7.2386270999999995;49.88500213623047;1673388996.628976;15.010504722595215;2.7727038860321045;-138.77383422851562
272;1673388996.681702;47.1291832;7.238618;49.80600357055664;1673388996.8605685;11.167811393737793;3.225098133087158;-138.36952209472656
273;1673388996.920671;47.1291782;7.238611;49.742000579833984;1673388997.0483859;4.797504901885986;-1.3090492486953735;-136.69227600097656
274;1673388997.0944266;47.1291744;7.2386056;49.68700408935547;1673388997.2081134;-2.6637563705444336;-4.294085502624512;-135.62371826171875
275;1673388997.2560673;47.129171199999995;7.2386012;49.647003173828125;1673388997.3801935;-8.98410701751709;-5.40050745010376;-135.3716583251953
276;1673388997.4335713;47.129168199999995;7.2385974;49.63100051879883;1673388997.5805752;-12.565173149108887;-3.213850975036621;-135.54530334472656
277;1673388997.6368682;47.129165099999994;7.2385937;49.64400100708008;1673388997.7809384;-12.224645614624023;0.29814139008522034;-135.8322296142578
278;1673388997.8449652;47.1291618;7.2385895;49.68300247192383;1673388997.983164;-8.172550201416016;2.3382046222686768;-135.9320068359375
279;1673388998.0432684;47.129158399999994;7.2385851;49.75300216674805;1673388998.177861;-3.5154924392700195;3.6091878414154053;-135.1314239501953
280;1673388998.2320855;47.1291552;7.2385807;49.829002380371094;1673388998.415801;-12.80673885345459;4.375000476837158;-135.9496307373047
281;1673388998.4656534;47.1291522;7.2385763;49.92500305175781;1673388998.6151886;-31.104082107543945;2.918398857116699;-137.72972106933594
282;1673388998.6620388;47.129148699999995;7.2385712;50.057003021240234;1673388998.8136907;-21.386180877685547;1.0173367261886597;-136.9758758544922
283;1673388998.8714795;47.1291446;7.2385649999999995;50.24100112915039;1673388999.0191066;-16.07917022705078;0.9646308422088623;-136.70321655273438
284;1673388999.0758965;47.1291401;7.238558299999999;50.505001068115234;1673388999.2252467;-19.769554138183594;-0.9538999199867249;-136.3107452392578
285;1673388999.2761092;47.129135299999994;7.2385511;50.84800338745117;1673388999.4312668;-39.96014404296875;-2.7065625190734863;-136.01907348632812
286;1673388999.4908555;47.1291298;7.238543;51.23400115966797;1673388999.6256075;-43.277713775634766;-3.8488757610321045;-136.9093017578125
287;1673388999.6784365;47.1291228;7.2385332;51.62000274658203;1673388999.8289056;-39.8088493347168;0.13327237963676453;-137.2097930908203
288;1673388999.876027;47.1291144;7.2385215999999994;51.99800109863281;1673389000.0094743;-35.4609489440918;-0.12882959842681885;-137.25119018554688
289;1673389000.068157;47.1291051;7.238508899999999;52.36000061035156;1673389000.1950736;-31.100051879882812;1.8725783824920654;-137.68479919433594
290;1673389000.2569728;47.129095199999995;7.2384955;52.7130012512207;1673389000.3996532;-27.848175048828125;1.8342934846878052;-137.59983825683594
291;1673389000.4616795;47.129084999999996;7.2384816999999995;53.06200408935547;1673389000.5959375;-25.736967086791992;2.030123472213745;-137.4146270751953
292;1673389000.647257;47.129074599999996;7.2384679;53.41100311279297;1673389000.7865427;-24.527803421020508;0.6461173295974731;-136.99769592285156
293;1673389000.8466623;47.129064299999996;7.238454099999999;53.76400375366211;1673389000.9725573;-23.934690475463867;-0.38832998275756836;-136.82943725585938
294;1673389001.0259042;47.1290541;7.2384404;54.12300109863281;1673389001.1756818;-23.865026473999023;-0.809945821762085;-136.9607391357422
295;1673389001.2378535;47.129044099999994;7.2384267;54.48800277709961;1673389001.4099054;-24.08260154724121;0.5011075139045715;-137.60093688964844
296;1673389001.470418;47.1290342;7.2384132;54.862003326416016;1673389001.6189258;-24.406673431396484;2.142646074295044;-138.0294189453125
297;1673389001.6718302;47.1290245;7.238399599999999;55.24200439453125;1673389001.8141568;-25.032678604125977;2.9082651138305664;-138.3467559814453
298;1673389001.867895;47.1290149;7.2383861;55.625003814697266;1673389002.002931;-25.689651489257812;2.8590803146362305;-138.2678680419922
299;1673389002.0513623;47.129005299999996;7.238372399999999;56.01000213623047;1673389002.1984706;-25.903745651245117;1.9511518478393555;-138.22372436523438
300;1673389002.2578785;47.1289957;7.238358799999999;56.39600372314453;1673389002.4102316;-25.96148109436035;0.6589165925979614;-137.9197235107422
301;1673389002.4952471;47.1289861;7.2383453;56.78200149536133;1673389002.64295;-25.74590492248535;-0.7821889519691467;-137.4182586669922
302;1673389002.6917489;47.1289764;7.2383318;57.16800308227539;1673389002.8178928;-26.04656410217285;-1.7387374639511108;-137.12794494628906
303;1673389002.8686457;47.1289666;7.2383184;57.55400085449219;1673389002.997498;-25.880992889404297;-2.167637348175049;-137.1666717529297
304;1673389003.0481007;47.1289569;7.238304899999999;57.94700241088867;1673389003.1942403;-25.925495147705078;-1.7503650188446045;-137.15447998046875
305;1673389003.253973;47.1289471;7.2382915;58.340003967285156;1673389003.4167483;-25.715816497802734;-1.8690022230148315;-137.18495178222656
306;1673389003.480302;47.1289374;7.2382781;58.73400115966797;1673389003.6338048;-25.750951766967773;-1.249385952949524;-137.35350036621094
307;1673389003.6876023;47.1289276;7.2382646;59.12900161743164;1673389003.8194063;-25.72134780883789;-0.5932513475418091;-137.2978515625
308;1673389003.8790917;47.128917799999996;7.2382512;59.52000427246094;1673389004.0296264;-25.848379135131836;0.20544853806495667;-137.53282165527344
309;1673389004.0872252;47.128907999999996;7.238237799999999;59.90800094604492;1673389004.2214825;-25.895971298217773;0.9632112383842468;-137.65322875976562
310;1673389004.268391;47.128898199999995;7.238224499999999;60.29300308227539;1673389004.399338;-26.216358184814453;1.7171111106872559;-137.66485595703125
311;1673389004.4526198;47.1288884;7.2382111;60.67500305175781;1673389004.5858657;-26.12194061279297;2.0537121295928955;-137.8025360107422
312;1673389004.6439996;47.1288785;7.2381975999999995;61.060001373291016;1673389004.7896874;-26.29446029663086;2.0103118419647217;-137.78793334960938
313;1673389004.84127;47.1288686;7.2381841;61.448001861572266;1673389004.9854891;-26.24847984313965;1.68025541305542;-137.48043823242188
314;1673389005.0739295;47.128858699999995;7.2381705;61.836002349853516;1673389005.225342;-26.17369270324707;1.1513102054595947;-137.39537048339844
315;1673389005.274123;47.1288488;7.238156999999999;62.22700119018555;1673389005.4005947;-26.20375633239746;0.6287840604782104;-137.21742248535156
316;1673389005.4519405;47.1288389;7.2381435;62.618003845214844;1673389005.5842676;-26.412979125976562;-0.19234873354434967;-137.0319366455078
317;1673389005.6414905;47.128828999999996;7.23813;63.01000213623047;1673389005.7837486;-26.225727081298828;-0.9413890242576599;-136.89822387695312
318;1673389005.854343;47.128819;7.2381166;63.40200424194336;1673389005.9905932;-26.427030563354492;-1.3310807943344116;-136.64381408691406
319;1673389006.0535846;47.128809;7.238103199999999;63.79700469970703;1673389006.1960115;-26.576581954956055;-1.2048925161361694;-136.67906188964844
320;1673389006.2492597;47.128799;7.2380897;64.19200134277344;1673389006.389494;-26.324993133544922;-1.2799785137176514;-136.6924285888672
321;1673389006.459743;47.128789;7.2380762;64.58600616455078;1673389006.600489;-26.54885482788086;-1.041368842124939;-136.6654815673828
322;1673389006.6567261;47.128779099999996;7.2380626999999995;64.9780044555664;1673389006.798906;-26.51713752746582;-0.6177845597267151;-136.75906372070312
323;1673389006.8610713;47.1287691;7.2380492;65.36800384521484;1673389007.018413;-26.5144100189209;-0.36066699028015137;-136.82322692871094
324;1673389007.0779486;47.1287592;7.2380355;65.75900268554688;1673389007.2156785;-26.693958282470703;-0.24450799822807312;-136.82559204101562
325;1673389007.276234;47.1287494;7.238021799999999;66.1520004272461;1673389007.4125388;-26.721410751342773;-0.2485213577747345;-136.8377227783203
326;1673389007.4668167;47.128739499999995;7.2380081;66.54600524902344;1673389007.5994604;-26.59473419189453;-0.1976774036884308;-136.9917755126953
327;1673389007.6541905;47.1287296;7.2379942999999995;66.94300079345703;1673389007.80746;-26.55461311340332;-0.5052247047424316;-136.88906860351562
328;1673389007.8808477;47.1287196;7.2379805;67.34300231933594;1673389008.0064178;-26.543258666992188;0.15036728978157043;-137.0377655029297
329;1673389008.057907;47.1287096;7.2379668;67.74400329589844;1673389008.1881979;-26.50013542175293;0.08889928460121155;-137.02389526367188
330;1673389008.2522376;47.1286997;7.2379532;68.14200592041016;1673389008.3955996;-26.729215621948242;1.0425527095794678;-137.20236206054688
331;1673389008.4522617;47.128689699999995;7.2379394999999995;68.54100036621094;1673389008.6011155;-26.634023666381836;1.43633234500885;-137.26170349121094
332;1673389008.664254;47.1286797;7.2379259;68.93700408935547;1673389008.805398;-26.866695404052734;1.4573841094970703;-137.2550506591797
333;1673389008.8666184;47.128669699999996;7.237912199999999;69.33200073242188;1673389009.001824;-26.8201961517334;1.2756214141845703;-137.2231903076172
334;1673389009.0674276;47.1286597;7.2378985;69.72500610351562;1673389009.2149727;-26.727508544921875;1.1304398775100708;-137.13584899902344
335;1673389009.2725942;47.1286497;7.2378846999999995;70.11800384521484;1673389009.4172957;-16.649919509887695;1.1364942789077759;-137.05850219726562
336;1673389009.4709706;47.128639899999996;7.2378712;70.49300384521484;1673389009.6023102;-7.043473243713379;0.9717013835906982;-137.07054138183594
337;1673389009.6537988;47.1286306;7.2378585;70.83600616455078;1673389009.7965956;-2.7066612243652344;1.1047028303146362;-137.1153106689453
338;1673389009.8556972;47.1286221;7.2378469999999995;71.14200592041016;1673389010.022107;3.1230528354644775;2.022721290588379;-136.96359252929688
339;1673389010.0996468;47.1286146;7.2378369;71.41200256347656;1673389010.285964;5.857272148132324;3.0256266593933105;-136.54942321777344
340;1673389010.3343985;47.128608199999995;7.2378282;71.64500427246094;1673389010.4580262;7.719560623168945;2.6245083808898926;-136.5831756591797
341;1673389010.5107884;47.128602799999996;7.2378208;71.84400177001953;1673389010.6496575;7.675931930541992;2.2011172771453857;-136.97821044921875
342;1673389010.7006466;47.128598499999995;7.2378149;72.01600646972656;1673389010.8517928;5.967911720275879;2.386274814605713;-136.64022827148438
343;1673389010.9075043;47.128595;7.237810199999999;72.16400146484375;1673389011.0334048;3.68137264251709;2.8909380435943604;-135.86065673828125
344;1673389011.0822034;47.1285921;7.2378065;72.29100036621094;1673389011.2057364;1.720218539237976;20.707279205322266;-131.2685546875
345;1673389011.2600057;47.128589999999996;7.2378032999999995;72.40299987792969;1673389011.3974571;-0.37110382318496704;29.64735984802246;-119.96146392822266
346;1673389011.4560568;47.1285892;7.2377997;72.49300384521484;1673389011.6100605;-8.493429183959961;21.657520294189453;-108.0950698852539
347;1673389011.666271;47.128589899999994;7.237795299999999;72.5570068359375;1673389011.8094196;-7.874619483947754;13.146720886230469;-97.70240783691406
348;1673389011.8637106;47.1285915;7.237790599999999;72.6030044555664;1673389012.0058773;-10.706575393676758;9.350881576538086;-88.54690551757812
349;1673389012.068224;47.128593599999995;7.2377854;72.64400482177734;1673389012.2073271;-9.614502906799316;5.056280136108398;-79.21942901611328
350;1673389012.2683754;47.1285962;7.2377799;72.677001953125;1673389012.4057596;-9.655577659606934;1.9097334146499634;-70.44342803955078
351;1673389012.4602885;47.1285989;7.2377743;72.70500183105469;1673389012.6030672;-9.066206932067871;0.09823346883058548;-61.61272048950195
352;1673389012.6583152;47.128601599999996;7.2377686;72.73100280761719;1673389012.798445;-8.502988815307617;-0.8119697570800781;-52.84690475463867
353;1673389012.8546226;47.1286043;7.2377629;72.75700378417969;1673389012.996533;-8.424422264099121;-2.3968281745910645;-44.122955322265625
354;1673389013.054678;47.1286068;7.2377572;72.77900695800781;1673389013.198004;-7.953367233276367;-3.544677734375;-39.16604232788086
355;1673389013.2542222;47.1286091;7.237751599999999;72.79900360107422;1673389013.39647;-7.483508110046387;-4.1230998039245605;-40.77878952026367
356;1673389013.4556532;47.1286111;7.2377461;72.82100677490234;1673389013.6037269;-23.316537857055664;-2.827455520629883;-44.00888442993164
357;1673389013.6657858;47.1286132;7.2377405999999995;72.8530044555664;1673389013.800272;-44.52144241333008;-0.9260995388031006;-45.355323791503906
358;1673389013.8665845;47.128616099999995;7.237733899999999;72.89700317382812;1673389014.0095956;-57.25080108642578;-0.5079154372215271;-45.1312370300293
359;1673389014.0721495;47.1286211;7.2377245;72.94200134277344;1673389014.2283175;-62.34217071533203;-0.8527966737747192;-45.67219161987305
360;1673389014.2780893;47.1286288;7.2377116;72.9780044555664;1673389014.41651;-59.86460494995117;-0.18800072371959686;-46.61614990234375
361;1673389014.489304;47.1286388;7.2376951;73.00100708007812;1673389014.637992;-58.361846923828125;-0.2321091592311859;-46.7838134765625
362;1673389014.6965618;47.1286509;7.237675599999999;73.01100158691406;1673389014.8393312;-58.91144561767578;0.8394380211830139;-47.04060745239258
363;1673389014.890084;47.1286646;7.2376537999999995;73.0040054321289;1673389015.0165384;-55.514225006103516;0.7249982357025146;-46.762298583984375
364;1673389015.073864;47.1286795;7.2376304;72.98300170898438;1673389015.2132294;-54.0818977355957;-0.2948577105998993;-46.48960494995117
365;1673389015.2742865;47.1286955;7.237605599999999;72.95700073242188;1673389015.4202287;-53.569190979003906;-0.4516919255256653;-46.47401809692383
366;1673389015.47693;47.128712;7.2375798;72.91300201416016;1673389015.6158535;-33.83080291748047;-0.5674996972084045;-46.50014877319336
367;1673389015.678033;47.128728599999995;7.2375539;72.60900115966797;1673389015.8109367;7.987936496734619;-1.1346818208694458;-46.69309997558594
368;1673389015.8723042;47.128744999999995;7.237528299999999;71.93099975585938;1673389016.0240908;69.15927124023438;-3.9146292209625244;-49.3313102722168
369;1673389016.0721161;47.1287612;7.2375028;70.84400177001953;1673389016.2200925;53.71832275390625;-178.24554443359375;136.1631622314453
370;1673389016.2840488;47.1287776;7.2374770999999996;69.39000701904297;1673389016.4542694;20.721118927001953;179.6587677001953;131.60067749023438
371;1673389016.5240188;47.1287938;7.237451699999999;67.58800506591797;1673389016.6992772;15.606698036193848;-179.50865173339844;130.47900390625
372;1673389016.7492852;47.1288098;7.2374268;65.41100311279297;1673389016.9091759;38.12896728515625;-179.294921875;130.48448181152344
373;1673389016.9518902;47.1288254;7.2374024;62.86300277709961;1673389017.059063;87.57044982910156;-57.653602600097656;-106.6867446899414
374;1673389017.1060855;47.1288409;7.2373781;59.97200393676758;1673389017.2260828;14.336380004882812;-1.0941637754440308;-51.807228088378906
375;1673389017.2850988;47.1288564;7.2373537;56.69300079345703;1673389017.4322069;-47.297584533691406;1.0287469625473022;-49.680206298828125
376;1673389017.4872568;47.1288716;7.2373296;53.009002685546875;1673389017.6221173;-70.60258483886719;-1.7391523122787476;-45.218528747558594
377;1673389017.6901734;47.1288866;7.237305999999999;48.996002197265625;1673389017.847996;-51.54621124267578;-0.715214192867279;-44.747474670410156
378;1673389017.9138885;47.1289014;7.2372828;44.66800308227539;1673389018.0522144;9.3228178024292;-0.20158031582832336;-43.62852096557617
379;1673389018.1059623;47.128915799999994;7.2372602;39.98400115966797;1673389018.238182;79.36474609375;13.285330772399902;-29.436887741088867
380;1673389018.2900884;47.1289302;7.2372375;34.90800094604492;1673389018.422086;68.22791290283203;167.093017578125;123.755126953125
381;1673389018.4830444;47.1289446;7.2372149;29.522001266479492;1673389018.6251786;82.9741439819336;85.6618423461914;42.888648986816406
382;1673389018.679148;47.1289589;7.2371924;23.841001510620117;1673389018.8362606;21.642915725708008;5.311975002288818;-35.994232177734375
383;1673389018.893969;47.1289734;7.237169799999999;17.83500099182129;1673389019.0570822;-46.411720275878906;-1.981499433517456;-36.12437057495117
384;1673389019.10697;47.128987699999996;7.2371474;11.429000854492188;1673389019.249098;-61.19010925292969;-7.287199974060059;-31.6362361907959
385;1673389019.303116;47.1290015;7.2371257;4.715000152587891;1673389019.4462125;-1.8978655338287354;-2.175931930541992;-35.31922149658203
386;1673389019.5090518;47.1290116;7.2371101;0.3540000021457672;1673389019.6739545;-11.228836059570312;-0.47512757778167725;-40.575279235839844
387;1673389019.7775118;47.129019199999995;7.2371009;0.6330000162124634;1673389019.8941698;-4.614879608154297;-3.7264537811279297;-40.49958038330078
388;1673389019.9414358;47.1290282;7.2370905;0.8750000596046448;1673389020.0630949;-5.160518646240234;-3.609758138656616;-40.38484191894531
389;1673389020.1072497;47.1290372;7.2370798999999995;1.1110000610351562;1673389020.2301745;-4.975129127502441;-4.303574085235596;-40.297630310058594
390;1673389020.2881277;47.1290451;7.2370706;1.2700001001358032;1673389020.465086;-4.655390739440918;-4.485170841217041;-40.32362747192383
391;1673389020.5180626;47.1290517;7.2370626;1.378000020980835;1673389020.6328661;-4.33728551864624;-4.467043876647949;-40.36833953857422
392;1673389020.6871905;47.129056899999995;7.2370563;1.4530000686645508;1673389020.8301277;-3.8845698833465576;-4.37144136428833;-40.44947052001953
393;1673389020.8851044;47.129060599999995;7.2370516;1.5040000677108765;1673389021.0292711;-3.512725353240967;-4.245473384857178;-40.511661529541016
394;1673389021.086325;47.129064299999996;7.2370468;1.5660001039505005;1673389021.2216203;-3.3193483352661133;-4.1385602951049805;-40.54656982421875
395;1673389021.2835317;47.1290668;7.2370432;1.6260000467300415;1673389021.4239566;-2.6906650066375732;-3.9975080490112305;-40.59372329711914
396;1673389021.4816227;47.129066699999996;7.237043;1.6530001163482666;1673389021.623869;-2.140876531600952;-3.9069154262542725;-40.646278381347656
397;1673389021.684984;47.129065;7.2370446;1.665000081062317;1673389021.8212314;-1.61043381690979;-3.770761013031006;-40.716880798339844
398;1673389021.8782632;47.1290622;7.2370475;1.665000081062317;1673389022.0197139;-1.110770583152771;-3.667614698410034;-40.756874084472656
399;1673389022.0821543;47.129058699999995;7.2370512;1.65500009059906;1673389022.2411954;-0.7164084911346436;-3.5640640258789062;-40.82127380371094
400;1673389022.300118;47.1290548;7.2370551;1.6420000791549683;1673389022.460039;-0.3203525245189667;-3.463254928588867;-40.85470199584961
401;1673389022.513076;47.129051999999994;7.237057399999999;1.6430001258850098;1673389022.6380415;-0.09316498786211014;-3.326399803161621;-40.88020706176758
402;1673389022.6977189;47.129049599999995;7.2370592;1.6480001211166382;1673389022.8430882;0.33488571643829346;-3.2305846214294434;-40.93912887573242
403;1673389022.892891;47.1290458;7.2370627;1.6400001049041748;1673389023.027898;0.7464415431022644;-3.0639138221740723;-41.0285758972168
404;1673389023.0832138;47.1290402;7.237070999999999;1.6160000562667847;1673389023.2206159;1.5498840808868408;-2.82381272315979;-41.254676818847656
405;1673389023.2790785;47.1290336;7.2370826;1.5830000638961792;1673389023.4168491;1.9271595478057861;-2.6579408645629883;-41.34971237182617
406;1673389023.4769762;47.129028399999996;7.237092;1.5540000200271606;1673389023.6265004;2.1481969356536865;-2.522376298904419;-41.38532638549805
407;1673389023.684635;47.129025;7.2370978;1.540000081062317;1673389023.8239439;2.1649303436279297;-2.4470057487487793;-41.376956939697266
408;1673389023.8782787;47.129022899999995;7.2371013;1.531000018119812;1673389024.0244794;2.3470897674560547;-2.244548797607422;-41.359039306640625
409;1673389024.0809722;47.1290212;7.2371042;1.5110000371932983;1673389024.2152467;2.466221570968628;-2.0914604663848877;-41.361873626708984
410;1673389024.2782822;47.12902;7.2371061999999995;1.4830000400543213;1673389024.4348614;2.577960729598999;-1.9629530906677246;-41.32075119018555
411;1673389024.4924724;47.1290191;7.2371076;1.4500000476837158;1673389024.6349742;2.583714485168457;-1.845164179801941;-41.294349670410156
412;1673389024.687761;47.1290184;7.2371085;1.4160000085830688;1673389024.8250396;2.648101806640625;-1.7165577411651611;-41.25824737548828
413;1673389024.8822548;47.1290178;7.2371091;1.380000114440918;1673389025.0371547;2.671807050704956;-1.587931752204895;-41.20939254760742
414;1673389025.0992775;47.1290173;7.237109299999999;1.3470001220703125;1673389025.243662;2.7084178924560547;-1.4794048070907593;-41.19438934326172
415;1673389025.3068256;47.129016799999995;7.2371094;1.318000078201294;1673389025.436394;2.699563503265381;-1.3610541820526123;-41.14349365234375
