;pos_time;latitude;longitude;altitude;alt_time;pitch;roll;yaw
0;1673393411.807365;47.1306424;7.24062;-0.027000000700354576;1673393411.8103042;0.1946912705898285;-0.38882067799568176;90.47586059570312
1;1673393411.999744;47.1306424;7.240619799999999;-0.027000000700354576;1673393412.002673;0.3894742727279663;-0.4024072289466858;90.51343536376953
2;1673393412.2123535;47.1306424;7.240619799999999;-0.02800000086426735;1673393412.2152827;0.21314884722232819;-0.19478487968444824;90.4088363647461
3;1673393412.414212;47.1306425;7.24062;-0.029000001028180122;1673393412.417146;-0.02081487327814102;0.2221328616142273;90.41554260253906
4;1673393412.6078563;47.1306424;7.2406201;-0.02800000086426735;1673393412.6118996;-0.1784972995519638;0.03674580156803131;90.4876480102539
5;1673393412.7953703;47.1306424;7.2406201999999995;-0.02800000086426735;1673393412.8002498;-0.07859466969966888;0.19883139431476593;90.30641174316406
6;1673393413.0134468;47.1306425;7.2406201999999995;-0.029000001028180122;1673393413.0173604;-0.11945284903049469;0.019661566242575645;90.46809387207031
7;1673393413.2153177;47.1306425;7.2406201;-0.03200000151991844;1673393413.2192223;0.12812165915966034;0.06439226120710373;90.5951919555664
8;1673393413.4157405;47.1306425;7.2406201;-0.03400000184774399;1673393413.4167168;0.07996538281440735;0.08213544636964798;90.29959869384766
9;1673393413.6198394;47.1306425;7.2406201;0.0;1673393413.6247191;-0.24958355724811554;-0.14644759893417358;90.39766693115234
10;1673393413.8196898;47.1306425;7.2406201999999995;0.0010000000474974513;1673393413.821643;-0.30981090664863586;-0.10752416402101517;90.58563995361328
11;1673393414.0070045;47.1306425;7.2406203;0.0020000000949949026;1673393414.0109122;-0.3328395485877991;-0.027569256722927094;90.45869445800781
12;1673393414.2091436;47.1306425;7.2406203;0.0010000000474974513;1673393414.2130594;-0.19706958532333374;-0.27549389004707336;90.4235610961914
13;1673393414.4095333;47.1306425;7.2406201999999995;-0.0020000000949949026;1673393414.4135518;-0.2546004354953766;0.055342111736536026;90.47391510009766
14;1673393414.634309;47.1306424;7.2406201999999995;-0.005000000353902578;1673393414.6352947;-0.48556163907051086;-0.10710690170526505;90.46610260009766
15;1673393414.8093727;47.1306425;7.2406201999999995;-0.006000000052154064;1673393414.814371;-0.40951603651046753;-0.12878532707691193;90.47740936279297
16;1673393414.9984324;47.1306425;7.2406201999999995;0.0;1673393415.0013578;-0.5738255977630615;-0.5227075815200806;90.42304229736328
17;1673393415.219336;47.1306425;7.2406201999999995;-0.0010000000474974513;1673393415.2212946;-0.7570278644561768;0.8931717872619629;90.46470642089844
18;1673393415.4184794;47.1306425;7.2406201999999995;-0.0020000000949949026;1673393415.422462;-0.8942829370498657;0.3072192072868347;90.67398834228516
19;1673393415.634468;47.1306425;7.2406201999999995;-0.0010000000474974513;1673393415.63642;-0.7774534225463867;-0.11032281816005707;90.96479797363281
20;1673393415.8463206;47.130642599999995;7.2406201999999995;-0.003000000026077032;1673393415.849255;-0.8396342396736145;-0.2514445185661316;90.91888427734375
21;1673393416.0693748;47.130642599999995;7.2406201999999995;-0.005000000353902578;1673393416.0723417;-1.0195083618164062;-0.2023686021566391;91.04769134521484
22;1673393416.2480319;47.130642599999995;7.2406201999999995;-0.009000000543892384;1673393416.2509596;-1.115809440612793;-0.009790957905352116;91.52526092529297
23;1673393416.4505396;47.130642699999996;7.2406203;-0.013000000268220901;1673393416.4525938;-1.3155733346939087;-0.12008003890514374;92.93741607666016
24;1673393416.6203117;47.130642699999996;7.2406204999999995;-0.017000000923871994;1673393416.6244142;-1.0680917501449585;0.19173572957515717;97.0779800415039
25;1673393416.7915275;47.1306428;7.2406215;-0.01900000125169754;1673393416.7955368;0.7749435901641846;-0.11490275710821152;101.26742553710938
26;1673393417.0073304;47.1306428;7.2406234;-0.017000000923871994;1673393417.0132246;5.381239414215088;0.30968984961509705;100.65424346923828
27;1673393417.221283;47.1306428;7.2406261999999995;-0.0020000000949949026;1673393417.224664;10.671427726745605;0.487155944108963;100.88687133789062
28;1673393417.4271157;47.1306428;7.2406298;0.014000000432133675;1673393417.4300632;15.857635498046875;3.0032784938812256;101.2415771484375
29;1673393417.6294825;47.1306429;7.240634099999999;0.030000001192092896;1673393417.6324308;15.991548538208008;3.205164670944214;99.58746337890625
30;1673393417.8403308;47.1306429;7.2406388999999995;0.05300000309944153;1673393417.8423882;16.797199249267578;3.5062308311462402;98.42514038085938
31;1673393418.0266764;47.1306428;7.2406443;0.07900000363588333;1673393418.030581;18.15770721435547;4.308333396911621;97.75531768798828
32;1673393418.2408278;47.1306428;7.24065;0.10900000482797623;1673393418.243368;19.825851440429688;3.359632730484009;96.90351867675781
33;1673393418.4521651;47.130642699999996;7.2406558;0.14500001072883606;1673393418.4550965;21.825448989868164;2.367405652999878;96.0665054321289
34;1673393418.6341043;47.130642699999996;7.240661599999999;0.18300001323223114;1673393418.6360633;23.73638916015625;3.4542250633239746;95.77949523925781
35;1673393418.83801;47.130642599999995;7.2406672;0.22600001096725464;1673393418.8399627;25.8316650390625;3.1921966075897217;95.4295883178711
36;1673393419.0386288;47.130642599999995;7.2406723;0.26600000262260437;1673393419.0415852;27.940584182739258;2.213981866836548;94.90362548828125
37;1673393419.2324057;47.1306425;7.2406768999999995;0.2970000207424164;1673393419.2343512;30.04602813720703;3.0200908184051514;94.81212615966797
38;1673393419.4064844;47.1306425;7.2406809;0.3240000009536743;1673393419.4084542;32.21844482421875;3.0940327644348145;94.60108184814453
39;1673393419.591295;47.1306425;7.240684099999999;0.34700000286102295;1673393419.594223;34.36750030517578;2.2170467376708984;94.19944763183594
40;1673393419.7897577;47.1306425;7.240686299999999;0.3720000088214874;1673393419.7946384;36.54078674316406;2.5047354698181152;94.0625991821289
41;1673393420.0038571;47.1306425;7.2406874;0.39400002360343933;1673393420.0077507;38.71051788330078;2.9349122047424316;94.07683563232422
42;1673393420.2207196;47.1306425;7.2406874;0.4140000343322754;1673393420.2217073;40.9492301940918;2.5701746940612793;93.85639190673828
43;1673393420.4034026;47.130642599999995;7.240685999999999;0.43400001525878906;1673393420.4073024;43.186134338378906;2.6455323696136475;93.74016571044922
44;1673393420.6018903;47.130642599999995;7.240683199999999;0.45100003480911255;1673393420.6048222;45.3249397277832;3.0039045810699463;93.7658462524414
45;1673393420.7865922;47.130642599999995;7.2406787999999995;0.46800002455711365;1673393420.789522;47.51285934448242;3.0681939125061035;93.74790954589844
46;1673393420.9809363;47.130642599999995;7.2406729;0.48500001430511475;1673393420.9838984;46.19568634033203;2.50728702545166;93.38982391357422
47;1673393421.1891098;47.130642599999995;7.2406659;0.4960000216960907;1673393421.1930192;41.35110855102539;2.4952778816223145;93.1980209350586
48;1673393421.4147513;47.130642599999995;7.2406584;0.49800002574920654;1673393421.416702;36.57592010498047;1.8363909721374512;92.97990417480469
49;1673393421.6187322;47.1306425;7.2406508;0.534000039100647;1673393421.6216745;30.477108001708984;1.5770699977874756;92.86318969726562
50;1673393421.8350835;47.1306425;7.2406438;0.5879999995231628;1673393421.8380196;27.368955612182617;1.875471830368042;93.0617446899414
51;1673393422.0309768;47.1306425;7.2406375999999995;0.6450000405311584;1673393422.0339072;22.172082901000977;1.2399777173995972;92.97337341308594
52;1673393422.224191;47.1306425;7.2406326;0.6960000395774841;1673393422.2261288;20.30313491821289;0.7748932242393494;92.63789367675781
53;1673393422.417458;47.1306425;7.2406289;0.7500000596046448;1673393422.4204123;19.628732681274414;1.4812359809875488;92.78431701660156
54;1673393422.6092777;47.1306425;7.2406264;0.8100000619888306;1673393422.6131895;20.26231575012207;2.725116729736328;93.18843841552734
55;1673393422.806065;47.1306425;7.240625;0.8820000290870667;1673393422.8109558;21.749929428100586;-0.28979209065437317;92.33867645263672
56;1673393422.9992666;47.1306425;7.2406244;0.9650000333786011;1673393423.0021944;23.78521156311035;0.34452375769615173;92.32194519042969
57;1673393423.2045965;47.1306425;7.2406242999999995;1.0570000410079956;1673393423.208501;25.88379669189453;3.344618082046509;93.13819122314453
58;1673393423.4053345;47.1306425;7.2406245;1.1540000438690186;1673393423.4083767;27.570127487182617;0.5328329801559448;92.23267364501953
59;1673393423.606144;47.130642599999995;7.2406247;1.2600001096725464;1673393423.6090844;28.88612174987793;0.7946337461471558;92.08919525146484
60;1673393423.809257;47.130642599999995;7.2406248;1.378000020980835;1673393423.8121684;29.337060928344727;3.7433621883392334;92.88468170166016
61;1673393424.0380473;47.130642599999995;7.2406247;1.5110000371932983;1673393424.0409753;29.68025016784668;0.8701520562171936;92.23848724365234
62;1673393424.2236598;47.1306425;7.2406244;1.665000081062317;1673393424.2256114;29.584203720092773;-0.6362088322639465;87.41250610351562
63;1673393424.4189975;47.1306425;7.2406239999999995;1.8280000686645508;1673393424.4219272;28.878232955932617;2.38680100440979;88.42692565917969
64;1673393424.6379545;47.1306425;7.2406234;2.002000093460083;1673393424.6399076;28.4416561126709;1.1530883312225342;87.89674377441406
65;1673393424.8437643;47.130642599999995;7.2406228;2.190000057220459;1673393424.8467062;27.83565330505371;-0.20514193177223206;87.27708435058594
66;1673393425.0364087;47.130642699999996;7.2406220999999995;2.382000207901001;1673393425.0403152;27.20071029663086;2.9270663261413574;88.14611053466797
67;1673393425.260193;47.130642699999996;7.2406216;2.573000192642212;1673393425.2631211;27.039405822753906;2.099496841430664;88.0054931640625
68;1673393425.4114988;47.130642599999995;7.2406212;2.763000249862671;1673393425.4154205;27.038917541503906;-0.1752883344888687;87.5351333618164
69;1673393425.634161;47.130642599999995;7.2406209;2.950000047683716;1673393425.6380665;26.878042221069336;2.580495595932007;88.3036117553711
70;1673393425.842486;47.1306425;7.2406207;3.139000177383423;1673393425.843461;27.012422561645508;2.17311692237854;88.24990844726562
71;1673393426.039058;47.1306425;7.2406204999999995;3.330000162124634;1673393426.0419867;27.06197738647461;-0.3193133771419525;87.53955841064453
72;1673393426.227829;47.1306425;7.2406204;3.5220000743865967;1673393426.2307613;27.033077239990234;2.502824544906616;88.22390747070312
73;1673393426.430182;47.1306424;7.2406204;3.7150001525878906;1673393426.4321349;27.258193969726562;2.7222273349761963;88.50550079345703
74;1673393426.620768;47.1306423;7.2406204;3.9060001373291016;1673393426.624674;27.347335815429688;-0.8485632538795471;87.70377349853516
75;1673393426.8250835;47.1306422;7.2406204999999995;4.098999977111816;1673393426.8280108;27.5643253326416;1.225217342376709;88.24574279785156
76;1673393427.0912013;47.130642099999996;7.2406204999999995;4.2910003662109375;1673393427.0951066;27.591251373291016;2.269702911376953;88.58012390136719
77;1673393427.2833083;47.1306422;7.2406206;4.485000133514404;1673393427.2852626;27.641986846923828;-0.46930211782455444;87.76700592041016
78;1673393427.455799;47.1306422;7.2406206;4.685000419616699;1673393427.4577508;27.863277435302734;1.1634942293167114;88.12654876708984
79;1673393427.6113086;47.1306422;7.2406207;4.879000186920166;1673393427.61619;27.712726593017578;2.716214656829834;88.53314971923828
80;1673393427.814668;47.1306422;7.2406207;5.072000026702881;1673393427.8185718;27.89924430847168;-0.1858454793691635;87.88787841796875
81;1673393428.0061634;47.1306423;7.2406207;5.266000270843506;1673393428.0110347;27.8102970123291;0.864514946937561;87.99269104003906
82;1673393428.2142227;47.1306424;7.2406207;5.460000038146973;1673393428.2170925;27.67665672302246;3.007582902908325;88.53544616699219
83;1673393428.4223402;47.1306424;7.2406207;5.654000282287598;1673393428.426246;27.637968063354492;0.44315510988235474;87.87242889404297
84;1673393428.622836;47.1306425;7.2406206;5.853000164031982;1673393428.6267247;27.65290641784668;0.13082735240459442;87.65225982666016
85;1673393428.8662481;47.1306425;7.2406206;6.053000450134277;1673393428.8711286;27.594430923461914;3.1568822860717773;88.52318572998047
86;1673393429.121917;47.1306425;7.2406207;6.252000331878662;1673393429.1238835;27.694866180419922;0.7786192297935486;87.98168182373047
87;1673393429.2782536;47.1306424;7.2406207;6.452000141143799;1673393429.282161;27.622676849365234;-0.3678106367588043;87.71862030029297
88;1673393429.4666405;47.1306424;7.2406207;6.65500020980835;1673393429.4685936;27.727949142456055;3.0013303756713867;88.54930877685547
89;1673393429.6407835;47.1306424;7.2406207;6.853000164031982;1673393429.6456652;27.65511703491211;1.2912286520004272;88.1170654296875
90;1673393429.840325;47.1306425;7.2406207;7.052000522613525;1673393429.8442132;27.72808837890625;-0.253663033246994;87.69824981689453
91;1673393430.0466526;47.1306425;7.2406207;7.250000476837158;1673393430.052508;27.78371810913086;2.663682222366333;88.42994689941406
92;1673393430.2422242;47.1306424;7.2406207;7.445000171661377;1673393430.2470982;27.85580062866211;1.5135574340820312;88.21835327148438
93;1673393430.443417;47.1306424;7.2406207;7.641000270843506;1673393430.4463446;27.809165954589844;-0.582165539264679;87.49707794189453
94;1673393430.6492665;47.1306424;7.240620799999999;7.836000442504883;1673393430.6531713;27.78183364868164;2.1972804069519043;88.25460052490234
95;1673393430.8407843;47.1306425;7.240620799999999;8.030000686645508;1673393430.8436358;27.832056045532227;2.809565544128418;88.46961212158203
96;1673393431.0445464;47.1306425;7.2406207;8.223999977111816;1673393431.048452;27.83123779296875;-0.2000581920146942;87.59818267822266
97;1673393431.2496407;47.1306425;7.2406207;8.42199993133545;1673393431.2525718;27.747379302978516;1.6151292324066162;88.00238037109375
98;1673393431.439721;47.1306424;7.2406207;8.621000289916992;1673393431.442649;27.63194465637207;2.8861072063446045;88.57379913330078
99;1673393431.6342182;47.1306423;7.2406207;8.822000503540039;1673393431.6381235;27.822776794433594;-0.7912698984146118;87.61333465576172
100;1673393431.8385403;47.1306423;7.2406207;9.023000717163086;1673393431.841466;27.697505950927734;1.3094007968902588;88.14695739746094
101;1673393432.0290558;47.1306422;7.2406206;9.22700023651123;1673393432.031984;27.70566749572754;2.812824249267578;88.62530517578125
102;1673393432.2285278;47.1306423;7.2406206;9.427000045776367;1673393432.2314422;27.642324447631836;-0.15591733157634735;87.78624725341797
103;1673393432.4459903;47.1306423;7.2406206;9.628000259399414;1673393432.4489174;27.765058517456055;0.5976381897926331;87.7933349609375
104;1673393432.6420407;47.1306422;7.2406204999999995;9.830000877380371;1673393432.644954;27.73876190185547;2.924955368041992;88.5359878540039
105;1673393432.824657;47.1306422;7.2406204999999995;10.033000946044922;1673393432.8266013;27.574098587036133;-0.10979082435369492;87.72370910644531
106;1673393433.024791;47.1306422;7.2406204999999995;10.26200008392334;1673393433.0277166;27.52438735961914;0.9401649236679077;87.9480209350586
107;1673393433.23693;47.1306422;7.24062;10.604000091552734;1673393433.2388678;27.61994743347168;2.773777723312378;88.43147277832031
108;1673393433.4325953;47.1306422;7.240619499999999;10.99000072479248;1673393433.4355147;28.547903060913086;1.1593223810195923;88.31657409667969
109;1673393433.6367621;47.1306422;7.2406188;11.38700008392334;1673393433.6387217;26.14170265197754;-0.004154231399297714;87.63944244384766
110;1673393433.8336248;47.1306422;7.2406182999999995;11.79800033569336;1673393433.8375273;25.769554138183594;2.4039716720581055;88.27001190185547
111;1673393434.0414705;47.130642099999996;7.240617899999999;12.212000846862793;1673393434.0453768;25.068115234375;1.0329290628433228;88.07159423828125
112;1673393434.241072;47.130642099999996;7.2406177;12.625000953674316;1673393434.2430248;25.06663703918457;-0.23376449942588806;87.70623016357422
113;1673393434.4275334;47.1306422;7.2406178;13.039000511169434;1673393434.4314377;25.13721466064453;2.649353504180908;88.36800384521484
114;1673393434.6258395;47.1306422;7.240617899999999;13.453001022338867;1673393434.6307192;25.608999252319336;2.077831983566284;88.38252258300781
115;1673393434.831017;47.1306423;7.2406182;13.859000205993652;1673393434.8349164;25.995389938354492;-0.3236262798309326;87.53752136230469
116;1673393435.0318167;47.1306423;7.2406185;14.268000602722168;1673393435.0347097;26.48870277404785;2.5341897010803223;88.31461334228516
117;1673393435.224184;47.1306422;7.2406188;14.679000854492188;1673393435.227097;26.824630737304688;1.7763296365737915;88.42523956298828
118;1673393435.424232;47.1306422;7.2406191;15.090001106262207;1673393435.4271774;27.197769165039062;-0.48137763142585754;87.69662475585938
119;1673393435.6228127;47.1306422;7.2406193;15.50200080871582;1673393435.6267073;27.20357894897461;2.134282112121582;88.2475357055664
120;1673393435.8427958;47.1306423;7.240619499999999;15.910000801086426;1673393435.8476758;27.336257934570312;2.188929557800293;88.34068298339844
121;1673393436.0195222;47.1306423;7.240619499999999;16.317001342773438;1673393436.022451;27.25381851196289;-0.5279826521873474;87.63298034667969
122;1673393436.2052424;47.1306422;7.240619499999999;16.718000411987305;1673393436.2081714;26.996089935302734;1.43140709400177;88.114501953125
123;1673393436.4196498;47.1306422;7.240619499999999;17.121000289916992;1673393436.4225733;27.029014587402344;2.4991562366485596;88.51615905761719
124;1673393436.6099763;47.1306422;7.2406194;17.525001525878906;1673393436.614907;26.75852394104004;-0.1610303372144699;87.82100677490234
125;1673393436.8229046;47.1306423;7.2406194;17.93000030517578;1673393436.825834;26.723493576049805;0.8215887546539307;87.92633056640625
126;1673393437.0370882;47.1306424;7.2406194;18.336000442504883;1673393437.0390408;26.75505828857422;2.9611904621124268;88.49220275878906
127;1673393437.229964;47.1306424;7.240619499999999;18.73900032043457;1673393437.2329104;26.88683319091797;0.05537698417901993;87.84910583496094
128;1673393437.4276178;47.1306424;7.240619499999999;19.135000228881836;1673393437.4305453;26.65582275390625;0.7432860136032104;87.8720703125
129;1673393437.6377275;47.1306424;7.240619499999999;19.536001205444336;1673393437.641629;26.69428253173828;2.8832199573516846;88.51610565185547
130;1673393437.9107542;47.1306424;7.240619499999999;19.939001083374023;1673393437.9127064;26.807558059692383;0.5447695255279541;87.90153503417969
131;1673393438.1132817;47.1306425;7.2406196;20.345001220703125;1673393438.1191435;26.810094833374023;0.32254406809806824;87.74774169921875
132;1673393438.2957487;47.1306425;7.2406196;20.749000549316406;1673393438.299653;26.813236236572266;3.0393290519714355;88.5415267944336
133;1673393438.4659808;47.1306425;7.2406196;21.150001525878906;1673393438.46891;26.891374588012695;1.179274320602417;88.02049255371094
134;1673393438.6485074;47.1306425;7.2406196;21.549001693725586;1673393438.651435;26.732898712158203;0.13333921134471893;87.6788558959961
135;1673393438.853024;47.1306425;7.2406196;21.944000244140625;1673393438.858882;26.693920135498047;2.897401809692383;88.43025970458984
136;1673393439.0499122;47.1306425;7.240619499999999;22.34400177001953;1673393439.05284;26.700063705444336;1.3903313875198364;88.23963928222656
137;1673393439.2561975;47.1306425;7.240619499999999;22.74700164794922;1673393439.2610588;26.848388671875;-0.08996158093214035;87.72183227539062
138;1673393439.4339736;47.1306425;7.2406196;23.14900016784668;1673393439.4369013;26.681861877441406;2.623936414718628;88.4239730834961
139;1673393439.7409997;47.1306425;7.2406196;23.54800033569336;1673393439.744923;26.68744659423828;2.0331788063049316;88.32957458496094
140;1673393439.936721;47.1306425;7.2406196;23.94700050354004;1673393439.9406252;26.7944278717041;-0.2075975239276886;87.77397918701172
141;1673393440.1319494;47.1306425;7.2406196;24.343000411987305;1673393440.1418693;26.702119827270508;2.081057548522949;88.2498550415039
142;1673393440.333305;47.1306424;7.2406196;24.7450008392334;1673393440.3362248;26.83487892150879;2.111792802810669;88.36146545410156
143;1673393440.538783;47.1306424;7.2406197;25.149002075195312;1673393440.5407603;26.629743576049805;-0.3081825077533722;87.68867492675781
144;1673393440.7331684;47.1306424;7.2406197;25.554000854492188;1673393440.7351198;26.849300384521484;1.514947533607483;88.07290649414062
145;1673393440.9356525;47.1306425;7.240619799999999;25.9580020904541;1673393440.9385731;26.83357810974121;2.7375195026397705;88.45491027832031
146;1673393441.1368434;47.1306425;7.240619799999999;26.36100196838379;1673393441.1397715;26.980051040649414;-0.1190292090177536;87.73153686523438
147;1673393441.3309622;47.1306425;7.2406198999999996;26.76500129699707;1673393441.3338797;26.83570671081543;1.0362870693206787;87.95426940917969
148;1673393441.5204144;47.1306425;7.2406198999999996;27.16200065612793;1673393441.5233552;26.825700759887695;2.9320311546325684;88.48579406738281
149;1673393441.7274275;47.1306425;7.2406198999999996;27.567001342773438;1673393441.7293787;26.760934829711914;0.23274636268615723;87.84303283691406
150;1673393441.9210405;47.1306425;7.2406198999999996;27.97100067138672;1673393441.9249313;26.92885398864746;0.789430558681488;87.91127014160156
151;1673393442.1369412;47.130642599999995;7.24062;28.37700080871582;1673393442.1398742;26.852025985717773;3.1187400817871094;88.5684814453125
152;1673393442.3471417;47.130642599999995;7.24062;28.782001495361328;1673393442.3500488;26.896011352539062;0.5104783773422241;87.863037109375
153;1673393442.5485642;47.130642599999995;7.24062;29.18600082397461;1673393442.5514944;26.9285831451416;0.47048720717430115;87.80908966064453
154;1673393442.7496328;47.130642599999995;7.24062;29.57900047302246;1673393442.7535357;26.822555541992188;3.023622751235962;88.53913116455078
155;1673393442.9516828;47.130642599999995;7.24062;29.97800064086914;1673393442.9536362;26.91209602355957;1.1342213153839111;88.03327178955078
156;1673393443.1535847;47.130642699999996;7.24062;30.380001068115234;1673393443.1565032;26.901813507080078;0.15068668127059937;87.71363830566406
157;1673393443.3445697;47.130642699999996;7.24062;30.785001754760742;1673393443.3474927;26.695465087890625;3.2220001220703125;88.43899536132812
158;1673393443.5451388;47.1306428;7.24062;31.185001373291016;1673393443.5490553;26.779682159423828;1.8880757093429565;88.25674438476562
159;1673393443.7468;47.130642699999996;7.24062;31.590002059936523;1673393443.7516637;26.733600616455078;-0.004634485114365816;87.70331573486328
160;1673393443.9354224;47.1306428;7.2406198999999996;31.992000579833984;1673393443.9393175;26.7287540435791;2.4566612243652344;88.2694091796875
161;1673393444.1377842;47.130642699999996;7.2406198999999996;32.387001037597656;1673393444.142656;26.675052642822266;2.741304636001587;88.39557647705078
162;1673393444.356713;47.1306428;7.24062;32.78499984741211;1673393444.358666;26.746814727783203;0.22202372550964355;87.76605224609375
163;1673393444.5428793;47.1306428;7.24062;33.185001373291016;1673393444.545803;26.896242141723633;1.6452916860580444;88.0672607421875
164;1673393444.7314346;47.1306428;7.24062;33.58700180053711;1673393444.7343636;26.85245132446289;3.162429094314575;88.50687408447266
165;1673393444.930832;47.130642699999996;7.2406201;33.9890022277832;1673393444.9337616;27.045345306396484;0.12764719128608704;87.75798034667969
166;1673393445.1509469;47.130642699999996;7.2406201;34.39200210571289;1673393445.1538746;26.887645721435547;0.5171589255332947;87.80352783203125
167;1673393445.3390582;47.130642599999995;7.24062;34.78700256347656;1673393445.3419864;26.849451065063477;2.8816983699798584;88.50310516357422
168;1673393445.5339172;47.130642599999995;7.24062;35.191001892089844;1673393445.5358799;26.700939178466797;0.4956228733062744;87.92310333251953
169;1673393445.7512333;47.130642599999995;7.2406198999999996;35.59600067138672;1673393445.7541616;26.69622230529785;0.5510397553443909;87.81320190429688
170;1673393445.949727;47.130642699999996;7.2406198999999996;36.00400161743164;1673393445.9526522;26.62606430053711;2.9892899990081787;88.50768280029297
171;1673393446.1977403;47.130642599999995;7.2406198999999996;36.41200256347656;1673393446.200667;26.64011573791504;1.146854281425476;88.12214660644531
172;1673393446.3892891;47.130642599999995;7.2406198999999996;36.81700134277344;1673393446.3912508;26.671674728393555;0.10391642153263092;87.7811508178711
173;1673393446.5682578;47.130642599999995;7.2406198999999996;37.22100067138672;1673393446.5702116;26.725271224975586;2.9778058528900146;88.43989562988281
174;1673393446.7386117;47.130642599999995;7.2406198999999996;37.6140022277832;1673393446.742525;26.76537322998047;1.4789036512374878;88.17708587646484
175;1673393446.9305367;47.130642599999995;7.2406198999999996;38.012001037597656;1673393446.933466;26.78400230407715;-0.024855418130755424;87.64386749267578
176;1673393447.1349964;47.130642699999996;7.2406198999999996;38.410003662109375;1673393447.1369333;26.744375228881836;2.7944600582122803;88.396240234375
177;1673393447.3312988;47.130642599999995;7.2406198999999996;38.81300354003906;1673393447.3342197;26.7077579498291;2.05462908744812;88.37274932861328
178;1673393447.5204575;47.130642599999995;7.2406198999999996;39.21500015258789;1673393447.5248992;26.729589462280273;-0.12147227674722672;87.76111602783203
179;1673393447.724065;47.1306425;7.2406198999999996;39.61600112915039;1673393447.7308996;26.772802352905273;2.1302003860473633;88.30308532714844
180;1673393447.944863;47.1306425;7.2406198999999996;40.009002685546875;1673393447.9487622;26.725542068481445;2.2181901931762695;88.38890838623047
181;1673393448.1295576;47.1306425;7.2406198999999996;40.410003662109375;1673393448.1344378;26.63774871826172;-0.20820219814777374;87.70610046386719
182;1673393448.3701036;47.130642599999995;7.24062;40.81500244140625;1673393448.3730245;26.762948989868164;1.939182996749878;88.10806274414062
183;1673393448.5680523;47.130642599999995;7.24062;41.21900177001953;1673393448.5709915;26.775381088256836;2.9245734214782715;88.47647094726562
184;1673393448.752851;47.130642599999995;7.24062;41.624000549316406;1673393448.7567534;26.811782836914062;-0.16381889581680298;87.70572662353516
185;1673393448.953977;47.1306425;7.24062;42.025001525878906;1673393448.9559367;26.77053451538086;1.1853338479995728;87.91224670410156
186;1673393449.1440995;47.130642599999995;7.24062;42.42300033569336;1673393449.148005;26.763904571533203;2.9636924266815186;88.43352508544922
187;1673393449.343537;47.130642599999995;7.24062;42.814002990722656;1673393449.3484182;26.80977439880371;0.5737502574920654;87.87505340576172
188;1673393449.520711;47.130642699999996;7.24062;43.21000289916992;1673393449.524619;26.765823364257812;0.578191876411438;87.77169036865234
189;1673393449.7205074;47.130642699999996;7.24062;43.61100387573242;1673393449.724415;26.748619079589844;3.212719440460205;88.63021087646484
190;1673393449.9095976;47.130642599999995;7.24062;44.01700210571289;1673393449.9135032;26.689279556274414;0.803868293762207;87.98664855957031
191;1673393450.1230667;47.130642599999995;7.24062;44.42000198364258;1673393450.128482;26.72695541381836;0.18724438548088074;87.69767761230469
192;1673393450.3186288;47.130642599999995;7.24062;44.82400131225586;1673393450.321558;26.706907272338867;2.979504346847534;88.38555145263672
193;1673393450.5320928;47.130642699999996;7.24062;45.21800231933594;1673393450.5359988;26.814584732055664;1.4846985340118408;88.02964782714844
194;1673393450.7509828;47.130642699999996;7.24062;45.61600112915039;1673393450.7539225;26.73004722595215;0.15272502601146698;87.66400146484375
195;1673393450.9432495;47.130642599999995;7.24062;46.0160026550293;1673393450.9481683;26.652320861816406;2.739738702774048;88.44993591308594
196;1673393451.1643105;47.130642599999995;7.24062;46.41600036621094;1673393451.1672387;26.741230010986328;1.8607970476150513;88.29336547851562
197;1673393451.3753524;47.1306425;7.2406201;46.81500244140625;1673393451.379219;26.728107452392578;-0.19607417285442352;87.6801528930664
198;1673393451.56495;47.130642599999995;7.2406201;47.217002868652344;1673393451.5678759;26.773405075073242;2.3020474910736084;88.27627563476562
199;1673393451.7603455;47.130642599999995;7.2406201;47.61900329589844;1673393451.763291;26.81131362915039;2.4889445304870605;88.45004272460938
200;1673393451.9618812;47.130642599999995;7.2406201;48.01300048828125;1673393451.9638333;26.75896453857422;-0.14586028456687927;87.72895812988281
201;1673393452.1491337;47.130642699999996;7.2406201999999995;48.37700271606445;1673393452.151104;26.995956420898438;2.443418025970459;88.41434478759766
202;1673393452.3464527;47.130642599999995;7.2406204;48.69000244140625;1673393452.3494046;26.902368545532227;2.675870180130005;88.3827896118164
203;1673393452.5471194;47.130642599999995;7.2406206;48.957000732421875;1673393452.5500412;27.170238494873047;0.045932672917842865;87.75798034667969
204;1673393452.7486506;47.130642599999995;7.240621;49.18100357055664;1673393452.7506037;27.50943374633789;1.3763318061828613;88.04446411132812
205;1673393452.9236557;47.1306425;7.2406215;49.36900329589844;1673393452.9265828;31.455259323120117;6.444931983947754;89.209716796875
206;1673393453.126666;47.1306422;7.2406215;49.531002044677734;1673393453.131546;43.017372131347656;22.427989959716797;97.96243286132812
207;1673393453.3275354;47.130640899999996;7.2406197;49.678001403808594;1673393453.3324206;47.09121322631836;39.769073486328125;109.7729263305664
208;1673393453.5319276;47.1306376;7.2406153;49.80000305175781;1673393453.5344214;45.424442291259766;49.60043716430664;115.58798217773438
209;1673393453.7374382;47.1306325;7.2406083;49.85900115966797;1673393453.7403529;32.726646423339844;50.611385345458984;121.328125
210;1673393453.9376533;47.1306261;7.2405998;49.87300109863281;1673393453.9425347;15.360633850097656;43.74039840698242;136.90943908691406
211;1673393454.1391869;47.1306191;7.2405905;49.88500213623047;1673393454.1421144;-0.11630197614431381;44.288516998291016;150.9284210205078
212;1673393454.3376164;47.130611699999996;7.2405808;49.8910026550293;1673393454.3405223;-14.730164527893066;42.07600402832031;161.43064880371094
213;1673393454.5421245;47.1306036;7.2405712;49.884002685546875;1673393454.5460296;-27.34541130065918;40.90089797973633;170.50927734375
214;1673393454.7281442;47.1305948;7.240561199999999;49.880001068115234;1673393454.7301152;-36.139739990234375;38.007728576660156;179.92190551757812
215;1673393454.9267774;47.130584999999996;7.2405506;49.87600326538086;1673393454.930688;-44.552154541015625;34.625282287597656;-169.42726135253906
216;1673393455.1296759;47.1305744;7.2405390999999995;49.86600112915039;1673393455.1326218;-48.8873291015625;29.40679359436035;-157.1156463623047
217;1673393455.34254;47.1305633;7.240526699999999;49.83000183105469;1673393455.3444877;-44.53335952758789;21.91800308227539;-149.57777404785156
218;1673393455.5336263;47.130552099999996;7.240513999999999;49.790000915527344;1673393455.5365562;-43.860721588134766;17.794607162475586;-144.65538024902344
219;1673393455.740431;47.1305408;7.2405012;49.75400161743164;1673393455.7462866;-46.60137939453125;14.598772048950195;-137.85731506347656
220;1673393455.9376786;47.1305294;7.240488099999999;49.743003845214844;1673393455.940638;-47.25060272216797;10.177908897399902;-129.8017578125
221;1673393456.1418178;47.130517999999995;7.2404746;49.73800277709961;1673393456.1447473;-47.378074645996094;5.2614006996154785;-127.57939910888672
222;1673393456.3410702;47.1305066;7.240461;49.72800064086914;1673393456.3449748;-45.46757507324219;5.015492916107178;-131.18692016601562
223;1673393456.5280125;47.130494899999995;7.2404478;49.72200393676758;1673393456.5309422;-45.687904357910156;6.017784595489502;-133.39663696289062
224;1673393456.72241;47.1304831;7.2404348;49.72500228881836;1673393456.7263248;-47.04627227783203;7.014359951019287;-134.28240966796875
225;1673393456.915666;47.1304709;7.2404218;49.73600387573242;1673393456.9205382;-47.73936080932617;8.139971733093262;-134.53012084960938
226;1673393457.1261394;47.1304586;7.240408899999999;49.73500061035156;1673393457.1300278;-47.77733612060547;8.998655319213867;-134.53736877441406
227;1673393457.3495164;47.130446199999994;7.240395899999999;49.742000579833984;1673393457.3514688;-47.48652648925781;9.687234878540039;-134.54298400878906
228;1673393457.5624309;47.130433599999996;7.2403827;49.755001068115234;1673393457.5653474;-47.54957962036133;10.271044731140137;-134.43190002441406
229;1673393457.756925;47.1304209;7.2403694;49.76900100708008;1673393457.759858;-48.03602981567383;11.018461227416992;-134.43858337402344
230;1673393457.949216;47.1304084;7.2403558;49.78300094604492;1673393457.9511876;-47.6163444519043;14.819195747375488;-133.11366271972656
231;1673393458.1474075;47.1303962;7.2403419;49.78200149536133;1673393458.1503344;-43.529876708984375;9.891915321350098;-121.6648178100586
232;1673393458.3566575;47.130384799999995;7.2403279;49.76400375366211;1673393458.3595848;-40.900089263916016;3.170635461807251;-111.39396667480469
233;1673393458.5646863;47.1303741;7.240314;49.75800323486328;1673393458.5676146;-39.504356384277344;-2.519711971282959;-102.64633178710938
234;1673393458.7816556;47.130364;7.2403005;49.76100158691406;1673393458.7835982;-39.01792907714844;-8.51744270324707;-93.60662078857422
235;1673393458.9890945;47.1303546;7.2402874;49.77300262451172;1673393458.9920228;-39.12669372558594;-14.890742301940918;-84.44078063964844
236;1673393459.1717556;47.1303457;7.2402745;49.78700256347656;1673393459.1746926;-36.38395309448242;-20.144939422607422;-75.01060485839844
237;1673393459.347875;47.1303373;7.2402618;49.80000305175781;1673393459.3517778;-33.133636474609375;-24.357276916503906;-65.6486587524414
238;1673393459.5426576;47.1303294;7.2402494;49.820003509521484;1673393459.5471003;-29.800317764282227;-28.699893951416016;-55.26251220703125
239;1673393459.7361476;47.130322;7.240236899999999;49.8390007019043;1673393459.7380946;-26.32553482055664;-36.542091369628906;-43.977046966552734
240;1673393459.9347794;47.1303151;7.2402242;49.893001556396484;1673393459.9386852;-22.610532760620117;-42.88139343261719;-35.40240478515625
241;1673393460.1264124;47.1303084;7.2402109;49.95100402832031;1673393460.1313097;-20.40231704711914;-45.52012252807617;-37.5136833190918
242;1673393460.3274066;47.1303018;7.2401971;49.98200225830078;1673393460.3303277;-23.788259506225586;-38.887569427490234;-50.91270065307617
243;1673393460.5404527;47.130294799999994;7.240183399999999;50.00400161743164;1673393460.5463698;-36.28282165527344;-30.976455688476562;-68.89715576171875
244;1673393460.7446196;47.130287499999994;7.2401693;50.044002532958984;1673393460.7496197;-49.89305114746094;-19.291357040405273;-86.1293716430664
245;1673393460.9349477;47.1302799;7.2401545;50.05500411987305;1673393460.9378793;-51.41511917114258;-9.814701080322266;-94.70533752441406
246;1673393461.139249;47.130272299999994;7.240139;50.060001373291016;1673393461.1421788;-49.46902084350586;-11.055782318115234;-100.11436462402344
247;1673393461.3645275;47.1302643;7.2401233;50.06300354003906;1673393461.36745;-48.324581146240234;-14.175166130065918;-106.67984008789062
248;1673393461.5630608;47.1302556;7.2401079;50.051002502441406;1673393461.5659883;-42.76522445678711;-12.10681438446045;-116.72241973876953
249;1673393461.7602906;47.130246199999995;7.2400934999999995;50.03000259399414;1673393461.7641895;-39.1380729675293;-9.386582374572754;-125.26246643066406
250;1673393461.9549959;47.130236;7.240080799999999;50.00800323486328;1673393461.956949;-38.89973449707031;-4.687651634216309;-133.6591339111328
251;1673393462.168062;47.1302251;7.240069399999999;49.99700164794922;1673393462.1719668;-40.95399856567383;3.401719808578491;-141.7261199951172
252;1673393462.3624718;47.130213499999996;7.2400591;50.012001037597656;1673393462.366364;-49.221832275390625;10.740039825439453;-141.7679901123047
253;1673393462.5675766;47.130201199999995;7.2400484;50.047000885009766;1673393462.5695286;-51.787330627441406;14.836594581604004;-137.95803833007812
254;1673393462.761287;47.1301888;7.2400367;50.07500076293945;1673393462.765177;-51.5225944519043;16.4244327545166;-136.13250732421875
255;1673393462.9545572;47.130176399999996;7.240024;50.086002349853516;1673393462.9595516;-49.07406997680664;14.176031112670898;-134.2877960205078
256;1673393463.1566844;47.130164099999995;7.2400106;50.086002349853516;1673393463.1615608;-48.40290832519531;11.366290092468262;-133.30857849121094
257;1673393463.3590736;47.1301519;7.2399967;50.0880012512207;1673393463.3620114;-48.619110107421875;10.796504020690918;-133.4297332763672
258;1673393463.5343292;47.1301397;7.239982599999999;50.08100128173828;1673393463.5362828;-47.5146484375;11.097969055175781;-133.39041137695312
259;1673393463.7276914;47.130127599999994;7.2399682;50.07500076293945;1673393463.7316012;-46.806156158447266;13.046428680419922;-133.1092071533203
260;1673393463.9430122;47.1301157;7.2399534999999995;50.06200408935547;1673393463.9469137;-45.367488861083984;13.399797439575195;-126.20753479003906
261;1673393464.1276424;47.1301044;7.2399385;50.040000915527344;1673393464.1305335;-42.359527587890625;6.025285243988037;-114.99642181396484
262;1673393464.3289542;47.1300938;7.239923699999999;50.025001525878906;1673393464.3318856;-42.789283752441406;-0.12395402789115906;-106.6979751586914
263;1673393464.5387447;47.130083899999995;7.239909;50.01000213623047;1673393464.5416737;-41.309104919433594;-6.578226566314697;-97.52662658691406
264;1673393464.7757769;47.1300745;7.239894499999999;49.996002197265625;1673393464.7787046;-39.85768127441406;-12.721183776855469;-88.4111557006836
265;1673393464.9653087;47.1300655;7.2398804;49.98100280761719;1673393464.9692318;-36.74448013305664;-18.212081909179688;-79.8078842163086
266;1673393465.232748;47.1300568;7.2398663999999995;50.000003814697266;1673393465.2347045;-43.680213928222656;-26.904605865478516;-82.59909057617188
267;1673393465.4361758;47.1300477;7.2398522;50.01700210571289;1673393465.4381294;-48.24102020263672;-23.4421329498291;-101.56373596191406
268;1673393465.6214328;47.1300375;7.2398383;50.02000427246094;1673393465.6233816;-45.26922607421875;-14.965106010437012;-113.87334442138672
269;1673393465.8105502;47.1300265;7.239825;50.01900100708008;1673393465.812504;-45.476318359375;-8.715972900390625;-121.04235076904297
270;1673393466.0517793;47.1300148;7.2398124;50.018001556396484;1673393466.052756;-44.4672966003418;-1.837938904762268;-129.17990112304688
271;1673393466.2014797;47.1300026;7.2398004;50.0150032043457;1673393466.2044091;-46.870086669921875;10.396696090698242;-134.82345581054688
272;1673393466.3792577;47.129990299999996;7.239788099999999;49.999000549316406;1673393466.383165;-44.561866760253906;11.375771522521973;-121.48330688476562
273;1673393466.5818205;47.129978699999995;7.2397754;49.97800064086914;1673393466.5857093;-41.93888473510742;6.215307235717773;-108.2291030883789
274;1673393466.7761679;47.1299681;7.239762499999999;49.961002349853516;1673393466.780073;-40.4704704284668;1.5366454124450684;-98.46844482421875
275;1673393466.959803;47.129958699999996;7.2397497;49.945003509521484;1673393466.962733;-40.597633361816406;-4.938796520233154;-89.0068359375
276;1673393467.15386;47.1299503;7.2397369;49.94000244140625;1673393467.1558125;-39.7980842590332;-10.27631950378418;-80.10124969482422
277;1673393467.3521354;47.1299427;7.239724;49.94600296020508;1673393467.355077;-40.06080627441406;-20.151098251342773;-70.75704956054688
278;1673393467.5518732;47.1299358;7.2397108999999995;49.9640007019043;1673393467.5557778;-36.50187301635742;-27.456443786621094;-61.9055061340332
279;1673393467.7428908;47.129929399999995;7.2396975999999995;49.97900390625;1673393467.747773;-33.41012954711914;-26.357973098754883;-51.84308624267578
280;1673393467.9311645;47.1299238;7.2396845999999995;50.00700378417969;1673393467.9340913;-26.203340530395508;-7.588960647583008;-41.864501953125
281;1673393468.1268795;47.129919699999995;7.2396734;50.02100372314453;1673393468.1337214;-26.600196838378906;11.658493995666504;-41.180450439453125
282;1673393468.3388531;47.1299176;7.239665;50.0150032043457;1673393468.341782;-23.118505477905273;20.926462173461914;-52.701942443847656
283;1673393468.528576;47.1299177;7.2396598999999995;50.01700210571289;1673393468.532479;-12.372713088989258;23.268932342529297;-70.28824615478516
284;1673393468.7142627;47.1299196;7.2396581;50.038002014160156;1673393468.7172084;-3.531782388687134;21.740867614746094;-86.90202331542969
285;1673393468.9262567;47.129922699999995;7.2396591;50.066001892089844;1673393468.930162;-7.191018104553223;13.2594633102417;-97.89350891113281
286;1673393469.1216342;47.129926;7.2396617999999995;50.095001220703125;1673393469.1245487;-16.529247283935547;7.232943534851074;-105.01095581054688
287;1673393469.3340695;47.1299291;7.239665199999999;50.121002197265625;1673393469.3379586;-27.906967163085938;4.6392998695373535;-113.186279296875
288;1673393469.5199523;47.1299315;7.2396685;50.1400032043457;1673393469.522882;-34.25737762451172;2.9837918281555176;-122.70404052734375
289;1673393469.7318156;47.1299328;7.2396711;50.15200424194336;1673393469.7358184;-40.19046401977539;5.462125778198242;-132.24066162109375
290;1673393469.9479496;47.1299329;7.2396727;50.15800094604492;1673393469.950877;-37.20490264892578;19.58683967590332;-140.96836853027344
291;1673393470.1420898;47.129932;7.239672499999999;50.1660041809082;1673393470.1459935;-41.810211181640625;22.774633407592773;-142.26539611816406
292;1673393470.3352196;47.1299303;7.239670599999999;50.17400360107422;1673393470.338149;-46.18352127075195;21.548786163330078;-138.32757568359375
293;1673393470.549812;47.129927699999996;7.2396667;50.18100357055664;1673393470.5537155;-49.4134521484375;19.333784103393555;-136.15914916992188
294;1673393470.7571275;47.1299241;7.239660799999999;50.189002990722656;1673393470.7610314;-53.17877197265625;15.975234031677246;-135.37716674804688
295;1673393470.93662;47.129919199999996;7.239652899999999;50.19700241088867;1673393470.9395585;-57.57063674926758;9.94595718383789;-133.25294494628906
296;1673393471.1399434;47.1299128;7.2396433;50.17900085449219;1673393471.1497061;-58.30763626098633;6.539248466491699;-133.06405639648438
297;1673393471.353865;47.1299047;7.2396324;50.137001037597656;1673393471.3567932;-50.957942962646484;5.926453590393066;-133.85060119628906
298;1673393471.5620801;47.1298957;7.239621;50.09100341796875;1673393471.566561;-47.90570831298828;5.169332027435303;-133.94602966308594
299;1673393471.7666826;47.1298858;7.2396094;50.051002502441406;1673393471.7686272;-47.86094284057617;5.9302873611450195;-134.8068389892578
300;1673393471.9660692;47.1298752;7.2395977;50.01900100708008;1673393471.9689977;-49.138004302978516;7.013092041015625;-134.84954833984375
301;1673393472.1618495;47.129864;7.239585699999999;49.992000579833984;1673393472.1678727;-46.23957443237305;8.085355758666992;-134.73858642578125
302;1673393472.3664372;47.1298524;7.239573699999999;49.970001220703125;1673393472.3683906;-47.01444625854492;8.6138277053833;-134.70559692382812
303;1673393472.568811;47.1298405;7.2395615;49.958003997802734;1673393472.5727184;-46.07240676879883;10.043418884277344;-134.8231658935547
304;1673393472.764367;47.1298284;7.239549299999999;49.954002380371094;1673393472.7678435;-48.690711975097656;10.54256820678711;-134.52584838867188
305;1673393472.9440079;47.1298162;7.2395366;49.95500183105469;1673393472.9479113;-47.50263214111328;10.947844505310059;-134.0820770263672
306;1673393473.1557755;47.1298038;7.2395235;49.957000732421875;1673393473.1606662;-48.57948303222656;11.119823455810547;-133.81906127929688
307;1673393473.3862772;47.129791499999996;7.2395100999999995;49.961002349853516;1673393473.3882291;-47.93879318237305;14.991475105285645;-131.6676483154297
308;1673393473.5757494;47.1297795;7.239496099999999;49.94700241088867;1673393473.5786788;-44.764984130859375;9.32539176940918;-119.8826675415039
309;1673393473.7692854;47.1297681;7.2394818;49.93300247192383;1673393473.7712386;-42.76499938964844;2.9365546703338623;-110.35309600830078
310;1673393473.9601922;47.1297575;7.2394677;49.92100143432617;1673393473.964091;-41.239288330078125;-3.676069498062134;-101.25007629394531
311;1673393474.1575093;47.1297474;7.2394538;49.90700149536133;1673393474.161414;-40.771053314208984;-10.313785552978516;-92.17485046386719
312;1673393474.352855;47.1297378;7.23944;49.89400100708008;1673393474.355788;-38.262935638427734;-15.590045928955078;-83.2910385131836
313;1673393474.5476468;47.1297287;7.2394266;49.880001068115234;1673393474.550581;-34.064247131347656;-19.9777889251709;-73.80985260009766
314;1673393474.743068;47.12972;7.2394136;49.8650016784668;1673393474.7459927;-29.80501365661621;-23.79664421081543;-63.367122650146484
315;1673393474.9448192;47.1297119;7.239401;49.868003845214844;1673393474.947733;-28.547191619873047;-31.495027542114258;-52.545074462890625
316;1673393475.1401932;47.1297041;7.239388399999999;49.8910026550293;1673393475.1431222;-25.829177856445312;-40.136390686035156;-41.99643325805664
317;1673393475.3487337;47.1296968;7.2393753;49.93400192260742;1673393475.351662;-23.728759765625;-46.187442779541016;-34.87117385864258
318;1673393475.567483;47.1296895;7.2393614;49.95500183105469;1673393475.5709317;-21.308895111083984;-43.876216888427734;-41.26145935058594
319;1673393475.7858229;47.1296822;7.2393472999999995;49.954002380371094;1673393475.789728;-24.00415802001953;-34.34157943725586;-56.96626663208008
320;1673393475.989316;47.1296746;7.2393335;49.97100067138672;1673393475.993215;-37.42192077636719;-33.359859466552734;-71.4349136352539
321;1673393476.179721;47.1296663;7.239319399999999;50.00300216674805;1673393476.1826499;-51.91787338256836;-24.858142852783203;-87.88371276855469
322;1673393476.3691325;47.1296574;7.2393047;50.01000213623047;1673393476.372079;-48.92099380493164;-11.391580581665039;-98.48860931396484
323;1673393476.5630052;47.1296482;7.239289599999999;50.00300216674805;1673393476.5669098;-47.20069885253906;-3.6551337242126465;-104.27660369873047
324;1673393476.7756686;47.1296391;7.2392742;50.005001068115234;1673393476.7786078;-48.58975601196289;2.13265061378479;-110.82947540283203
325;1673393476.968135;47.1296301;7.2392585;50.01700210571289;1673393476.979879;-48.7498893737793;5.658278465270996;-116.89382934570312
326;1673393477.1720204;47.129621199999995;7.239242399999999;50.0260009765625;1673393477.1745343;-49.412681579589844;6.675950050354004;-123.28538513183594
327;1673393477.3979566;47.129611999999995;7.2392262999999994;50.01100158691406;1673393477.4018595;-42.43211364746094;4.595243453979492;-131.97996520996094
328;1673393477.5733275;47.1296025;7.2392110999999995;49.97900390625;1673393477.5753167;-36.36578369140625;4.744203567504883;-139.74900817871094
329;1673393477.776966;47.129592599999995;7.2391971999999996;49.98100280761719;1673393477.7799003;-46.30022430419922;6.564204216003418;-137.23590087890625
330;1673393477.967646;47.1295819;7.239184;49.99700164794922;1673393477.9705744;-49.064796447753906;6.075247764587402;-134.6886749267578
331;1673393478.1893497;47.1295706;7.2391708999999995;50.00600051879883;1673393478.194242;-48.42344284057617;8.131391525268555;-134.90452575683594
332;1673393478.371663;47.1295588;7.2391578999999995;50.01000213623047;1673393478.3735948;-45.94268798828125;9.617121696472168;-134.46231079101562
333;1673393478.5718653;47.1295469;7.2391447;50.01300048828125;1673393478.5748022;-47.629817962646484;11.244629859924316;-134.27052307128906
334;1673393478.8148437;47.129534799999995;7.2391314;50.01900100708008;1673393478.8187456;-48.02829360961914;11.501811981201172;-133.748291015625
335;1673393479.0046422;47.129522699999995;7.2391176999999995;50.02000427246094;1673393479.0075822;-48.55256271362305;10.934488296508789;-133.11785888671875
336;1673393479.1991282;47.129510499999995;7.239103699999999;50.01900100708008;1673393479.2020602;-48.263736724853516;10.454276084899902;-132.82542419433594
337;1673393479.4103909;47.129498299999995;7.2390896;50.02100372314453;1673393479.413323;-46.552947998046875;10.365277290344238;-132.6260986328125
338;1673393479.595984;47.1294861;7.239075199999999;50.02300262451172;1673393479.5979369;-47.41761016845703;10.756333351135254;-132.4971160888672
339;1673393479.8294358;47.1294739;7.2390608;50.02400207519531;1673393479.832363;-47.685752868652344;9.592562675476074;-131.90406799316406
340;1673393480.007363;47.1294617;7.2390463;50.022003173828125;1673393480.0093153;-46.672733306884766;9.131357192993164;-132.07444763183594
341;1673393480.2038877;47.1294495;7.2390317;50.02100372314453;1673393480.205841;-47.341365814208984;9.768891334533691;-132.15521240234375
342;1673393480.3806336;47.1294372;7.239017199999999;50.02100372314453;1673393480.3816092;-47.391082763671875;9.657995223999023;-131.69293212890625
343;1673393480.5725935;47.129425;7.2390026;50.018001556396484;1673393480.5764997;-47.20320510864258;9.852631568908691;-131.5262451171875
344;1673393480.76999;47.1294128;7.238988;50.01400375366211;1673393480.7729967;-47.193302154541016;12.952973365783691;-131.5573272705078
345;1673393480.985283;47.1294008;7.2389731;50.00100326538086;1673393480.9882126;-44.47591018676758;10.457131385803223;-122.15404510498047
346;1673393481.251054;47.1293894;7.2389582;49.98500061035156;1673393481.2529893;-42.50591278076172;4.404321193695068;-111.83336639404297
347;1673393481.4481404;47.1293787;7.238943399999999;49.96800231933594;1673393481.4521492;-41.15030288696289;-1.726564645767212;-102.52645111083984
348;1673393481.6417913;47.1293686;7.2389288;49.95600128173828;1673393481.6437416;-40.905517578125;-7.676846981048584;-93.88078308105469
349;1673393481.8344793;47.129359199999996;7.238914599999999;49.945003509521484;1673393481.8374083;-38.873191833496094;-14.050995826721191;-84.5462646484375
350;1673393482.0109632;47.1293503;7.2389008;49.935001373291016;1673393482.0148673;-34.609500885009766;-20.212726593017578;-75.10488891601562
351;1673393482.193617;47.1293418;7.238887399999999;49.932003021240234;1673393482.197502;-32.483375549316406;-27.166257858276367;-66.5865249633789
352;1673393482.4564517;47.1293334;7.238874099999999;49.94900131225586;1673393482.4584055;-37.259273529052734;-35.05024337768555;-71.32931518554688
353;1673393482.6519194;47.1293243;7.2388607;49.970001220703125;1673393482.653862;-41.257022857666016;-32.24857711791992;-91.75615692138672
354;1673393482.8380504;47.1293139;7.238847799999999;49.98600387573242;1673393482.83999;-44.91768264770508;-22.941953659057617;-105.96865844726562
355;1673393482.9918137;47.1293024;7.2388354999999995;50.00100326538086;1673393482.996694;-47.21871566772461;-18.548734664916992;-112.64739227294922
356;1673393483.1740153;47.129289799999995;7.2388239;50.00600051879883;1673393483.1779263;-47.23387145996094;-4.961218357086182;-119.09393310546875
357;1673393483.386676;47.129276999999995;7.2388124;49.98100280761719;1673393483.3895984;-38.99189376831055;-2.8050429821014404;-105.77960968017578
358;1673393483.57179;47.1292648;7.2388012999999996;49.935001373291016;1673393483.5747187;-30.455278396606445;-2.2950961589813232;-90.7070541381836
359;1673393483.7711675;47.129253899999995;7.2387909;49.900001525878906;1673393483.774159;-35.17980194091797;1.2103759050369263;-81.13129425048828
360;1673393483.9664068;47.129245;7.2387809;49.8900032043457;1673393483.9693353;-40.602699279785156;17.585742950439453;-73.88583374023438
361;1673393484.1597428;47.129239;7.2387716;49.88800048828125;1673393484.1636627;-42.92058181762695;16.499156951904297;-61.70955276489258
362;1673393484.3639948;47.1292366;7.238763499999999;49.884002685546875;1673393484.3669255;-38.90348434448242;11.070024490356445;-51.467559814453125
363;1673393484.571303;47.129236899999995;7.2387568;49.9010009765625;1673393484.57423;-41.618770599365234;-5.102193832397461;-42.39684295654297
364;1673393484.7766113;47.1292391;7.2387504;49.94700241088867;1673393484.7804894;-34.147254943847656;-19.747716903686523;-41.297237396240234
365;1673393484.9866157;47.1292421;7.238744;49.996002197265625;1673393484.9895482;-31.79999351501465;-17.878236770629883;-44.74336624145508
366;1673393485.17992;47.129245499999996;7.2387378;50.04300308227539;1673393485.1838248;-31.25100326538086;-9.624716758728027;-56.497947692871094
367;1673393485.3792903;47.129249099999996;7.238732;50.07500076293945;1673393485.3831944;-33.02370834350586;-3.1741909980773926;-68.2803955078125
368;1673393485.5788262;47.1292529;7.238726499999999;50.10900115966797;1673393485.5827296;-34.202842712402344;3.3058078289031982;-78.34461212158203
369;1673393485.7787824;47.129256899999994;7.2387212;50.13200378417969;1673393485.7817118;-35.15476989746094;4.546514987945557;-87.46778869628906
370;1673393485.9795897;47.1292608;7.2387158;50.147003173828125;1673393485.982517;-36.14922332763672;4.020343780517578;-96.29500579833984
371;1673393486.1854591;47.1292644;7.2387103999999995;50.15900421142578;1673393486.1874044;-33.58304214477539;-1.1843289136886597;-105.58985137939453
372;1673393486.3841548;47.1292669;7.2387052999999995;50.163002014160156;1673393486.3870807;-38.897796630859375;-8.476960182189941;-114.50237274169922
373;1673393486.578334;47.1292676;7.2387004;50.1670036315918;1673393486.5822585;-46.50448989868164;-18.220930099487305;-123.17796325683594
374;1673393486.7742689;47.1292656;7.2386962;50.169002532958984;1673393486.7781773;-48.88479995727539;-9.034089088439941;-134.23361206054688
375;1673393486.9796069;47.129260599999995;7.2386922;50.1670036315918;1673393486.9825356;-56.6983757019043;-1.2043516635894775;-142.0518341064453
376;1673393487.1727674;47.1292531;7.2386878999999995;50.15200424194336;1673393487.1747196;-55.34687805175781;10.437966346740723;-149.03170776367188
377;1673393487.3673267;47.129243599999995;7.2386826;50.13800048828125;1673393487.3702557;-52.58443832397461;14.219279289245605;-145.29306030273438
378;1673393487.5736704;47.1292329;7.238676;50.134002685546875;1673393487.5766127;-51.55178451538086;19.20943260192871;-139.75547790527344
379;1673393487.825263;47.129221699999995;7.2386674;50.13100051879883;1673393487.8281949;-54.788658142089844;20.215063095092773;-138.14512634277344
380;1673393488.0511472;47.129210199999996;7.238657;50.1150016784668;1673393488.0540245;-51.488609313964844;17.9517822265625;-134.74281311035156
381;1673393488.2355995;47.1291988;7.2386453;50.09800338745117;1673393488.2385461;-42.169498443603516;20.663007736206055;-132.45684814453125
382;1673393488.4169724;47.129188199999994;7.2386327999999995;50.10200119018555;1673393488.4189186;-30.665191650390625;27.824260711669922;-130.8334197998047
383;1673393488.601776;47.129179;7.238620399999999;50.10200119018555;1673393488.6047034;-20.86407470703125;21.583145141601562;-130.2306671142578
384;1673393488.7828276;47.1291711;7.2386091;50.095001220703125;1673393488.7867284;-12.493940353393555;19.719057083129883;-133.23158264160156
385;1673393488.9783041;47.129164499999995;7.238599499999999;50.0880012512207;1673393488.9812315;-11.184518814086914;20.302875518798828;-133.04714965820312
386;1673393489.1925492;47.1291592;7.2385915999999995;50.0780029296875;1673393489.1954815;-9.36145305633545;19.89268684387207;-131.7418212890625
387;1673393489.3799891;47.1291552;7.2385853;50.070003509521484;1673393489.3829224;-9.5220947265625;19.57562255859375;-131.28302001953125
388;1673393489.5765653;47.1291523;7.238580799999999;50.07200241088867;1673393489.5794873;-16.769859313964844;17.115631103515625;-132.5111541748047
389;1673393489.7948635;47.1291498;7.2385768;50.16100311279297;1673393489.7987738;-40.39665222167969;16.39177131652832;-140.3336944580078
390;1673393489.9843533;47.129146299999995;7.2385718;50.33000183105469;1673393489.987391;-48.50192642211914;10.299552917480469;-138.1649169921875
391;1673393490.1741657;47.1291412;7.238565899999999;50.564002990722656;1673393490.1780715;-28.60448455810547;-0.3378177881240845;-134.53797912597656
392;1673393490.3925517;47.129135399999996;7.2385608999999995;50.85300064086914;1673393490.3960137;-16.704694747924805;6.0246076583862305;-136.55677795410156
393;1673393490.6012018;47.1291295;7.2385569;51.2140007019043;1673393490.603153;-41.10539627075195;17.31081771850586;-138.022216796875
394;1673393490.7994614;47.1291231;7.2385515;51.58100128173828;1673393490.8033814;-53.26510238647461;22.198896408081055;-137.24822998046875
395;1673393490.98764;47.129115999999996;7.2385435;51.92000198364258;1673393490.9915323;-50.311824798583984;19.241247177124023;-134.11441040039062
396;1673393491.1981785;47.129108599999995;7.2385337;52.23500061035156;1673393491.2001097;-48.32427978515625;19.55975914001465;-134.07327270507812
397;1673393491.405501;47.1291009;7.238522499999999;52.540000915527344;1673393491.4084346;-46.03221893310547;16.401214599609375;-133.36839294433594
398;1673393491.6030278;47.129093;7.2385104;52.8380012512207;1673393491.6059566;-45.29592514038086;15.943685531616211;-133.49024963378906
399;1673393491.8132377;47.1290848;7.2384976;53.125003814697266;1673393491.8171406;-45.05950927734375;15.594746589660645;-134.23724365234375
400;1673393492.0144427;47.129076399999995;7.2384843;53.40400314331055;1673393492.0164013;-46.17020797729492;15.8469820022583;-135.02281188964844
401;1673393492.2342677;47.1290678;7.238470599999999;53.67500305175781;1673393492.2381876;-42.30568313598633;14.11419677734375;-134.8546905517578
402;1673393492.4383643;47.129059;7.2384569;53.94300079345703;1673393492.4403162;-34.36348342895508;11.408570289611816;-134.96961975097656
403;1673393492.6219747;47.1290501;7.2384439;54.22500228881836;1673393492.6248932;-28.955556869506836;9.338875770568848;-135.58889770507812
404;1673393492.806542;47.1290413;7.2384321;54.535003662109375;1673393492.8114126;-34.53996276855469;11.282317161560059;-136.0377197265625
405;1673393492.987257;47.129032599999995;7.2384207;54.87400436401367;1673393492.991152;-38.69162368774414;16.83951759338379;-136.86441040039062
406;1673393493.2136407;47.1290239;7.238409099999999;55.237003326416016;1673393493.2155929;-47.01140213012695;19.772802352905273;-136.935791015625
407;1673393493.422914;47.1290151;7.2383964;55.595001220703125;1673393493.4248676;-48.62606430053711;18.500370025634766;-136.1810760498047
408;1673393493.599107;47.1290061;7.2383828999999995;55.932003021240234;1673393493.602051;-41.74626159667969;14.762354850769043;-134.94967651367188
409;1673393493.786342;47.128997;7.2383694;56.25400161743164;1673393493.7892723;-34.73489761352539;12.292837142944336;-135.23388671875
410;1673393493.9733636;47.128988;7.2383565;56.58500289916992;1673393493.9762917;-33.8402214050293;12.168135643005371;-135.80763244628906
411;1673393494.1662896;47.128979099999995;7.2383443;56.941001892089844;1673393494.1692188;-37.49799728393555;14.437627792358398;-136.33676147460938
412;1673393494.369529;47.1289701;7.238332199999999;57.316001892089844;1673393494.3744066;-41.88782501220703;15.635384559631348;-136.33010864257812
413;1673393494.5870154;47.1289612;7.238319799999999;57.686004638671875;1673393494.5909133;-44.05693817138672;16.893783569335938;-136.0350799560547
414;1673393494.7970579;47.1289521;7.2383068999999995;58.052001953125;1673393494.800484;-45.596004486083984;16.17607307434082;-135.71905517578125
415;1673393495.005731;47.1289428;7.2382935999999996;58.41200256347656;1673393495.008663;-40.756011962890625;14.296775817871094;-135.2435302734375
416;1673393495.1910548;47.128933499999995;7.2382803;58.768001556396484;1673393495.193986;-37.469032287597656;13.148669242858887;-135.29005432128906
417;1673393495.3814685;47.1289243;7.2382675;59.130001068115234;1673393495.3853743;-35.34613037109375;12.486656188964844;-135.48379516601562
418;1673393495.596792;47.128915;7.238255;59.496002197265625;1673393495.6006866;-38.57431411743164;15.013412475585938;-136.35137939453125
419;1673393495.808379;47.1289059;7.2382425999999995;59.875003814697266;1673393495.811311;-40.423179626464844;16.07416343688965;-136.2102508544922
