;pos_time;latitude;longitude;altitude;alt_time;pitch;roll;yaw
0;1673392122.7023425;47.1306424;7.24062;-0.03100000135600567;1673392122.7770698;-0.022347090765833855;-0.23137174546718597;90.41592407226562
1;1673392122.8955495;47.1306424;7.24062;-0.03100000135600567;1673392122.9816666;0.1731908619403839;-0.1729041337966919;90.4162368774414
2;1673392123.09616;47.1306424;7.24062;-0.03200000151991844;1673392123.1728458;0.1951400339603424;-0.19161847233772278;90.29258728027344
3;1673392123.2837925;47.1306424;7.24062;-0.030000001192092896;1673392123.362435;0.04908917471766472;-0.11684757471084595;90.27043151855469
4;1673392123.4861102;47.1306424;7.24062;-0.02800000086426735;1673392123.566707;-0.10996890813112259;-0.18715424835681915;90.2937240600586
5;1673392123.6820948;47.1306424;7.24062;-0.027000000700354576;1673392123.765131;-0.14333154261112213;-0.18852348625659943;90.3717041015625
6;1673392123.8775344;47.1306424;7.2406198999999996;-0.027000000700354576;1673392123.9605322;-0.12412466108798981;-0.044493257999420166;90.19216918945312
7;1673392124.096419;47.1306424;7.240619799999999;-0.030000001192092896;1673392124.1814044;0.24267609417438507;-0.16404329240322113;90.21273803710938
8;1673392124.310165;47.1306424;7.240619799999999;-0.03100000135600567;1673392124.3848848;0.32908302545547485;-0.2286835014820099;90.20018768310547
9;1673392124.502576;47.1306424;7.2406197;0.0;1673392124.5851219;0.2027377188205719;-0.18074363470077515;90.20679473876953
10;1673392124.700002;47.1306424;7.2406197;0.0;1673392124.781569;0.12870348989963531;-0.13634495437145233;90.08899688720703
11;1673392124.897475;47.1306424;7.2406197;0.0010000000474974513;1673392124.9809854;0.18399645388126373;-0.18414533138275146;90.15087127685547
12;1673392125.1106706;47.1306424;7.2406197;0.0020000000949949026;1673392125.1898026;0.2441442757844925;-0.16994521021842957;90.17548370361328
13;1673392125.3290002;47.1306424;7.240619799999999;0.0020000000949949026;1673392125.4127164;0.013883478939533234;-0.10786282271146774;90.11799621582031
14;1673392125.553901;47.1306424;7.240619799999999;0.0020000000949949026;1673392125.640731;0.3659677803516388;-0.21859210729599;90.20913696289062
15;1673392125.7746513;47.1306424;7.240619799999999;0.0020000000949949026;1673392125.8645782;0.4373447000980377;0.04664365574717522;90.1978759765625
16;1673392125.983686;47.1306424;7.240619799999999;0.003000000026077032;1673392126.0786972;0.5084816813468933;0.10435070097446442;90.10733795166016
17;1673392126.1657283;47.1306424;7.240619799999999;0.0020000000949949026;1673392126.2369347;0.5682306885719299;0.035189367830753326;90.3258285522461
18;1673392126.345941;47.1306425;7.2406198999999996;0.007000000216066837;1673392126.4206033;0.39046651124954224;0.3599317669868469;90.4824447631836
19;1673392126.5488179;47.1306424;7.24062;0.010000000707805157;1673392126.6246483;0.9630000591278076;-0.45439645648002625;90.49872589111328
20;1673392126.751699;47.1306424;7.24062;0.013000000268220901;1673392126.8246772;2.0277419090270996;0.35922345519065857;90.29363250732422
21;1673392126.9397945;47.1306424;7.24062;0.012000000104308128;1673392127.0188818;3.1038665771484375;-0.13887323439121246;90.34886932373047
22;1673392127.1281657;47.1306424;7.24062;0.012000000104308128;1673392127.2136765;4.58176851272583;-0.07884761691093445;90.29940795898438
23;1673392127.3306954;47.1306424;7.2406198999999996;0.014000000432133675;1673392127.4129558;6.7664947509765625;-0.1562475711107254;89.81157684326172
24;1673392127.521718;47.1306424;7.2406197;0.013000000268220901;1673392127.5906956;-2.345160722732544;0.6341022849082947;85.99629974365234
25;1673392127.6978507;47.1306424;7.2406184;0.004000000189989805;1673392127.7750134;-2.4161674976348877;-0.16148008406162262;87.16766357421875
26;1673392127.8887877;47.1306424;7.2406158;0.012000000104308128;1673392127.9801676;-6.951796054840088;-0.1606796234846115;85.42765808105469
27;1673392128.1187546;47.1306424;7.240612499999999;0.026000000536441803;1673392128.2049775;-15.136847496032715;0.7374252080917358;83.10201263427734
28;1673392128.3168614;47.1306424;7.2406085;0.04000000283122063;1673392128.4016612;-16.452133178710938;-0.15752680599689484;84.28856658935547
29;1673392128.5306504;47.1306424;7.2406038;0.0560000017285347;1673392128.620701;-16.293397903442383;1.1470708847045898;85.50997924804688
30;1673392128.7448754;47.1306424;7.240598599999999;0.08300000429153442;1673392128.824859;-17.180910110473633;2.3732500076293945;86.12678527832031
31;1673392128.9477348;47.1306423;7.240592899999999;0.11300000548362732;1673392129.021665;-18.752918243408203;0.7981658577919006;87.28272247314453
32;1673392129.136054;47.130642099999996;7.240586899999999;0.14100000262260437;1673392129.2066672;-20.576671600341797;-0.03036259114742279;88.10767364501953
33;1673392129.3162787;47.1306419;7.2405807;0.1730000078678131;1673392129.3970134;-22.487384796142578;1.034434199333191;88.28044891357422
34;1673392129.5157595;47.1306417;7.2405747;0.21000000834465027;1673392129.5979753;-24.539493560791016;0.29746463894844055;88.81534576416016
35;1673392129.7180028;47.130641499999996;7.2405688999999995;0.24500000476837158;1673392129.7931774;-26.586294174194336;-0.7221682667732239;89.41735076904297
36;1673392129.9204514;47.130641399999995;7.2405636;0.2770000100135803;1673392129.9975946;-28.689924240112305;-0.5471430420875549;89.61420440673828
37;1673392130.1091082;47.1306413;7.2405589;0.30300000309944153;1673392130.1853046;-30.821271896362305;-0.47268134355545044;89.72991180419922
38;1673392130.3026452;47.1306411;7.2405547;0.3240000009536743;1673392130.389651;-32.98320770263672;-1.1007874011993408;90.0456771850586
39;1673392130.5135307;47.130641;7.240551399999999;0.3460000157356262;1673392130.6020741;-35.189022064208984;-1.0356557369232178;90.10185241699219
40;1673392130.7101502;47.130640899999996;7.240549;0.3700000047683716;1673392130.7893944;-37.35028076171875;-0.9696437120437622;90.15693664550781
41;1673392130.9165723;47.130640899999996;7.240547899999999;0.39000001549720764;1673392130.999742;-39.53726577758789;-1.4851981401443481;90.4009780883789
42;1673392131.1167233;47.130640899999996;7.240547899999999;0.4100000262260437;1673392131.1959393;-41.692527770996094;-1.3927329778671265;90.3543701171875
43;1673392131.2990372;47.130640899999996;7.240549199999999;0.43400001525878906;1673392131.3857934;-43.95040512084961;-1.3429867029190063;90.26739501953125
44;1673392131.5063162;47.130641;7.240552;0.4580000340938568;1673392131.5846589;-46.11744689941406;-1.4577356576919556;90.30216979980469
45;1673392131.6969657;47.1306412;7.240556199999999;0.4780000150203705;1673392131.7766814;-48.33868408203125;-1.3568170070648193;90.31034851074219
46;1673392131.9014652;47.130641399999995;7.2405621;0.4960000216960907;1673392131.9933014;-45.715816497802734;-1.057132601737976;90.12504577636719
47;1673392132.1154742;47.1306416;7.2405693;0.5049999952316284;1673392132.1937604;-40.9210205078125;-0.7074150443077087;89.98869323730469
48;1673392132.3124537;47.1306418;7.2405772;0.5040000081062317;1673392132.38863;-35.6760139465332;-0.763707160949707;90.11382293701172
49;1673392132.5060692;47.130641999999995;7.240585299999999;0.5120000243186951;1673392132.58613;-29.152990341186523;-0.5564139485359192;90.07874298095703
50;1673392132.69627;47.1306422;7.240592899999999;0.5610000491142273;1673392132.7809072;-26.18395233154297;-0.5615947842597961;90.11974334716797
51;1673392132.8941069;47.1306423;7.2405998;0.6140000224113464;1673392132.9781375;-20.952871322631836;-0.2604714632034302;89.99922180175781
52;1673392133.0891507;47.1306424;7.2406054;0.6700000166893005;1673392133.1723578;-19.2717227935791;-0.6563299298286438;90.35379791259766
53;1673392133.286627;47.1306424;7.240609699999999;0.7300000190734863;1673392133.369357;-18.96324920654297;-0.1762479543685913;90.20604705810547
54;1673392133.4901416;47.1306425;7.240612499999999;0.7940000295639038;1673392133.5731351;-20.193405151367188;0.5968300700187683;89.91434478759766
55;1673392133.6945245;47.1306424;7.2406142;0.8670000433921814;1673392133.8104868;-21.28386688232422;-2.5520384311676025;90.92530059814453
56;1673392133.9302223;47.1306424;7.240615;0.956000030040741;1673392134.0323262;-23.12015151977539;-1.1722967624664307;90.52099609375
57;1673392134.1432452;47.1306423;7.2406153;1.055999994277954;1673392134.217003;-25.71959114074707;1.5951273441314697;89.52592468261719
58;1673392134.3265748;47.1306424;7.2406152;1.1630001068115234;1673392134.4056787;-27.052875518798828;-2.1834497451782227;90.57369995117188
59;1673392134.5155663;47.1306423;7.240615;1.2760000228881836;1673392134.601464;-28.758256912231445;-1.3642891645431519;90.16500091552734
60;1673392134.720676;47.1306422;7.2406149;1.3990000486373901;1673392134.801874;-29.2503662109375;1.2541232109069824;89.00599670410156
61;1673392134.9231424;47.1306422;7.240615;1.5320000648498535;1673392135.005151;-29.54009246826172;-1.9141205549240112;89.87797546386719
62;1673392135.1222084;47.130642099999996;7.2406153;1.683000087738037;1673392135.2087798;-29.19591522216797;-3.0027685165405273;94.8592529296875
63;1673392135.320696;47.1306422;7.240615699999999;1.8450000286102295;1673392135.405638;-28.70766258239746;0.7835041284561157;93.57408905029297
64;1673392135.5168524;47.1306423;7.2406163;2.0180001258850098;1673392135.6011314;-27.804656982421875;-1.4639819860458374;94.53240203857422
65;1673392135.7141984;47.1306424;7.2406169;2.203000068664551;1673392135.8002503;-27.59592628479004;-1.3002246618270874;94.67769622802734
66;1673392135.9187303;47.1306425;7.2406174;2.3990001678466797;1673392135.9970796;-27.166101455688477;1.4566779136657715;93.63629913330078
67;1673392136.1156006;47.1306425;7.240617899999999;2.5960001945495605;1673392136.1988077;-27.47457504272461;-0.00981167983263731;94.23110961914062
68;1673392136.3666787;47.130642599999995;7.2406182999999995;2.7930002212524414;1673392136.4454749;-26.92658233642578;-1.6680629253387451;95.15577697753906
69;1673392136.5874624;47.130642599999995;7.2406187;2.9900002479553223;1673392136.657805;-27.120759963989258;1.7555325031280518;94.08574676513672
70;1673392136.764439;47.130642599999995;7.240619;3.188000202178955;1673392136.8592799;-26.8858642578125;-0.12214905768632889;94.73282623291016
71;1673392136.9643047;47.130642599999995;7.2406193;3.386000156402588;1673392137.04587;-27.207050323486328;-1.972288727760315;95.3567886352539
72;1673392137.1502032;47.1306425;7.2406194;3.5840001106262207;1673392137.2298422;-27.056591033935547;0.9324597120285034;94.21312713623047
73;1673392137.348273;47.1306425;7.240619499999999;3.7820000648498535;1673392137.4349537;-27.36805534362793;0.43178343772888184;94.31888580322266
74;1673392137.5616388;47.1306425;7.2406196;3.9770002365112305;1673392137.63347;-27.13330078125;-2.643425941467285;95.31730651855469
75;1673392137.7356653;47.1306424;7.2406197;4.168000221252441;1673392137.8069582;-27.27069091796875;0.1943628042936325;94.4404067993164
76;1673392137.9145176;47.1306424;7.240619799999999;4.3560004234313965;1673392137.9916294;-27.134462356567383;0.50238037109375;94.20948028564453
77;1673392138.1107903;47.1306423;7.240619799999999;4.547000408172607;1673392138.1967275;-27.352977752685547;-2.9214510917663574;95.2652587890625
78;1673392138.3066761;47.1306422;7.240619799999999;4.740000247955322;1673392138.3882723;-27.231693267822266;-0.6570380926132202;94.51757049560547
79;1673392138.524884;47.1306422;7.2406198999999996;4.934000015258789;1673392138.6212888;-27.47726058959961;0.3823135495185852;94.09622192382812
80;1673392138.73199;47.1306422;7.2406198999999996;5.12600040435791;1673392138.8175542;-27.304067611694336;-2.7686803340911865;95.24576568603516
81;1673392138.9348621;47.1306422;7.2406198999999996;5.323000431060791;1673392139.0026188;-27.472929000854492;-0.8309917449951172;94.82288360595703
82;1673392139.1132329;47.1306423;7.2406198999999996;5.520000457763672;1673392139.1883872;-27.487224578857422;1.164123773574829;94.12158203125
83;1673392139.3013725;47.1306423;7.24062;5.716000080108643;1673392139.3897717;-27.27205467224121;-2.1328160762786865;95.13021850585938
84;1673392139.5278363;47.1306423;7.2406201;5.913000106811523;1673392139.6128974;-27.297016143798828;-1.5659265518188477;94.95720672607422
85;1673392139.7246678;47.1306422;7.2406201;6.113000392913818;1673392139.8150172;-27.25381851196289;1.0210107564926147;93.9504165649414
86;1673392139.9316146;47.1306422;7.2406201999999995;6.311000347137451;1673392140.0126345;-27.217741012573242;-1.9086992740631104;94.94426727294922
87;1673392140.1302302;47.1306423;7.2406201999999995;6.50700044631958;1673392140.2054722;-27.20850372314453;-1.6337844133377075;95.0704574584961
88;1673392140.3133614;47.1306424;7.2406201999999995;6.702000141143799;1673392140.3910317;-27.449520111083984;1.3574254512786865;94.06336212158203
89;1673392140.5030694;47.1306425;7.2406201999999995;6.89400053024292;1673392140.5827048;-27.238630294799805;-0.4363255500793457;94.59866333007812
90;1673392140.697442;47.1306424;7.2406201999999995;7.087000370025635;1673392140.779009;-27.38661003112793;-2.395480155944824;95.27935791015625
91;1673392140.8938553;47.1306424;7.2406203;7.28000020980835;1673392140.993963;-27.194229125976562;0.77210533618927;94.16294860839844
92;1673392141.1223557;47.1306423;7.2406203;7.473000526428223;1673392141.212682;-27.25343894958496;-0.7706142663955688;94.66153717041016
93;1673392141.3305395;47.1306423;7.2406204;7.6660003662109375;1673392141.4154575;-27.095523834228516;-2.684422492980957;95.3466796875
94;1673392141.5280373;47.1306424;7.2406204;7.8600006103515625;1673392141.6056285;-27.43471908569336;0.8122236132621765;94.30864715576172
95;1673392141.705277;47.1306424;7.2406204;8.054000854492188;1673392141.7838833;-27.141958236694336;0.023783229291439056;94.46153259277344
96;1673392141.9001563;47.1306424;7.2406204999999995;8.249000549316406;1673392141.9860673;-27.36467933654785;-2.658499240875244;95.39665222167969
97;1673392142.109624;47.1306423;7.2406204999999995;8.443000793457031;1673392142.2043986;-27.06231689453125;0.21165959537029266;94.388427734375
98;1673392142.331526;47.1306422;7.2406206;8.638999938964844;1673392142.4106474;-27.311635971069336;0.1483461707830429;94.34764862060547
99;1673392142.5379016;47.1306422;7.2406207;8.836000442504883;1673392142.6245508;-26.967214584350586;-2.8411340713500977;95.34676361083984
100;1673392142.7440119;47.1306422;7.2406207;9.032999992370605;1673392142.8332303;-27.28905487060547;-0.6431233286857605;94.65614318847656
101;1673392142.955856;47.1306422;7.2406207;9.232000350952148;1673392143.0366206;-27.071876525878906;0.5940782427787781;94.18160247802734
102;1673392143.1603098;47.1306422;7.2406207;9.433000564575195;1673392143.238017;-27.190631866455078;-2.8046891689300537;95.29733276367188
103;1673392143.3506289;47.1306422;7.240620799999999;9.635000228881836;1673392143.4293158;-26.95437240600586;-0.8139978051185608;94.75386810302734
104;1673392143.5441327;47.130642099999996;7.2406209;9.837000846862793;1673392143.6144476;-27.244125366210938;0.7142711281776428;94.08474731445312
105;1673392143.7268872;47.130642099999996;7.2406209;10.038000106811523;1673392143.8134449;-26.89617347717285;-2.4354212284088135;95.17495727539062
106;1673392143.933209;47.1306422;7.2406209;10.25200080871582;1673392144.0226798;-27.998804092407227;-0.6136376857757568;94.77090454101562
107;1673392144.1403856;47.1306422;7.240621099999999;10.53700065612793;1673392144.220462;-32.982479095458984;0.46467840671539307;94.31645965576172
108;1673392144.3367174;47.1306422;7.2406220999999995;10.904000282287598;1673392144.411925;-29.80480194091797;-2.108396530151367;95.13899230957031
109;1673392144.5178015;47.1306422;7.2406235;11.29800033569336;1673392144.5946555;-26.678375244140625;-0.8886533379554749;94.71063232421875
110;1673392144.718555;47.1306422;7.240625;11.704000473022461;1673392144.8057294;-24.04249382019043;0.8632330894470215;94.23973846435547
111;1673392144.9255588;47.1306422;7.2406261999999995;12.106000900268555;1673392145.0134242;-21.97301483154297;-1.3047549724578857;95.01081848144531
112;1673392145.1369321;47.1306422;7.2406269;12.493000984191895;1673392145.2170882;-21.304250717163086;-0.8131071329116821;94.9116439819336
113;1673392145.347149;47.1306422;7.2406269;12.858000755310059;1673392145.4174614;-21.8729190826416;1.3008065223693848;94.02001953125
114;1673392145.5348654;47.1306422;7.2406264;13.214000701904297;1673392145.6097918;-23.235246658325195;-1.5606588125228882;94.91651153564453
115;1673392145.7139418;47.1306422;7.2406255999999996;13.5600004196167;1673392145.793693;-24.174240112304688;-1.941112995147705;95.03730773925781
116;1673392145.9195309;47.130642099999996;7.240624599999999;13.90000057220459;1673392146.0099132;-25.73887825012207;0.7998371720314026;94.12206268310547
117;1673392146.1338997;47.130642099999996;7.2406235;14.235000610351562;1673392146.2076042;-26.769275665283203;-1.5939964056015015;94.8217544555664
118;1673392146.3183131;47.130642099999996;7.2406225;14.57300090789795;1673392146.396943;-27.676563262939453;-2.6484110355377197;95.19612121582031
119;1673392146.527654;47.130642099999996;7.240621699999999;14.910000801086426;1673392146.6069024;-28.296279907226562;0.593031108379364;94.09629821777344
120;1673392146.718103;47.130641999999995;7.240621099999999;15.254000663757324;1673392146.8100734;-28.566604614257812;-1.3050628900527954;94.63835906982422
121;1673392146.9586594;47.130641999999995;7.240620799999999;15.606000900268555;1673392147.032558;-28.310365676879883;-2.8776280879974365;95.25957489013672
122;1673392147.135681;47.130641999999995;7.240620799999999;15.9660005569458;1673392147.209857;-28.2409725189209;0.2247563600540161;94.28646850585938
123;1673392147.3322282;47.130642099999996;7.2406209;16.33100128173828;1673392147.4171567;-27.318857192993164;-0.5753009915351868;94.5473861694336
124;1673392147.5306304;47.1306423;7.240621099999999;16.697999954223633;1673392147.6175442;-26.94864273071289;-2.080218553543091;95.21343231201172
125;1673392147.7669108;47.1306423;7.240621399999999;17.065000534057617;1673392147.8603327;-26.53618049621582;0.7498876452445984;94.25115966796875
126;1673392147.9802868;47.1306424;7.2406215;17.43000030517578;1673392148.0578847;-26.195402145385742;-0.08241882175207138;94.5019760131836
127;1673392148.1851227;47.1306424;7.240621699999999;17.799001693725586;1673392148.2650566;-25.95808219909668;-2.1547696590423584;95.29876708984375
128;1673392148.3711157;47.1306424;7.2406219;18.16900062561035;1673392148.4507298;-25.999231338500977;0.10754913836717606;94.58790588378906
129;1673392148.5500107;47.1306425;7.240622;18.540000915527344;1673392148.6296532;-25.98981475830078;1.144301414489746;94.25516510009766
130;1673392148.7416255;47.130642599999995;7.240622;18.913000106811523;1673392148.815972;-25.939361572265625;-1.8951878547668457;95.19951629638672
131;1673392148.9226635;47.130642599999995;7.2406219;19.288000106811523;1673392149.0012984;-25.928749084472656;-0.37174704670906067;94.7066650390625
132;1673392149.111168;47.130642599999995;7.2406217999999996;19.659000396728516;1673392149.1888049;-26.09809112548828;0.9310791492462158;94.19001770019531
133;1673392149.3055463;47.1306425;7.2406216;20.032001495361328;1673392149.3951573;-26.644615173339844;-2.3203561305999756;95.20243072509766
134;1673392149.5158648;47.1306424;7.240621399999999;20.41400146484375;1673392149.6094308;-26.610462188720703;-1.020430326461792;94.83999633789062
135;1673392149.7300658;47.1306424;7.2406213;20.792001724243164;1673392149.8092844;-26.756427764892578;1.1213966608047485;94.14032745361328
136;1673392149.9322166;47.1306424;7.240621099999999;21.168001174926758;1673392150.0122557;-26.752765655517578;-1.6046792268753052;95.0318832397461
137;1673392150.1345975;47.1306424;7.240621;21.54400062561035;1673392150.2337246;-26.79389190673828;-1.657996654510498;95.0110092163086
138;1673392150.3551466;47.1306423;7.2406209;21.920001983642578;1673392150.4406242;-26.736841201782227;0.9687012434005737;94.11063385009766
139;1673392150.5493076;47.1306423;7.2406209;22.292001724243164;1673392150.6418278;-26.97478485107422;-1.3544849157333374;94.8266830444336
140;1673392150.7431033;47.1306423;7.240620799999999;22.667001724243164;1673392150.8147976;-26.64630699157715;-1.9722208976745605;95.10702514648438
141;1673392150.9206028;47.1306422;7.240620799999999;23.045001983642578;1673392151.0051184;-26.96694564819336;0.9346229434013367;94.12264251708984
142;1673392151.1400506;47.1306423;7.2406209;23.42300033569336;1673392151.2122762;-26.430498123168945;-0.7665233016014099;94.66844177246094
143;1673392151.3343332;47.1306423;7.2406209;23.804000854492188;1673392151.4174514;-26.685924530029297;-1.919940710067749;95.2197265625
144;1673392151.5378926;47.1306423;7.240621;24.18800163269043;1673392151.6173515;-26.5186710357666;0.7374645471572876;94.31446838378906
145;1673392151.7409976;47.1306423;7.2406209;24.569000244140625;1673392151.826945;-26.648609161376953;-0.42607301473617554;94.62992095947266
146;1673392151.9578722;47.1306422;7.2406209;24.952001571655273;1673392152.0320945;-26.43034553527832;-2.4051008224487305;95.26952362060547
147;1673392152.1549997;47.1306423;7.2406209;25.336000442504883;1673392152.2291794;-26.67234230041504;0.7964733242988586;94.28881072998047
148;1673392152.330549;47.1306423;7.2406209;25.722002029418945;1673392152.4121046;-26.541173934936523;-0.0013045952655375004;94.49518585205078
149;1673392152.5459416;47.1306423;7.240620799999999;26.10900115966797;1673392152.6281004;-26.819488525390625;-2.149696111679077;95.19218444824219
150;1673392152.747281;47.1306423;7.240620799999999;26.496002197265625;1673392152.833063;-26.66131019592285;0.06997475773096085;94.46991729736328
151;1673392152.9563723;47.1306423;7.240620799999999;26.88300132751465;1673392153.0337214;-26.670185089111328;0.2961203455924988;94.29463958740234
152;1673392153.1581414;47.1306423;7.2406207;27.266000747680664;1673392153.2367814;-26.679271697998047;-2.2405521869659424;95.2155532836914
153;1673392153.3533514;47.1306424;7.2406207;27.649002075195312;1673392153.4368718;-26.69075584411621;-0.9021948575973511;94.80883026123047
154;1673392153.554751;47.1306424;7.2406207;28.035001754760742;1673392153.6349263;-26.80135726928711;1.0281503200531006;94.1419906616211
155;1673392153.7549558;47.1306425;7.2406207;28.421001434326172;1673392153.8330362;-26.787460327148438;-1.7495416402816772;95.09937286376953
156;1673392153.9445257;47.130642599999995;7.2406207;28.809001922607422;1673392154.029797;-26.889427185058594;-0.558334469795227;94.82479095458984
157;1673392154.1474307;47.130642599999995;7.2406206;29.19900131225586;1673392154.2304058;-26.693971633911133;1.367319107055664;94.16388702392578
158;1673392154.340866;47.130642599999995;7.2406206;29.584001541137695;1673392154.4163008;-26.836978912353516;-1.6845147609710693;95.03579711914062
159;1673392154.5396268;47.130642599999995;7.2406206;29.97100067138672;1673392154.6178203;-26.820093154907227;-1.3092869520187378;95.05382537841797
160;1673392154.7319174;47.130642599999995;7.2406206;30.362001419067383;1673392154.8139315;-26.8337459564209;1.3610122203826904;94.11222076416016
161;1673392154.937174;47.130642599999995;7.2406206;30.75200080871582;1673392155.0242515;-26.69879913330078;-0.723270058631897;94.79460144042969
162;1673392155.1364539;47.130642599999995;7.2406206;31.141000747680664;1673392155.2155755;-26.672088623046875;-1.6506130695343018;95.10707092285156
163;1673392155.3377519;47.130642599999995;7.2406207;31.527002334594727;1673392155.4216962;-26.514862060546875;1.0803866386413574;94.18701171875
164;1673392155.541905;47.130642599999995;7.2406207;31.91200065612793;1673392155.6192935;-26.753475189208984;-0.42706114053726196;94.68323516845703
165;1673392155.7264407;47.130642599999995;7.2406207;32.29100036621094;1673392155.8091233;-26.526227951049805;-2.0073440074920654;95.23450469970703
166;1673392155.9518473;47.130642599999995;7.2406207;32.672000885009766;1673392156.0371697;-26.720657348632812;0.8573734760284424;94.32288360595703
167;1673392156.192128;47.130642599999995;7.2406207;33.060001373291016;1673392156.266981;-26.601091384887695;0.6295939087867737;94.39159393310547
168;1673392156.3749294;47.130642599999995;7.2406207;33.45100021362305;1673392156.4467955;-26.8176326751709;-1.9852550029754639;95.23766326904297
169;1673392156.57252;47.130642599999995;7.2406206;33.842002868652344;1673392156.6431372;-26.50721549987793;0.5671161413192749;94.37555694580078
170;1673392156.7501137;47.1306425;7.2406206;34.233001708984375;1673392156.837137;-26.848894119262695;0.4915541708469391;94.3282699584961
171;1673392156.9689658;47.1306425;7.2406204999999995;34.61800003051758;1673392157.0536377;-26.63200569152832;-2.1235735416412354;95.18901824951172
172;1673392157.1593704;47.1306425;7.2406204;35.00400161743164;1673392157.2489815;-26.784761428833008;-0.056162022054195404;94.5853042602539
173;1673392157.3619063;47.1306425;7.2406204;35.39500045776367;1673392157.4434636;-26.886310577392578;1.0360777378082275;94.23951721191406
174;1673392157.55017;47.1306425;7.2406204;35.78700256347656;1673392157.6325595;-26.8101806640625;-1.9339276552200317;95.08433532714844
175;1673392157.79131;47.1306425;7.2406204;36.178001403808594;1673392157.86505;-26.813766479492188;-0.6707998514175415;94.875
176;1673392157.9847908;47.1306424;7.2406204;36.56700134277344;1673392158.0733476;-26.709518432617188;0.9414111971855164;94.20744323730469
177;1673392158.185315;47.1306424;7.2406204;36.95800018310547;1673392158.2619963;-26.800800323486328;-1.750430703163147;95.00718688964844
178;1673392158.3689003;47.1306424;7.2406203;37.34400177001953;1673392158.441133;-26.761474609375;-1.0763049125671387;94.96273803710938
179;1673392158.5615277;47.1306425;7.2406203;37.730003356933594;1673392158.6449914;-26.699438095092773;1.6127514839172363;94.05201721191406
180;1673392158.762665;47.1306425;7.2406203;38.121002197265625;1673392158.838283;-26.728389739990234;-1.0648695230484009;94.91105651855469
181;1673392158.951361;47.1306424;7.2406203;38.5150032043457;1673392159.0295613;-26.997880935668945;-1.5620331764221191;95.13233184814453
182;1673392159.149923;47.1306424;7.2406203;38.910003662109375;1673392159.229214;-26.64145278930664;1.1158944368362427;94.17964935302734
183;1673392159.3329008;47.1306424;7.2406203;39.302001953125;1673392159.4135447;-26.898744583129883;-0.6435111165046692;94.70182037353516
184;1673392159.532453;47.1306424;7.2406203;39.68800354003906;1673392159.611179;-26.618703842163086;-1.7222927808761597;95.1559066772461
185;1673392159.72616;47.1306424;7.2406201999999995;40.07400131225586;1673392159.805872;-27.021242141723633;1.110036849975586;94.32038116455078
186;1673392159.9398453;47.1306425;7.2406201999999995;40.46600341796875;1673392160.025849;-26.85869598388672;0.09245321899652481;94.64550018310547
187;1673392160.1440365;47.1306425;7.2406201999999995;40.86000061035156;1673392160.2751155;-26.99388885498047;-2.001986503601074;95.30763244628906
188;1673392160.3818123;47.1306424;7.2406201999999995;41.25400161743164;1673392160.492121;-26.71844482421875;0.7868799567222595;94.35582733154297
189;1673392160.614542;47.1306424;7.2406201999999995;41.647003173828125;1673392160.702071;-26.922863006591797;0.42206501960754395;94.38927459716797
190;1673392160.8136704;47.1306424;7.2406201999999995;42.0420036315918;1673392160.8880036;-26.7100830078125;-1.8920683860778809;95.17278289794922
191;1673392160.9931655;47.1306424;7.2406201;42.43300247192383;1673392161.0917375;-26.813121795654297;0.1681428849697113;94.61465454101562
192;1673392161.2555647;47.1306424;7.2406201;42.820003509521484;1673392161.3347876;-26.777172088623047;1.0356346368789673;94.30029296875
193;1673392161.4202743;47.1306424;7.2406201;43.211002349853516;1673392161.488165;-26.84830665588379;-1.956592321395874;95.21514129638672
194;1673392161.6040335;47.1306423;7.2406201;43.60600280761719;1673392161.6807072;-26.654834747314453;-0.5518858432769775;94.74916076660156
195;1673392161.7818074;47.1306423;7.2406201;43.999000549316406;1673392161.8547194;-27.084787368774414;1.1471201181411743;94.07486724853516
196;1673392161.9733837;47.1306423;7.24062;44.393001556396484;1673392162.0557806;-26.724044799804688;-1.515002965927124;94.96165466308594
197;1673392162.2022443;47.1306423;7.24062;44.78300094604492;1673392162.3179622;-26.85178565979004;-0.7531821131706238;94.90414428710938
198;1673392162.4108663;47.1306424;7.24062;45.17300033569336;1673392162.4990697;-26.642478942871094;1.4623786211013794;94.14749908447266
199;1673392162.5938213;47.1306424;7.24062;45.56800079345703;1673392162.6597824;-26.857011795043945;-1.153960943222046;94.9898681640625
200;1673392162.7950077;47.1306423;7.24062;45.967002868652344;1673392162.8692353;-26.746166229248047;-1.4619905948638916;95.10306549072266
201;1673392162.966469;47.1306423;7.24062;46.36600112915039;1673392163.0539677;-26.79129981994629;1.419724941253662;94.20436096191406
202;1673392163.1667497;47.1306423;7.2406198999999996;46.76300048828125;1673392163.254338;-26.817317962646484;-0.6675823330879211;94.9368896484375
203;1673392163.371023;47.1306424;7.2406198999999996;47.160003662109375;1673392163.4525719;-26.89812660217285;-1.4409606456756592;95.17395782470703
204;1673392163.574261;47.1306423;7.240619799999999;47.552001953125;1673392163.650335;-26.911056518554688;1.4636934995651245;94.18997955322266
205;1673392163.7804108;47.1306423;7.240619799999999;47.94400405883789;1673392163.849716;-27.21856117248535;-0.7289060354232788;94.88203430175781
206;1673392163.9651096;47.1306423;7.2406197;48.31200408935547;1673392164.0508075;-27.52276611328125;-1.3812105655670166;94.93119812011719
207;1673392164.166272;47.1306422;7.240619499999999;48.63100051879883;1673392164.2492836;-27.346349716186523;0.8420832753181458;94.24685668945312
208;1673392164.3830912;47.1306422;7.2406191;48.89900207519531;1673392164.4607491;-27.8227596282959;-0.2359779328107834;94.64816284179688
209;1673392164.6023612;47.1306423;7.2406187;49.12000274658203;1673392164.664876;-28.396114349365234;-1.3871465921401978;95.15447998046875
210;1673392164.7701542;47.1306423;7.2406182;49.297000885009766;1673392164.8453171;-24.765125274658203;7.084781169891357;93.57942199707031
211;1673392164.978379;47.130642099999996;7.2406175;49.44400405883789;1673392165.0667596;-7.894206523895264;29.476205825805664;103.50613403320312
212;1673392165.179109;47.130640799999995;7.2406153;49.573001861572266;1673392165.2607782;-2.700669765472412;48.796566009521484;116.02468872070312
213;1673392165.3677027;47.1306373;7.2406096;49.685001373291016;1673392165.4498177;-8.200841903686523;58.93721389770508;125.0147933959961
214;1673392165.6103644;47.130631;7.2405997;49.7400016784668;1673392165.7104764;-19.351985931396484;52.79059982299805;134.44931030273438
215;1673392165.8125005;47.1306217;7.2405854;49.76100158691406;1673392165.8852897;-30.69489288330078;50.364356994628906;142.9178466796875
216;1673392165.9999728;47.130609899999996;7.2405677;49.755001068115234;1673392166.075626;-33.684715270996094;43.75773239135742;153.97898864746094
217;1673392166.1798956;47.1305962;7.2405469;49.72900390625;1673392166.2576466;-36.893978118896484;35.5315055847168;164.2080841064453
218;1673392166.3821442;47.1305809;7.2405232999999996;49.7130012512207;1673392166.490506;-47.227455139160156;34.54154586791992;171.96644592285156
219;1673392166.6063054;47.1305639;7.2404972;49.695003509521484;1673392166.6943595;-50.19222640991211;24.56123161315918;-176.76280212402344
220;1673392166.8013165;47.130545399999995;7.2404686;49.68000411987305;1673392166.877057;-51.27605056762695;16.411954879760742;-168.2550506591797
221;1673392166.979717;47.130525899999995;7.240437999999999;49.6670036315918;1673392167.06055;-53.032562255859375;6.624114513397217;-159.72607421875
222;1673392167.1799388;47.1305055;7.240405699999999;49.6510009765625;1673392167.2616742;-53.03399658203125;-4.54141902923584;-151.28700256347656
223;1673392167.381547;47.1304842;7.2403727;49.6400032043457;1673392167.48082;-52.064605712890625;-6.829154968261719;-145.03428649902344
224;1673392167.6072133;47.1304622;7.240339;49.62000274658203;1673392167.68003;-48.000736236572266;-12.310256004333496;-136.89752197265625
225;1673392167.799056;47.1304397;7.2403046;49.58700180053711;1673392167.8806603;-43.30986785888672;-16.984298706054688;-133.3991241455078
226;1673392167.9971983;47.130417099999995;7.2402698999999995;49.57100296020508;1673392168.0739093;-44.65217590332031;-18.4370059967041;-136.91981506347656
227;1673392168.1827936;47.130393999999995;7.2402355;49.570003509521484;1673392168.266201;-47.41927719116211;-19.11680793762207;-139.02508544921875
228;1673392168.3712008;47.1303706;7.2402016;49.58000183105469;1673392168.4444654;-47.40168380737305;-17.276142120361328;-140.5860137939453
229;1673392168.5387673;47.1303467;7.240168;49.59700393676758;1673392168.626216;-46.63094711303711;-15.806318283081055;-140.89871215820312
230;1673392168.7569497;47.1303226;7.2401351;49.61000061035156;1673392168.8371813;-46.410091400146484;-14.873539924621582;-140.69989013671875
231;1673392168.9497588;47.1302983;7.2401024;49.62300109863281;1673392169.0275905;-45.38766860961914;-14.117830276489258;-140.50973510742188
232;1673392169.1404252;47.1302741;7.240069699999999;49.63900375366211;1673392169.236619;-45.13146209716797;-13.898847579956055;-140.23590087890625
233;1673392169.3445306;47.1302498;7.240037;49.65700149536133;1673392169.4262302;-45.603572845458984;-13.984936714172363;-140.02120971679688
234;1673392169.5431786;47.130225499999995;7.2400043;49.673004150390625;1673392169.625373;-45.80561447143555;-14.002135276794434;-139.9434356689453
235;1673392169.749171;47.130201299999996;7.2399716;49.68800354003906;1673392169.8282957;-45.60707092285156;-13.928617477416992;-139.90090942382812
236;1673392169.9439743;47.130176999999996;7.239939;49.69900131225586;1673392170.0255423;-45.35171127319336;-13.825467109680176;-139.78042602539062
237;1673392170.14673;47.1301527;7.2399062999999995;49.70600128173828;1673392170.2290301;-44.95738220214844;-13.793685913085938;-139.7198028564453
238;1673392170.3448212;47.1301284;7.2398734;49.7130012512207;1673392170.4361575;-45.03310775756836;-14.008868217468262;-139.6764373779297
239;1673392170.5580502;47.1301042;7.2398405;49.72300338745117;1673392170.6254246;-45.49378204345703;-14.322652816772461;-139.6082763671875
240;1673392170.7385128;47.13008;7.2398074999999995;49.73400115966797;1673392170.824959;-45.78008270263672;-14.411210060119629;-139.65618896484375
241;1673392170.9612818;47.1300558;7.2397746;49.74400329589844;1673392171.0345361;-45.46107864379883;-14.361892700195312;-139.70993041992188
242;1673392171.154422;47.1300315;7.2397417;49.75300216674805;1673392171.2298357;-45.25251770019531;-14.324601173400879;-139.689453125
243;1673392171.3484275;47.130007199999994;7.2397089;49.76000213623047;1673392171.4301803;-45.20840835571289;-14.243377685546875;-139.6479034423828
244;1673392171.546823;47.129982899999995;7.239675999999999;49.768001556396484;1673392171.6311293;-45.25938034057617;-14.224672317504883;-139.62228393554688
245;1673392171.7410228;47.129958599999995;7.239643099999999;49.775001525878906;1673392171.8216147;-45.49139404296875;-14.355701446533203;-139.60694885253906
246;1673392171.9305518;47.129934399999996;7.239610099999999;49.78000259399414;1673392172.030685;-45.4804573059082;-14.320951461791992;-139.67703247070312
247;1673392172.1623976;47.1299102;7.239577199999999;49.785003662109375;1673392172.2493327;-45.286537170410156;-14.328245162963867;-139.6555633544922
248;1673392172.3685098;47.1298859;7.2395442;49.78700256347656;1673392172.449708;-45.31650924682617;-14.349668502807617;-139.66421508789062
249;1673392172.5775306;47.1298616;7.2395112;49.78600311279297;1673392172.6617584;-45.03062438964844;-14.139058113098145;-139.72682189941406
250;1673392172.7853527;47.1298374;7.2394783;49.78300094604492;1673392172.8659189;-44.85676574707031;-14.148229598999023;-139.66558837890625
251;1673392172.9777508;47.1298132;7.2394453;49.78200149536133;1673392173.0597482;-45.114044189453125;-14.272683143615723;-139.67129516601562
252;1673392173.1886811;47.129788999999995;7.2394124;49.78600311279297;1673392173.2733295;-45.26997756958008;-14.309408187866211;-139.6829833984375
253;1673392173.3911543;47.1297648;7.2393794;49.790000915527344;1673392173.4644039;-45.45630645751953;-14.379205703735352;-139.73143005371094
254;1673392173.5797133;47.1297406;7.2393464;49.79300308227539;1673392173.661855;-45.41743087768555;-14.38035774230957;-139.80551147460938
255;1673392173.7853708;47.1297164;7.2393133999999995;49.79600143432617;1673392173.8556535;-45.09842300415039;-14.190258979797363;-139.89122009277344
256;1673392173.9602277;47.1296922;7.239280399999999;49.801002502441406;1673392174.0305316;-44.98884201049805;-14.124859809875488;-139.87831115722656
257;1673392174.1491742;47.129667999999995;7.2392474;49.80500411987305;1673392174.2337558;-45.26340866088867;-14.18817138671875;-139.88172912597656
258;1673392174.3380866;47.1296438;7.2392144;49.810001373291016;1673392174.4127867;-45.48790740966797;-14.193078994750977;-139.9519500732422
259;1673392174.5343788;47.1296196;7.2391814;49.810001373291016;1673392174.6178904;-45.233001708984375;-14.043344497680664;-140.04306030273438
260;1673392174.7375054;47.1295954;7.2391485;49.810001373291016;1673392174.8205907;-44.77861404418945;-13.852599143981934;-140.1072540283203
261;1673392174.942286;47.1295712;7.2391155;49.81200408935547;1673392175.0243158;-44.749603271484375;-13.81409740447998;-140.09707641601562
262;1673392175.1430457;47.129547099999996;7.239082499999999;49.81800079345703;1673392175.2305202;-45.23544692993164;-13.90557861328125;-140.18789672851562
263;1673392175.3424754;47.1295229;7.239049499999999;49.82600402832031;1673392175.4306843;-45.691646575927734;-13.938855171203613;-140.29026794433594
264;1673392175.5386128;47.1294987;7.2390165;49.8380012512207;1673392175.6260424;-45.777347564697266;-13.84070873260498;-140.4494171142578
265;1673392175.7467973;47.1294744;7.2389833999999995;49.849002838134766;1673392175.8238444;-45.67307662963867;-13.638824462890625;-140.60494995117188
266;1673392175.9367638;47.1294501;7.2389503;49.86000061035156;1673392176.0158596;-45.43086242675781;-14.244632720947266;-140.51637268066406
267;1673392176.1366656;47.1294258;7.2389171999999995;49.87000274658203;1673392176.222235;-45.79494094848633;-17.796659469604492;-140.46807861328125
268;1673392176.3422663;47.1294014;7.2388844;49.88500213623047;1673392176.4223952;-46.11502456665039;-22.47726058959961;-141.1270751953125
269;1673392176.5452073;47.1293766;7.238852199999999;49.9010009765625;1673392176.6294234;-45.21134948730469;-24.46049690246582;-142.5155487060547
270;1673392176.7483141;47.1293515;7.2388208999999994;49.913002014160156;1673392176.8338237;-41.506771087646484;-25.812076568603516;-143.3979949951172
271;1673392176.9489915;47.1293262;7.2387909;49.922000885009766;1673392177.0332243;-28.162681579589844;-26.33719253540039;-143.92787170410156
272;1673392177.1540751;47.1293012;7.238762599999999;49.92900085449219;1673392177.2364202;-7.461506366729736;-24.734888076782227;-142.74742126464844
273;1673392177.3639505;47.1292774;7.238736299999999;49.94600296020508;1673392177.4342587;10.580961227416992;-19.892290115356445;-138.02090454101562
274;1673392177.5500085;47.129255799999996;7.2387125;49.97700119018555;1673392177.6345367;24.5618839263916;-11.673264503479004;-134.1961669921875
275;1673392177.7581294;47.1292373;7.2386913999999996;50.00600051879883;1673392177.8456044;32.540428161621094;-7.15230131149292;-133.49644470214844
276;1673392177.9727535;47.1292219;7.2386726999999995;50.00800323486328;1673392178.0571733;34.40800094604492;-9.488821029663086;-133.9464569091797
277;1673392178.1762614;47.129209499999995;7.2386563;49.961002349853516;1673392178.257014;32.9211540222168;-8.161806106567383;-132.96620178222656
278;1673392178.3756874;47.1291997;7.2386425999999995;49.932003021240234;1673392178.4528723;38.511295318603516;-13.720172882080078;-131.77130126953125
279;1673392178.5577655;47.1291924;7.238631799999999;49.94000244140625;1673392178.6373677;33.03450012207031;-16.693811416625977;-131.48159790039062
280;1673392178.7505178;47.1291867;7.2386235;49.96000289916992;1673392178.8321955;24.113264083862305;-19.944725036621094;-131.6840362548828
281;1673392178.951378;47.129182199999995;7.238616899999999;49.98400115966797;1673392179.0445662;15.343111991882324;-20.8143310546875;-132.18724060058594
282;1673392179.1551511;47.1291782;7.238611199999999;50.01000213623047;1673392179.2430866;10.430500030517578;-21.3051700592041;-133.3336639404297
283;1673392179.3600824;47.129174299999995;7.238605799999999;50.03000259399414;1673392179.4455485;8.29230785369873;-20.59233856201172;-134.02322387695312
284;1673392179.5567005;47.129170599999995;7.2386004999999995;50.038002014160156;1673392179.633879;9.498210906982422;-19.171520233154297;-134.81666564941406
285;1673392179.7618482;47.1291668;7.2385952;50.044002532958984;1673392179.844606;12.171272277832031;-17.43490219116211;-135.49652099609375
286;1673392179.9585238;47.1291632;7.2385896999999995;50.053001403808594;1673392180.0616183;14.989655494689941;-16.994333267211914;-136.22000122070312
287;1673392180.1747081;47.1291598;7.238584299999999;50.06500244140625;1673392180.253435;16.31471824645996;-18.332002639770508;-137.4231719970703
288;1673392180.3720958;47.129156599999995;7.2385791;50.08100128173828;1673392180.4517407;14.823295593261719;-20.308183670043945;-137.88995361328125
289;1673392180.5735452;47.129153599999995;7.2385741999999995;50.1150016784668;1673392180.6591098;-12.743117332458496;-22.264341354370117;-135.75035095214844
290;1673392180.7794445;47.1291502;7.2385686;50.217002868652344;1673392180.8614347;-34.10409927368164;-22.222034454345703;-136.18496704101562
291;1673392180.9826481;47.129145;7.2385608999999995;50.37600326538086;1673392181.065988;-22.855712890625;-10.043082237243652;-138.78477478027344
292;1673392181.1865478;47.1291383;7.238550999999999;50.59100341796875;1673392181.258171;-14.1512451171875;-7.925007343292236;-138.28759765625
293;1673392181.367939;47.1291309;7.238538999999999;50.89400100708008;1673392181.4470258;-23.604310989379883;-28.798105239868164;-137.78897094726562
294;1673392181.5637767;47.1291224;7.238525999999999;51.272003173828125;1673392181.6492229;-23.690208435058594;-29.966285705566406;-139.48663330078125
295;1673392181.7659457;47.129112199999994;7.238512699999999;51.685001373291016;1673392181.849123;-18.178442001342773;-26.964752197265625;-138.31405639648438
296;1673392181.9580295;47.1291011;7.238499399999999;52.105003356933594;1673392182.0411103;-14.382847785949707;-22.629352569580078;-137.97561645507812
297;1673392182.151694;47.1290896;7.238486;52.5260009765625;1673392182.244999;-9.345708847045898;-17.523700714111328;-137.88168334960938
298;1673392182.3870714;47.129078;7.238472499999999;52.94600296020508;1673392182.469121;-5.5676469802856445;-15.09763240814209;-137.32847595214844
299;1673392182.5752473;47.129066699999996;7.2384588;53.36000442504883;1673392182.6510074;-3.5829668045043945;-14.568016052246094;-136.8390350341797
300;1673392182.783082;47.1290559;7.238445199999999;53.76900100708008;1673392182.8637016;-3.4432222843170166;-15.565770149230957;-136.47784423828125
301;1673392182.989336;47.1290456;7.238431599999999;54.173004150390625;1673392183.0645194;-4.331303596496582;-17.219606399536133;-136.11048889160156
302;1673392183.1807187;47.1290358;7.238417999999999;54.57400131225586;1673392183.2618084;-5.016826629638672;-18.831693649291992;-135.9703369140625
303;1673392183.375579;47.1290262;7.2384045;54.97500228881836;1673392183.456143;-5.8416948318481445;-19.708314895629883;-136.0893096923828
304;1673392183.5671327;47.129016799999995;7.2383909;55.37700271606445;1673392183.648843;-6.576573848724365;-20.149763107299805;-136.2476806640625
305;1673392183.757798;47.1290074;7.2383773;55.78000259399414;1673392183.8375285;-7.808424472808838;-19.714853286743164;-136.48126220703125
306;1673392183.9559019;47.1289981;7.2383637;56.18300247192383;1673392184.0376303;-9.091155052185059;-19.296485900878906;-136.80844116210938
307;1673392184.1564357;47.1289886;7.2383501;56.583003997802734;1673392184.248766;-10.125465393066406;-18.6722412109375;-137.03256225585938
308;1673392184.3703468;47.1289789;7.2383365;56.98100280761719;1673392184.455872;-10.760250091552734;-18.4022274017334;-137.00692749023438
309;1673392184.5629075;47.1289692;7.2383228;57.381004333496094;1673392184.6503441;-10.544466018676758;-19.55459976196289;-136.96044921875
310;1673392184.760195;47.1289593;7.2383087999999995;57.78300094604492;1673392184.845717;-10.330906867980957;-20.692169189453125;-136.95974731445312
311;1673392184.9675546;47.128949399999996;7.238294799999999;58.186004638671875;1673392185.047182;-9.311442375183105;-22.337779998779297;-136.91990661621094
312;1673392185.1591566;47.1289394;7.2382808;58.58700180053711;1673392185.233192;-8.778297424316406;-22.573728561401367;-136.8318328857422
313;1673392185.3535128;47.1289294;7.2382668;58.98600387573242;1673392185.4377198;-8.17648983001709;-21.535219192504883;-136.9387664794922
314;1673392185.557535;47.1289192;7.238252999999999;59.38300323486328;1673392185.6412292;-7.676379203796387;-19.79961395263672;-137.09080505371094
315;1673392185.7677178;47.1289091;7.238239399999999;59.78300094604492;1673392185.8584228;-7.541057109832764;-18.91597557067871;-137.19589233398438
316;1673392185.9811826;47.128899;7.2382257999999995;60.18300247192383;1673392186.0629704;-8.051680564880371;-18.341157913208008;-137.1630401611328
317;1673392186.19271;47.128889;7.2382123;60.58400344848633;1673392186.2777886;-8.928669929504395;-18.192453384399414;-136.9022674560547
318;1673392186.3953493;47.128879;7.238198799999999;60.987003326416016;1673392186.472765;-9.37962818145752;-18.574359893798828;-136.69900512695312
319;1673392186.58759;47.128868999999995;7.2381853;61.38900375366211;1673392186.664057;-9.472220420837402;-19.51255989074707;-136.6117706298828
320;1673392186.7771602;47.128859;7.2381717;61.78700256347656;1673392186.8680744;-9.137413024902344;-20.69451332092285;-136.59426879882812
321;1673392186.9874854;47.128848999999995;7.2381581;62.18100357055664;1673392187.084328;-8.862211227416992;-21.280170440673828;-136.59251403808594
322;1673392187.2084723;47.128839;7.2381445;62.57400131225586;1673392187.2907643;-8.342076301574707;-21.164791107177734;-136.67930603027344
323;1673392187.3994327;47.128828899999995;7.2381307999999995;62.96600341796875;1673392187.481466;-8.173144340515137;-20.155838012695312;-136.7874298095703
324;1673392187.5957847;47.1288188;7.2381172;63.358001708984375;1673392187.6631157;-8.102441787719727;-19.298938751220703;-136.9044189453125
325;1673392187.7832534;47.1288087;7.238103499999999;63.75100326538086;1673392187.8606195;-8.344733238220215;-18.082529067993164;-136.9564666748047
326;1673392187.986493;47.128798599999996;7.2380898;64.14900207519531;1673392188.0823414;-8.559250831604004;-17.425161361694336;-136.9581756591797
327;1673392188.194581;47.1287885;7.2380761;64.54700469970703;1673392188.271825;-8.810465812683105;-17.898109436035156;-136.80738830566406
328;1673392188.3829486;47.1287786;7.2380622;64.94499969482422;1673392188.4613166;-9.23830795288086;-18.646177291870117;-136.64187622070312
329;1673392188.582997;47.128768699999995;7.2380483;65.34200286865234;1673392188.6703928;-9.090442657470703;-20.432117462158203;-136.64553833007812
330;1673392188.7852902;47.1287588;7.2380343;65.74100494384766;1673392188.869931;-8.74501895904541;-21.719388961791992;-136.6642303466797
331;1673392188.9875035;47.1287489;7.2380204;66.14200592041016;1673392189.0602582;-8.347286224365234;-22.168519973754883;-136.75103759765625
332;1673392189.1713529;47.128738899999995;7.238006599999999;66.54400634765625;1673392189.2540126;-8.304637908935547;-22.05510139465332;-136.79515075683594
333;1673392189.3702872;47.1287289;7.2379926999999995;66.94600677490234;1673392189.4474356;-7.988720417022705;-21.551227569580078;-136.91636657714844
334;1673392189.5588999;47.128718899999996;7.237978999999999;67.34500122070312;1673392189.6429534;-8.041634559631348;-20.66961097717285;-137.03028869628906
335;1673392189.7645082;47.1287089;7.2379653;67.74300384521484;1673392189.845242;-8.660920143127441;-19.395023345947266;-137.0661163330078
336;1673392189.9740312;47.128698799999995;7.237951799999999;68.13899993896484;1673392190.0585372;-9.023321151733398;-18.849340438842773;-137.1636962890625
337;1673392190.179144;47.1286888;7.2379383;68.53800201416016;1673392190.2706263;-9.492853164672852;-17.696741104125977;-137.1150360107422
338;1673392190.3966699;47.128678699999995;7.2379247;68.93800354003906;1673392190.4769194;-9.268689155578613;-17.807233810424805;-137.08953857421875
339;1673392190.6302714;47.1286687;7.2379109999999995;69.33800506591797;1673392190.7011178;-9.024052619934082;-17.689302444458008;-137.11949157714844
340;1673392190.7962503;47.1286586;7.237897299999999;69.73500061035156;1673392190.8694854;-8.664752006530762;-17.878658294677734;-137.0822296142578
341;1673392190.982208;47.1286486;7.237883399999999;70.13300323486328;1673392191.0618405;-3.0376791954040527;-19.086162567138672;-137.760986328125
342;1673392191.2165036;47.1286388;7.2378696;70.52400207519531;1673392191.2929707;13.5506591796875;-19.396577835083008;-138.5830078125
343;1673392191.3980107;47.1286297;7.2378567;70.88200378417969;1673392191.4811912;16.046815872192383;-19.694185256958008;-137.041259765625
344;1673392191.6011412;47.1286215;7.237845;71.20100402832031;1673392191.6850865;20.70948600769043;-19.234094619750977;-136.50730895996094
345;1673392191.7946403;47.128614299999995;7.237834599999999;71.4800033569336;1673392191.8838017;22.823505401611328;-18.377439498901367;-136.1577911376953
346;1673392192.0005002;47.1286081;7.2378256;71.71700286865234;1673392192.0758073;24.609193801879883;-18.458438873291016;-136.66696166992188
347;1673392192.1953409;47.1286029;7.237818;71.92100524902344;1673392192.2802563;25.773849487304688;-20.14640998840332;-137.6441192626953
348;1673392192.398519;47.1285986;7.2378116;72.09400177001953;1673392192.4814894;25.974214553833008;-21.508501052856445;-138.77743530273438
349;1673392192.5981586;47.1285951;7.237806399999999;72.23600006103516;1673392192.6695755;25.188701629638672;-22.664567947387695;-139.86819458007812
350;1673392192.801647;47.1285923;7.2378022;72.3530044555664;1673392192.8896263;26.966598510742188;-3.6530492305755615;-133.3302001953125
351;1673392192.9943721;47.1285905;7.2377984;72.4520034790039;1673392193.065875;28.657737731933594;10.247881889343262;-122.53128051757812
352;1673392193.1850386;47.1285902;7.2377942;72.5270004272461;1673392193.2656472;23.62693214416504;6.90927791595459;-112.93627166748047
353;1673392193.3862538;47.128591;7.2377895;72.5790023803711;1673392193.4629335;18.80127716064453;7.779038429260254;-103.08500671386719
354;1673392193.5776653;47.1285926;7.2377845;72.6240005493164;1673392193.6612055;16.732397079467773;8.480895042419434;-94.0047836303711
355;1673392193.7812822;47.1285947;7.237779199999999;72.66400146484375;1673392193.8697326;15.744155883789062;8.725435256958008;-85.02806854248047
356;1673392193.9887686;47.1285971;7.2377736;72.69900512695312;1673392194.076246;15.128606796264648;9.765583038330078;-75.64328002929688
357;1673392194.1865203;47.128599799999996;7.2377677;72.73200225830078;1673392194.2588112;14.325864791870117;10.924221992492676;-66.47927856445312
358;1673392194.3687336;47.1286025;7.2377614999999995;72.76399993896484;1673392194.4590623;13.238229751586914;13.14630126953125;-57.256019592285156
359;1673392194.5661504;47.128605199999996;7.237755099999999;72.79400634765625;1673392194.6496496;11.076238632202148;16.246999740600586;-47.775508880615234
360;1673392194.7653673;47.1286079;7.2377486;72.82100677490234;1673392194.8491604;8.005451202392578;20.057327270507812;-40.60953140258789
361;1673392194.9772992;47.1286105;7.2377422;72.85100555419922;1673392195.0583558;5.361587047576904;21.30035400390625;-42.81366729736328
362;1673392195.1795585;47.1286134;7.2377357;72.88400268554688;1673392195.2684593;-21.197917938232422;19.986026763916016;-46.053524017333984
363;1673392195.379285;47.1286172;7.2377283;72.92500305175781;1673392195.458059;-45.65837478637695;13.882719993591309;-44.7623405456543
364;1673392195.5685205;47.128622799999995;7.2377179;72.96700286865234;1673392195.644725;-56.9237060546875;7.654629230499268;-43.90647506713867
365;1673392195.7714531;47.128631;7.2377033;72.98100280761719;1673392195.8567348;-54.54282760620117;6.220617294311523;-44.653350830078125
366;1673392195.9785907;47.1286413;7.2376841999999995;72.97200012207031;1673392196.0665667;-53.81426239013672;6.421741485595703;-43.96438980102539
367;1673392196.1972106;47.1286535;7.2376613;72.95800018310547;1673392196.2760384;-55.54344940185547;8.370174407958984;-43.47198486328125
368;1673392196.3996096;47.1286677;7.2376353;72.94499969482422;1673392196.4821289;-56.05683517456055;9.174260139465332;-42.62080764770508
369;1673392196.5920374;47.128683699999996;7.2376065999999994;72.92900085449219;1673392196.6765044;-54.540321350097656;9.545061111450195;-42.31436538696289
370;1673392196.8115351;47.128701199999995;7.2375755999999996;72.90900421142578;1673392196.9338598;-53.89391326904297;10.665471076965332;-42.576175689697266
371;1673392197.0677655;47.1287197;7.237543499999999;72.7820053100586;1673392197.1510386;-37.95897674560547;7.698901653289795;-40.41069793701172
372;1673392197.2758226;47.128738;7.237511199999999;72.31200408935547;1673392197.361562;-3.8578298091888428;0.7676001787185669;-38.43400573730469
373;1673392197.4622152;47.128755999999996;7.2374792;71.46400451660156;1673392197.5358186;48.16559982299805;-14.084235191345215;-44.65334701538086
374;1673392197.6276875;47.1287739;7.2374471;70.21000671386719;1673392197.697854;70.97409057617188;-144.52992248535156;-168.7703399658203
375;1673392197.8087156;47.128792;7.2374146999999995;68.59200286865234;1673392197.8967907;37.85358810424805;-175.18896484375;164.84677124023438
376;1673392198.0068514;47.128809999999994;7.2373825;66.62300109863281;1673392198.0910356;28.448163986206055;-179.48724365234375;162.78143310546875
377;1673392198.2108836;47.128827699999995;7.2373503999999995;64.29100036621094;1673392198.28882;45.968482971191406;179.37078857421875;161.3167724609375
378;1673392198.4119806;47.128845;7.2373185;61.60400390625;1673392198.4949024;87.31751251220703;4.353942394256592;-15.968405723571777
379;1673392198.6178973;47.1288621;7.2372869;58.564002990722656;1673392198.7299137;18.955928802490234;2.938001871109009;-21.802705764770508
380;1673392198.8368018;47.128879399999995;7.2372551;55.130001068115234;1673392198.9365308;-41.632564544677734;7.671909809112549;-25.83177947998047
381;1673392199.083914;47.1288962;7.2372235;51.31200408935547;1673392199.1568098;-67.50143432617188;12.217157363891602;-30.279592514038086
382;1673392199.2787044;47.1289127;7.2371922;47.17000198364258;1673392199.3588533;-51.96905517578125;5.500674247741699;-23.116046905517578
383;1673392199.4589732;47.1289289;7.2371609999999995;42.7130012512207;1673392199.5399287;2.7621569633483887;1.4377669095993042;-18.423477172851562
384;1673392199.646805;47.1289446;7.2371301;37.875;1673392199.7429018;70.80704498291016;5.069140434265137;-11.786025047302246
385;1673392199.850045;47.1289605;7.2370991;32.656002044677734;1673392199.9217644;75.59943389892578;167.47520446777344;152.2264404296875
386;1673392200.0267901;47.1289764;7.2370684;27.132001876831055;1673392200.1031203;83.92513275146484;43.12826919555664;27.79503059387207
387;1673392200.2131934;47.1289923;7.237037699999999;21.31100082397461;1673392200.2938323;21.784332275390625;3.9941322803497314;-12.17967414855957
388;1673392200.4009204;47.1290085;7.2370068;15.12700080871582;1673392200.4788983;-44.21584701538086;2.8819220066070557;-15.29946231842041
389;1673392200.597982;47.129024199999996;7.236975999999999;8.567000389099121;1673392200.6820014;-61.08405685424805;2.609767436981201;-15.636520385742188
390;1673392200.803766;47.129039399999996;7.236945599999999;1.7190001010894775;1673392200.90987;-16.127960205078125;-8.27616024017334;-14.340071678161621
391;1673392201.0287886;47.1290571;7.2369293;0.2939999997615814;1673392201.1087856;-9.108349800109863;-7.598379135131836;-14.729401588439941
392;1673392201.2179415;47.1290815;7.2369164999999995;0.5139999985694885;1673392201.296206;-22.298084259033203;-5.951329708099365;-12.069416999816895
393;1673392201.3999543;47.129107;7.2369043;0.6460000276565552;1673392201.472857;-18.608564376831055;-11.618642807006836;-12.678810119628906
394;1673392201.5818145;47.1291333;7.236891399999999;0.7270000576972961;1673392201.6507509;-18.581029891967773;-14.486448287963867;-12.49769115447998
395;1673392201.7657652;47.1291605;7.2368776;0.7600000500679016;1673392201.8408234;-18.899351119995117;-14.879142761230469;-12.634217262268066
396;1673392201.9467745;47.1291887;7.236862899999999;0.7570000290870667;1673392202.0218885;-18.852216720581055;-15.067795753479004;-12.679207801818848
397;1673392202.1317904;47.1292177;7.2368473;0.7280000448226929;1673392202.2107635;-18.765968322753906;-15.065434455871582;-12.769396781921387
398;1673392202.3229067;47.1292476;7.2368308;0.6830000281333923;1673392202.40278;-18.67555046081543;-14.97832202911377;-12.838184356689453
399;1673392202.5169277;47.129279399999994;7.2368127;0.6290000081062317;1673392202.5975783;-18.61640739440918;-14.81470012664795;-12.929019927978516
400;1673392202.7142885;47.1293096;7.2367951999999995;0.5710000395774841;1673392202.7957304;-18.51134490966797;-14.650195121765137;-12.99630355834961
401;1673392202.9128091;47.1293418;7.236776099999999;0.5020000338554382;1673392202.9960606;-18.42376136779785;-14.416390419006348;-13.073467254638672
402;1673392203.1128304;47.1293747;7.2367561;0.4270000159740448;1673392203.1964917;-18.332921981811523;-14.166951179504395;-13.148930549621582
403;1673392203.3167622;47.129408399999996;7.236735299999999;0.3490000069141388;1673392203.4088607;-18.22920799255371;-13.872013092041016;-13.205591201782227
404;1673392203.5299993;47.1294427;7.236713699999999;0.2680000066757202;1673392203.6218047;-18.082805633544922;-13.526640892028809;-13.289088249206543
405;1673392203.7327592;47.1294779;7.2366912999999995;0.1680000126361847;1673392203.8109562;-17.977651596069336;-13.200860977172852;-13.373658180236816
406;1673392203.926763;47.1295137;7.2366681999999996;0.06700000166893005;1673392204.007741;-17.84941864013672;-12.898311614990234;-13.447444915771484
407;1673392204.122839;47.1295499;7.236644399999999;-0.021000001579523087;1673392204.2027676;-17.695751190185547;-12.518593788146973;-13.537375450134277
408;1673392204.315986;47.129586599999996;7.2366199;-0.10600000619888306;1673392204.3988235;-17.58263397216797;-12.196080207824707;-13.610815048217773
409;1673392204.5138738;47.1296238;7.2365948;-0.18800000846385956;1673392204.5965624;-17.423112869262695;-11.768481254577637;-13.691043853759766
410;1673392204.7120328;47.129661399999996;7.2365691;-0.26500001549720764;1673392204.7952218;-17.293546676635742;-11.413424491882324;-13.786544799804688
411;1673392204.911939;47.1296995;7.2365428;-0.3450000286102295;1673392204.993854;-17.15154266357422;-10.967238426208496;-13.869269371032715
412;1673392205.1086657;47.129738599999996;7.2365157;-0.45100003480911255;1673392205.1929002;-17.05721092224121;-10.57287883758545;-13.951491355895996
413;1673392205.3120182;47.1297782;7.236488;-0.5610000491142273;1673392205.3989422;-16.903133392333984;-10.166015625;-14.057320594787598
414;1673392205.5157657;47.1298178;7.23646;-0.6460000276565552;1673392205.5979497;-16.749094009399414;-9.80383014678955;-14.141758918762207
415;1673392205.7147188;47.1298576;7.2364317;-0.7150000333786011;1673392205.7968197;-16.607582092285156;-9.32746696472168;-14.261300086975098
416;1673392205.9134579;47.129897799999995;7.236402999999999;-0.7760000228881836;1673392205.9966757;-16.460556030273438;-8.986835479736328;-14.353117942810059
417;1673392206.114058;47.1299383;7.236373899999999;-0.8260000348091125;1673392206.1966481;-16.277761459350586;-8.614283561706543;-14.46694278717041
418;1673392206.313905;47.1299547;7.236362;-0.9110000729560852;1673392206.397857;-16.18762969970703;-8.309792518615723;-14.521379470825195
