;pos_time;latitude;longitude;altitude;alt_time;pitch;roll;yaw
0;1673389476.25819;47.1306424;7.24062;-0.05300000309944153;1673389476.2611177;-0.1427636295557022;-0.1667407900094986;90.50618743896484
1;1673389476.4594495;47.1306424;7.24062;-0.05000000074505806;1673389476.4623787;0.01502378098666668;-0.18547622859477997;90.31968688964844
2;1673389476.646402;47.1306424;7.2406198999999996;-0.04700000211596489;1673389476.6483636;0.10058548301458359;-0.05340322107076645;90.33430480957031
3;1673389476.8631098;47.1306424;7.2406198999999996;-0.0430000014603138;1673389476.866028;-0.11339397728443146;0.09744377434253693;90.53459930419922
4;1673389477.0449562;47.1306425;7.2406198999999996;-0.03700000047683716;1673389477.0498428;-0.1267022043466568;0.07095009088516235;90.40895080566406
5;1673389477.2369823;47.1306425;7.2406198999999996;-0.03700000047683716;1673389477.240886;-0.07269065082073212;-0.041291143745183945;90.47428894042969
6;1673389477.4199169;47.1306425;7.240619799999999;-0.03500000014901161;1673389477.42187;-0.1031608134508133;-0.030985448509454727;90.45405578613281
7;1673389477.6212804;47.1306425;7.2406198999999996;0.004000000189989805;1673389477.6242113;-0.1363104283809662;-0.303314745426178;90.35747528076172
8;1673389477.8303518;47.1306425;7.2406198999999996;0.003000000026077032;1673389477.8342552;0.20850859582424164;-0.3889707922935486;90.41822052001953
9;1673389478.0325015;47.1306425;7.2406198999999996;0.0020000000949949026;1673389478.0364037;-0.14699243009090424;-0.44397643208503723;90.45812225341797
10;1673389478.214421;47.1306425;7.2406198999999996;0.0;1673389478.216373;-0.10288741439580917;-0.3511945605278015;90.44542694091797
11;1673389478.405349;47.1306425;7.2406198999999996;-0.006000000052154064;1673389478.4095027;-0.21737831830978394;-0.5054745078086853;90.42586517333984
12;1673389478.589718;47.1306425;7.2406198999999996;-0.012000000104308128;1673389478.5926569;-0.1660194844007492;-0.4028547406196594;90.24517059326172
13;1673389478.793239;47.130642599999995;7.2406198999999996;-0.01900000125169754;1673389478.7971268;-0.23251593112945557;-0.6844871640205383;90.30374908447266
14;1673389479.0285504;47.130642599999995;7.2406198999999996;-0.01900000125169754;1673389479.032502;-0.11506114900112152;-0.2064734548330307;90.49481201171875
15;1673389479.2134185;47.130642599999995;7.240619799999999;0.0;1673389479.216348;-0.10067673027515411;-0.3533725142478943;90.23369598388672
16;1673389479.409547;47.1306425;7.2406198999999996;0.003000000026077032;1673389479.4124885;-0.12816894054412842;-0.9580944776535034;90.39258575439453
17;1673389479.6035914;47.1306425;7.24062;0.009000000543892384;1673389479.6074889;-0.2389872968196869;-0.28193747997283936;90.33016967773438
18;1673389479.8066127;47.130642599999995;7.24062;0.01100000087171793;1673389479.8096433;-0.15292204916477203;0.20747213065624237;90.47699737548828
19;1673389480.004503;47.1306425;7.24062;0.00800000037997961;1673389480.008437;-0.14660735428333282;-0.5419480204582214;90.43389892578125
20;1673389480.2088187;47.1306425;7.24062;0.015000000596046448;1673389480.211751;-0.2325906604528427;-0.13370071351528168;90.56362915039062
21;1673389480.4029853;47.1306425;7.24062;0.020000001415610313;1673389480.4068787;-0.2664671838283539;-0.4120445251464844;90.77318572998047
22;1673389480.6116881;47.1306425;7.24062;0.015000000596046448;1673389480.6136408;-0.059170812368392944;-0.058888599276542664;90.86907958984375
23;1673389480.8196306;47.130642599999995;7.24062;0.013000000268220901;1673389480.8225567;-0.09881918132305145;-0.1486184149980545;91.31283569335938
24;1673389481.0236382;47.130642599999995;7.24062;0.010000000707805157;1673389481.025592;-0.056201715022325516;-0.267975389957428;91.80269622802734
25;1673389481.2065332;47.1306428;7.2406201999999995;0.010000000707805157;1673389481.2094958;0.9091120958328247;1.0636606216430664;93.03214263916016
26;1673389481.4088078;47.1306429;7.2406204999999995;0.024000000208616257;1673389481.4107764;3.5812268257141113;4.259976387023926;92.8201675415039
27;1673389481.6194384;47.130643;7.240620799999999;0.04100000113248825;1673389481.6235433;8.39565372467041;7.682433128356934;92.19673919677734
28;1673389481.8196409;47.1306431;7.240621;0.07400000095367432;1673389481.822591;10.132204055786133;8.288414001464844;91.92450714111328
29;1673389482.0114486;47.1306431;7.240621;0.13100001215934753;1673389482.0153546;8.707733154296875;9.828492164611816;91.45719146728516
30;1673389482.2206836;47.1306431;7.2406209;0.2070000171661377;1673389482.225564;7.596738338470459;5.372751712799072;90.80186462402344
31;1673389482.4125953;47.1306431;7.2406207;0.2930000126361847;1673389482.41553;7.405941963195801;5.277780055999756;90.38936614990234
32;1673389482.5921073;47.1306431;7.2406206;0.39400002360343933;1673389482.5950723;7.658639430999756;9.35824966430664;90.25690460205078
33;1673389482.7801392;47.1306429;7.2406204;0.5100000500679016;1673389482.7840462;7.989393711090088;7.061607837677002;89.78929901123047
34;1673389482.9764175;47.130642699999996;7.2406201999999995;0.64000004529953;1673389482.9793468;7.88616943359375;3.6690573692321777;88.73493194580078
35;1673389483.1795886;47.130642599999995;7.24062;0.784000039100647;1673389483.1825504;8.347784996032715;6.429876327514648;88.10427856445312
36;1673389483.4010184;47.130642599999995;7.2406198999999996;0.9440000653266907;1673389483.4039476;6.743679046630859;6.75954532623291;88.2498779296875
37;1673389483.6259878;47.130642599999995;7.2406197;1.1170001029968262;1673389483.6289227;6.5677876472473145;3.836440324783325;88.34893035888672
38;1673389483.8218775;47.1306425;7.2406196;1.2970000505447388;1673389483.825782;6.561496734619141;6.514781475067139;88.26937866210938
39;1673389484.0184162;47.1306425;7.2406196;1.4830000400543213;1673389484.02037;7.151705741882324;8.283703804016113;87.96658325195312
40;1673389484.2329383;47.1306424;7.2406196;1.6690000295639038;1673389484.2348876;7.733470916748047;3.51143217086792;87.6742172241211
41;1673389484.4342089;47.1306423;7.2406197;1.8580000400543213;1673389484.4361365;8.249429702758789;4.345483303070068;86.7278823852539
42;1673389484.6344445;47.1306423;7.2406196;2.055000066757202;1673389484.6363986;7.880999565124512;7.708305835723877;86.3510971069336
43;1673389484.8181858;47.1306424;7.2406196;2.252000093460083;1673389484.8211205;7.339592933654785;4.3559346199035645;86.22869873046875
44;1673389485.007738;47.130642599999995;7.2406196;2.444000005722046;1673389485.0106652;7.30327844619751;4.992504596710205;86.03726959228516
45;1673389485.2166908;47.130642599999995;7.2406196;2.638000011444092;1673389485.2215827;7.501871109008789;8.899736404418945;85.79682922363281
46;1673389485.410835;47.130642599999995;7.2406197;2.8330001831054688;1673389485.4137785;8.33382797241211;5.000513553619385;85.51666259765625
47;1673389485.5987947;47.1306424;7.240619799999999;3.0290000438690186;1673389485.6017277;8.483826637268066;3.1754136085510254;85.26466369628906
48;1673389485.7937183;47.1306424;7.2406197;3.2310001850128174;1673389485.797619;8.096640586853027;7.764925003051758;85.69319152832031
49;1673389486.0051126;47.1306425;7.2406197;3.43500018119812;1673389486.0080342;7.718059539794922;6.165283203125;86.13662719726562
50;1673389486.2124288;47.1306425;7.2406196;3.636000156402588;1673389486.2153654;7.2968034744262695;3.453774929046631;86.21820068359375
51;1673389486.3984303;47.1306424;7.2406196;3.8310000896453857;1673389486.4028711;7.1170654296875;6.327460765838623;86.00806427001953
52;1673389486.6309896;47.1306424;7.2406197;4.023000240325928;1673389486.6339214;7.4355244636535645;7.413204193115234;85.82821655273438
53;1673389486.8812037;47.1306423;7.240619799999999;4.220000267028809;1673389486.8841324;8.058648109436035;2.6185455322265625;85.6171646118164
54;1673389487.0716422;47.1306423;7.2406198999999996;4.422000408172607;1673389487.0755467;8.090546607971191;5.398545742034912;85.54753875732422
55;1673389487.2436483;47.1306424;7.2406198999999996;4.625;1673389487.246576;8.252593994140625;7.934102535247803;85.85076904296875
56;1673389487.430621;47.1306425;7.2406198999999996;4.830000400543213;1673389487.4325857;8.228494644165039;4.292557239532471;86.02269744873047
57;1673389487.6319304;47.130642599999995;7.2406198999999996;5.03000020980835;1673389487.633874;7.770639896392822;5.355863094329834;85.79389190673828
58;1673389487.8222733;47.130642599999995;7.2406198999999996;5.2310004234313965;1673389487.8251932;7.675115585327148;8.705093383789062;85.76698303222656
59;1673389488.085052;47.130642599999995;7.2406198999999996;5.432000160217285;1673389488.0870047;7.4880547523498535;4.866581916809082;85.83390808105469
60;1673389488.2499804;47.1306425;7.2406198999999996;5.629000186920166;1673389488.2519329;7.493895530700684;3.2800533771514893;85.79493713378906
61;1673389488.435926;47.1306425;7.2406198999999996;5.827000141143799;1673389488.4378874;7.696942329406738;8.124249458312988;85.88259887695312
62;1673389488.6166098;47.130642699999996;7.2406198999999996;6.034000396728516;1673389488.6195378;8.419864654541016;7.154568672180176;85.81814575195312
63;1673389488.8121626;47.130642699999996;7.2406198999999996;6.238000392913818;1673389488.8160715;8.492276191711426;4.091920375823975;85.67835998535156
64;1673389489.013911;47.130642599999995;7.24062;6.437000274658203;1673389489.015863;7.922491550445557;6.746138095855713;85.56886291503906
65;1673389489.2015464;47.1306425;7.2406198999999996;6.639000415802002;1673389489.205016;7.615154266357422;7.4758620262146;85.75067138671875
66;1673389489.4082048;47.1306424;7.2406198999999996;6.840000152587891;1673389489.413101;7.1139235496521;3.210087537765503;86.10148620605469
67;1673389489.6048243;47.1306424;7.2406198999999996;7.044000148773193;1673389489.6077573;7.218198299407959;5.559491157531738;86.25021362304688
68;1673389489.7976778;47.1306424;7.2406198999999996;7.246000289916992;1673389489.8006167;7.815217971801758;8.354276657104492;86.03181457519531
69;1673389490.0100522;47.1306425;7.240619799999999;7.448000431060791;1673389490.0207882;8.231304168701172;4.231812477111816;85.62459564208984
70;1673389490.2191424;47.1306425;7.240619799999999;7.645000457763672;1673389490.2210944;8.062015533447266;4.935683727264404;85.42057800292969
71;1673389490.4203033;47.130642599999995;7.240619799999999;7.8460001945495605;1673389490.4242082;7.890777111053467;8.600769996643066;85.550048828125
72;1673389490.6066892;47.1306425;7.240619799999999;8.046000480651855;1673389490.6096172;7.234822750091553;4.724946022033691;85.93366241455078
73;1673389490.8092487;47.1306424;7.240619799999999;8.247000694274902;1673389490.811195;7.067244052886963;3.883066415786743;86.33621978759766
74;1673389491.008829;47.1306424;7.240619799999999;8.45300006866455;1673389491.010766;7.339813709259033;8.677967071533203;86.23371887207031
75;1673389491.1834252;47.1306425;7.240619799999999;8.657999992370605;1673389491.1863675;7.573216915130615;6.103042125701904;85.74848175048828
76;1673389491.385217;47.1306424;7.240619799999999;8.858000755310059;1673389491.3881462;8.16176700592041;3.2137391567230225;85.5494155883789
77;1673389491.5815582;47.1306424;7.240619799999999;9.055000305175781;1673389491.584489;8.097793579101562;7.074215412139893;85.61454772949219
78;1673389491.7930748;47.1306424;7.240619799999999;9.253000259399414;1673389491.7960234;8.008203506469727;6.946558952331543;85.71449279785156
79;1673389492.0018167;47.1306424;7.240619799999999;9.454000473022461;1673389492.005707;7.154263973236084;2.6567704677581787;85.93152618408203
80;1673389492.206006;47.1306424;7.240619799999999;9.660000801086426;1673389492.2099497;7.000468730926514;6.811085224151611;86.10901641845703
81;1673389492.4093685;47.130642599999995;7.240619799999999;9.863000869750977;1673389492.4122767;7.2465596199035645;8.183453559875488;85.90716552734375
82;1673389492.6065314;47.130642699999996;7.2406198999999996;10.066000938415527;1673389492.6075068;7.8385186195373535;4.210452079772949;85.72806549072266
83;1673389492.8019142;47.130642699999996;7.2406198999999996;10.293000221252441;1673389492.8077543;7.993330001831055;5.70127534866333;86.06432342529297
84;1673389493.014411;47.130642599999995;7.240619799999999;10.62600040435791;1673389493.0183165;8.599523544311523;11.108561515808105;86.37651062011719
85;1673389493.2376554;47.1306423;7.2406197;11.00100040435791;1673389493.2396145;8.341726303100586;6.50527286529541;86.16166687011719
86;1673389493.4209101;47.1306419;7.240619499999999;11.393000602722168;1673389493.4238336;7.150632381439209;3.6345551013946533;86.04842376708984
87;1673389493.6264272;47.1306417;7.2406194;11.792000770568848;1673389493.6293411;6.665521621704102;7.233139991760254;85.81507873535156
88;1673389493.8438528;47.1306416;7.2406194;12.193000793457031;1673389493.8477583;6.869899749755859;4.602113723754883;85.40699005126953
89;1673389494.0206366;47.130641399999995;7.2406194;12.595000267028809;1673389494.024539;7.263760566711426;1.6374410390853882;85.61908721923828
90;1673389494.1952279;47.130641399999995;7.2406194;12.995000839233398;1673389494.200102;7.276938438415527;5.247070789337158;85.88090515136719
91;1673389494.3973403;47.130641499999996;7.240619499999999;13.398000717163086;1673389494.4012477;7.316778182983398;6.707715034484863;86.13966369628906
92;1673389494.6171937;47.130641499999996;7.240619499999999;13.79900074005127;1673389494.6210976;7.052559852600098;2.4891061782836914;86.04634094238281
93;1673389494.8104765;47.1306417;7.240619499999999;14.206000328063965;1673389494.8139334;6.977930068969727;6.02203369140625;85.92831420898438
94;1673389494.9846005;47.130641999999995;7.2406196;14.611001014709473;1673389494.9875386;6.999057292938232;8.011042594909668;85.9007339477539
95;1673389495.1850388;47.1306422;7.2406197;15.015000343322754;1673389495.1889448;7.609030246734619;4.332470893859863;85.73444366455078
96;1673389495.4026904;47.1306423;7.2406197;15.417000770568848;1673389495.436556;7.617259502410889;5.8268632888793945;85.85800170898438
97;1673389495.6248462;47.1306423;7.2406197;15.82300090789795;1673389495.6277976;7.896848201751709;8.798572540283203;86.13455200195312
98;1673389495.8437471;47.1306423;7.240619799999999;16.22800064086914;1673389495.8456998;7.8792219161987305;5.076526641845703;85.93798065185547
99;1673389496.080317;47.1306422;7.2406197;16.638999938964844;1673389496.0832434;7.524188995361328;4.337736129760742;85.7762222290039
100;1673389496.2764962;47.1306423;7.240619799999999;17.051000595092773;1673389496.2784534;7.245987415313721;8.304463386535645;85.92634582519531
101;1673389496.4413996;47.1306423;7.240619799999999;17.461000442504883;1673389496.4433599;7.404291152954102;5.898992538452148;85.85267639160156
102;1673389496.633586;47.1306422;7.240619799999999;17.865001678466797;1673389496.6355565;7.353814125061035;3.3824448585510254;85.82723236083984
103;1673389496.8172598;47.130642099999996;7.240619799999999;18.269001007080078;1673389496.8201897;7.341064929962158;7.08398962020874;86.00968170166016
104;1673389496.989849;47.130642099999996;7.240619799999999;18.68000030517578;1673389496.9927778;7.835015296936035;6.540694713592529;86.01103973388672
105;1673389497.1923044;47.130641999999995;7.240619799999999;19.093000411987305;1673389497.195221;7.806777000427246;2.833519458770752;85.7236328125
106;1673389497.3966959;47.130642099999996;7.240619799999999;19.506000518798828;1673389497.3996134;7.460468292236328;6.448768615722656;85.74826049804688
107;1673389497.5997703;47.1306422;7.240619799999999;19.926000595092773;1673389497.6017172;7.3305206298828125;7.608183860778809;85.93614196777344
108;1673389497.7990656;47.1306423;7.240619799999999;20.345001220703125;1673389497.8029718;7.439306735992432;3.863448143005371;85.93622589111328
109;1673389498.0177436;47.1306424;7.2406198999999996;20.755001068115234;1673389498.022217;7.453949928283691;5.7181596755981445;85.90276336669922
110;1673389498.2108324;47.1306424;7.2406198999999996;21.16400146484375;1673389498.214736;7.645860195159912;8.432969093322754;86.00312042236328
111;1673389498.4070523;47.1306424;7.2406198999999996;21.57200050354004;1673389498.40998;7.826700687408447;4.16343355178833;85.97750091552734
112;1673389498.6193714;47.1306424;7.2406198999999996;21.98000144958496;1673389498.6238096;7.813045501708984;4.288315773010254;85.71105194091797
113;1673389498.8228471;47.1306425;7.2406198999999996;22.38800048828125;1673389498.826752;7.609997272491455;8.48772144317627;85.81554412841797
114;1673389499.0069218;47.130642599999995;7.240619799999999;22.786001205444336;1673389499.0098512;7.585244655609131;5.751235485076904;86.00798034667969
115;1673389499.2095556;47.130642599999995;7.240619799999999;23.184001922607422;1673389499.2134976;7.524022579193115;4.084425926208496;85.98951721191406
116;1673389499.4259348;47.1306425;7.240619799999999;23.578001022338867;1673389499.42985;7.554189682006836;7.402595520019531;85.83648681640625
117;1673389499.6349134;47.1306425;7.240619799999999;23.97800064086914;1673389499.6388292;7.615776538848877;6.775144100189209;85.93008422851562
118;1673389499.824069;47.1306424;7.2406197;24.37900161743164;1673389499.827007;7.615102767944336;3.187335252761841;85.87014770507812
119;1673389500.0121408;47.1306424;7.2406197;24.783000946044922;1673389500.013117;7.414905071258545;6.369184494018555;85.75792694091797
120;1673389500.214593;47.1306425;7.240619499999999;25.192001342773438;1673389500.2184982;7.285407066345215;7.455605506896973;85.84269714355469
121;1673389500.3944302;47.130642599999995;7.240619499999999;25.59600067138672;1673389500.398335;7.34006929397583;4.049276828765869;85.96358489990234
122;1673389500.5820847;47.130642699999996;7.240619499999999;25.99100112915039;1673389500.5850232;7.197056293487549;6.02232551574707;85.89924621582031
123;1673389500.7765691;47.130642699999996;7.240619499999999;26.389001846313477;1673389500.7804723;7.444253444671631;8.319596290588379;85.85955047607422
124;1673389500.9994655;47.130642699999996;7.240619499999999;26.78700065612793;1673389501.0023954;7.538644790649414;4.089155197143555;85.92483520507812
125;1673389501.220749;47.130642699999996;7.2406196;27.187002182006836;1673389501.2246912;7.602583885192871;4.748104095458984;85.90446472167969
126;1673389501.4186623;47.130642699999996;7.2406196;27.588001251220703;1673389501.4215906;7.600769996643066;8.636445999145508;85.89508056640625
127;1673389501.6131475;47.1306428;7.2406196;27.994001388549805;1673389501.617052;7.710906505584717;6.0275092124938965;85.9772720336914
128;1673389501.8148892;47.1306428;7.2406196;28.3960018157959;1673389501.817834;7.700734615325928;4.247097969055176;85.95997619628906
129;1673389502.018869;47.130642699999996;7.2406196;28.79100227355957;1673389502.0217957;7.634288787841797;7.915381908416748;85.92609405517578
130;1673389502.2489257;47.130642599999995;7.2406196;29.190000534057617;1673389502.2499018;7.563927173614502;6.185879707336426;85.7833023071289
131;1673389502.4420843;47.130642599999995;7.2406196;29.595001220703125;1673389502.4449997;7.3464674949646;3.2877047061920166;85.83985137939453
132;1673389502.6326587;47.130642599999995;7.2406196;30.009000778198242;1673389502.636562;7.132907390594482;7.366789817810059;85.90894317626953
133;1673389502.824589;47.130642699999996;7.2406196;30.41600227355957;1673389502.8280473;7.560272693634033;7.605157375335693;85.798828125
134;1673389503.025538;47.130642699999996;7.2406196;30.819002151489258;1673389503.0299673;7.584099292755127;3.7919816970825195;85.76354217529297
135;1673389503.2121024;47.130642699999996;7.2406197;31.21200180053711;1673389503.215056;7.728696823120117;6.035802364349365;85.99755859375
136;1673389503.401665;47.130642699999996;7.2406197;31.60900115966797;1673389503.4045935;7.74153995513916;8.161517143249512;85.95987701416016
137;1673389503.6097698;47.130642599999995;7.2406197;32.00600051879883;1673389503.6146715;7.6100358963012695;3.9598159790039062;85.84103393554688
138;1673389503.8142285;47.130642599999995;7.2406197;32.40800094604492;1673389503.817157;7.436983585357666;5.018963813781738;85.94368743896484
139;1673389504.0070343;47.130642599999995;7.2406196;32.810001373291016;1673389504.008971;7.234927654266357;8.586891174316406;85.94779205322266
140;1673389504.2114162;47.130642699999996;7.2406197;33.20900344848633;1673389504.2143612;7.687305927276611;4.989163875579834;85.7587890625
141;1673389504.42106;47.130642699999996;7.2406197;33.60700225830078;1673389504.4249508;7.574005126953125;4.436164855957031;85.92642211914062
142;1673389504.632961;47.130642599999995;7.2406197;33.999000549316406;1673389504.6358962;7.569946765899658;7.702223777770996;86.09632110595703
143;1673389504.8125732;47.1306425;7.2406197;34.39900207519531;1673389504.8155084;7.647220134735107;5.736819744110107;86.00999450683594
144;1673389504.9925113;47.1306425;7.2406197;34.803001403808594;1673389504.9944634;7.538192272186279;3.5786173343658447;85.82098388671875
145;1673389505.207334;47.1306425;7.2406197;35.20900344848633;1673389505.2122145;7.247717380523682;7.6983160972595215;85.85574340820312
146;1673389505.405525;47.130642599999995;7.2406197;35.611000061035156;1673389505.4084744;7.234521389007568;6.990684509277344;85.78076934814453
147;1673389505.616913;47.130642699999996;7.2406196;36.012001037597656;1673389505.618866;7.252287864685059;3.93068790435791;85.73322296142578
148;1673389505.8248765;47.130642699999996;7.2406196;36.40500259399414;1673389505.826821;7.419092178344727;6.196937561035156;85.9438705444336
149;1673389506.0177972;47.130642699999996;7.2406197;36.80600357055664;1673389506.020743;7.656274318695068;8.274759292602539;86.16397094726562
150;1673389506.21683;47.130642599999995;7.2406197;37.211002349853516;1673389506.2187476;7.750599384307861;3.778592348098755;85.83540344238281
151;1673389506.4265451;47.130642699999996;7.2406197;37.61600112915039;1673389506.4304504;7.625637054443359;4.390587329864502;85.65768432617188
152;1673389506.6383111;47.1306428;7.2406196;38.018001556396484;1673389506.6412115;7.236422061920166;8.520734786987305;85.85551452636719
153;1673389506.839855;47.1306429;7.2406196;38.419002532958984;1673389506.842783;7.120108604431152;5.241280555725098;85.98882293701172
154;1673389507.031851;47.1306429;7.2406196;38.819000244140625;1673389507.0353136;7.104306697845459;4.688309192657471;85.94332885742188
155;1673389507.2174046;47.1306429;7.2406197;39.20900344848633;1673389507.2203205;7.393545150756836;8.368391036987305;85.98888397216797
156;1673389507.4009004;47.1306428;7.2406197;39.60300064086914;1673389507.4028547;7.704503536224365;5.876443386077881;86.03913116455078
157;1673389507.6014457;47.1306428;7.2406197;39.99700164794922;1673389507.6045156;7.726439476013184;3.56742262840271;85.77694702148438
158;1673389507.810684;47.1306428;7.2406197;40.39600372314453;1673389507.8145883;7.66463565826416;7.716409206390381;85.75271606445312
159;1673389508.0241296;47.130643;7.2406197;40.79500198364258;1673389508.0270598;7.555689811706543;6.957817554473877;85.91529083251953
160;1673389508.2219517;47.130643;7.240619799999999;41.189002990722656;1673389508.2258565;7.482450485229492;4.034763336181641;85.88297271728516
161;1673389508.4233537;47.130643;7.240619799999999;41.57500076293945;1673389508.426297;7.342768669128418;6.845912933349609;85.76615142822266
162;1673389508.621704;47.1306429;7.240619799999999;41.96500015258789;1673389508.6256077;7.429442882537842;8.553464889526367;85.9002456665039
163;1673389508.818193;47.1306429;7.2406198999999996;42.35200119018555;1673389508.8221269;7.792315483093262;3.78934383392334;85.90340423583984
164;1673389509.007042;47.1306429;7.2406198999999996;42.74500274658203;1673389509.0089943;7.733827114105225;5.906318664550781;85.91487884521484
165;1673389509.2153063;47.130643;7.2406198999999996;43.1410026550293;1673389509.2182305;7.89688777923584;8.409618377685547;85.94031524658203
166;1673389509.4039123;47.130643;7.2406198999999996;43.53900146484375;1673389509.4068394;7.818304538726807;4.808358669281006;85.87983703613281
167;1673389509.6009972;47.130643;7.2406198999999996;43.93100357055664;1673389509.6049016;7.54348611831665;5.0241875648498535;85.8599853515625
168;1673389509.7987902;47.1306429;7.2406198999999996;44.31500244140625;1673389509.8026938;7.473421096801758;8.278558731079102;85.8575668334961
169;1673389510.0011187;47.1306428;7.2406198999999996;44.702003479003906;1673389510.0050228;7.647474765777588;4.960660457611084;85.86956024169922
170;1673389510.2173715;47.130642699999996;7.2406198999999996;45.09600067138672;1673389510.2212715;7.551206588745117;3.837554454803467;85.93901824951172
171;1673389510.4094942;47.1306428;7.240619799999999;45.492000579833984;1673389510.413399;7.347362995147705;8.018292427062988;86.03166198730469
172;1673389510.610667;47.1306429;7.240619799999999;45.88600158691406;1673389510.6126273;7.6075758934021;6.445363521575928;85.87865447998047
173;1673389510.817749;47.1306429;7.2406197;46.277000427246094;1673389510.8197067;7.478941440582275;3.983713150024414;85.79656219482422
174;1673389511.0853088;47.1306428;7.240619799999999;46.659000396728516;1673389511.0872617;7.434566497802734;6.892744541168213;85.86548614501953
175;1673389511.25883;47.130642699999996;7.240619799999999;47.04500198364258;1673389511.260781;7.341240406036377;7.450124263763428;85.95512390136719
176;1673389511.4825275;47.130642699999996;7.240619799999999;47.43300247192383;1673389511.5089245;7.657689094543457;3.154690742492676;85.88090515136719
177;1673389511.6885493;47.130642699999996;7.2406197;47.82600402832031;1673389511.6914785;7.491275787353516;6.4689249992370605;85.94705200195312
178;1673389511.879385;47.1306428;7.2406197;48.20600128173828;1673389511.8833194;7.6736016273498535;8.804882049560547;85.86115264892578
179;1673389512.0444255;47.1306429;7.2406197;48.54300308227539;1673389512.0463772;7.260505199432373;4.171623706817627;85.58123779296875
180;1673389512.2403114;47.1306429;7.240619799999999;48.83000183105469;1673389512.242809;7.281775951385498;5.315422058105469;85.68966674804688
181;1673389512.4309728;47.1306429;7.2406198999999996;49.05800247192383;1673389512.4339013;7.573576927185059;8.217439651489258;85.68830108642578
182;1673389512.627323;47.1306429;7.24062;49.25300216674805;1673389512.6312294;7.725752830505371;3.9359543323516846;85.74227905273438
183;1673389512.8130455;47.130643;7.2406201;49.41800308227539;1673389512.8159723;14.192020416259766;9.603259086608887;86.66366577148438
184;1673389513.016545;47.1306428;7.240619499999999;49.566001892089844;1673389513.0194705;29.263193130493164;28.97921371459961;96.80936431884766
185;1673389513.2131286;47.130641499999996;7.2406169;49.70100402832031;1673389513.2160347;34.155696868896484;44.58843231201172;107.76217651367188
186;1673389513.4084156;47.1306383;7.2406111;49.81200408935547;1673389513.4113142;30.713220596313477;54.0712890625;116.54331970214844
187;1673389513.608586;47.1306327;7.2406017;49.88500213623047;1673389513.6115162;15.787166595458984;59.27122497558594;126.69340515136719
188;1673389513.8129303;47.130624999999995;7.2405896;49.928001403808594;1673389513.8158584;-3.4450643062591553;55.9173469543457;137.44131469726562
189;1673389514.011382;47.130615899999995;7.2405754;49.95100402832031;1673389514.0143282;-17.67661476135254;51.134422302246094;147.22625732421875
190;1673389514.2020261;47.130605499999994;7.2405601;49.95000076293945;1673389514.2049534;-29.140539169311523;44.82804870605469;158.648681640625
191;1673389514.3999174;47.130593999999995;7.240543499999999;49.93800354003906;1673389514.402852;-40.96718978881836;41.52924728393555;169.6520538330078
192;1673389514.611393;47.1305814;7.2405254;49.922000885009766;1673389514.615298;-48.501773834228516;37.06166458129883;-177.45594787597656
193;1673389514.8114278;47.130567899999996;7.2405059;49.87900161743164;1673389514.8153126;-46.21037292480469;26.715700149536133;-167.6922607421875
194;1673389514.9981673;47.130554;7.2404855999999995;49.816001892089844;1673389515.0020726;-44.60823440551758;21.22493553161621;-162.49691772460938
195;1673389515.183013;47.130539899999995;7.2404649;49.76400375366211;1673389515.1859384;-46.705902099609375;17.013334274291992;-156.1195068359375
196;1673389515.3973703;47.1305256;7.2404436;49.71900177001953;1673389515.4032245;-46.33674240112305;11.442819595336914;-147.8472442626953
197;1673389515.6337264;47.1305111;7.240422;49.689002990722656;1673389515.637641;-45.956783294677734;7.060544490814209;-140.6494598388672
198;1673389515.8421211;47.1304966;7.2404001;49.68100357055664;1673389515.847982;-47.402767181396484;1.436856985092163;-134.19056701660156
199;1673389516.0279052;47.130482099999995;7.240378;49.676002502441406;1673389516.029861;-48.1756591796875;-4.893059730529785;-130.86888122558594
200;1673389516.2127938;47.1304673;7.240355999999999;49.6660041809082;1673389516.2157214;-48.461029052734375;-5.561001300811768;-133.49508666992188
201;1673389516.4049857;47.1304521;7.2403341999999995;49.660003662109375;1673389516.40889;-47.00288772583008;-4.137442111968994;-136.2133331298828
202;1673389516.6036272;47.1304367;7.2403128;49.663002014160156;1673389516.6065657;-47.32377624511719;-3.327927589416504;-137.09268188476562
203;1673389516.7988803;47.1304209;7.2402918;49.68300247192383;1673389516.801808;-48.20869827270508;-1.9704409837722778;-137.8116455078125
204;1673389517.0047808;47.130404999999996;7.2402709;49.704002380371094;1673389517.008686;-48.83589172363281;-0.7277580499649048;-138.30628967285156
205;1673389517.207833;47.1303888;7.24025;49.730003356933594;1673389517.2127044;-49.57917022705078;0.16977088153362274;-138.6421661376953
206;1673389517.4100947;47.1303724;7.240228999999999;49.750003814697266;1673389517.4139996;-49.70186996459961;0.7169422507286072;-138.69610595703125
207;1673389517.6085632;47.1303559;7.2402079;49.755001068115234;1673389517.6134436;-48.767433166503906;0.7068324685096741;-138.42051696777344
208;1673389517.8248527;47.130339299999996;7.2401868;49.762001037597656;1673389517.8277814;-47.72207260131836;0.7794683575630188;-138.3056182861328
209;1673389518.0474064;47.1303227;7.2401656;49.77000045776367;1673389518.0503323;-47.660606384277344;0.7303404808044434;-138.08798217773438
210;1673389518.2503886;47.1303061;7.2401443;49.77700424194336;1673389518.2540045;-48.098262786865234;0.6600993275642395;-137.9252166748047
211;1673389518.4370844;47.130289499999996;7.240123;49.788002014160156;1673389518.4400167;-48.366241455078125;0.6184994578361511;-137.79296875
212;1673389518.6242867;47.130272999999995;7.2401016;49.79600143432617;1673389518.6281867;-48.47111511230469;0.5745047926902771;-137.66775512695312
213;1673389518.8271112;47.130256499999994;7.2400801999999995;49.794002532958984;1673389518.8329656;-47.8940315246582;0.5181587338447571;-137.50833129882812
214;1673389519.0540674;47.1302399;7.240058599999999;49.797000885009766;1673389519.056043;-47.40528869628906;0.4559811055660248;-137.40945434570312
215;1673389519.2404063;47.1302234;7.240037;49.807003021240234;1673389519.244302;-47.91053771972656;0.45172035694122314;-137.3473663330078
216;1673389519.4330168;47.1302069;7.2400154;49.820003509521484;1673389519.435946;-48.71171188354492;0.4137313961982727;-137.26942443847656
217;1673389519.6223283;47.1301904;7.239993699999999;49.829002380371094;1673389519.6242921;-48.77353286743164;0.43891778588294983;-137.2008056640625
218;1673389519.826607;47.130173899999996;7.2399719;49.83700180053711;1673389519.8305264;-48.50099182128906;0.45037636160850525;-137.1601104736328
219;1673389520.0336564;47.130157499999996;7.239949999999999;49.84100341796875;1673389520.0365856;-48.1513557434082;0.3035445511341095;-137.05320739746094
220;1673389520.2291431;47.130140999999995;7.239928099999999;49.8380012512207;1673389520.2320704;-47.98108673095703;0.31395265460014343;-137.0093536376953
221;1673389520.440423;47.130124599999995;7.2399062;49.8380012512207;1673389520.442379;-48.00312423706055;0.30712205171585083;-136.98202514648438
222;1673389520.6339977;47.130108299999996;7.2398843;49.836002349853516;1673389520.6359499;-48.020626068115234;0.3026207983493805;-136.94241333007812
223;1673389520.815775;47.1300919;7.2398624;49.83700180053711;1673389520.8196776;-48.021942138671875;0.29043278098106384;-136.92796325683594
224;1673389521.0261295;47.1300757;7.239840399999999;49.842002868652344;1673389521.0290565;-48.32242965698242;0.26138779520988464;-136.91490173339844
225;1673389521.2604294;47.1300594;7.2398184;49.84600067138672;1673389521.2643332;-48.47126007080078;0.28219643235206604;-136.90782165527344
226;1673389521.4547071;47.130043;7.2397963999999995;49.84300231933594;1673389521.4576356;-48.313777923583984;0.274954229593277;-136.88511657714844
227;1673389521.6466913;47.130026699999995;7.2397743;49.840003967285156;1673389521.6496284;-47.93783187866211;0.26394134759902954;-136.86387634277344
228;1673389521.8492646;47.130010399999996;7.2397522;49.840003967285156;1673389521.851232;-48.09178161621094;0.3401389420032501;-136.89288330078125
229;1673389522.0492542;47.1299941;7.2397301;49.84300231933594;1673389522.050216;-48.379764556884766;0.26342007517814636;-136.8501739501953
230;1673389522.2426517;47.1299778;7.239707999999999;49.85100173950195;1673389522.24558;-48.631893157958984;0.31512415409088135;-136.8639373779297
231;1673389522.435275;47.1299615;7.239685799999999;49.858001708984375;1673389522.4391801;-48.66653823852539;0.2866881489753723;-136.82139587402344
232;1673389522.6150486;47.129945199999995;7.2396636;49.85900115966797;1673389522.6179926;-48.588382720947266;0.30351999402046204;-136.83441162109375
233;1673389522.801557;47.129928899999996;7.2396413;49.858001708984375;1673389522.8035095;-48.25774383544922;0.24781771004199982;-136.81930541992188
234;1673389523.0206683;47.1299126;7.2396191;49.86000061035156;1673389523.0235941;-48.148521423339844;0.21893548965454102;-136.79904174804688
235;1673389523.2219718;47.1298963;7.239596799999999;49.86300277709961;1673389523.2249002;-48.30150604248047;0.20520058274269104;-136.79994201660156
236;1673389523.423384;47.12988;7.2395745;49.8650016784668;1673389523.427291;-48.45439910888672;0.24892283976078033;-136.83421325683594
237;1673389523.6103146;47.1298637;7.2395523;49.8650016784668;1673389523.616142;-48.367706298828125;0.2607231140136719;-136.8144073486328
238;1673389523.8163252;47.129847399999996;7.2395301;49.86100387573242;1673389523.822342;-48.0704345703125;0.3037160038948059;-136.8225860595703
239;1673389524.0406601;47.1298311;7.239507799999999;49.85900115966797;1673389524.043584;-47.81631088256836;0.27430063486099243;-136.8209991455078
240;1673389524.2468271;47.1298148;7.2394855;49.85900115966797;1673389524.249759;-47.879600524902344;0.24299412965774536;-136.77615356445312
241;1673389524.4534454;47.1297985;7.2394633;49.8640022277832;1673389524.457359;-48.132789611816406;0.28400030732154846;-136.7979736328125
242;1673389524.6570294;47.1297822;7.2394411;49.87000274658203;1673389524.6589842;-48.432979583740234;0.36706188321113586;-136.8097381591797
243;1673389524.8294637;47.129766;7.239418799999999;49.87700271606445;1673389524.832392;-48.561851501464844;0.2857202887535095;-136.7711639404297
244;1673389525.0264053;47.1297497;7.2393965;49.87700271606445;1673389525.0293531;-48.38750076293945;0.28696689009666443;-136.7869873046875
245;1673389525.2174737;47.1297334;7.239374199999999;49.874000549316406;1673389525.2213666;-48.02241134643555;0.2739199101924896;-136.77955627441406
246;1673389525.4532619;47.1297171;7.2393518;49.87300109863281;1673389525.4561896;-47.87386703491211;0.2029082328081131;-136.7557830810547
247;1673389525.672037;47.129700899999996;7.2393296;49.874000549316406;1673389525.6739814;-47.981319427490234;0.29718369245529175;-136.80941772460938
248;1673389525.8723352;47.1296846;7.2393073;49.87800216674805;1673389525.8752623;-48.31763458251953;0.2992660701274872;-136.77186584472656
249;1673389526.1010158;47.1296683;7.2392851;49.88500213623047;1673389526.1029644;-48.53573989868164;0.3313726484775543;-136.80441284179688
250;1673389526.2845082;47.1296519;7.2392628;49.88900375366211;1673389526.2864616;-48.310787200927734;0.34775811433792114;-136.76275634765625
251;1673389526.4867613;47.1296356;7.239240499999999;49.8900032043457;1673389526.4897826;-48.134254455566406;0.31907132267951965;-136.75640869140625
252;1673389526.6703117;47.129619299999995;7.2392180999999995;49.8900032043457;1673389526.6722806;-47.94765853881836;0.2552219033241272;-136.74220275878906
253;1673389526.856896;47.1296031;7.2391958;49.893001556396484;1673389526.8598273;-47.961631774902344;0.2969225347042084;-136.76182556152344
254;1673389527.036402;47.1295867;7.239173399999999;49.89500427246094;1673389527.0383542;-48.07786178588867;0.3297317326068878;-136.7527313232422
255;1673389527.22307;47.1295704;7.2391511;49.900001525878906;1673389527.2269862;-48.12694549560547;0.2976749539375305;-136.74334716796875
256;1673389527.418461;47.1295541;7.239128699999999;49.90500259399414;1673389527.4213986;-48.18235397338867;0.2553997337818146;-136.71987915039062
257;1673389527.6568375;47.1295377;7.2391062999999995;49.910003662109375;1673389527.6597567;-48.24896240234375;0.3557074964046478;-136.73216247558594
258;1673389527.8406627;47.129521399999994;7.239084;49.9160041809082;1673389527.843591;-48.09822082519531;0.31570276618003845;-136.7195281982422
259;1673389528.0449874;47.129505099999996;7.239061599999999;49.92100143432617;1673389528.0489101;-48.049922943115234;0.26716938614845276;-136.68734741210938
260;1673389528.2563555;47.1294888;7.2390392;49.928001403808594;1673389528.2583225;-48.158390045166016;0.23873652517795563;-136.678955078125
261;1673389528.434508;47.1294724;7.239016899999999;49.93600082397461;1673389528.4364607;-48.299468994140625;0.37323689460754395;-136.71566772460938
262;1673389528.6211205;47.1294561;7.2389944999999996;49.94300079345703;1673389528.6240518;-48.31621170043945;0.40755632519721985;-136.7209930419922
263;1673389528.7950175;47.1294397;7.2389722;49.952003479003906;1673389528.7979035;-48.209957122802734;0.32489293813705444;-136.6573944091797
264;1673389529.0036893;47.1294234;7.238949799999999;49.95900344848633;1673389529.006616;-48.17698287963867;0.3375592827796936;-136.66030883789062
265;1673389529.2167532;47.129407099999995;7.2389274;49.96200180053711;1673389529.2206779;-48.56939697265625;1.4065537452697754;-136.93186950683594
266;1673389529.4223108;47.129390799999996;7.238904799999999;49.96200180053711;1673389529.4252388;-47.91337585449219;-0.04626722261309624;-136.34564208984375
267;1673389529.6376827;47.1293745;7.238882299999999;49.961002349853516;1673389529.6396413;-47.66311264038086;-0.024600766599178314;-136.47642517089844
268;1673389529.8288617;47.1293582;7.2388599;49.965003967285156;1673389529.8308172;-48.03636169433594;0.29131338000297546;-136.57992553710938
269;1673389530.0286405;47.1293419;7.2388375;49.970001220703125;1673389530.0315726;-48.30965805053711;0.10310686379671097;-136.5172576904297
270;1673389530.2239897;47.1293256;7.2388151;49.97800064086914;1673389530.226919;-48.68861770629883;0.5304471254348755;-136.7107391357422
271;1673389530.4424565;47.129309199999994;7.2387926;49.983001708984375;1673389530.4473314;-48.6303825378418;0.7796815037727356;-136.70663452148438
272;1673389530.6413286;47.129292899999996;7.2387701;49.98500061035156;1673389530.6452322;-48.229225158691406;0.46506959199905396;-136.5401153564453
273;1673389530.8427455;47.1292766;7.2387476;49.987003326416016;1673389530.8456783;-47.965763092041016;0.5712536573410034;-136.55050659179688
274;1673389531.0350204;47.1292603;7.2387251;49.993003845214844;1673389531.0369735;-44.81186294555664;0.08165086060762405;-136.2440948486328
275;1673389531.225909;47.129244299999996;7.2387027999999995;50.01900100708008;1673389531.2278645;-35.131473541259766;0.16231699287891388;-136.4478302001953
276;1673389531.4339824;47.1292289;7.238681499999999;50.03900146484375;1673389531.435934;-20.482913970947266;0.730067789554596;-136.31289672851562
277;1673389531.644223;47.1292147;7.238662;50.048004150390625;1673389531.6481209;-7.350433349609375;0.6911187767982483;-136.08607482910156
278;1673389531.813221;47.129202299999996;7.2386449;50.048004150390625;1673389531.8161323;0.6906999349594116;0.5701216459274292;-135.9955596923828
279;1673389531.9978898;47.1291918;7.238630499999999;50.044002532958984;1673389532.0008328;5.9037017822265625;0.05368679761886597;-135.8147735595703
280;1673389532.2025163;47.1291832;7.238618799999999;50.02700424194336;1673389532.2073972;8.377806663513184;2.897554397583008;-137.16677856445312
281;1673389532.4055822;47.1291765;7.2386095;50.00700378417969;1673389532.4104674;5.119867324829102;6.001170635223389;-139.9476776123047
282;1673389532.6233087;47.1291714;7.2386022;49.99800109863281;1673389532.6252592;2.0954129695892334;4.10028076171875;-140.3247528076172
283;1673389532.8179407;47.129167599999995;7.2385964;50.005001068115234;1673389532.8218846;-3.7447309494018555;-1.5978385210037231;-137.8769989013672
284;1673389533.014424;47.129164599999996;7.238591899999999;50.02100372314453;1673389533.017353;-9.327242851257324;-0.1034286692738533;-137.10476684570312
285;1673389533.2384386;47.129162099999995;7.2385882;50.0410041809082;1673389533.2404068;-11.492305755615234;0.04538990184664726;-137.11505126953125
286;1673389533.4221258;47.1291599;7.2385851;50.060001373291016;1673389533.4260488;-12.401473045349121;1.2475308179855347;-137.3251190185547
287;1673389533.6349297;47.1291577;7.238582399999999;50.073001861572266;1673389533.6378582;-12.655153274536133;0.5137473940849304;-137.0413818359375
288;1673389533.8351986;47.1291557;7.238579799999999;50.08700180053711;1673389533.8381472;-17.825542449951172;-0.41508010029792786;-136.8765869140625
289;1673389534.03476;47.1291533;7.238576999999999;50.143001556396484;1673389534.0386634;-36.77210235595703;0.2220243513584137;-137.3848876953125
290;1673389534.2368796;47.1291502;7.2385728;50.237003326416016;1673389534.240747;-28.066696166992188;-0.03674397990107536;-136.90484619140625
291;1673389534.4461122;47.1291465;7.2385677;50.39200210571289;1673389534.449041;-17.19457244873047;3.773404359817505;-137.6690216064453
292;1673389534.638592;47.1291429;7.2385626;50.630001068115234;1673389534.642496;-16.72090721130371;2.374689817428589;-137.03533935546875
293;1673389534.8576496;47.1291392;7.2385572;50.97300338745117;1673389534.8605778;-35.20477294921875;0.6118763089179993;-136.61912536621094
294;1673389535.0530937;47.1291344;7.2385503;51.37200164794922;1673389535.0560234;-52.08073425292969;-0.6237423419952393;-136.15721130371094
295;1673389535.2510617;47.1291279;7.238541499999999;51.73600387573242;1673389535.2539935;-47.67538070678711;-1.413745403289795;-136.51754760742188
296;1673389535.449326;47.129120099999994;7.238531;52.07200241088867;1673389535.4522645;-46.988258361816406;0.014743796549737453;-136.01206970214844
297;1673389535.6407692;47.1291113;7.2385192;52.37900161743164;1673389535.6456406;-43.78245162963867;0.05408783257007599;-136.43353271484375
298;1673389535.8345537;47.1291017;7.2385063;52.682003021240234;1673389535.8374815;-40.7905158996582;0.7911748290061951;-136.51817321777344
299;1673389536.033349;47.1290917;7.2384927;52.98800277709961;1673389536.0372374;-37.81556701660156;0.8672258257865906;-136.5644073486328
300;1673389536.2227275;47.1290814;7.2384787;53.29600143432617;1673389536.2256563;-35.61619567871094;1.1437288522720337;-136.6514434814453
301;1673389536.4299798;47.129070999999996;7.2384645;53.62200164794922;1673389536.4358282;-34.134559631347656;1.192224144935608;-136.6639862060547
302;1673389536.6320379;47.1290608;7.238450299999999;53.957000732421875;1673389536.6339908;-32.83773422241211;1.0819451808929443;-136.71633911132812
303;1673389536.8443446;47.1290506;7.2384362;54.302001953125;1673389536.8482502;-32.63585662841797;1.1234865188598633;-136.82118225097656
304;1673389537.0652375;47.129040599999996;7.2384222;54.65500259399414;1673389537.0691445;-32.596153259277344;0.7775236368179321;-136.7974853515625
305;1673389537.2574441;47.1290306;7.2384083;55.02000427246094;1673389537.2593951;-32.70271682739258;0.7660431861877441;-136.87403869628906
306;1673389537.4600904;47.1290207;7.2383945;55.3900032043457;1673389537.462045;-33.07630157470703;0.66981440782547;-136.8755645751953
307;1673389537.6435277;47.1290109;7.2383808;55.7660026550293;1673389537.6464562;-33.34103775024414;0.6405760645866394;-136.9566192626953
308;1673389537.8194275;47.129001099999996;7.2383672;56.14600372314453;1673389537.8223636;-33.82469940185547;0.5103040933609009;-136.94053649902344
309;1673389538.0087388;47.128991299999996;7.2383536;56.53000259399414;1673389538.0146036;-34.08942413330078;0.5429997444152832;-136.99356079101562
310;1673389538.214835;47.128981499999995;7.238340099999999;56.9170036315918;1673389538.218737;-34.38307571411133;0.6014024615287781;-136.97901916503906
311;1673389538.4241152;47.1289717;7.2383266;57.30500411987305;1673389538.427036;-34.63209915161133;0.585085391998291;-136.9509735107422
312;1673389538.631581;47.1289618;7.238313;57.702003479003906;1673389538.635483;-34.63432312011719;0.5335357785224915;-136.9048309326172
313;1673389538.8372586;47.128951799999996;7.2382992999999995;58.10100173950195;1673389538.841163;-34.45961380004883;0.6010803580284119;-136.91343688964844
314;1673389539.0548553;47.1289419;7.238285599999999;58.496002197265625;1673389539.0567715;-34.336212158203125;0.6009142398834229;-136.91065979003906
315;1673389539.2550528;47.1289319;7.2382719;58.893001556396484;1673389539.2579525;-34.35341262817383;0.6402645111083984;-136.94876098632812
316;1673389539.4418015;47.128921999999996;7.2382583;59.28600311279297;1673389539.4466786;-34.21293640136719;0.7967907786369324;-137.00669860839844
317;1673389539.6576474;47.128912;7.2382447;59.677001953125;1673389539.6605895;-34.18282699584961;0.831515371799469;-136.9885711669922
318;1673389539.8538926;47.1289021;7.238231;60.06900405883789;1673389539.8558464;-34.27252960205078;0.7586069107055664;-136.9824676513672
319;1673389540.0250795;47.128892199999996;7.2382174;60.46600341796875;1673389540.0280092;-34.35320281982422;0.7168744802474976;-136.97080993652344
320;1673389540.2291605;47.1288822;7.2382038;60.86100387573242;1673389540.2320874;-34.32710266113281;0.4983839988708496;-136.8698272705078
321;1673389540.4341483;47.1288723;7.2381902;61.25800323486328;1673389540.4380264;-34.38022994995117;0.5202792882919312;-136.88134765625
322;1673389540.6365066;47.128862299999994;7.2381765;61.651004791259766;1673389540.638459;-34.17438507080078;0.5086857080459595;-136.9110870361328
323;1673389540.8484683;47.1288523;7.2381628;62.048004150390625;1673389540.851399;-34.315853118896484;0.5835461616516113;-136.9031524658203
324;1673389541.0625236;47.128842299999995;7.238149099999999;62.44400405883789;1673389541.066427;-34.320594787597656;0.8576825261116028;-137.0033416748047
325;1673389541.2551494;47.1288323;7.2381354;62.8380012512207;1673389541.258077;-34.200218200683594;0.7696936130523682;-136.99609375
326;1673389541.4436276;47.1288224;7.2381217;63.23100280761719;1673389541.4455798;-34.31346130371094;0.8847340941429138;-137.01290893554688
327;1673389541.6483207;47.1288124;7.2381081;63.62600326538086;1673389541.6512482;-34.37411117553711;0.6859327554702759;-136.9579620361328
328;1673389541.824657;47.1288024;7.2380944;64.0250015258789;1673389541.827584;-34.42510223388672;0.3710259795188904;-136.83309936523438
329;1673389542.0322995;47.128792399999995;7.238080699999999;64.42400360107422;1673389542.0371785;-34.35523986816406;0.43585914373397827;-136.8493194580078
330;1673389542.2618456;47.1287824;7.238067;64.82100677490234;1673389542.2647727;-34.286720275878906;0.588604748249054;-136.87249755859375
331;1673389542.4289448;47.128772399999995;7.2380533;65.2229995727539;1673389542.4309108;-34.32930374145508;0.916808009147644;-136.9580535888672
332;1673389542.634002;47.1287624;7.2380396;65.6259994506836;1673389542.6369293;-34.27630615234375;1.1389915943145752;-137.0131072998047
333;1673389542.8520496;47.128752399999996;7.238025899999999;66.02799987792969;1673389542.8559444;-34.231895446777344;0.9734004139900208;-136.9597625732422
334;1673389543.0513895;47.1287424;7.2380122;66.42300415039062;1673389543.0533428;-34.28995132446289;0.8237647414207458;-136.93873596191406
335;1673389543.245099;47.1287324;7.2379983999999995;66.82300567626953;1673389543.2480268;-34.36948776245117;0.546055018901825;-136.84466552734375
336;1673389543.431881;47.1287224;7.2379846;67.22000122070312;1673389543.4348307;-34.359703063964844;0.27189674973487854;-136.7852783203125
337;1673389543.6300905;47.1287125;7.2379709;67.61400604248047;1673389543.6330173;-34.334869384765625;0.23713473975658417;-136.87490844726562
338;1673389543.8325794;47.128702499999996;7.2379571;68.01000213623047;1673389543.837408;-34.46323776245117;0.5199593305587769;-136.94342041015625
339;1673389544.061617;47.1286925;7.2379434;68.4070053100586;1673389544.0645614;-34.414127349853516;0.7876085638999939;-137.0401611328125
340;1673389544.24904;47.1286825;7.2379297;68.80500030517578;1673389544.2510111;-34.425071716308594;0.8439679145812988;-137.0664825439453
341;1673389544.4181662;47.1286725;7.2379159;69.2040023803711;1673389544.4210954;-34.347320556640625;1.0245558023452759;-137.04881286621094
342;1673389544.621727;47.1286625;7.2379022;69.60800170898438;1673389544.6246557;-34.397239685058594;0.8368779420852661;-136.96803283691406
343;1673389544.8301854;47.1286525;7.2378886;70.0050048828125;1673389544.8321378;-34.45056915283203;0.5336534380912781;-136.83848571777344
344;1673389545.0363758;47.1286425;7.2378749;70.39000701904297;1673389545.0402663;-25.71741485595703;1.0294790267944336;-136.9415740966797
345;1673389545.2277513;47.128633;7.2378618999999995;70.74100494384766;1673389545.2326167;-15.141504287719727;0.6202095746994019;-136.76907348632812
346;1673389545.4399514;47.1286244;7.237850099999999;71.05000305175781;1673389545.4428518;-11.738910675048828;0.47409120202064514;-136.70765686035156
347;1673389545.6442862;47.1286166;7.2378395;71.31300354003906;1673389545.6481895;-6.4510626792907715;0.6009068489074707;-136.7141876220703
348;1673389545.8258097;47.1286099;7.237830499999999;71.53700256347656;1673389545.828707;-4.280627250671387;1.2019590139389038;-136.6350860595703
349;1673389546.018508;47.1286043;7.237822899999999;71.73600006103516;1673389546.0224128;-1.4354757070541382;0.769120991230011;-136.93069458007812
350;1673389546.2307541;47.128599799999996;7.2378167;71.91800689697266;1673389546.2336998;-1.05495285987854;1.1116273403167725;-137.87843322753906
351;1673389546.4483488;47.1285962;7.2378116;72.08300018310547;1673389546.45224;-2.2540762424468994;0.3536750376224518;-136.448974609375
352;1673389546.6601698;47.1285933;7.2378076;72.22500610351562;1673389546.661146;-4.203958034515381;0.3076414167881012;-135.01939392089844
353;1673389546.8858764;47.128591;7.237804499999999;72.34300231933594;1673389546.8907666;-7.384018898010254;12.176267623901367;-133.31307983398438
354;1673389547.0900557;47.1285897;7.2378013999999995;72.44600677490234;1673389547.0920076;-6.2974934577941895;29.256389617919922;-121.63847351074219
355;1673389547.2955842;47.128589899999994;7.2377978;72.52300262451172;1673389547.2985094;-16.878631591796875;21.092308044433594;-111.58352661132812
356;1673389547.5462418;47.128591199999995;7.2377934999999995;72.57200622558594;1673389547.548193;-17.41219139099121;10.865663528442383;-101.85015106201172
357;1673389547.7242782;47.1285932;7.2377888;72.60900115966797;1673389547.726239;-18.956111907958984;6.734527111053467;-94.34150695800781
358;1673389547.890962;47.1285957;7.2377837;72.64100646972656;1673389547.8939285;-18.653406143188477;0.42864131927490234;-84.330322265625
359;1673389548.0739644;47.1285983;7.237778199999999;72.67400360107422;1673389548.0768948;-17.146350860595703;-4.985105037689209;-74.09148406982422
360;1673389548.2736292;47.128600999999996;7.2377726;72.70700073242188;1673389548.277535;-13.92316722869873;-8.819111824035645;-64.089111328125
361;1673389548.4628205;47.1286035;7.2377669;72.73700714111328;1673389548.4657652;-10.145760536193848;-9.802291870117188;-55.26040267944336
362;1673389548.650709;47.1286059;7.237761099999999;72.76399993896484;1673389548.6545787;-7.116264343261719;-10.418434143066406;-46.13680648803711
363;1673389548.8401554;47.128608;7.2377555;72.78700256347656;1673389548.842108;-4.4364471435546875;-10.250576972961426;-40.18181610107422
364;1673389549.0440154;47.128609999999995;7.2377503;72.80900573730469;1673389549.046945;-5.060188293457031;-10.055858612060547;-42.3350830078125
365;1673389549.2820556;47.1286121;7.237745299999999;72.8340072631836;1673389549.2830143;-19.764009475708008;-8.924816131591797;-44.34690475463867
366;1673389549.4626572;47.1286148;7.237739599999999;72.8740005493164;1673389549.466532;-43.120269775390625;-5.353046417236328;-46.07368087768555
367;1673389549.6568718;47.128619199999996;7.2377319;72.91300201416016;1673389549.6607761;-56.95493698120117;-2.62479567527771;-47.71616744995117
368;1673389549.8306472;47.1286261;7.237721;72.94000244140625;1673389549.8345518;-60.11666488647461;-3.142813205718994;-48.20991897583008
369;1673389550.021291;47.128635499999994;7.2377063999999995;72.9520034790039;1673389550.024218;-59.277652740478516;-2.4798712730407715;-49.250762939453125
370;1673389550.239226;47.1286469;7.2376894;72.95800018310547;1673389550.2431626;-59.019744873046875;-2.255197525024414;-49.39371871948242
371;1673389550.4437823;47.1286601;7.237670199999999;72.95800018310547;1673389550.4476764;-55.91975784301758;-2.013469696044922;-48.88397979736328
372;1673389550.6639915;47.1286746;7.2376492;72.9530029296875;1673389550.6678953;-54.41538619995117;-3.982058048248291;-48.09456253051758
373;1673389550.854645;47.128690299999995;7.237626799999999;72.9530029296875;1673389550.8585536;-56.27409362792969;-5.74774694442749;-47.50569152832031
374;1673389551.0530899;47.128706699999995;7.237603;72.94300079345703;1673389551.0560305;-54.541900634765625;-5.875981330871582;-47.57181167602539
375;1673389551.2475002;47.128723699999995;7.2375782;72.86700439453125;1673389551.2514076;-41.332462310791016;-4.320746898651123;-48.975826263427734
376;1673389551.4556086;47.1287405;7.237553699999999;72.46200561523438;1673389551.45904;-2.7622108459472656;-1.0642566680908203;-50.43303298950195
377;1673389551.6578798;47.1287571;7.2375294;71.67300415039062;1673389551.663759;57.13225555419922;4.424022674560547;-48.13856506347656
378;1673389551.8577995;47.1287739;7.237505;70.49000549316406;1673389551.8597665;61.039825439453125;175.66310119628906;120.29764556884766
379;1673389552.0657399;47.128790599999995;7.2374807;68.95700073242188;1673389552.0677173;21.3093318939209;179.94091796875;121.732421875
380;1673389552.2648427;47.1288072;7.2374569;67.05400085449219;1673389552.2678504;8.861736297607422;-178.95169067382812;117.3376693725586
381;1673389552.4634962;47.128823499999996;7.237433599999999;64.77100372314453;1673389552.466471;22.650476455688477;-178.53396606445312;117.96957397460938
382;1673389552.6618507;47.128839299999996;7.237410799999999;62.103004455566406;1673389552.6707077;65.25515747070312;-175.12557983398438;124.80596160888672
383;1673389552.859698;47.1288552;7.2373880999999995;59.099002838134766;1673389552.8626268;44.0872688293457;-6.2301249504089355;-64.83706665039062
384;1673389553.062883;47.1288713;7.237365199999999;55.69300079345703;1673389553.0679183;-28.260175704956055;-1.3213469982147217;-59.129669189453125
385;1673389553.2519095;47.128887;7.2373430999999995;51.913002014160156;1673389553.2538435;-68.6390380859375;-5.556424140930176;-51.29722595214844
386;1673389553.462939;47.128902599999996;7.2373213;47.814002990722656;1673389553.4680254;-67.86724090576172;-6.350512504577637;-47.56221389770508
387;1673389553.6556778;47.128918;7.237299999999999;43.40400314331055;1673389553.6596463;-23.49636459350586;-0.8237528800964355;-49.425445556640625
388;1673389553.8378093;47.128932999999996;7.2372792;38.60900115966797;1673389553.840746;50.35458755493164;8.18944263458252;-41.914703369140625
389;1673389554.0436642;47.128948099999995;7.2372581;33.422000885009766;1673389554.0467815;72.72449493408203;151.0584259033203;100.12966918945312
390;1673389554.2528481;47.1289631;7.237237299999999;27.94500160217285;1673389554.2548003;68.56781768798828;148.96038818359375;99.2115707397461
391;1673389554.4545257;47.1289781;7.2372166;22.183000564575195;1673389554.4577122;56.5111198425293;20.969802856445312;-24.243240356445312
392;1673389554.669388;47.1289934;7.237195799999999;16.069000244140625;1673389554.6723163;-18.71354103088379;-0.40308406949043274;-36.2911262512207
393;1673389554.8555212;47.129008299999995;7.237175499999999;9.572000503540039;1673389554.8589468;-62.22818374633789;-15.551468849182129;-26.906644821166992
394;1673389555.0556433;47.129022899999995;7.2371558;2.7820000648498535;1673389555.0585833;-46.44121551513672;-5.558424472808838;-32.870052337646484
395;1673389555.260776;47.1290371;7.237137799999999;0.2990000247955322;1673389555.2656965;-19.377147674560547;-8.024523735046387;-33.711734771728516
396;1673389555.4608219;47.1290548;7.237117;0.4130000174045563;1673389555.4627748;-20.01903533935547;-0.42462173104286194;-32.821407318115234
397;1673389555.6520743;47.1290735;7.2370955;0.5320000052452087;1673389555.6560128;-19.61979103088379;-3.1243410110473633;-32.496761322021484
398;1673389555.855647;47.1290918;7.237074499999999;0.6060000061988831;1673389555.8600461;-19.376787185668945;-3.7339296340942383;-32.268733978271484
399;1673389556.0446582;47.1291113;7.2370516;0.628000020980835;1673389556.0481133;-19.234607696533203;-4.444680690765381;-32.01921844482422
400;1673389556.2488148;47.129131699999995;7.2370274;0.6100000143051147;1673389556.2527194;-19.10093116760254;-4.661418437957764;-31.86124610900879
401;1673389556.4525728;47.129152999999995;7.2370019;0.5790000557899475;1673389556.455623;-18.956829071044922;-4.5641398429870605;-31.83894920349121
402;1673389556.6781054;47.129174899999995;7.2369755;0.5450000166893005;1673389556.6790838;-18.806320190429688;-4.573951244354248;-31.90654754638672
403;1673389556.8497226;47.1291976;7.236948;0.492000013589859;1673389556.8526516;-18.645023345947266;-4.543917179107666;-31.96419334411621
404;1673389557.0540059;47.1292209;7.2369195;0.4320000112056732;1673389557.0570319;-18.524948120117188;-4.545278549194336;-32.02978515625
405;1673389557.2538075;47.129244899999996;7.2368901;0.36500000953674316;1673389557.2588723;-18.412935256958008;-4.514462947845459;-32.0950927734375
406;1673389557.4735649;47.1292695;7.2368597999999995;0.29600000381469727;1673389557.4770885;-18.319355010986328;-4.466075897216797;-32.144309997558594
407;1673389557.688851;47.129294699999996;7.236828699999999;0.2240000069141388;1673389557.69178;-18.18235969543457;-4.401473522186279;-32.18659210205078
408;1673389557.891856;47.1293206;7.2367966;0.125;1673389557.8938084;-18.055891036987305;-4.305817127227783;-32.27122497558594
409;1673389558.0818977;47.129346999999996;7.236763799999999;0.036000002175569534;1673389558.0848272;-17.91836929321289;-4.199103832244873;-32.3221549987793
410;1673389558.2847476;47.1293739;7.2367304;-0.04700000211596489;1673389558.2867658;-17.782302856445312;-4.105059623718262;-32.405269622802734
411;1673389558.4629195;47.1294012;7.236696299999999;-0.13100001215934753;1673389558.4648712;-17.662765502929688;-3.9677441120147705;-32.49700164794922
412;1673389558.6456544;47.129428999999995;7.2366616;-0.20900000631809235;1673389558.6480477;-17.484989166259766;-3.867967128753662;-32.565956115722656
413;1673389558.8410761;47.129457099999996;7.2366264;-0.2850000262260437;1673389558.8449755;-17.334178924560547;-3.7492926120758057;-32.64103317260742
414;1673389559.0381222;47.129485599999995;7.2365905999999995;-0.36100003123283386;1673389559.04203;-17.190570831298828;-3.586745262145996;-32.71070098876953
415;1673389559.2417374;47.1295152;7.2365533;-0.48000001907348633;1673389559.244668;-17.068044662475586;-3.494342803955078;-32.78364944458008
416;1673389559.4487119;47.1295449;7.2365159;-0.5760000348091125;1673389559.4516418;-16.901365280151367;-3.4182286262512207;-32.85618591308594
417;1673389559.650135;47.1295747;7.236478399999999;-0.6510000228881836;1673389559.6520848;-16.730127334594727;-3.316345691680908;-32.90908432006836
