;pos_time;latitude;longitude;altitude;alt_time;pitch;roll;yaw
0;1673390718.6306992;47.1306422;7.24062;-0.010000000707805157;1673390718.6336205;0.30856719613075256;0.1750345081090927;90.17117309570312
1;1673390718.8320127;47.1306423;7.24062;-0.00800000037997961;1673390718.8339648;0.16312351822853088;0.27454617619514465;90.00526428222656
2;1673390719.0308077;47.1306423;7.24062;-0.009000000543892384;1673390719.0337362;0.1077103316783905;0.3640504479408264;90.06147003173828
3;1673390719.2261724;47.1306422;7.24062;-0.013000000268220901;1673390719.2296689;-0.02794571965932846;-0.3591051697731018;90.04156494140625
4;1673390719.432814;47.1306422;7.24062;-0.013000000268220901;1673390719.43673;-0.1189555823802948;-0.7314417362213135;90.13993072509766
5;1673390719.629208;47.1306423;7.2406201;-0.01100000087171793;1673390719.6321309;-0.1604207456111908;-0.3223569095134735;89.9839096069336
6;1673390719.8513403;47.1306422;7.2406201999999995;-0.012000000104308128;1673390719.8552482;-0.10987533628940582;-0.6988512277603149;90.17575073242188
7;1673390720.0363362;47.1306422;7.2406201;-0.014000000432133675;1673390720.0392656;-0.09147121012210846;-0.486301451921463;90.1119384765625
8;1673390720.227272;47.1306422;7.24062;-0.021000001579523087;1673390720.2301848;0.16919775307178497;-0.6475298404693604;90.1861572265625
9;1673390720.4295113;47.1306422;7.2406198999999996;-0.0020000000949949026;1673390720.4334166;0.15481260418891907;-1.0416700839996338;90.1026382446289
10;1673390720.627065;47.1306423;7.240619799999999;-0.005000000353902578;1673390720.6314821;0.18453559279441833;-1.3672518730163574;90.28741455078125
11;1673390720.8284633;47.1306423;7.240619799999999;-0.007000000216066837;1673390720.8304114;0.09904973953962326;-1.1608891487121582;90.2684097290039
12;1673390721.0339856;47.1306423;7.240619799999999;-0.009000000543892384;1673390721.0369213;-0.0672668069601059;-1.2110834121704102;90.24513244628906
13;1673390721.2357774;47.1306423;7.240619799999999;-0.012000000104308128;1673390721.2386947;-0.20154023170471191;-0.9445158839225769;90.07657623291016
14;1673390721.4377656;47.1306423;7.2406198999999996;-0.012000000104308128;1673390721.441758;-0.1789880096912384;-1.2554713487625122;90.11228942871094
15;1673390721.6350226;47.1306424;7.24062;-0.01100000087171793;1673390721.6379511;-0.0265793614089489;-1.3002328872680664;90.01204681396484
16;1673390721.8507016;47.1306424;7.24062;-0.007000000216066837;1673390721.853828;0.1365460604429245;-1.0995804071426392;89.88653564453125
17;1673390722.0568373;47.1306424;7.2406198999999996;0.0020000000949949026;1673390722.0597713;0.2523171901702881;-1.3087283372879028;89.93976593017578
18;1673390722.2292073;47.1306424;7.2406198999999996;0.005000000353902578;1673390722.2317095;0.02049003355205059;-1.41389000415802;89.92828369140625
19;1673390722.4349544;47.1306424;7.24062;0.007000000216066837;1673390722.438858;0.035462502390146255;-0.06254017353057861;89.89800262451172
20;1673390722.6378858;47.1306424;7.2406201;0.004000000189989805;1673390722.6408274;0.08011026680469513;-0.5292698740959167;89.57617950439453
21;1673390722.839915;47.1306424;7.2406201;0.0020000000949949026;1673390722.8419716;0.41482600569725037;-0.8508653044700623;89.48567199707031
22;1673390723.0331705;47.1306425;7.2406201;0.004000000189989805;1673390723.0370495;0.6862612962722778;-0.2723095118999481;89.12720489501953
23;1673390723.2538466;47.1306425;7.2406201;0.003000000026077032;1673390723.2558146;0.7816380858421326;-0.9410167932510376;88.79060363769531
24;1673390723.451867;47.130642599999995;7.24062;0.005000000353902578;1673390723.4557688;1.3229581117630005;-0.558326244354248;87.72932434082031
25;1673390723.6508567;47.130642699999996;7.24062;0.005000000353902578;1673390723.6547904;1.7356337308883667;-0.3158208727836609;84.80186462402344
26;1673390723.8406057;47.1306431;7.240619499999999;0.0010000000474974513;1673390723.8429437;0.1548709273338318;1.7908780574798584;77.70438385009766
27;1673390724.038916;47.1306436;7.2406187;0.005000000353902578;1673390724.0419142;-0.9654204249382019;4.530691146850586;80.32110595703125
28;1673390724.228965;47.1306443;7.2406174;0.020000001415610313;1673390724.2319415;-5.146919250488281;6.907600402832031;85.10792541503906
29;1673390724.4394834;47.130645;7.2406159;0.03700000047683716;1673390724.4430063;-10.087904930114746;10.424520492553711;86.43115997314453
30;1673390724.6493897;47.1306459;7.2406143;0.06100000441074371;1673390724.6519434;-11.856744766235352;12.391853332519531;86.72860717773438
31;1673390724.8556721;47.1306467;7.2406127;0.09600000083446503;1673390724.8576267;-12.906073570251465;14.23201847076416;86.76050567626953
32;1673390725.060822;47.1306474;7.2406111;0.14600001275539398;1673390725.0637994;-13.869453430175781;15.402155876159668;86.90628051757812
33;1673390725.2737265;47.130648099999995;7.2406099;0.2120000123977661;1673390725.2776325;-15.780312538146973;15.160305976867676;87.19290161132812
34;1673390725.4768782;47.1306486;7.2406089;0.289000004529953;1673390725.4817715;-17.794551849365234;15.870232582092285;87.36222076416016
35;1673390725.6897416;47.130648799999996;7.2406085;0.3720000088214874;1673390725.6926627;-18.873737335205078;18.781579971313477;87.22408294677734
36;1673390725.9315453;47.130648699999995;7.240608699999999;0.46700000762939453;1673390725.9325237;-19.865463256835938;20.482614517211914;87.3078842163086
37;1673390726.1388462;47.1306484;7.2406095;0.5730000138282776;1673390726.1407938;-20.33047103881836;17.432613372802734;88.10704803466797
38;1673390726.3263125;47.1306477;7.2406108;0.6890000104904175;1673390726.330208;-18.35563850402832;15.946307182312012;88.51941680908203
39;1673390726.4929469;47.1306467;7.2406124;0.8140000104904175;1673390726.4949114;-16.101001739501953;17.75191307067871;88.08413696289062
40;1673390726.6913884;47.130645699999995;7.240614099999999;0.9490000605583191;1673390726.6943161;-13.793352127075195;12.761258125305176;88.86925506591797
41;1673390726.8740578;47.1306449;7.240615699999999;1.090000033378601;1673390726.8779604;-12.44172477722168;10.367289543151855;89.27072143554688
42;1673390727.0547488;47.1306442;7.2406171;1.2400000095367432;1673390727.0566876;-10.932390213012695;13.807117462158203;88.30618286132812
43;1673390727.2424538;47.1306437;7.2406182;1.3970000743865967;1673390727.2463562;-9.953581809997559;11.842447280883789;88.54476928710938
44;1673390727.4467168;47.1306434;7.240618899999999;1.565000057220459;1673390727.4506416;-10.44522762298584;9.073137283325195;88.85664367675781
45;1673390727.6522443;47.1306431;7.240619199999999;1.7480000257492065;1673390727.6561494;-10.381766319274902;13.433032989501953;84.17093658447266
46;1673390727.8551075;47.1306428;7.2406193;1.9470001459121704;1673390727.8580358;-10.74591064453125;13.383329391479492;84.52375793457031
47;1673390728.0361245;47.130642699999996;7.240619199999999;2.1540000438690186;1673390728.0390599;-11.964982986450195;10.485235214233398;85.3611068725586
48;1673390728.2509623;47.130642699999996;7.2406191;2.3570001125335693;1673390728.2538898;-12.449727058410645;12.947248458862305;85.0356216430664
49;1673390728.4413862;47.1306428;7.240618899999999;2.559000015258789;1673390728.4433389;-12.685137748718262;16.409931182861328;84.33246612548828
50;1673390728.628858;47.130643;7.2406187;2.7660000324249268;1673390728.6347203;-13.295210838317871;12.544845581054688;85.3928451538086
51;1673390728.839685;47.130643;7.2406185999999995;2.9730000495910645;1673390728.842614;-13.75284194946289;13.872151374816895;85.52758026123047
52;1673390729.0470026;47.1306428;7.2406185999999995;3.177000045776367;1673390729.0499322;-13.543604850769043;16.795644760131836;84.8141860961914
53;1673390729.2570186;47.130642699999996;7.2406185999999995;3.379000186920166;1673390729.2599373;-13.829505920410156;12.633593559265137;85.3620376586914
54;1673390729.4634755;47.130642599999995;7.2406187;3.5850002765655518;1673390729.4654408;-13.863828659057617;12.413697242736816;85.66058349609375
55;1673390729.6567698;47.1306425;7.240618899999999;3.7910001277923584;1673390729.6626253;-12.980140686035156;16.209136962890625;84.97124481201172
56;1673390729.8548806;47.1306425;7.240619199999999;3.991000175476074;1673390729.8578005;-12.665129661560059;14.241783142089844;85.29639434814453
57;1673390730.0494628;47.1306425;7.2406194;4.190000057220459;1673390730.0543427;-12.960603713989258;11.888806343078613;85.59851837158203
58;1673390730.2499304;47.1306423;7.2406197;4.391000270843506;1673390730.2557855;-12.281155586242676;15.54784870147705;84.8591079711914
59;1673390730.457413;47.130642099999996;7.2406198999999996;4.591000080108643;1673390730.4603417;-11.960386276245117;14.447776794433594;85.03668975830078
60;1673390730.6449118;47.130641999999995;7.2406201;4.7910003662109375;1673390730.6488283;-12.232694625854492;10.987184524536133;85.70845031738281
61;1673390730.9262993;47.130641999999995;7.2406201999999995;4.991000175476074;1673390730.929228;-12.149410247802734;13.585978507995605;85.1322250366211
62;1673390731.097776;47.130641999999995;7.2406201999999995;5.191000461578369;1673390731.09973;-11.82925796508789;16.354677200317383;84.55579376220703
63;1673390731.3062303;47.1306422;7.2406201999999995;5.392000198364258;1673390731.3091612;-12.164803504943848;12.26962947845459;85.58555603027344
64;1673390731.478736;47.1306422;7.2406201999999995;5.592000484466553;1673390731.480687;-12.514225006103516;13.273093223571777;85.40653228759766
65;1673390731.6607513;47.130642099999996;7.2406201999999995;5.795000076293945;1673390731.6636603;-12.204676628112793;16.929134368896484;84.69143676757812
66;1673390731.8597968;47.130642099999996;7.2406201;6.00100040435791;1673390731.8637085;-12.536446571350098;13.134943008422852;85.25984954833984
67;1673390732.0710037;47.130642099999996;7.24062;6.206000328063965;1673390732.0729554;-13.080493927001953;11.556480407714844;85.70382690429688
68;1673390732.258597;47.130642099999996;7.24062;6.408000469207764;1673390732.261525;-12.394516944885254;16.38585662841797;84.72944641113281
69;1673390732.4511807;47.1306422;7.24062;6.6080002784729;1673390732.4541032;-12.576205253601074;14.454045295715332;85.0904541015625
70;1673390732.635123;47.1306423;7.24062;6.809000492095947;1673390732.6380541;-12.767910957336426;12.045204162597656;85.8623046875
71;1673390732.8282485;47.1306423;7.24062;7.008000373840332;1673390732.8302;-12.637356758117676;16.489423751831055;84.9740219116211
72;1673390733.0346339;47.130642099999996;7.24062;7.209000110626221;1673390733.0390756;-12.437530517578125;14.486473083496094;84.98275756835938
73;1673390733.2404504;47.130642099999996;7.2406198999999996;7.408000469207764;1673390733.2463067;-12.818899154663086;11.700634956359863;85.63972473144531
74;1673390733.4544845;47.130642099999996;7.2406198999999996;7.6050004959106445;1673390733.4564362;-12.796670913696289;14.69084644317627;85.0836410522461
75;1673390733.6556482;47.130642099999996;7.2406198999999996;7.802000522613525;1673390733.661516;-12.357162475585938;16.342870712280273;84.8350830078125
76;1673390733.8588142;47.1306422;7.24062;7.999000549316406;1673390733.8617537;-12.664274215698242;12.967019081115723;85.44953918457031
77;1673390734.072183;47.1306422;7.24062;8.200000762939453;1673390734.074138;-12.988445281982422;12.77871036529541;85.48877716064453
78;1673390734.2684836;47.130642099999996;7.24062;8.403000831604004;1673390734.2723835;-12.375743865966797;16.40216827392578;84.8304214477539
79;1673390734.4591515;47.130641999999995;7.2406201;8.60300064086914;1673390734.4620616;-12.4210786819458;12.748624801635742;85.28217315673828
80;1673390734.656559;47.130641999999995;7.2406201;8.806000709533691;1673390734.6594868;-12.580751419067383;12.166887283325195;85.3697280883789
81;1673390734.8526871;47.130641999999995;7.2406201999999995;9.009000778198242;1673390734.8575675;-12.147357940673828;16.457630157470703;84.77241516113281
82;1673390735.0546908;47.130642099999996;7.2406201;9.207000732421875;1673390735.0576186;-12.419556617736816;14.458637237548828;85.29182434082031
83;1673390735.2630277;47.1306422;7.2406201;9.404000282287598;1673390735.2659543;-12.709835052490234;11.819365501403809;85.62991333007812
84;1673390735.4595642;47.1306422;7.2406201;9.601000785827637;1673390735.4615178;-12.680678367614746;16.222023010253906;84.89224243164062
85;1673390735.6610122;47.130642099999996;7.2406201;9.797000885009766;1673390735.6629481;-12.327859878540039;14.845746994018555;84.95164489746094
86;1673390735.862401;47.130642099999996;7.2406201;9.991000175476074;1673390735.8663094;-12.78218936920166;11.848182678222656;85.72179412841797
87;1673390736.0698147;47.130642099999996;7.2406201;10.190000534057617;1673390736.0736628;-12.417505264282227;13.787331581115723;85.29530334472656
88;1673390736.2612484;47.130642099999996;7.2406201999999995;10.480000495910645;1673390736.2641628;-12.995664596557617;16.72975730895996;84.91849517822266
89;1673390736.4627492;47.130642099999996;7.2406204999999995;10.850000381469727;1673390736.4667253;-14.409229278564453;15.366747856140137;85.65403747558594
90;1673390736.6673088;47.1306418;7.240621;11.232000350952148;1673390736.6692615;-12.505354881286621;12.9306058883667;85.75843811035156
91;1673390736.8578613;47.130641499999996;7.240621399999999;11.621000289916992;1673390736.8607898;-11.71235179901123;15.166183471679688;84.91285705566406
92;1673390737.0449994;47.1306411;7.2406217999999996;12.01400089263916;1673390737.0479286;-10.745916366577148;11.94266128540039;85.22306823730469
93;1673390737.2466342;47.130641;7.240622;12.410000801086426;1673390737.2506537;-10.88504695892334;9.756407737731934;85.64788818359375
94;1673390737.4466116;47.130641;7.2406220999999995;12.807000160217285;1673390737.450521;-10.485859870910645;13.605018615722656;84.89971923828125
95;1673390737.6497867;47.1306411;7.2406220999999995;13.204000473022461;1673390737.6536908;-10.462491989135742;14.373172760009766;84.79032897949219
96;1673390737.8400583;47.1306413;7.2406219;13.600000381469727;1673390737.842985;-11.152249336242676;11.211010932922363;85.42545318603516
97;1673390738.0331583;47.130641399999995;7.240621699999999;13.999000549316406;1673390738.0370731;-11.525923728942871;13.910552978515625;85.07892608642578
98;1673390738.247026;47.130641399999995;7.240621399999999;14.399001121520996;1673390738.2499545;-11.799609184265137;15.580038070678711;84.80428314208984
99;1673390738.4573565;47.130641399999995;7.2406212;14.801000595092773;1673390738.4612594;-12.321474075317383;11.833253860473633;85.50137329101562
100;1673390738.6625266;47.130641399999995;7.240621;15.207000732421875;1673390738.6664314;-12.609888076782227;13.06342887878418;85.47923278808594
101;1673390738.8640978;47.130641499999996;7.2406209;15.611001014709473;1673390738.8660488;-12.197303771972656;16.26375389099121;84.96742248535156
102;1673390739.060424;47.1306416;7.240620799999999;16.016000747680664;1673390739.0633318;-12.469649314880371;13.38582706451416;85.24225616455078
103;1673390739.2455013;47.1306417;7.240620799999999;16.41900062561035;1673390739.249969;-12.396763801574707;12.350969314575195;85.44070434570312
104;1673390739.4513183;47.1306417;7.240620799999999;16.82200050354004;1673390739.45519;-12.061408042907715;16.204832077026367;84.9051513671875
105;1673390739.6612678;47.1306416;7.240620799999999;17.227001190185547;1673390739.6641955;-12.14349365234375;13.79140853881836;85.13656616210938
106;1673390739.85875;47.1306416;7.240620799999999;17.636001586914062;1673390739.8616793;-12.225278854370117;11.634682655334473;85.61433410644531
107;1673390740.0872936;47.1306417;7.240620799999999;18.043001174926758;1673390740.0902145;-12.061539649963379;14.093986511230469;85.24794006347656
108;1673390740.3043716;47.1306417;7.240620799999999;18.450000762939453;1673390740.3133776;-11.569425582885742;15.709545135498047;85.03353118896484
109;1673390740.5041554;47.1306418;7.240620799999999;18.863000869750977;1673390740.5070796;-12.15999698638916;11.200214385986328;85.78343963623047
110;1673390740.6888955;47.1306418;7.240620799999999;19.27800178527832;1673390740.692793;-11.906231880187988;13.951896667480469;85.25753784179688
111;1673390740.8796778;47.1306417;7.240620799999999;19.69099998474121;1673390740.8826072;-11.616973876953125;15.692744255065918;84.82942199707031
112;1673390741.1209245;47.1306417;7.240620799999999;20.09800148010254;1673390741.1423907;-11.90785026550293;11.89483642578125;85.50827026367188
113;1673390741.3013322;47.1306417;7.240620799999999;20.50800132751465;1673390741.3042407;-12.103360176086426;12.436367988586426;85.355712890625
114;1673390741.4743881;47.1306417;7.2406207;20.917001724243164;1673390741.4782922;-11.657734870910645;15.961512565612793;84.75357055664062
115;1673390741.711897;47.1306418;7.2406207;21.330001831054688;1673390741.7444413;-11.84382152557373;13.322717666625977;85.2586669921875
116;1673390741.9151752;47.1306419;7.2406206;21.744001388549805;1673390741.9200733;-12.185236930847168;12.210329055786133;85.39581298828125
117;1673390742.096136;47.1306419;7.2406206;22.160001754760742;1673390742.0980911;-11.985140800476074;15.853012084960938;84.96089935302734
118;1673390742.2937646;47.1306419;7.2406204999999995;22.576000213623047;1673390742.2966924;-11.72160816192627;14.435535430908203;85.09961700439453
119;1673390742.4811926;47.1306419;7.2406204999999995;22.994001388549805;1673390742.4870646;-12.294939041137695;11.744668006896973;85.60157775878906
120;1673390742.67247;47.130641999999995;7.2406204;23.408000946044922;1673390742.6744132;-11.987515449523926;13.751411437988281;85.33229064941406
121;1673390742.8646443;47.130641999999995;7.2406204;23.814001083374023;1673390742.866597;-11.902318000793457;16.333274841308594;84.85277557373047
122;1673390743.0628603;47.130642099999996;7.2406203;24.22300148010254;1673390743.0667648;-12.254158973693848;12.126011848449707;85.6632308959961
123;1673390743.25517;47.130642099999996;7.2406201999999995;24.631000518798828;1673390743.261025;-12.202047348022461;13.8048095703125;85.18380737304688
124;1673390743.460051;47.130642099999996;7.2406201999999995;25.03900146484375;1673390743.463941;-11.917375564575195;16.338531494140625;84.78671264648438
125;1673390743.671302;47.130641999999995;7.2406201999999995;25.448001861572266;1673390743.6742318;-12.02823257446289;12.6749849319458;85.30445098876953
126;1673390743.885492;47.130641999999995;7.2406201999999995;25.854001998901367;1673390743.8884156;-12.316200256347656;12.501847267150879;85.68022155761719
127;1673390744.0898087;47.130641999999995;7.2406201999999995;26.251001358032227;1673390744.0917606;-11.705904006958008;15.488542556762695;84.94332885742188
128;1673390744.2899842;47.130642099999996;7.2406201999999995;26.652000427246094;1673390744.293887;-11.860353469848633;14.299905776977539;85.07752227783203
129;1673390744.4904616;47.1306422;7.2406201999999995;27.055002212524414;1673390744.49339;-12.167210578918457;11.936848640441895;85.66436767578125
130;1673390744.7005014;47.1306422;7.2406201;27.459001541137695;1673390744.7044024;-11.973077774047852;15.709996223449707;85.00480651855469
131;1673390744.864612;47.130642099999996;7.2406201;27.864002227783203;1673390744.8685012;-11.677712440490723;15.070426940917969;84.9603500366211
132;1673390745.0823522;47.130642099999996;7.24062;28.268001556396484;1673390745.084381;-12.129188537597656;12.127483367919922;85.43490600585938
133;1673390745.325788;47.130642099999996;7.24062;28.671001434326172;1673390745.3277435;-12.222095489501953;14.326372146606445;85.24639892578125
134;1673390745.502677;47.1306422;7.24062;29.071001052856445;1673390745.5075572;-11.757977485656738;16.494918823242188;84.98323822021484
135;1673390745.6834862;47.1306422;7.2406198999999996;29.477001190185547;1673390745.6893423;-12.226778984069824;12.665634155273438;85.51799774169922
136;1673390745.8867877;47.1306422;7.2406198999999996;29.87900161743164;1673390745.8887544;-12.370739936828613;12.749161720275879;85.47245788574219
137;1673390746.093216;47.130642099999996;7.240619799999999;30.27800178527832;1673390746.0961318;-11.935757637023926;16.617183685302734;84.8291015625
138;1673390746.324338;47.130641999999995;7.240619799999999;30.676000595092773;1673390746.327267;-12.081832885742188;13.319687843322754;85.23310852050781
139;1673390746.5113418;47.130641999999995;7.240619799999999;31.072002410888672;1673390746.5142787;-12.390111923217773;12.022181510925293;85.5789566040039
140;1673390746.693782;47.1306419;7.240619799999999;31.465002059936523;1673390746.6976871;-11.9703950881958;15.427815437316895;84.91722106933594
141;1673390746.8973548;47.1306419;7.240619799999999;31.863000869750977;1673390746.8993492;-11.873029708862305;15.874034881591797;84.93376922607422
142;1673390747.1138113;47.130641999999995;7.2406198999999996;32.26100158691406;1673390747.115757;-12.17225456237793;11.700162887573242;85.80340576171875
143;1673390747.2964337;47.130641999999995;7.2406198999999996;32.65999984741211;1673390747.299363;-12.21497917175293;14.411754608154297;85.27236938476562
144;1673390747.4774234;47.130641999999995;7.2406198999999996;33.0629997253418;1673390747.4803522;-11.932085037231445;16.34360122680664;84.94819641113281
145;1673390747.6673377;47.130641999999995;7.2406198999999996;33.470001220703125;1673390747.6702785;-12.118156433105469;12.128613471984863;85.48595428466797
146;1673390747.8715281;47.130641999999995;7.24062;33.874000549316406;1673390747.873491;-12.135049819946289;12.62690258026123;85.40956115722656
147;1673390748.0874908;47.130641999999995;7.24062;34.272003173828125;1673390748.0904088;-11.70626449584961;16.46112060546875;84.74862670898438
148;1673390748.2831821;47.130642099999996;7.24062;34.67500305175781;1673390748.286099;-11.831195831298828;14.064857482910156;85.18972778320312
149;1673390748.4801114;47.1306422;7.24062;35.079002380371094;1673390748.4840143;-12.330522537231445;12.051844596862793;85.60806274414062
150;1673390748.687077;47.1306422;7.24062;35.483001708984375;1673390748.6900063;-11.9729642868042;15.806863784790039;85.10110473632812
151;1673390748.8855736;47.130642099999996;7.24062;35.887001037597656;1673390748.8884945;-11.803604125976562;15.184395790100098;85.01881408691406
152;1673390749.0859814;47.130642099999996;7.2406201;36.290000915527344;1673390749.088909;-12.176559448242188;11.976960182189941;85.49369812011719
153;1673390749.2879293;47.130642099999996;7.2406201;36.6870002746582;1673390749.290849;-12.042006492614746;14.012223243713379;85.1292724609375
154;1673390749.5505462;47.130642099999996;7.2406201;37.0880012512207;1673390749.5525002;-11.87937068939209;15.694024085998535;84.73460388183594
155;1673390749.7019987;47.1306422;7.2406201;37.49100112915039;1673390749.7049277;-12.007709503173828;12.597176551818848;85.5362319946289
156;1673390749.9177704;47.1306424;7.2406201999999995;37.89200210571289;1673390749.9207;-12.10806941986084;13.7613525390625;85.37753295898438
157;1673390750.1697035;47.1306424;7.2406201999999995;38.2920036315918;1673390750.1726327;-11.760010719299316;17.0554141998291;84.8201904296875
158;1673390750.380148;47.1306424;7.2406201999999995;38.69000244140625;1673390750.3821008;-11.825525283813477;13.529088973999023;85.29916381835938
159;1673390750.5649183;47.1306425;7.2406201999999995;39.092002868652344;1673390750.5678604;-12.324017524719238;12.774123191833496;85.54698944091797
160;1673390750.7404196;47.1306424;7.2406201999999995;39.487003326416016;1673390750.7423718;-11.870737075805664;15.79344367980957;84.96390533447266
161;1673390750.9233344;47.1306425;7.2406201999999995;39.88500213623047;1673390750.9262261;-11.86560344696045;15.286601066589355;85.10681915283203
162;1673390751.1210427;47.1306425;7.2406201999999995;40.28200149536133;1673390751.1249344;-12.133249282836914;11.893141746520996;85.71382141113281
163;1673390751.3055875;47.130642599999995;7.2406201999999995;40.67900085449219;1673390751.3085165;-11.891375541687012;15.387581825256348;85.14734649658203
164;1673390751.4991734;47.1306425;7.2406201999999995;41.07500076293945;1673390751.5031004;-11.752385139465332;16.281784057617188;85.00778198242188
165;1673390751.7044628;47.1306425;7.2406201999999995;41.46900177001953;1673390751.7064183;-11.816423416137695;12.689419746398926;85.40625762939453
166;1673390751.8946173;47.1306424;7.2406201999999995;41.85900115966797;1673390751.897533;-12.176959037780762;13.581367492675781;85.40087127685547
167;1673390752.129486;47.1306424;7.2406201;42.25400161743164;1673390752.1324162;-11.604866027832031;15.88498592376709;84.88584899902344
168;1673390752.3406951;47.1306424;7.2406201;42.65400314331055;1673390752.345597;-12.067770957946777;13.898110389709473;85.29795837402344
169;1673390752.5097914;47.1306425;7.24062;43.05500030517578;1673390752.5127351;-12.296998977661133;12.47919750213623;85.49940490722656
170;1673390752.7305346;47.130642599999995;7.2406198999999996;43.45500183105469;1673390752.7315106;-11.917447090148926;16.88860321044922;84.73963165283203
171;1673390752.9005225;47.1306425;7.2406198999999996;43.85400390625;1673390752.903421;-12.023165702819824;14.611363410949707;85.17355346679688
172;1673390753.0843236;47.1306425;7.2406198999999996;44.25100326538086;1673390753.086276;-12.375166893005371;12.508193969726562;85.66368865966797
173;1673390753.2711895;47.1306424;7.2406198999999996;44.64200210571289;1673390753.2750828;-12.104559898376465;15.02252197265625;85.08313751220703
174;1673390753.4800584;47.1306424;7.24062;45.038002014160156;1673390753.4830043;-11.670732498168945;16.05722427368164;84.98048400878906
175;1673390753.6990569;47.1306425;7.2406198999999996;45.435001373291016;1673390753.702961;-12.201183319091797;12.203636169433594;85.66893005371094
176;1673390753.9063709;47.1306425;7.2406198999999996;45.83000183105469;1673390753.9093006;-12.106406211853027;14.003085136413574;85.18858337402344
177;1673390754.1153405;47.1306425;7.24062;46.22500228881836;1673390754.117292;-11.833824157714844;16.706031799316406;84.83329010009766
178;1673390754.3028185;47.1306425;7.24062;46.61900329589844;1673390754.3067095;-11.91128921508789;13.533379554748535;85.38484954833984
179;1673390754.4872658;47.1306424;7.24062;47.00700378417969;1673390754.4911692;-12.174067497253418;12.419554710388184;85.66122436523438
180;1673390754.6767862;47.1306424;7.24062;47.402000427246094;1673390754.6797228;-11.853635787963867;15.989608764648438;84.88555145263672
181;1673390754.8905694;47.1306423;7.24062;47.801002502441406;1673390754.893493;-11.734458923339844;15.550643920898438;84.89901733398438
182;1673390755.0755558;47.1306424;7.24062;48.19300079345703;1673390755.078479;-12.319307327270508;13.303610801696777;85.43133544921875
183;1673390755.2711673;47.1306425;7.2406198999999996;48.53400421142578;1673390755.2740986;-12.283767700195312;15.551641464233398;85.34677124023438
184;1673390755.4699714;47.130642599999995;7.2406197;48.823001861572266;1673390755.4744115;-12.067761421203613;16.444631576538086;85.18209838867188
185;1673390755.6699784;47.130642699999996;7.240619499999999;49.06100082397461;1673390755.6729662;-12.618494033813477;12.321243286132812;85.73280334472656
186;1673390755.8778465;47.1306428;7.2406193;49.25100326538086;1673390755.881754;-12.841547966003418;15.51070785522461;85.17047882080078
187;1673390756.0828726;47.1306428;7.240618899999999;49.41200256347656;1673390756.0867784;-2.070488691329956;25.842012405395508;86.95178985595703
188;1673390756.2784865;47.1306423;7.240617599999999;49.560001373291016;1673390756.281415;13.288961410522461;41.12921142578125;99.64938354492188
189;1673390756.4827256;47.1306404;7.2406136;49.69000244140625;1673390756.4866316;17.041852951049805;53.868194580078125;110.40204620361328
190;1673390756.6940618;47.1306363;7.2406057;49.78700256347656;1673390756.6969817;9.01767635345459;59.64457702636719;118.3218994140625
191;1673390756.9055243;47.1306298;7.2405941;49.836002349853516;1673390756.9104092;-8.301900863647461;58.835731506347656;127.24454498291016
192;1673390757.1087039;47.1306213;7.2405789;49.86100387573242;1673390757.1106625;-21.7263126373291;53.610496520996094;138.31845092773438
193;1673390757.313034;47.1306109;7.240561199999999;49.875003814697266;1673390757.3159623;-34.70548629760742;48.356529235839844;149.96072387695312
194;1673390757.4993718;47.130598899999995;7.2405412;49.86300277709961;1673390757.5032868;-44.90666580200195;44.56147384643555;161.7669219970703
195;1673390757.7020984;47.130585599999996;7.2405187;49.81700134277344;1673390757.7069736;-47.280757904052734;34.22075271606445;171.88917541503906
196;1673390757.8977954;47.130571499999995;7.2404946;49.75600051879883;1673390757.901705;-43.776851654052734;24.4865779876709;179.4263916015625
197;1673390758.08931;47.130556899999995;7.240469399999999;49.70000076293945;1673390758.0922267;-46.5886344909668;19.4169921875;-174.0491180419922
198;1673390758.2865853;47.1305419;7.2404432;49.65400314331055;1673390758.2895205;-47.122920989990234;12.774150848388672;-165.19097900390625
199;1673390758.4928691;47.1305268;7.2404166;49.62300109863281;1673390758.4957964;-47.215694427490234;6.867431163787842;-157.5467529296875
200;1673390758.6824493;47.130511299999995;7.2403894;49.60000228881836;1673390758.685382;-47.99584197998047;-0.14912183582782745;-150.48519897460938
201;1673390758.8830562;47.1304957;7.2403618;49.5880012512207;1673390758.8879807;-47.977474212646484;-3.93232798576355;-144.3611297607422
202;1673390759.0853424;47.1304799;7.240334;49.58500289916992;1673390759.0882697;-46.00060272216797;-14.818099975585938;-140.85940551757812
203;1673390759.2847414;47.130463899999995;7.240307;49.56200408935547;1673390759.2886505;-39.35447692871094;-10.654548645019531;-156.39544677734375
204;1673390759.487155;47.130448;7.240281599999999;49.53600311279297;1673390759.4910614;-36.056602478027344;-6.771691799163818;-168.55621337890625
205;1673390759.6798565;47.1304324;7.2402584999999995;49.52400207519531;1673390759.6827874;-35.79464340209961;-4.58283805847168;-177.73460388183594
206;1673390759.8738236;47.1304172;7.2402372999999995;49.53200149536133;1673390759.8767536;-37.9050407409668;-2.820833444595337;172.80056762695312
207;1673390760.072757;47.1304022;7.2402182999999996;49.564002990722656;1673390760.075685;-41.34238815307617;-4.015689849853516;164.97645568847656
208;1673390760.2643845;47.1303875;7.240202099999999;49.618003845214844;1673390760.2692556;-43.86154556274414;-5.654419422149658;156.3484649658203
209;1673390760.4944532;47.1303731;7.2401893;49.68000411987305;1673390760.5071597;-41.851566314697266;-19.814708709716797;146.4108428955078
210;1673390760.6984296;47.1303603;7.2401814;49.7390022277832;1673390760.7003934;-35.42938995361328;-42.7336540222168;137.1048583984375
211;1673390760.8959146;47.1303501;7.2401775;49.74100112915039;1673390760.8988426;-22.13455581665039;-19.640399932861328;124.30148315429688
212;1673390761.0983472;47.1303426;7.2401763;49.75100326538086;1673390761.101275;-10.342794418334961;-30.017627716064453;143.26222229003906
213;1673390761.283934;47.130337499999996;7.240177;49.80600357055664;1673390761.2888148;0.6101689338684082;-35.24953842163086;163.2359619140625
214;1673390761.4892693;47.1303345;7.240179299999999;49.893001556396484;1673390761.4921956;-10.0885009765625;-7.331827640533447;174.92111206054688
215;1673390761.6964133;47.1303324;7.2401805999999995;49.99500274658203;1673390761.7003171;-38.77482604980469;28.26007080078125;-178.3903045654297
216;1673390761.8852534;47.130329499999995;7.2401781;50.07400131225586;1673390761.8881633;-57.68062210083008;26.948211669921875;-164.85818481445312
217;1673390762.0812562;47.1303254;7.2401709;50.073001861572266;1673390762.0856886;-42.43424606323242;12.22847843170166;-150.03846740722656
218;1673390762.286873;47.1303203;7.2401595;50.082000732421875;1673390762.289788;-45.09867858886719;11.203635215759277;-150.3325958251953
219;1673390762.4888313;47.1303145;7.2401449;50.11000061035156;1673390762.4927354;-47.34175491333008;0.7146342992782593;-140.47930908203125
220;1673390762.6740377;47.130307699999996;7.2401276999999995;50.147003173828125;1673390762.6769671;-54.25697708129883;-13.0776948928833;-132.47006225585938
221;1673390762.8868237;47.1302989;7.2401081;50.191001892089844;1673390762.8917036;-59.1428108215332;-20.18724250793457;-133.6077880859375
222;1673390763.0838358;47.1302879;7.240087;50.224002838134766;1673390763.0873375;-56.40784454345703;-14.64517593383789;-139.46932983398438
223;1673390763.2821178;47.1302751;7.2400648;50.24500274658203;1673390763.2875357;-54.63998031616211;-13.134638786315918;-140.58450317382812
224;1673390763.482396;47.130261;7.240041799999999;50.25400161743164;1673390763.4868305;-54.8796272277832;-13.538204193115234;-139.92173767089844
225;1673390763.6911178;47.130245699999996;7.2400183;50.25200271606445;1673390763.6950219;-52.05127716064453;-14.157479286193848;-141.35952758789062
226;1673390763.8926208;47.1302295;7.239994599999999;50.237003326416016;1673390763.8965404;-51.284507751464844;-13.684809684753418;-149.23191833496094
227;1673390764.0899282;47.1302125;7.2399714;50.207000732421875;1673390764.0928574;-47.44699478149414;-5.78512716293335;-160.28567504882812
228;1673390764.296837;47.130195199999996;7.2399489;50.176002502441406;1673390764.3007503;-45.4453125;1.2129038572311401;-169.01345825195312
229;1673390764.5002637;47.1301777;7.2399271;50.14500427246094;1673390764.50513;-45.137779235839844;7.384823799133301;-177.41905212402344
230;1673390764.6975071;47.1301602;7.2399058;50.12000274658203;1673390764.6994584;-44.226715087890625;16.867225646972656;176.4480438232422
231;1673390764.896938;47.1301425;7.2398846;50.09800338745117;1673390764.8998675;-46.57836151123047;17.334421157836914;-171.2925262451172
232;1673390765.1107943;47.130125;7.2398622999999995;50.07600402832031;1673390765.1137254;-44.81555938720703;10.012895584106445;-157.06869506835938
233;1673390765.3121943;47.1301079;7.2398389;50.048004150390625;1673390765.3160913;-44.192447662353516;4.249652862548828;-147.81028747558594
234;1673390765.4920063;47.1300913;7.239814699999999;50.01700210571289;1673390765.4949214;-42.262081146240234;-0.9476029872894287;-139.31134033203125
235;1673390765.7029998;47.130075399999996;7.239789699999999;50.00600051879883;1673390765.7068882;-42.72138977050781;-8.75916862487793;-133.4454345703125
236;1673390765.894715;47.130059599999996;7.2397642;50.025001525878906;1673390765.8976448;-50.874881744384766;-13.418288230895996;-136.15187072753906
237;1673390766.0980923;47.1300434;7.2397383;50.04300308227539;1673390766.1019974;-52.44580841064453;-17.521726608276367;-141.57412719726562
238;1673390766.2914915;47.1300264;7.2397129;50.03700256347656;1673390766.2924597;-48.15900802612305;-12.058487892150879;-154.27474975585938
239;1673390766.512043;47.130009199999996;7.2396886;50.01900100708008;1673390766.5149894;-42.921539306640625;-5.544368743896484;-164.21957397460938
240;1673390766.7259297;47.1299919;7.2396655;49.999000549316406;1673390766.7288604;-41.5130729675293;1.2820769548416138;-172.84861755371094
241;1673390766.9214098;47.1299748;7.239643399999999;49.983001708984375;1673390766.9233491;-42.34870910644531;7.058188438415527;178.675048828125
242;1673390767.1080313;47.1299577;7.2396223;49.97200393676758;1673390767.1109493;-41.00279998779297;11.518839836120605;169.38938903808594
243;1673390767.3062441;47.1299407;7.2396024;49.9630012512207;1673390767.3101597;-40.01066970825195;13.940313339233398;160.2904815673828
244;1673390767.5214891;47.129923899999994;7.239583799999999;49.965003967285156;1673390767.5253932;-43.889400482177734;18.0484619140625;154.3038787841797
245;1673390767.727008;47.1299068;7.2395663;49.98400115966797;1673390767.7299302;-46.43223190307617;21.181655883789062;164.56802368164062
246;1673390767.9263356;47.1298892;7.2395489;50.00600051879883;1673390767.9282892;-50.59785079956055;11.801795959472656;-176.2260284423828
247;1673390768.1408648;47.1298712;7.2395309;50.022003173828125;1673390768.1428149;-51.353553771972656;4.046097755432129;-166.35833740234375
248;1673390768.305089;47.129852899999996;7.2395122999999995;50.0260009765625;1673390768.3080187;-49.25182342529297;3.008943796157837;-159.58267211914062
249;1673390768.5074468;47.129834599999995;7.239492899999999;50.009002685546875;1673390768.5084164;-44.4739990234375;2.7647652626037598;-151.1390380859375
250;1673390768.7251563;47.1298168;7.2394725;49.96600341796875;1673390768.7271104;-38.610595703125;2.14024019241333;-141.25526428222656
251;1673390768.8908854;47.1298001;7.239451;49.92000198364258;1673390768.894361;-35.56920623779297;0.08188808709383011;-133.13507080078125
252;1673390769.086332;47.1297844;7.2394283999999995;49.90800094604492;1673390769.0902421;-43.459129333496094;-6.410917282104492;-133.00831604003906
253;1673390769.297164;47.1297691;7.2394047;49.92900085449219;1673390769.300092;-49.8720817565918;-10.095359802246094;-136.39768981933594
254;1673390769.5017812;47.1297535;7.239380199999999;49.958003997802734;1673390769.5057003;-51.103118896484375;-12.933460235595703;-138.08872985839844
255;1673390769.7097938;47.1297375;7.239355199999999;49.980003356933594;1673390769.7136981;-51.5659294128418;-14.25423812866211;-138.66578674316406
256;1673390769.9082537;47.1297208;7.2393301;49.993003845214844;1673390769.9121583;-49.61849594116211;-13.823251724243164;-139.71145629882812
257;1673390770.09025;47.1297037;7.239305;49.99700164794922;1673390770.093177;-48.14044952392578;-12.755967140197754;-140.53326416015625
258;1673390770.290789;47.1296864;7.2392799;49.99100112915039;1673390770.2927413;-46.80386734008789;-10.624921798706055;-140.3378448486328
259;1673390770.4984808;47.129669;7.239254799999999;49.98500061035156;1673390770.5004385;-45.36289596557617;-10.440601348876953;-139.849365234375
260;1673390770.7174408;47.1296517;7.2392296;49.98500061035156;1673390770.7203445;-46.13999557495117;-10.623723983764648;-139.8859405517578
261;1673390770.9146495;47.1296344;7.2392045;49.98600387573242;1673390770.9175773;-47.19211959838867;-10.934183120727539;-139.935302734375
262;1673390771.1272573;47.129616999999996;7.2391793;49.98600387573242;1673390771.131173;-47.072811126708984;-10.937384605407715;-140.08538818359375
263;1673390771.3107486;47.1295995;7.239154;49.987003326416016;1673390771.3146524;-46.523948669433594;-10.87706184387207;-140.2014617919922
264;1673390771.515079;47.1295821;7.2391288;49.9890022277832;1673390771.5189862;-46.65672302246094;-10.936116218566895;-140.25245666503906
265;1673390771.7143507;47.129564599999995;7.2391035;49.99100112915039;1673390771.7172854;-46.68344497680664;-10.910296440124512;-140.37301635742188
266;1673390771.921521;47.129547099999996;7.2390783;49.99500274658203;1673390771.9244587;-46.799827575683594;-10.914968490600586;-140.4829864501953
267;1673390772.1191332;47.1295295;7.2390531;49.99800109863281;1673390772.1220152;-47.1326904296875;-10.896055221557617;-140.60821533203125
268;1673390772.3183744;47.129512;7.2390279;49.99700164794922;1673390772.3213034;-46.954063415527344;-10.733086585998535;-140.81918334960938
269;1673390772.509094;47.1294944;7.2390026999999995;49.99400329589844;1673390772.5130093;-46.38764190673828;-10.53425121307373;-140.9839324951172
270;1673390772.6922343;47.1294768;7.238977599999999;49.993003845214844;1673390772.6961389;-46.37662887573242;-10.421406745910645;-141.10340881347656
271;1673390772.8945258;47.1294592;7.2389525;49.99500274658203;1673390772.8974557;-46.903560638427734;-10.419029235839844;-141.26028442382812
272;1673390773.0948796;47.1294416;7.2389275;49.99800109863281;1673390773.0978074;-47.38365936279297;-11.409316062927246;-141.31671142578125
273;1673390773.3212628;47.1294239;7.2389024;50.00200271606445;1673390773.3241947;-47.86103439331055;-12.098577499389648;-141.86163330078125
274;1673390773.5127773;47.129405999999996;7.2388775999999995;50.00400161743164;1673390773.518618;-47.44822692871094;-13.659481048583984;-142.12171936035156
275;1673390773.7245955;47.129388;7.2388531;50.00400161743164;1673390773.7265377;-47.488807678222656;-13.34945297241211;-143.0821990966797
276;1673390773.9044054;47.1293698;7.2388289;50.00100326538086;1673390773.9083097;-46.440391540527344;-13.841856956481934;-143.1862335205078
277;1673390774.1067824;47.1293515;7.2388052;50.00100326538086;1673390774.1106691;-46.388877868652344;-14.51710033416748;-143.42347717285156
278;1673390774.3015409;47.129332999999995;7.238781899999999;50.00100326538086;1673390774.3050017;-46.44941329956055;-15.98365592956543;-143.74822998046875
279;1673390774.5049458;47.1293144;7.2387592;50.00400161743164;1673390774.50885;-46.225589752197266;-17.2480525970459;-144.1802520751953
280;1673390774.7033863;47.1292956;7.2387371;50.00600051879883;1673390774.7072937;-45.79452896118164;-18.91653823852539;-144.47483825683594
281;1673390774.9134452;47.1292767;7.2387159;50.01100158691406;1673390774.9173625;-43.101741790771484;-19.52829360961914;-145.2937774658203
282;1673390775.128079;47.1292577;7.2386957;50.02000427246094;1673390775.130032;-31.713308334350586;-19.41211700439453;-145.09414672851562
283;1673390775.293284;47.1292395;7.2386767999999995;50.044002532958984;1673390775.2962124;-16.305749893188477;-17.980558395385742;-143.07679748535156
284;1673390775.508588;47.1292226;7.2386595;50.060001373291016;1673390775.5134668;-0.23429831862449646;-15.20043659210205;-139.31863403320312
285;1673390775.701696;47.129207799999996;7.238644;50.06800079345703;1673390775.7036083;9.898494720458984;-11.817280769348145;-136.6167755126953
286;1673390775.9092321;47.1291957;7.2386306;50.06900405883789;1673390775.9121747;16.477210998535156;-11.7678804397583;-135.90399169921875
287;1673390776.1056123;47.1291863;7.238619099999999;50.06700134277344;1673390776.1095407;19.467113494873047;-7.342552185058594;-136.74082946777344
288;1673390776.3046298;47.1291793;7.2386095;50.06800079345703;1673390776.3090694;17.331565856933594;-17.34353256225586;-135.50244140625
289;1673390776.4922397;47.1291742;7.2386018;50.07100296020508;1673390776.4951463;10.29317569732666;-15.720559120178223;-135.8690948486328
290;1673390776.704214;47.1291704;7.238595699999999;50.08100128173828;1673390776.7076983;4.03577995300293;-18.85894203186035;-137.21629333496094
291;1673390776.8958914;47.1291675;7.2385908;50.092002868652344;1673390776.8988082;-1.167981743812561;-18.113590240478516;-139.3938446044922
292;1673390777.0953267;47.129165099999994;7.2385867;50.09800338745117;1673390777.100196;-4.583706378936768;-19.435699462890625;-141.23313903808594
293;1673390777.2907765;47.129162799999996;7.2385831;50.10400390625;1673390777.2937143;-7.64655876159668;-21.30817985534668;-142.48291015625
294;1673390777.502074;47.129160399999996;7.23858;50.10600280761719;1673390777.5084658;-9.952418327331543;-21.889665603637695;-143.00564575195312
295;1673390777.7033331;47.129158;7.238576999999999;50.10600280761719;1673390777.7072363;-10.504772186279297;-20.592876434326172;-143.3261260986328
296;1673390777.9218826;47.129155499999996;7.2385739;50.13600158691406;1673390777.9238486;-24.53177261352539;-16.062725067138672;-137.55540466308594
297;1673390778.133915;47.1291522;7.238569699999999;50.24400329589844;1673390778.137861;-40.575096130371094;-15.867722511291504;-134.8499298095703
298;1673390778.354886;47.129147499999995;7.2385633;50.40200424194336;1673390778.3578463;-36.19914627075195;-11.51962947845459;-137.7615509033203
299;1673390778.5393682;47.1291416;7.238555;50.6140022277832;1673390778.5403469;-29.596799850463867;-8.03996753692627;-138.85391235351562
300;1673390778.7406135;47.129135399999996;7.2385451;50.893001556396484;1673390778.7435267;-18.298416137695312;-2.178647994995117;-138.89952087402344
301;1673390778.9416523;47.129129299999995;7.238534199999999;51.23600387573242;1673390778.9445777;-29.58909797668457;-16.626468658447266;-137.26071166992188
302;1673390779.121571;47.1291223;7.2385226;51.624000549316406;1673390779.12451;-43.572410583496094;-26.200231552124023;-137.2516632080078
303;1673390779.3095858;47.129113499999995;7.238510499999999;52.01400375366211;1673390779.314029;-39.57263946533203;-21.9752197265625;-139.2256317138672
304;1673390779.5098906;47.1291035;7.238498;52.39500427246094;1673390779.514327;-36.15826416015625;-19.59276580810547;-139.39125061035156
305;1673390779.7063053;47.129092799999995;7.2384851999999995;52.772003173828125;1673390779.7082827;-33.59651565551758;-17.507061004638672;-138.40562438964844
306;1673390779.9120734;47.1290816;7.238472;53.150001525878906;1673390779.9179318;-30.775676727294922;-15.17386245727539;-138.30873107910156
307;1673390780.1153738;47.129070299999995;7.2384585999999995;53.53300094604492;1673390780.1173265;-27.82895851135254;-14.38373851776123;-137.51065063476562
308;1673390780.302778;47.1290592;7.2384451;53.913002014160156;1673390780.305696;-25.97841453552246;-13.450274467468262;-137.2127685546875
309;1673390780.4980745;47.129048399999995;7.2384314;54.2920036315918;1673390780.5019808;-24.847309112548828;-14.131787300109863;-136.77149963378906
310;1673390780.6877213;47.1290379;7.238417699999999;54.677001953125;1673390780.6906488;-24.27692222595215;-14.527894973754883;-136.63632202148438
311;1673390780.8744476;47.129027699999995;7.2384039;55.064002990722656;1673390780.877376;-24.110483169555664;-15.175159454345703;-136.5642852783203
312;1673390781.1041815;47.1290177;7.238390099999999;55.452003479003906;1673390781.1070936;-24.44405174255371;-15.719223976135254;-136.6116180419922
313;1673390781.3084054;47.129008;7.2383764;55.846004486083984;1673390781.3113225;-25.37798309326172;-15.888812065124512;-136.77938842773438
314;1673390781.5189605;47.1289984;7.2383628;56.2400016784668;1673390781.5218956;-26.10706901550293;-15.85645580291748;-136.99232482910156
315;1673390781.6965613;47.128988899999996;7.2383492;56.634002685546875;1673390781.6994975;-27.117307662963867;-15.768476486206055;-137.12484741210938
316;1673390781.9086504;47.1289793;7.2383358;57.02900314331055;1673390781.9115787;-27.826519012451172;-15.814608573913574;-137.24609375
317;1673390782.112836;47.1289696;7.2383223999999995;57.43000411987305;1673390782.1157763;-27.92121124267578;-16.819982528686523;-137.07156372070312
318;1673390782.3291266;47.1289598;7.238309;57.83200454711914;1673390782.3310788;-27.87937355041504;-17.29873275756836;-137.01707458496094
319;1673390782.5252829;47.128949999999996;7.2382954999999995;58.23600387573242;1673390782.5292027;-27.79153060913086;-17.46384620666504;-136.90907287597656
320;1673390782.7236967;47.1289401;7.2382819;58.63900375366211;1673390782.725649;-27.980478286743164;-17.25933837890625;-136.87136840820312
321;1673390782.9312534;47.1289302;7.2382683;59.040000915527344;1673390782.9341693;-27.908605575561523;-16.54984474182129;-137.0601043701172
322;1673390783.1319807;47.128920199999996;7.238254599999999;59.435001373291016;1673390783.134909;-27.906755447387695;-16.09503746032715;-137.0836944580078
323;1673390783.314131;47.1289103;7.2382409;59.833003997802734;1673390783.3185682;-28.0247859954834;-15.581679344177246;-137.16879272460938
324;1673390783.5121362;47.1289002;7.2382272;60.23100280761719;1673390783.5150774;-27.926433563232422;-15.355534553527832;-137.25466918945312
325;1673390783.7608466;47.1288902;7.238213399999999;60.63300323486328;1673390783.7647564;-27.8510684967041;-15.347017288208008;-137.2454071044922
326;1673390783.9910743;47.128880099999996;7.2381996;61.03700256347656;1673390783.99304;-27.765363693237305;-15.619750022888184;-137.14666748046875
327;1673390784.1715896;47.12887;7.2381858;61.43800354003906;1673390784.173533;-27.582836151123047;-15.96019458770752;-137.0454559326172
328;1673390784.3685374;47.128859999999996;7.2381721;61.836002349853516;1673390784.371451;-27.394367218017578;-16.46439552307129;-136.96559143066406
329;1673390784.5677645;47.12885;7.2381584;62.22900390625;1673390784.56972;-27.481428146362305;-16.821901321411133;-136.89968872070312
330;1673390784.7942755;47.12884;7.238144699999999;62.62700271606445;1673390784.7962568;-27.585115432739258;-17.161762237548828;-136.7869415283203
331;1673390785.004651;47.12883;7.238131;63.026004791259766;1673390785.0386584;-27.745542526245117;-17.19818115234375;-136.80148315429688
332;1673390785.226605;47.128819899999996;7.2381172;63.423004150390625;1673390785.2275808;-27.663564682006836;-17.068788528442383;-136.82818603515625
333;1673390785.3867307;47.1288099;7.238103499999999;63.81900405883789;1673390785.389656;-27.740901947021484;-16.99405860900879;-136.8508758544922
334;1673390785.5395873;47.1287999;7.2380898;64.21400451660156;1673390785.5415485;-27.73630142211914;-16.622472763061523;-137.004150390625
335;1673390785.8112066;47.1287899;7.2380761;64.60400390625;1673390785.8131602;-27.888315200805664;-16.103055953979492;-137.17852783203125
336;1673390785.996937;47.1287799;7.238062299999999;64.9990005493164;1673390785.9979146;-27.987871170043945;-15.754434585571289;-137.25433349609375
337;1673390786.1703498;47.1287698;7.2380486;65.39600372314453;1673390786.1742496;-27.860382080078125;-15.572169303894043;-137.23695373535156
338;1673390786.3616009;47.128759699999996;7.238034799999999;65.79400634765625;1673390786.3635535;-27.737394332885742;-15.533944129943848;-137.24053955078125
339;1673390786.554074;47.1287496;7.238021;66.19400024414062;1673390786.5560248;-27.6607723236084;-15.480856895446777;-137.22425842285156
340;1673390786.732084;47.128739499999995;7.238007199999999;66.59400177001953;1673390786.7350128;-27.597347259521484;-15.621626853942871;-137.10598754882812
341;1673390786.9283528;47.1287295;7.2379935;66.98900604248047;1673390786.9303048;-27.5806941986084;-15.784491539001465;-137.1062469482422
342;1673390787.1277792;47.128719499999995;7.2379796999999995;67.38300323486328;1673390787.129732;-27.650428771972656;-16.0599308013916;-137.05516052246094
343;1673390787.3389027;47.1287095;7.237965999999999;67.781005859375;1673390787.3418326;-27.54945945739746;-16.494741439819336;-136.9813995361328
344;1673390787.5286312;47.128699499999996;7.2379523;68.18000030517578;1673390787.531552;-27.600841522216797;-16.615991592407227;-136.93768310546875
345;1673390787.7027054;47.1286895;7.2379386;68.58000183105469;1673390787.7056339;-27.77193260192871;-16.862276077270508;-136.91355895996094
346;1673390787.898769;47.128679399999996;7.237924899999999;68.9780044555664;1673390787.902673;-27.856029510498047;-16.89421844482422;-136.8731231689453
347;1673390788.1135128;47.1286694;7.2379112;69.37300109863281;1673390788.1174183;-27.740535736083984;-16.820402145385742;-136.88058471679688
348;1673390788.321337;47.1286594;7.2378974;69.76300048828125;1673390788.3242679;-27.849761962890625;-16.858243942260742;-136.88449096679688
349;1673390788.525906;47.1286494;7.237883699999999;70.156005859375;1673390788.5298512;-28.049928665161133;-16.550107955932617;-137.00051879882812
350;1673390788.7249577;47.1286396;7.237870099999999;70.5320053100586;1673390788.7259338;-12.060529708862305;-18.18668556213379;-137.95947265625
351;1673390788.937509;47.1286303;7.2378573;70.8740005493164;1673390788.9433658;-6.565622329711914;-18.623464584350586;-137.27809143066406
352;1673390789.1458485;47.128622;7.2378458;71.1760025024414;1673390789.1487768;-0.9613549709320068;-19.009172439575195;-137.1091766357422
353;1673390789.3742814;47.1286146;7.2378355999999995;71.43900299072266;1673390789.376233;3.906980276107788;-18.880722045898438;-136.94863891601562
354;1673390789.5935302;47.128608299999996;7.2378268;71.66300201416016;1673390789.5954819;5.914376735687256;-17.97681427001953;-136.9892120361328
355;1673390789.7625663;47.1286032;7.237819699999999;71.86000061035156;1673390789.765495;7.004963397979736;-17.385841369628906;-137.25865173339844
356;1673390789.9434319;47.1285989;7.2378138;72.0320053100586;1673390789.9453678;6.785319805145264;-17.11524772644043;-137.22198486328125
357;1673390790.1235728;47.128595499999996;7.2378089999999995;72.18000030517578;1673390790.125517;5.253746509552002;-17.292692184448242;-137.24368286132812
358;1673390790.30535;47.1285929;7.2378051;72.31100463867188;1673390790.307305;3.0025899410247803;-14.840024948120117;-137.03614807128906
359;1673390790.4979289;47.128591;7.2378015;72.41900634765625;1673390790.501812;6.935666084289551;10.27199649810791;-129.0015411376953
360;1673390790.709774;47.1285905;7.2377974;72.4990005493164;1673390790.7136714;1.5355517864227295;12.341584205627441;-118.79136657714844
361;1673390790.9112525;47.1285916;7.2377926;72.5530014038086;1673390790.9141953;0.7742323279380798;-1.2866871356964111;-107.41791534423828
362;1673390791.1012857;47.1285935;7.2377872;72.60200500488281;1673390791.1042197;-0.6838013529777527;-3.3016183376312256;-98.46832275390625
363;1673390791.3104613;47.128595999999995;7.2377815;72.64900207519531;1673390791.3143547;2.445357322692871;-5.765397548675537;-89.82749938964844
364;1673390791.515874;47.1285988;7.2377755;72.69200134277344;1673390791.5197737;5.819365978240967;-8.366498947143555;-80.81953430175781
365;1673390791.7084548;47.1286017;7.2377692;72.73300170898438;1673390791.7113469;8.774592399597168;-6.820141315460205;-71.54434967041016
366;1673390791.9155602;47.128604599999996;7.2377629;72.77100372314453;1673390791.9204493;11.260114669799805;-5.759068965911865;-62.14199447631836
367;1673390792.1200068;47.1286073;7.2377568;72.80500030517578;1673390792.1229343;11.786941528320312;-2.524866819381714;-52.62844467163086
368;1673390792.3063347;47.1286097;7.237750699999999;72.83300018310547;1673390792.3092637;11.576135635375977;0.7488218545913696;-43.11774826049805
369;1673390792.5106077;47.128612;7.2377446999999995;72.86200714111328;1673390792.5135365;11.438575744628906;3.075669765472412;-38.50348663330078
370;1673390792.7167606;47.128614299999995;7.2377389999999995;72.88500213623047;1673390792.7206628;-6.212711811065674;-1.6250388622283936;-40.3316764831543
371;1673390792.917954;47.128617299999995;7.2377325;72.9050064086914;1673390792.9228373;-38.622432708740234;-1.4015371799468994;-43.38854217529297
372;1673390793.12245;47.1286221;7.2377236;72.88700103759766;1673390793.124404;-47.7489128112793;-2.846113443374634;-45.164215087890625
373;1673390793.3253078;47.1286291;7.2377115;72.84800720214844;1673390793.3292046;-41.33197784423828;-3.624544620513916;-45.61095428466797
374;1673390793.5275295;47.128638099999996;7.2376963;72.8270034790039;1673390793.531445;-44.41246795654297;-4.245995998382568;-44.857452392578125
375;1673390793.738298;47.1286492;7.2376781;72.84400177001953;1673390793.7412102;-53.31803894042969;-2.17512583732605;-45.34236526489258
376;1673390793.9387605;47.1286627;7.237656299999999;72.88700103759766;1673390793.9407122;-60.3877067565918;0.42320987582206726;-46.051395416259766
377;1673390794.1383882;47.128678699999995;7.2376306999999995;72.9330062866211;1673390794.1422925;-61.89878463745117;-0.042515531182289124;-46.414772033691406
378;1673390794.358294;47.1286968;7.237602;72.96300506591797;1673390794.3622468;-59.4669303894043;0.05532671883702278;-46.205387115478516
379;1673390794.5471826;47.128716399999995;7.237571099999999;72.93700408935547;1673390794.5503542;-56.274147033691406;0.23342372477054596;-46.20313262939453
380;1673390794.7503855;47.1287361;7.23754;72.59100341796875;1673390794.7533128;-42.905826568603516;0.8402154445648193;-45.99607849121094
381;1673390794.9533162;47.1287556;7.2375091;71.8800048828125;1673390794.9563024;-11.692886352539062;1.3008379936218262;-45.153507232666016
382;1673390795.151408;47.128775;7.237478299999999;70.79100036621094;1673390795.1543264;38.480125427246094;2.659804582595825;-43.104732513427734
383;1673390795.3364933;47.1287945;7.2374474;69.29900360107422;1673390795.3404782;84.72428894042969;153.84950256347656;108.75189971923828
384;1673390795.521373;47.1288141;7.2374163;67.44499969482422;1673390795.5252764;48.2089958190918;175.63058471679688;131.16429138183594
385;1673390795.7382956;47.1288335;7.2373856;65.23200225830078;1673390795.7412598;35.98015594482422;172.7171173095703;127.84392547607422
386;1673390795.9304678;47.128852599999995;7.2373552;62.660003662109375;1673390795.9363868;52.7769660949707;166.7257080078125;123.71672821044922
387;1673390796.1415527;47.128871499999995;7.2373252;59.73500442504883;1673390796.1444972;76.90129852294922;36.7896614074707;-4.060083866119385
388;1673390796.3472981;47.1288905;7.2372951;56.46000289916992;1673390796.3503435;12.309706687927246;3.3907277584075928;-36.34225082397461
389;1673390796.5298615;47.1289095;7.237265099999999;52.77800369262695;1673390796.5337799;-43.30247116088867;-0.59665846824646;-37.548377990722656
390;1673390796.7238019;47.128928099999996;7.2372356;48.743003845214844;1673390796.727319;-64.85214233398438;-2.617352247238159;-36.8826789855957
391;1673390796.9051032;47.1289465;7.2372064;44.3900032043457;1673390796.9090645;-44.62422561645508;1.4687451124191284;-39.66178512573242
392;1673390797.1213598;47.128964499999995;7.2371777999999996;39.69200134277344;1673390797.1223526;13.865782737731934;3.0729475021362305;-37.656368255615234
393;1673390797.3351345;47.1289824;7.237149199999999;34.58500289916992;1673390797.3371766;75.26617431640625;17.89249610900879;-21.728532791137695
394;1673390797.5261922;47.129000399999995;7.2371205;29.14200210571289;1673390797.5294666;80.86298370361328;149.3445587158203;110.5371322631836
395;1673390797.7124739;47.1290185;7.237091899999999;23.415000915527344;1673390797.7154171;67.30821228027344;10.834012031555176;-27.148841857910156
396;1673390797.9054775;47.129036799999994;7.237063;17.361000061035156;1673390797.9107425;2.184040069580078;2.478013515472412;-35.950950622558594
397;1673390798.1033683;47.129055099999995;7.2370344;10.906000137329102;1673390798.1063266;-50.607486724853516;1.013140082359314;-36.188114166259766
398;1673390798.3113604;47.129072799999996;7.2370063;4.138000011444092;1673390798.3142905;-49.17291259765625;1.5357564687728882;-35.42524719238281
399;1673390798.5215452;47.1290853;7.2369885;0.19100001454353333;1673390798.5244699;-5.5417327880859375;-7.503762245178223;-34.65153121948242
400;1673390798.7086158;47.1290951;7.236981;0.45900002121925354;1673390798.711506;-8.355962753295898;1.3341319561004639;-34.13249969482422
401;1673390798.9075956;47.129107;7.236972199999999;0.7200000286102295;1673390798.9095473;-7.797524452209473;-2.0724856853485107;-33.07939147949219
402;1673390799.1123848;47.1291187;7.2369638;0.9360000491142273;1673390799.115327;-7.558231353759766;-2.1148276329040527;-32.85764694213867
403;1673390799.3185258;47.129129299999995;7.2369562;1.0910000801086426;1673390799.3214755;-7.187264442443848;-3.1534721851348877;-32.62009811401367
404;1673390799.5224;47.129138399999995;7.2369495;1.2010000944137573;1673390799.5253463;-6.801163673400879;-3.879275321960449;-32.41345977783203
405;1673390799.7094254;47.129146399999996;7.2369435;1.2790000438690186;1673390799.7133389;-6.461406230926514;-4.1345367431640625;-32.28679275512695
406;1673390799.9304838;47.129155999999995;7.236936399999999;1.3420000076293945;1673390799.9334116;-6.307485580444336;-4.31263542175293;-32.31961441040039
407;1673390800.1429386;47.1291667;7.2369281999999995;1.4270000457763672;1673390800.1474402;-6.195152282714844;-4.257084846496582;-32.33933639526367
408;1673390800.3365142;47.1291781;7.236919599999999;1.4780000448226929;1673390800.338469;-6.089653015136719;-4.209039688110352;-32.38344955444336
409;1673390800.5394504;47.1291899;7.236910699999999;1.5080000162124634;1673390800.5414162;-5.957772731781006;-4.148962020874023;-32.40386199951172
410;1673390800.758978;47.129202199999995;7.2369014;1.5230001211166382;1673390800.7628915;-5.889278888702393;-4.057626247406006;-32.4477653503418
411;1673390800.959538;47.1292147;7.2368919;1.5280001163482666;1673390800.9624853;-5.791864395141602;-3.92683744430542;-32.44691848754883
412;1673390801.1634333;47.1292274;7.236882199999999;1.534000039100647;1673390801.165386;-5.675902843475342;-3.770796537399292;-32.49227523803711
413;1673390801.368809;47.1292404;7.236872099999999;1.562000036239624;1673390801.3707647;-5.60152006149292;-3.6083908081054688;-32.52545928955078
414;1673390801.5624113;47.1292537;7.2368616999999995;1.571000099182129;1673390801.5663512;-5.49298620223999;-3.4903526306152344;-32.53633499145508
415;1673390801.7443259;47.1292671;7.236851199999999;1.5670000314712524;1673390801.747347;-5.416867256164551;-3.3210620880126953;-32.54939270019531
416;1673390801.9235737;47.1292808;7.236840399999999;1.558000087738037;1673390801.925529;-5.313253879547119;-3.1860060691833496;-32.58738708496094
