;pos_time;latitude;longitude;altitude;alt_time;pitch;roll;yaw
0;1666859649.8669617;46.9755331;7.1803520999999995;-0.11800000816583633;1666859649.9294276;-0.6545758247375488;0.4601803421974182;92.09065246582031
1;1666859650.0826573;46.975533;7.1803522;-0.11600000411272049;1666859650.1431708;-0.6679350733757019;0.6890627145767212;91.86803436279297
2;1666859650.290547;46.9755329;7.1803522;-0.11300000548362732;1666859650.3578913;-0.4467701315879822;0.7303812503814697;92.01117706298828
3;1666859650.4857483;46.975532799999996;7.1803522;-0.1120000034570694;1666859650.5706606;-0.7332165837287903;0.9233453869819641;91.83411407470703
4;1666859650.7180345;46.975532699999995;7.1803523;-0.11300000548362732;1666859650.7970905;-0.6573883295059204;0.7968296408653259;91.99406433105469
5;1666859650.9552035;46.9755325;7.1803523;-0.1120000034570694;1666859651.0127885;-0.6977258324623108;0.5302416086196899;91.95097351074219
6;1666859651.1630933;46.9755323;7.1803523;-0.11000000685453415;1666859651.2333627;-0.8205099105834961;0.5573965907096863;91.9199447631836
7;1666859651.394405;46.9755323;7.1803523;-0.10200000554323196;1666859651.4754148;-0.4892052710056305;0.8133813142776489;91.95256042480469
8;1666859651.7438118;46.975532199999996;7.1803523;-0.09700000286102295;1666859651.825796;-0.6195793747901917;0.6991922855377197;91.85417175292969
9;1666859651.969268;46.975532199999996;7.1803522;-0.09800000488758087;1666859652.0522301;-0.42614325881004333;0.4630843997001648;91.93620300292969
10;1666859652.1859403;46.975532199999996;7.1803522;-0.0950000062584877;1666859652.2445028;-0.706283450126648;0.5297812819480896;91.9532470703125
11;1666859652.3850443;46.975532;7.1803523;-0.09200000762939453;1666859652.4543438;-0.4746289551258087;0.22979338467121124;92.13517761230469
12;1666859652.6046462;46.975532;7.1803523;-0.08700000494718552;1666859652.667111;-0.43277543783187866;0.40348559617996216;92.05388641357422
13;1666859652.8213184;46.975532;7.1803523;-0.08400000631809235;1666859652.9072075;-0.45241186022758484;0.19158783555030823;92.0291748046875
14;1666859653.0565355;46.975532099999995;7.1803523;0.0010000000474974513;1666859653.1141171;-0.5487644076347351;0.12979863584041595;92.03956604003906
15;1666859653.264422;46.975532099999995;7.1803523;0.0020000000949949026;1666859653.3307915;-0.566125214099884;0.27857834100723267;91.91063690185547
16;1666859653.4801185;46.975532099999995;7.1803523;0.0;1666859653.5445356;-0.6347954869270325;0.2173844277858734;92.01416015625
17;1666859653.691909;46.975532199999996;7.1803523;0.005000000353902578;1666859653.7602327;-0.6238582134246826;0.0942603126168251;92.17404174804688
18;1666859653.9037056;46.975532;7.180352399999999;0.012000000104308128;1666859653.9691026;-0.5689166784286499;0.11629453301429749;92.1709976196289
19;1666859654.1111333;46.975532;7.180352399999999;0.017000000923871994;1666859654.1911635;-0.6826602220535278;-0.016308048740029335;92.19419860839844
20;1666859654.323902;46.975532;7.1803525;0.020000001415610313;1666859654.4019802;-0.40849006175994873;0.20309215784072876;91.9756088256836
21;1666859654.5581393;46.975532;7.180352399999999;-0.0010000000474974513;1666859654.6313396;-0.49960702657699585;-0.01757018268108368;92.24095153808594
22;1666859654.8026583;46.975532;7.180352399999999;0.0;1666859654.8595302;-0.34286436438560486;-0.17889955639839172;92.36962890625
23;1666859655.0078802;46.975532099999995;7.180352399999999;0.0010000000474974513;1666859655.074251;-0.46042025089263916;-0.12161627411842346;92.17698669433594
24;1666859655.223116;46.975532;7.180352399999999;0.0;1666859655.283634;-0.36807361245155334;-0.29744160175323486;92.31282806396484
25;1666859655.420098;46.975532;7.180352399999999;-0.0010000000474974513;1666859655.485489;-0.2624513506889343;-0.4033606946468353;92.42550659179688
26;1666859655.633842;46.975532;7.180352399999999;-0.003000000026077032;1666859655.702161;-0.1465279459953308;-0.5001311898231506;92.3248062133789
27;1666859655.8514912;46.975532199999996;7.180352399999999;-0.00800000037997961;1666859655.9105668;-0.15445765852928162;-0.44985443353652954;92.29187774658203
28;1666859656.0682135;46.9755323;7.180352399999999;-0.013000000268220901;1666859656.127289;-0.2641952633857727;-0.49179136753082275;92.24388885498047
29;1666859656.266857;46.9755324;7.180352399999999;-0.017000000923871994;1666859656.3322477;0.19568951427936554;-0.9422363638877869;92.23467254638672
30;1666859656.4766955;46.9755324;7.180352399999999;-0.01900000125169754;1666859656.5450153;1.1764709949493408;-0.9394791126251221;92.08910369873047
31;1666859656.690443;46.9755324;7.180352399999999;-0.018000001087784767;1666859656.754857;2.6046268939971924;-0.9272137880325317;92.65068054199219
32;1666859656.9012558;46.9755325;7.1803523;-0.015000000596046448;1666859656.9695766;0.6002926230430603;-2.558868885040283;95.83174133300781
33;1666859657.1140254;46.975532699999995;7.180352;0.0;1666859657.1716106;3.064387083053589;-1.1891969442367554;94.890625
34;1666859657.3082485;46.9755329;7.1803514999999996;0.026000000536441803;1666859657.3677845;1.858357310295105;0.7023901343345642;93.6356430053711
35;1666859657.504433;46.9755331;7.180350799999999;0.07000000029802322;1666859657.570478;2.785499334335327;1.4152756929397583;92.83737182617188
36;1666859657.7129726;46.9755332;7.1803501999999995;0.13700000941753387;1666859657.7812934;1.20383620262146;1.380896806716919;92.38665008544922
37;1666859657.9384313;46.9755331;7.1803498999999995;0.21800000965595245;1666859657.9989436;2.491168975830078;0.9191374182701111;91.90274810791016
38;1666859658.1492476;46.975533;7.1803498999999995;0.30900001525878906;1666859658.2156138;0.6511690020561218;0.5508619546890259;91.93112182617188
39;1666859658.355182;46.9755329;7.1803501999999995;0.4140000343322754;1666859658.4147184;1.5150588750839233;0.24947568774223328;91.99559020996094
40;1666859658.6606731;46.9755326;7.180350499999999;0.534000039100647;1666859658.7192307;-1.8721271753311157;-0.3430006802082062;92.26875305175781
41;1666859658.8851526;46.9755324;7.1803509;0.6690000295639038;1666859658.9485905;-0.7361896634101868;-0.14133384823799133;92.1162338256836
42;1666859659.085234;46.975532199999996;7.180351399999999;0.8190000653266907;1666859659.147697;-1.6085517406463623;-0.6953577399253845;91.80007934570312
43;1666859659.3799827;46.975532099999995;7.1803517999999995;0.9820000529289246;1666859659.449279;-4.14988899230957;-0.36997610330581665;91.28244018554688
44;1666859659.5947042;46.9755319;7.1803520999999995;1.15500009059906;1666859659.656193;-1.8797951936721802;-0.5147714018821716;91.05723571777344
45;1666859659.93728;46.9755318;7.1803522;1.346000075340271;1666859660.0085301;-4.408659934997559;-1.1066486835479736;91.43228149414062
46;1666859660.155906;46.9755317;7.180352399999999;1.5380001068115234;1666859660.2076318;-1.1158934831619263;-1.1503452062606812;90.79902648925781
47;1666859660.3511076;46.9755316;7.1803525;1.7380000352859497;1666859660.4194245;-0.7104392647743225;-0.28122732043266296;81.7198486328125
48;1666859660.5550883;46.9755316;7.1803526;1.9350000619888306;1666859660.6204805;-0.48616644740104675;-0.6496068835258484;82.60525512695312
49;1666859660.7756643;46.9755316;7.1803526;2.132000207901001;1666859660.8352015;2.4921576976776123;-0.3557165563106537;82.9341812133789
50;1666859660.9855068;46.9755316;7.1803526;2.325000047683716;1666859661.182657;1.1763553619384766;-0.22987210750579834;83.53428649902344
51;1666859661.3075874;46.9755316;7.180352399999999;2.5220000743865967;1666859661.376883;3.6878750324249268;-0.18250563740730286;83.92536163330078
52;1666859661.507666;46.975531499999995;7.1803522;2.7220001220703125;1666859661.5691557;3.2158896923065186;-0.36520516872406006;84.33607482910156
53;1666859661.7057936;46.975531499999995;7.1803519;2.9220001697540283;1666859661.7946103;1.805435299873352;-0.5568300485610962;84.11968994140625
54;1666859661.9341803;46.975531499999995;7.1803517;3.123000144958496;1666859662.0044503;-0.7858677506446838;-0.6215713620185852;84.0893325805664
55;1666859662.1508493;46.975531499999995;7.1803516;3.326000213623047;1666859662.2201474;-5.599250316619873;-0.4952215552330017;83.94669342041016
56;1666859662.3665495;46.9755316;7.1803517;3.5240001678466797;1666859662.4290104;-2.5758042335510254;-0.11749089509248734;83.69747924804688
57;1666859662.568581;46.9755316;7.1803519;3.7290000915527344;1666859662.6320195;-4.304471969604492;-0.2497127205133438;83.46756744384766
58;1666859662.8116026;46.9755316;7.1803522;3.936000108718872;1666859662.8799243;-3.806006908416748;0.07784225791692734;83.72772216796875
59;1666859663.016564;46.975531499999995;7.1803526;4.146000385284424;1666859663.0790284;-0.7983599305152893;-0.25098806619644165;84.2401351928711
60;1666859663.2303095;46.975531499999995;7.180352999999999;4.355000019073486;1666859663.302534;-0.6643326878547668;-0.5625087022781372;84.97315979003906
61;1666859663.4469795;46.9755314;7.1803532;4.563000202178955;1666859663.525061;3.5654847621917725;-0.7019837498664856;84.46537780761719
62;1666859663.66463;46.9755314;7.1803533999999996;4.77400016784668;1666859663.7339253;1.3523796796798706;-1.2864407300949097;83.40080261230469
63;1666859663.8822775;46.9755314;7.180353299999999;4.980000019073486;1666859663.946692;6.148331165313721;-0.49280425906181335;82.77710723876953
64;1666859664.1009026;46.9755314;7.1803532;5.189000129699707;1666859664.157508;2.2638323307037354;-0.8592178225517273;83.12452697753906
65;1666859664.2873166;46.975531499999995;7.1803532;5.401000022888184;1666859664.3566146;3.9203195571899414;-0.3386220633983612;83.50667572021484
66;1666859664.5010624;46.975531499999995;7.180352999999999;5.612000465393066;1666859664.569383;2.1214077472686768;-0.6896947622299194;83.35176849365234
67;1666859664.6962605;46.975531499999995;7.1803529;5.827000141143799;1666859664.779221;-2.2186639308929443;-0.9765447378158569;83.41000366210938
68;1666859664.937334;46.975531499999995;7.1803528;6.045000076293945;1666859665.0046785;-1.0724666118621826;-1.0029116868972778;83.53955078125
69;1666859665.1461995;46.9755316;7.180352699999999;6.255000114440918;1666859665.2086618;-5.0154337882995605;-0.34526950120925903;83.9879379272461
70;1666859665.3394477;46.9755316;7.1803528;6.467000484466553;1666859665.400936;-3.0813424587249756;-0.41265469789505005;84.44744110107422
71;1666859665.53855;46.9755317;7.1803531;6.690000534057617;1666859665.6088233;-3.0880515575408936;-0.6518259048461914;84.2828369140625
72;1666859665.7483914;46.9755317;7.1803533999999996;6.910000324249268;1666859665.8215914;-1.6825792789459229;-0.6946580410003662;83.72322845458984
73;1666859665.955303;46.9755318;7.1803536999999995;7.131000518798828;1666859666.0304565;0.4440517723560333;0.34314027428627014;83.54544830322266
74;1666859666.1709983;46.9755318;7.1803539;7.353000164031982;1666859666.2373679;2.581862449645996;-0.11139656603336334;83.508056640625
75;1666859666.3837698;46.9755319;7.1803539999999995;7.574000358581543;1666859666.4442823;2.4851064682006836;-0.14369690418243408;83.54656982421875
76;1666859666.585799;46.9755319;7.1803539;7.788000583648682;1666859666.6502185;5.18105411529541;-0.5352138876914978;83.9019775390625
77;1666859666.7995431;46.975532;7.1803536999999995;8.006000518798828;1666859666.8659136;3.0784380435943604;-0.025598496198654175;83.91763305664062
78;1666859667.0249996;46.975532;7.180353299999999;8.22700023651123;1666859667.0864873;4.008020877838135;-0.29757338762283325;84.20670318603516
79;1666859667.2231297;46.975532;7.180352999999999;8.447999954223633;1666859667.277787;1.3277548551559448;-0.33693695068359375;83.76638793945312
80;1666859667.4075942;46.975532;7.180352699999999;8.671000480651855;1666859667.4817712;-0.5548192262649536;-0.5425344109535217;83.18991088867188
81;1666859667.6379282;46.975532099999995;7.1803525;8.896000862121582;1666859667.6994205;-1.033360481262207;-0.45183679461479187;82.99568939208984
82;1666859667.8477702;46.975532099999995;7.1803523;9.111000061035156;1666859667.9248722;-5.1044602394104;-0.23089346289634705;83.39703369140625
83;1666859668.068345;46.975532099999995;7.1803525;9.332000732421875;1666859668.138617;-2.3832457065582275;-0.6340607404708862;83.8405990600586
84;1666859668.2840416;46.975532099999995;7.180352699999999;9.556000709533691;1666859668.3523633;-5.186192989349365;-0.64122474193573;84.36808013916016
85;1666859668.4919295;46.975532099999995;7.1803531;9.779000282287598;1666859668.553418;-0.8702651262283325;-0.07835245132446289;84.4583969116211
86;1666859668.6910336;46.975532199999996;7.1803533999999996;10.003000259399414;1666859668.757402;0.1794537901878357;-0.6676734685897827;84.19731903076172
87;1666859668.8969727;46.9755323;7.1803536;10.238000869750977;1666859668.9623628;0.9741883277893066;0.5086241364479065;83.53324127197266
88;1666859669.1029108;46.9755323;7.1803536999999995;10.540000915527344;1666859669.1673222;-1.5684168338775635;0.025032201781868935;83.53286743164062
89;1666859669.3166509;46.9755323;7.1803536999999995;10.895000457763672;1666859669.3791168;4.17211389541626;0.23351247608661652;83.3431396484375
90;1666859669.5245407;46.9755323;7.1803536;11.279000282287598;1666859669.589932;2.3888893127441406;0.06732040643692017;83.4671401977539
91;1666859669.7294998;46.9755323;7.180353299999999;11.670001029968262;1666859669.7948933;5.683231830596924;-0.6449381709098816;83.36891174316406
92;1666859669.935437;46.9755323;7.180352999999999;12.056000709533691;1666859670.000827;2.6008551120758057;0.20765957236289978;83.5605239868164
93;1666859670.1589413;46.975532199999996;7.1803528;12.438000679016113;1666859670.2340913;1.96852445602417;-0.49512311816215515;83.7289810180664
94;1666859670.3707328;46.975532199999996;7.1803526;12.818000793457031;1666859670.4370997;-1.2652052640914917;-0.20636151731014252;83.88727569580078
95;1666859670.5874038;46.975532199999996;7.180352399999999;13.188000679016113;1666859670.645967;-2.573263645172119;-0.4145747423171997;83.79476928710938
96;1666859670.790415;46.975532199999996;7.1803526;13.555000305175781;1666859670.8577566;-3.8597981929779053;-0.29142114520072937;83.96519470214844
97;1666859670.9953728;46.975532199999996;7.180352999999999;13.925000190734863;1666859671.0617409;-2.2960660457611084;-0.1976773738861084;84.03915405273438
98;1666859671.1983807;46.975532099999995;7.1803533999999996;14.293000221252441;1666859671.2569404;-2.9049253463745117;-0.22650355100631714;83.82898712158203
99;1666859671.3994398;46.975532099999995;7.1803536999999995;14.658000946044922;1666859671.4599516;0.004588431678712368;0.004927944391965866;83.9413070678711
100;1666859671.595616;46.975532099999995;7.1803539;15.02500057220459;1666859671.6678388;1.4991132020950317;0.08291766047477722;83.57166290283203
101;1666859671.8103342;46.975532099999995;7.1803539999999995;15.392001152038574;1666859671.876704;2.940500259399414;0.06989551335573196;83.68196868896484
102;1666859672.023101;46.975532099999995;7.1803538;15.755001068115234;1666859672.0855663;3.7264771461486816;0.10208645462989807;83.80094146728516
103;1666859672.2261112;46.975532099999995;7.1803533999999996;16.118000030517578;1666859672.2954075;3.9634594917297363;-0.16292211413383484;83.76525115966797
104;1666859672.432048;46.975532;7.180352999999999;16.48400115966797;1666859672.4896312;2.6327064037323;-0.7386959791183472;84.12479400634766
105;1666859672.6213915;46.975532;7.1803526;16.850000381469727;1666859672.6897101;0.7495579123497009;-0.3259514570236206;84.618896484375
106;1666859672.833182;46.975532;7.1803522;17.21500015258789;1666859672.8917446;-1.050041675567627;-0.2723613381385803;84.34603118896484
107;1666859673.0322862;46.975532;7.1803519;17.57900047302246;1666859673.1006086;-4.478072643280029;-0.5083079934120178;83.90167999267578
108;1666859673.3455822;46.975532;7.1803517;17.93600082397461;1666859673.4090238;-4.61118221282959;0.2597799599170685;83.54475402832031
109;1666859673.550545;46.975532;7.180352;18.295000076293945;1666859673.6178892;-5.103941440582275;-0.054791320115327835;83.4414291381836
110;1666859673.768192;46.975532;7.180352399999999;18.657001495361328;1666859673.8365126;-2.420057773590088;0.08415429294109344;83.54264068603516
111;1666859673.9770575;46.975532;7.1803529;19.019001007080078;1666859674.0346425;-2.277134656906128;-0.22971265017986298;83.48210906982422
112;1666859674.1703634;46.9755319;7.1803533999999996;19.381999969482422;1666859674.2328305;1.4033900499343872;-0.26795312762260437;83.32007598876953
113;1666859674.377277;46.9755319;7.1803536;19.743000030517578;1666859674.4309566;1.9090687036514282;-0.7300729751586914;83.56587219238281
114;1666859674.574427;46.9755319;7.1803536999999995;20.099000930786133;1666859674.637868;2.4935989379882812;0.13746821880340576;83.19092559814453
115;1666859674.7832913;46.9755319;7.1803533999999996;20.45800018310547;1666859674.847708;4.883650302886963;-0.3158826231956482;83.15455627441406
116;1666859674.9924495;46.9755319;7.180352999999999;20.82200050354004;1666859675.065163;2.4427292346954346;-0.4154074192047119;83.0733413696289
117;1666859675.208631;46.9755319;7.180352699999999;21.189001083374023;1666859675.2808566;3.711178779602051;-0.1436322182416916;82.96122741699219
118;1666859675.4350674;46.9755319;7.1803523;21.55500030517578;1666859675.5043592;-2.7246744632720947;-0.07670566439628601;83.39908599853516
119;1666859675.6585674;46.9755319;7.1803522;21.922000885009766;1666859675.7268882;-0.7359468340873718;-0.7292605638504028;83.76075744628906
120;1666859675.8928082;46.9755319;7.1803520999999995;22.286001205444336;1666859675.9474666;-2.227949619293213;0.03158297762274742;83.68787384033203
121;1666859676.088986;46.975532;7.1803520999999995;22.641000747680664;1666859676.1592586;-4.331305503845215;-0.3238002061843872;83.74011993408203
122;1666859676.3017523;46.975532;7.180352399999999;23.000001907348633;1666859676.373977;-3.0466647148132324;0.05659062787890434;83.99864196777344
123;1666859676.5135462;46.975532;7.180352699999999;23.362001419067383;1666859676.579914;-3.9747416973114014;-0.5306038856506348;83.99381256103516
124;1666859676.7204592;46.975532099999995;7.1803531;23.726001739501953;1666859676.7897527;-1.0993201732635498;0.33213919401168823;83.58671569824219
125;1666859676.927371;46.975532099999995;7.1803533999999996;24.090002059936523;1666859676.9869082;0.6467863917350769;0.006759089417755604;83.67293548583984
126;1666859677.1254969;46.975532099999995;7.1803536999999995;24.455001831054688;1666859677.188938;2.042085886001587;-0.24697397649288177;83.31668853759766
127;1666859677.3324087;46.975532099999995;7.1803536999999995;24.808000564575195;1666859677.3958523;3.1167147159576416;0.018295256420969963;83.2068862915039
128;1666859677.5285854;46.975532099999995;7.1803535;25.170001983642578;1666859677.5861712;4.081698417663574;-0.14222240447998047;83.15351867675781
129;1666859677.7403808;46.975532199999996;7.1803532;25.532001495361328;1666859677.7999156;4.648825168609619;-0.8927639722824097;83.60536193847656
130;1666859677.9472897;46.975532199999996;7.1803529;25.8960018157959;1666859678.0126817;1.987038493156433;-0.04696701467037201;84.13642120361328
131;1666859678.1493223;46.9755323;7.1803526;26.26000213623047;1666859678.2098353;1.0827628374099731;0.475539892911911;84.24610137939453
132;1666859678.3581862;46.9755323;7.180352399999999;26.624000549316406;1666859678.4284592;-1.2008978128433228;-0.24261833727359772;84.20155334472656
133;1666859678.5719333;46.9755323;7.1803523;26.987001419067383;1666859678.6441574;-4.872200012207031;-0.21993310749530792;84.047607421875
134;1666859678.7905545;46.9755323;7.1803520999999995;27.341001510620117;1666859678.853019;-4.751479625701904;0.43407586216926575;83.94075012207031
135;1666859678.9916112;46.9755323;7.1803522;27.698001861572266;1666859679.057979;-4.0518317222595215;-0.29340094327926636;84.042724609375
136;1666859679.2043803;46.9755323;7.180352399999999;28.060001373291016;1666859679.2736783;-4.264822483062744;-0.049201976507902145;83.8265380859375
137;1666859679.411293;46.9755324;7.1803528;28.42500114440918;1666859679.4737577;-1.1553120613098145;0.31739673018455505;83.40788269042969
138;1666859679.6201575;46.9755323;7.1803532;28.78900146484375;1666859679.6874995;2.2051336765289307;-0.3974854648113251;83.26058197021484
139;1666859679.8280458;46.9755323;7.1803535;29.1510009765625;1666859679.8914864;1.4107872247695923;0.18088331818580627;83.00953674316406
140;1666859680.0242224;46.9755323;7.1803535;29.503002166748047;1666859680.0818057;4.463679313659668;-0.0983300730586052;83.17548370361328
141;1666859680.2252793;46.9755323;7.1803533999999996;29.856000900268555;1666859680.2896924;3.8251101970672607;-0.5073448419570923;83.8031005859375
142;1666859680.4370701;46.9755324;7.180353299999999;30.215002059936523;1666859680.509295;4.661700248718262;-0.2390391081571579;84.50725555419922
143;1666859680.6595974;46.9755325;7.180352999999999;30.579002380371094;1666859680.7288933;2.8500888347625732;0.5392553806304932;84.68946075439453
144;1666859680.965088;46.9755325;7.1803528;30.94300079345703;1666859681.0246232;0.5759325623512268;0.10646292567253113;84.66881561279297
145;1666859681.1671178;46.9755325;7.1803526;31.304000854492188;1666859681.2305589;-1.4635189771652222;-0.18909336626529694;84.6788330078125
146;1666859681.382816;46.9755324;7.180352399999999;31.654001235961914;1666859681.4530883;-3.69205904006958;-0.16071556508541107;84.06361389160156
147;1666859681.5887506;46.9755325;7.1803525;32.009002685546875;1666859681.6473124;-3.6199262142181396;-0.38818684220314026;83.89777374267578
148;1666859681.8063982;46.9755325;7.180352699999999;32.3640022277832;1666859681.863982;-2.8224310874938965;-0.014366586692631245;83.77642822265625
149;1666859682.0074546;46.9755325;7.180352999999999;32.736000061035156;1666859682.063088;-3.8848657608032227;0.019105035811662674;83.80607604980469
150;1666859682.20461;46.9755325;7.1803532;33.08100128173828;1666859682.2621913;0.5917909741401672;-0.27193206548690796;84.01362609863281
151;1666859682.4085941;46.9755325;7.180353299999999;33.428001403808594;1666859682.4691029;0.7437110543251038;0.22465582191944122;83.93415069580078
152;1666859682.622335;46.9755326;7.1803531;33.78499984741211;1666859682.6808977;2.3349218368530273;-0.10471171885728836;84.19027709960938
153;1666859682.8204644;46.9755326;7.180352699999999;34.14500045776367;1666859682.8848832;4.9068450927734375;-0.1067974790930748;84.14683532714844
154;1666859683.0205462;46.9755326;7.1803523;34.505001068115234;1666859683.0908241;0.5432522296905518;0.34845343232154846;84.03546905517578
155;1666859683.228435;46.975532699999995;7.180352;34.8640022277832;1666859683.2967534;2.8490428924560547;-0.26061898469924927;83.81790924072266
156;1666859683.4412007;46.975532699999995;7.1803517999999995;35.22100067138672;1666859683.5075686;-0.6634809374809265;0.34017929434776306;83.47010803222656
157;1666859683.6549451;46.9755326;7.1803517;35.579002380371094;1666859683.7183871;-1.5082706212997437;-0.0646311342716217;83.5447006225586
158;1666859683.8677135;46.9755326;7.1803517;35.92500305175781;1666859683.932129;-6.267905235290527;-0.5692559480667114;83.93180847167969
159;1666859684.0746255;46.9755326;7.1803522;36.27400207519531;1666859684.140996;-2.5349233150482178;0.23278911411762238;83.78710174560547
160;1666859684.2786098;46.9755326;7.180352699999999;36.62700271606445;1666859684.3586504;-4.318737506866455;-0.33764907717704773;84.33182525634766
161;1666859684.6104517;46.975532699999995;7.1803532;36.98200225830078;1666859684.7646606;-1.4263312816619873;-0.05838548019528389;84.30626678466797
162;1666859684.8993492;46.975532699999995;7.1803536999999995;37.3380012512207;1666859684.961817;1.9820411205291748;0.10594791173934937;83.70301055908203
163;1666859685.112118;46.975532699999995;7.1803539999999995;37.69600296020508;1666859685.1765351;2.807209014892578;0.020435797050595284;83.55455780029297
164;1666859685.318051;46.975532699999995;7.1803539999999995;38.044002532958984;1666859685.3766108;4.509811878204346;0.05254790186882019;83.54364776611328
165;1666859685.5093465;46.9755326;7.1803536999999995;38.400001525878906;1666859685.5688863;6.0399065017700195;-0.042925260961055756;83.5985107421875
166;1666859685.7035708;46.9755326;7.1803533999999996;38.762001037597656;1666859685.7884848;-0.03442797064781189;-0.5523688793182373;83.99736022949219
167;1666859685.9280543;46.9755326;7.1803532;39.125;1666859685.9885669;4.047335624694824;-0.2658834755420685;83.65821075439453
168;1666859686.1427727;46.9755326;7.1803529;39.487003326416016;1666859686.2003574;-1.167694091796875;0.14899112284183502;83.49901580810547
169;1666859686.3350453;46.9755325;7.1803528;39.84700012207031;1666859686.4062998;-0.21103282272815704;-0.3577699661254883;83.29102325439453
170;1666859686.5400074;46.9755325;7.1803526;40.2030029296875;1666859686.6024683;-2.1049065589904785;0.02515900880098343;82.99028778076172
171;1666859686.7400837;46.9755325;7.1803525;40.54900360107422;1666859686.7957182;-6.341681957244873;-0.5049663782119751;82.6638412475586
172;1666859686.940164;46.9755325;7.1803525;40.89900207519531;1666859687.003606;-2.92549729347229;-0.5116077065467834;82.92500305175781
173;1666859687.1500044;46.9755325;7.180352699999999;41.25800323486328;1666859687.2124696;-3.4008219242095947;0.02826603688299656;83.16804504394531
174;1666859687.3588715;46.9755325;7.1803529;41.612003326416016;1666859687.422309;-2.4840712547302246;0.04037618637084961;83.47494506835938
175;1666859687.5735905;46.9755326;7.1803531;41.96800231933594;1666859687.6604538;1.6532645225524902;-0.331725537776947;83.972412109375
176;1666859687.814662;46.9755326;7.1803532;42.32200241088867;1666859687.8878639;0.7942344546318054;-0.32423844933509827;83.8911361694336
177;1666859688.018646;46.9755325;7.1803531;42.6670036315918;1666859688.0957499;3.0121755599975586;-0.8364351391792297;83.7698974609375
178;1666859688.2489824;46.9755326;7.1803529;43.01900100708008;1666859688.329991;3.5803890228271484;0.48102420568466187;83.96685028076172
179;1666859688.4734628;46.9755326;7.1803525;43.374000549316406;1666859688.5388563;3.181506395339966;-0.3947625458240509;83.95240020751953
180;1666859688.6920917;46.9755326;7.1803522;43.72900390625;1666859688.7721188;2.0338199138641357;-0.43338117003440857;83.77812194824219
181;1666859688.931208;46.975532699999995;7.180352;44.083003997802734;1666859688.9936717;-0.14951224625110626;-0.5125136375427246;84.0125503540039
182;1666859689.1381195;46.975532699999995;7.1803519;44.435001373291016;1666859689.209367;-1.6200801134109497;0.1763009876012802;84.32844543457031
183;1666859689.4670346;46.975532799999996;7.1803517999999995;44.788002014160156;1666859689.5246162;-3.6972525119781494;0.12368447333574295;84.39022064208984
184;1666859689.6573539;46.975532699999995;7.1803517999999995;45.12800216674805;1666859689.719816;-4.701400279998779;-0.31607314944267273;84.70682525634766
185;1666859689.8779283;46.975532699999995;7.1803522;45.474002838134766;1666859689.945276;-4.40472936630249;-0.17770986258983612;84.43780517578125
186;1666859690.1082642;46.975532699999995;7.180352699999999;45.82200241088867;1666859690.170729;-3.3499088287353516;-0.05401536449790001;83.89098358154297
187;1666859690.309323;46.975532699999995;7.1803532;46.17300033569336;1666859690.3717856;-0.6830363273620605;0.25568053126335144;83.53048706054688
188;1666859690.5074477;46.975532699999995;7.1803536;46.52400207519531;1666859690.5679626;0.23210926353931427;-0.32997801899909973;83.33586883544922
189;1666859690.7485235;46.975532699999995;7.1803539;46.87600326538086;1666859690.814889;3.6364126205444336;0.3173028528690338;83.20274353027344
190;1666859690.9603138;46.9755326;7.1803539;47.22200393676758;1666859691.0247302;2.406954526901245;-0.6237881183624268;83.63591766357422
191;1666859691.2599487;46.9755325;7.1803536;47.57100296020508;1666859691.3214364;3.858914613723755;-0.29021137952804565;83.36674499511719
192;1666859691.4649065;46.9755325;7.1803532;47.923004150390625;1666859691.5293236;2.6992568969726562;-0.29167288541793823;83.1266098022461
193;1666859691.6903677;46.9755325;7.1803529;48.28000259399414;1666859691.7577088;2.857046127319336;-0.22733357548713684;83.35005950927734
194;1666859691.8855653;46.9755325;7.1803525;48.63900375366211;1666859691.9568107;-1.4150922298431396;0.47377610206604004;83.19540405273438
195;1666859692.0915008;46.9755325;7.1803523;48.99500274658203;1666859692.160795;-2.121342182159424;-0.05712587758898735;83.1421890258789
196;1666859692.2945065;46.9755324;7.1803522;49.34100341796875;1666859692.3599;-4.1132001876831055;0.06578408926725388;83.40595245361328
197;1666859692.4984913;46.9755324;7.180352399999999;49.691001892089844;1666859692.5609548;-4.271656036376953;-0.13154399394989014;83.80103302001953
198;1666859692.7054033;46.9755324;7.1803528;50.04600143432617;1666859692.7786043;-3.7979350090026855;-0.3086601197719574;84.01419067382812
199;1666859692.9162211;46.9755324;7.1803532;50.40200424194336;1666859693.0099175;-1.7619242668151855;-0.08310236781835556;83.97944641113281
200;1666859693.139725;46.9755325;7.1803536;50.759002685546875;1666859693.198286;0.7379488348960876;-0.6006370782852173;83.96839141845703
201;1666859693.333952;46.9755325;7.1803538;51.12000274658203;1666859693.4012928;3.0344555377960205;0.050585728138685226;83.97391510009766
202;1666859693.5603817;46.9755324;7.1803538;51.47100067138672;1666859693.610158;3.535093069076538;-0.24688805639743805;84.01688385009766
203;1666859693.7575345;46.9755323;7.1803536;51.827003479003906;1666859693.8268282;3.108016014099121;-0.4909641146659851;84.41187286376953
204;1666859693.9722526;46.975532199999996;7.1803532;52.18800354003906;1666859694.035695;4.462777137756348;0.05678248032927513;84.13368225097656
205;1666859694.1811168;46.975532099999995;7.1803528;52.548004150390625;1666859694.2416303;-0.37336966395378113;-0.374121755361557;84.11143493652344
206;1666859694.3743675;46.975532;7.1803525;52.910003662109375;1666859694.4339006;0.8725560903549194;-0.6884053945541382;84.0008773803711
207;1666859694.5861585;46.975532;7.1803523;53.272003173828125;1666859694.6535032;-1.9423134326934814;-0.3177960515022278;83.27808380126953
208;1666859694.8174703;46.975532;7.1803522;53.631004333496094;1666859694.88579;-3.610044240951538;-0.7358606457710266;83.26722717285156
209;1666859695.0185277;46.9755319;7.1803520999999995;53.983001708984375;1666859695.0858717;-3.7730791568756104;-0.8161156177520752;83.59077453613281
210;1666859695.226415;46.9755319;7.1803523;54.342002868652344;1666859695.293761;-4.387849807739258;-0.42905911803245544;83.6866683959961
211;1666859695.4323525;46.975532;7.1803526;54.7030029296875;1666859695.4948149;-3.3596765995025635;-0.4307325780391693;83.93679809570312
212;1666859695.6382892;46.975532;7.1803529;55.06700134277344;1666859695.6978252;-1.2109163999557495;-0.7060295939445496;84.2127456665039
213;1666859695.887167;46.975532;7.1803531;55.43000411987305;1666859695.9593909;-0.7766554355621338;-0.588209331035614;83.83037567138672
214;1666859696.092129;46.975532;7.1803532;55.794002532958984;1666859696.1516666;1.7168940305709839;-1.036041021347046;83.72782135009766
215;1666859696.293187;46.975532099999995;7.1803532;56.147003173828125;1666859696.3751688;2.1652045249938965;-0.15129153430461884;83.25305938720703
216;1666859696.6396637;46.975532099999995;7.180352999999999;56.505001068115234;1666859696.6992013;4.037065505981445;0.1508723944425583;83.17976379394531
217;1666859696.858289;46.975532099999995;7.180352699999999;56.86700439453125;1666859696.9197836;3.9400246143341064;-0.4751315116882324;83.32633972167969
218;1666859697.0710592;46.975532099999995;7.180352399999999;57.230003356933594;1666859697.140353;-0.5618771910667419;-0.35085391998291016;83.22750854492188
219;1666859697.2769928;46.975532099999995;7.1803520999999995;57.573001861572266;1666859697.336531;0.5325129628181458;-0.3585452139377594;83.5023193359375
220;1666859697.4790277;46.975532099999995;7.1803519;57.8650016784668;1666859697.544416;-3.318128824234009;-0.7042977213859558;83.97966003417969
221;1666859697.6888647;46.975532099999995;7.1803517999999995;58.096004486083984;1666859697.7523053;-6.257890701293945;-0.14802537858486176;83.84263610839844
222;1666859697.9035847;46.975532099999995;7.1803519;58.298004150390625;1666859697.9631221;3.0713932514190674;-5.037030220031738;83.22100067138672
223;1666859698.1036687;46.9755324;7.1803517999999995;58.478004455566406;1666859698.1641781;16.431896209716797;-28.515602111816406;77.17687225341797
224;1666859698.3047247;46.9755336;7.1803501;58.63600158691406;1666859698.363284;22.238975524902344;-47.753074645996094;65.26089477539062
225;1666859698.495042;46.9755366;7.180345699999999;58.737003326416016;1666859698.5721483;13.824708938598633;-50.87222671508789;58.65279006958008
226;1666859698.7097654;46.9755415;7.1803384999999995;58.76100158691406;1666859698.7790601;-3.7855560779571533;-39.08155822753906;47.713294982910156
227;1666859698.9166758;46.975547899999995;7.1803295;58.772003173828125;1666859698.986946;-14.261459350585938;-36.288848876953125;32.060543060302734
228;1666859699.1421309;46.9755554;7.180319;58.78700256347656;1666859699.3041549;-23.10017967224121;-34.063175201416016;16.914913177490234
229;1666859699.448596;46.975563799999996;7.1803067;58.80900192260742;1666859699.5188792;-31.15366554260254;-27.736860275268555;3.5091769695281982
230;1666859699.6935744;46.975573;7.1802928999999995;58.8280029296875;1666859699.7570114;-37.379737854003906;-24.851402282714844;-8.063425064086914
231;1666859699.9102452;46.975583099999994;7.1802776999999995;58.833003997802734;1666859699.973683;-38.95341873168945;-22.52427101135254;-19.342063903808594
232;1666859700.1278923;46.975594;7.180261;58.82600402832031;1666859700.1923103;-37.573177337646484;-12.265586853027344;-28.909914016723633
233;1666859700.320166;46.9756055;7.1802432;58.83700180053711;1666859700.3855567;-42.58368682861328;-6.665608882904053;-33.10155487060547
234;1666859700.5241513;46.9756176;7.1802250999999995;58.86300277709961;1666859700.584669;-47.1612663269043;11.908665657043457;-40.213130950927734
235;1666859700.7388685;46.9756311;7.1802069;58.88300323486328;1666859700.808165;-46.12744903564453;10.517840385437012;-30.25980567932129
236;1666859700.9526129;46.975645899999996;7.1801895;58.89900207519531;1666859701.0189834;-37.752586364746094;1.134920358657837;-9.084178924560547
237;1666859701.1497657;46.9756613;7.180173399999999;58.935001373291016;1666859701.2249181;-7.202309608459473;8.54684066772461;8.34958553314209
238;1666859701.367416;46.9756757;7.1801596;58.94700241088867;1666859701.4347596;30.12244415283203;42.767147064208984;24.219097137451172
239;1666859701.5870156;46.9756879;7.1801479;58.77100372314453;1666859701.6553357;26.61058235168457;13.396688461303711;15.61949634552002
240;1666859701.8153982;46.9756976;7.180138299999999;58.43800354003906;1666859701.8729851;29.720836639404297;5.114444732666016;0.283565878868103
241;1666859702.0320723;46.975704799999995;7.180130699999999;58.031002044677734;1666859702.095514;25.593578338623047;-2.2608277797698975;-15.689812660217285
242;1666859702.236055;46.9757099;7.1801245;57.61300277709961;1666859702.3102326;18.186864852905273;5.368712902069092;-26.542198181152344
243;1666859702.441016;46.9757136;7.1801197;57.191001892089844;1666859702.5054324;-7.224991798400879;-3.1265721321105957;-35.67612075805664
244;1666859702.6537843;46.975716399999996;7.1801157;56.833003997802734;1666859702.8382494;-13.925276756286621;-7.460348606109619;-44.773643493652344
245;1666859702.9758637;46.9757189;7.1801113;56.58500289916992;1666859703.0383315;-15.169672012329102;-5.2584404945373535;-50.51218795776367
246;1666859703.1798472;46.975721;7.180106299999999;56.45000457763672;1666859703.2540238;-15.960335731506348;-1.537446141242981;-50.301456451416016
247;1666859703.3867602;46.9757232;7.180101199999999;56.40500259399414;1666859703.4492247;-16.599567413330078;0.03982021287083626;-48.962528228759766
248;1666859703.5956266;46.9757252;7.180095799999999;56.4530029296875;1666859703.6668744;-15.646574020385742;0.8112189173698425;-47.10839080810547
249;1666859703.815225;46.9757274;7.18009;56.58900451660156;1666859703.8786664;-15.939516067504883;-0.016317157074809074;-42.40228271484375
250;1666859704.0250642;46.9757299;7.1800839;56.79600143432617;1666859704.0875309;-15.063535690307617;0.13106456398963928;-34.16884994506836
251;1666859704.2417367;46.9757329;7.1800776;57.06900405883789;1666859704.313962;-27.477584838867188;-5.516414165496826;-23.974084854125977
252;1666859704.455484;46.9757367;7.180070799999999;57.39500427246094;1666859704.520875;-45.857337951660156;-14.845719337463379;-13.028599739074707
253;1666859704.656539;46.975742399999994;7.1800627;57.704002380371094;1666859704.7492576;-51.00379943847656;-18.58234214782715;-3.6010496616363525
254;1666859704.8985863;46.97575;7.1800535;57.94200134277344;1666859704.9727623;-37.85529708862305;-11.449586868286133;1.5512408018112183
255;1666859705.1152606;46.9757592;7.1800441;58.16200256347656;1666859705.1786997;-36.545780181884766;-25.66492462158203;11.495312690734863
256;1666859705.326074;46.9757697;7.180034099999999;58.387001037597656;1666859705.3963459;-37.533260345458984;-41.186729431152344;19.612279891967773
257;1666859705.6198506;46.9757813;7.180022699999999;58.561004638671875;1666859705.672555;-28.95358657836914;-38.75606155395508;23.156696319580078
258;1666859705.817981;46.975794;7.1800098;58.685001373291016;1666859705.8902037;-19.543672561645508;-30.23638916015625;29.62234115600586
259;1666859706.0317237;46.9758073;7.1799963;58.810001373291016;1666859706.0941901;-10.469233512878418;-23.95815086364746;34.20810317993164
260;1666859706.2327805;46.9758206;7.179983;58.96000289916992;1666859706.3098855;-11.926690101623535;-32.45865249633789;34.81568908691406
261;1666859706.4543314;46.9758336;7.1799693;59.095001220703125;1666859706.521675;-11.595037460327148;-51.61412048339844;22.31200408935547
262;1666859706.6739357;46.9758468;7.1799539;59.16200256347656;1666859706.7403018;-33.47986602783203;-51.7296142578125;6.235227108001709
263;1666859706.8818228;46.9758603;7.179935599999999;59.14600372314453;1666859706.9452615;-31.64603042602539;-33.33345031738281;-8.913488388061523
264;1666859707.117036;46.975873799999995;7.1799155;59.131004333496094;1666859707.176573;-39.391117095947266;-27.095245361328125;-16.39038848876953
265;1666859707.3219967;46.9758873;7.179894;59.15300369262695;1666859707.384463;-49.11558532714844;-13.729764938354492;-26.292964935302734
266;1666859707.543551;46.9759014;7.179871599999999;59.2030029296875;1666859707.603085;-51.48283386230469;3.597299814224243;-27.534400939941406
267;1666859707.7729099;46.9759166;7.179849399999999;59.23500442504883;1666859707.8343978;-44.06720733642578;7.82296085357666;-9.770709037780762
268;1666859707.9856782;46.975932799999995;7.1798293;59.246002197265625;1666859708.063759;-24.208206176757812;13.463800430297852;11.087360382080078
269;1666859708.2091818;46.9759488;7.1798128;59.230003356933594;1666859708.2677476;-7.157476425170898;64.96597290039062;19.579090118408203
270;1666859708.4092648;46.9759631;7.1797996;59.013004302978516;1666859708.4863648;-12.848355293273926;42.614990234375;35.08463668823242
271;1666859708.6327689;46.975975299999995;7.1797895;58.579002380371094;1666859708.6952326;-3.327381134033203;14.362886428833008;28.217086791992188
272;1666859708.8318717;46.9759853;7.1797822;58.09100341796875;1666859708.89531;6.687241554260254;17.036266326904297;19.376157760620117
273;1666859709.1500487;46.975993599999995;7.1797765;57.579002380371094;1666859709.2212973;6.129189968109131;8.98872184753418;8.168583869934082
274;1666859709.3891697;46.9760005;7.1797721999999995;57.05600357055664;1666859709.4526074;-3.744840621948242;-2.5945630073547363;-6.013064384460449
275;1666859709.602914;46.9760066;7.1797686;56.56200408935547;1666859709.6653771;-9.985102653503418;-20.168678283691406;-18.345264434814453
276;1666859709.8293436;46.9760121;7.1797644;56.12200164794922;1666859709.905475;-13.99221420288086;-17.12308120727539;-31.309978485107422
277;1666859710.0723703;46.9760168;7.1797591;55.73800277709961;1666859710.131906;-14.412557601928711;-11.573469161987305;-42.01110076904297
278;1666859710.290018;46.9760208;7.1797533;55.4160041809082;1666859710.354433;-14.043721199035645;-9.46727466583252;-50.11656951904297
279;1666859710.4900963;46.9760242;7.179747;55.1670036315918;1666859710.5584188;-14.376840591430664;-5.976075649261475;-54.21165466308594
280;1666859710.7545948;46.9760269;7.1797406;55.0150032043457;1666859710.8112035;-16.971010208129883;-5.398577690124512;-52.77602005004883
281;1666859711.012258;46.976029399999994;7.1797339;54.96000289916992;1666859711.0737457;-17.475854873657227;-4.0080156326293945;-50.33235549926758
282;1666859711.224052;46.9760317;7.1797267;55.01100158691406;1666859711.305061;-17.790437698364258;-2.157029867172241;-49.545467376708984
283;1666859711.440725;46.976034299999995;7.1797191;55.15500259399414;1666859711.512946;-15.869345664978027;-1.1345402002334595;-48.30495071411133
284;1666859711.6388521;46.976037;7.179711299999999;55.39200210571289;1666859711.7032678;-25.400876998901367;0.2816751003265381;-46.143497467041016
285;1666859711.864316;46.976040399999995;7.1797029;55.69200134277344;1666859711.9277472;-35.51199722290039;7.408553600311279;-48.90766525268555
286;1666859712.088789;46.976044699999996;7.1796937;56.013004302978516;1666859712.1493077;-37.11885070800781;4.724183559417725;-42.79296112060547
287;1666859712.2878926;46.9760505;7.179683799999999;56.345001220703125;1666859712.3552346;-37.047550201416016;3.326348066329956;-33.065250396728516
288;1666859712.5016365;46.976057499999996;7.1796736;56.68600082397461;1666859712.578741;-35.2912483215332;4.044210910797119;-25.463226318359375
289;1666859712.7270904;46.9760657;7.179663499999999;57.031002044677734;1666859712.8920355;-31.48133087158203;2.8648672103881836;-18.18436050415039
290;1666859713.0228186;46.9760749;7.1796539;57.388004302978516;1666859713.0901644;-36.55008316040039;-6.62964391708374;-9.047445297241211
291;1666859713.2531555;46.9760852;7.1796443;57.7400016784668;1666859713.32538;-44.46874237060547;-21.27028465270996;1.5632398128509521
292;1666859713.4659235;46.9760971;7.1796339;58.02300262451172;1666859713.534248;-40.166969299316406;-23.304576873779297;8.102399826049805
293;1666859713.6835737;46.976110299999995;7.1796225;58.24900436401367;1666859713.7557979;-31.869470596313477;-35.908203125;9.816198348999023
294;1666859713.894388;46.976124299999995;7.1796099;58.42900466918945;1666859713.950996;-31.68535804748535;-31.258831024169922;-6.500554084777832
295;1666859714.1003249;46.9761388;7.179595099999999;58.60400390625;1666859714.1627884;-45.14741516113281;-26.869922637939453;-16.228429794311523
296;1666859714.304308;46.9761537;7.1795781;58.77300262451172;1666859714.3677516;-51.57518005371094;-15.703859329223633;-29.10449981689453
297;1666859714.5209827;46.976169299999995;7.1795588;58.92400360107422;1666859714.579541;-52.638893127441406;-5.523744583129883;-35.08493423461914
298;1666859714.720085;46.976185699999995;7.179538;59.03200149536133;1666859714.781573;-47.001014709472656;1.1610761880874634;-39.515689849853516
299;1666859715.0402133;46.976202699999995;7.1795165999999995;59.11300277709961;1666859715.1046324;-44.10751724243164;2.7687032222747803;-41.5239143371582
300;1666859715.262742;46.9762202;7.179494999999999;59.177001953125;1666859715.321303;-42.9449577331543;7.420267581939697;-46.42819595336914
301;1666859715.4589224;46.9762379;7.1794734;59.22500228881836;1666859715.5213833;-42.00084686279297;3.4095585346221924;-42.32265853881836
302;1666859715.6541202;46.9762558;7.1794519999999995;59.26000213623047;1666859715.7390363;-42.602664947509766;2.8186960220336914;-42.23835372924805
303;1666859715.8678617;46.9762738;7.179430699999999;59.285003662109375;1666859715.9254458;-42.9427490234375;1.3010550737380981;-41.700897216796875
304;1666859716.0816083;46.9762917;7.1794094;59.29600143432617;1666859716.1391935;-42.60939407348633;1.0305055379867554;-42.329349517822266
305;1666859716.2855904;46.976309699999995;7.1793878;59.302001953125;1666859716.3480542;-42.51120376586914;0.8221196532249451;-42.32220458984375
306;1666859716.4798162;46.9763277;7.179366;59.30900192260742;1666859716.5461857;-42.631587982177734;1.2401788234710693;-42.848812103271484
307;1666859716.687703;46.976345699999996;7.1793441;59.314002990722656;1666859716.7667606;-40.86597442626953;0.584383487701416;-42.659698486328125
308;1666859716.9034002;46.9763635;7.1793223;59.311004638671875;1666859716.9687927;-28.793344497680664;-3.638885498046875;-41.23554992675781
309;1666859717.119097;46.9763808;7.1793008;59.301002502441406;1666859717.1854637;-23.339021682739258;-0.8992156982421875;-42.409400939941406
310;1666859717.3445525;46.9763972;7.1792804;59.28400421142578;1666859717.4109223;-19.08603858947754;-0.4754142165184021;-42.353179931640625
311;1666859717.5573196;46.9764123;7.179261299999999;59.26100158691406;1666859717.6129541;-11.704671859741211;-0.5857720971107483;-41.77099609375
312;1666859717.7681367;46.9764263;7.1792438;59.2390022277832;1666859717.8306036;-4.907922744750977;-1.0329480171203613;-40.664737701416016
313;1666859717.983833;46.9764388;7.179227999999999;59.21200180053711;1666859718.0433705;-0.5278456807136536;-0.45861947536468506;-41.15812683105469
314;1666859718.1800117;46.9764499;7.1792139;59.185001373291016;1666859718.2473545;1.8202329874038696;-0.7037556171417236;-41.418540954589844
315;1666859718.3820438;46.9764598;7.1792015;59.15800094604492;1666859718.4669552;-3.806720018386841;-0.38188400864601135;-41.485599517822266
316;1666859718.5996892;46.976468399999995;7.1791906;59.134002685546875;1666859718.6670349;-4.010017395019531;0.09463828057050705;-42.00178146362305
317;1666859718.8114812;46.976476;7.179181;59.11300277709961;1666859718.8710208;-3.5255634784698486;-1.463574767112732;-41.76788330078125
318;1666859719.0252256;46.9764826;7.179172599999999;59.096004486083984;1666859719.0984273;6.421954154968262;-2.0522754192352295;-42.29362487792969
319;1666859719.230188;46.9764882;7.1791654;59.08400344848633;1666859719.3170507;0.8199964165687561;-1.69828200340271;-41.74856948852539
320;1666859719.457594;46.976493;7.1791592;59.07500457763672;1666859719.5181062;8.920726776123047;1.2131922245025635;-43.32589340209961
321;1666859719.667438;46.976497099999996;7.179154;59.066001892089844;1666859719.733803;-6.406631946563721;0.5469042658805847;-41.755958557128906
322;1666859719.8645866;46.9765006;7.179149499999999;59.06500244140625;1666859719.9299808;1.4641729593276978;-0.07283233106136322;-42.223548889160156
323;1666859720.076379;46.976503699999995;7.179145699999999;59.061004638671875;1666859720.1368904;-10.27231502532959;0.19223430752754211;-41.71320343017578
324;1666859720.3808918;46.976506199999996;7.1791423;59.05600357055664;1666859720.4414032;7.662558078765869;-2.4590985774993896;-41.0206413269043
325;1666859720.580975;46.9765083;7.1791395;59.05600357055664;1666859720.6512432;0.2270355224609375;1.07537841796875;-41.34942626953125
326;1666859720.800572;46.9765101;7.1791371999999996;59.05800247192383;1666859720.868895;4.543426513671875;-2.5285232067108154;-41.32181167602539
327;1666859721.1265564;46.976511599999995;7.1791354;59.061004638671875;1666859721.1841424;5.885867595672607;0.8038206696510315;-40.207420349121094
328;1666859721.334444;46.976512899999996;7.1791338;59.06700134277344;1666859721.3939822;-7.300441265106201;-0.33404141664505005;-39.090660095214844
329;1666859721.5286686;46.976513999999995;7.1791323;59.07100296020508;1666859721.5901594;2.8294296264648438;-0.35751479864120483;-41.490238189697266
330;1666859721.8263526;46.976515;7.179130799999999;59.0680046081543;1666859721.888813;-11.246631622314453;-0.3650166988372803;-40.853111267089844
331;1666859722.033262;46.976516;7.179129499999999;59.07200241088867;1666859722.0947504;6.299918174743652;-3.1730494499206543;-40.41756820678711
332;1666859722.226511;46.9765167;7.1791282999999995;59.08200454711914;1666859722.2860467;-11.44507122039795;-1.3409919738769531;-39.751007080078125
333;1666859722.4285414;46.9765174;7.179126999999999;59.09300231933594;1666859722.490033;-22.984893798828125;-4.017877578735352;-44.72083282470703
334;1666859722.6237428;46.9765188;7.1791247;59.1140022277832;1666859722.701824;-49.825374603271484;-0.30592674016952515;-49.83951187133789
335;1666859722.8521273;46.9765217;7.1791198;59.10400390625;1666859722.9194715;-48.90925598144531;-2.545163631439209;-49.501949310302734
336;1666859723.0531824;46.976526299999996;7.179112;59.03300094604492;1666859723.1380956;-31.0522403717041;-7.46668815612793;-49.49034118652344
337;1666859723.2688804;46.9765319;7.179102299999999;58.98100280761719;1666859723.337202;-30.814041137695312;-2.7611711025238037;-50.3328857421875
338;1666859723.4796946;46.976538;7.179091199999999;58.987003326416016;1666859723.5450866;-39.167259216308594;-0.18082107603549957;-50.48451232910156
339;1666859723.691489;46.9765452;7.1790784;59.025001525878906;1666859723.7588346;-45.677330017089844;-1.433456301689148;-49.019500732421875
340;1666859723.9071844;46.976553599999995;7.1790636;59.05900192260742;1666859723.963792;-43.624305725097656;-2.507322072982788;-48.657859802246094
341;1666859724.1121438;46.9765629;7.1790471;59.07400131225586;1666859724.1726553;-41.98800277709961;-2.412161111831665;-48.40507888793945
342;1666859724.3210092;46.976572999999995;7.179029099999999;59.086002349853516;1666859724.387376;-43.75261688232422;-0.46512359380722046;-48.85542297363281
343;1666859724.5435386;46.976583999999995;7.1790097;59.10700225830078;1666859724.6050258;-47.88783264160156;0.28578659892082214;-49.01607131958008
344;1666859724.749472;46.9765959;7.1789887;59.156002044677734;1666859724.837315;-51.31179428100586;0.19045843183994293;-49.15528869628906
345;1666859724.984689;46.9766087;7.178966399999999;59.20100402832031;1666859725.039347;-50.23868942260742;1.0894917249679565;-49.75478744506836
346;1666859725.1984334;46.976622299999995;7.1789431;59.23800277709961;1666859725.2706578;-49.03217315673828;0.9283175468444824;-49.85110092163086
347;1666859725.4043698;46.9766365;7.1789188;59.26900100708008;1666859725.4726918;-48.102500915527344;-0.3998039662837982;-49.0458984375
348;1666859725.6278772;46.9766511;7.178893899999999;59.2910041809082;1666859725.6913164;-47.26035690307617;1.0828242301940918;-49.92415237426758
349;1666859725.8377166;46.976665999999994;7.1788685999999995;59.298004150390625;1666859725.9040825;-45.91843795776367;1.1957473754882812;-50.06135940551758
350;1666859726.0407221;46.976681299999996;7.1788428;59.30000305175781;1666859726.2212834;-44.420143127441406;1.3412573337554932;-50.009212493896484
351;1666859726.3657315;46.9766967;7.1788167;59.301002502441406;1666859726.429175;-43.3560905456543;1.152413249015808;-50.47705841064453
352;1666859726.6790297;46.976712299999996;7.1787906999999995;59.303001403808594;1666859726.750277;-43.68667221069336;1.4860012531280518;-51.1613655090332
353;1666859726.897654;46.9767278;7.1787646;59.30600357055664;1666859726.9757318;-43.61851501464844;0.9179953932762146;-51.35186004638672
354;1666859727.2103534;46.976743299999995;7.1787385;59.30500411987305;1666859727.2905087;-43.532413482666016;1.1076898574829102;-51.47602844238281
355;1666859727.4222689;46.9767587;7.1787125;59.29900360107422;1666859727.5003493;-43.495975494384766;1.208589792251587;-51.744537353515625
356;1666859727.6428456;46.9767741;7.1786863;59.28300094604492;1666859727.715072;-34.40589141845703;3.201425075531006;-52.27869415283203
357;1666859727.8634217;46.9767892;7.1786607;59.26100158691406;1666859727.9307704;-26.679332733154297;-0.4968571066856384;-49.16382598876953
358;1666859728.2099419;46.9768037;7.1786362;59.23800277709961;1666859728.2753327;-21.699411392211914;-1.7875795364379883;-49.622398376464844
359;1666859728.4141817;46.9768172;7.178613299999999;59.21400451660156;1666859728.4746966;-7.984201431274414;-3.9466235637664795;-50.344364166259766
360;1666859728.6210973;46.976829599999995;7.1785923;59.191001892089844;1666859728.6947238;-0.055828534066677094;-2.054581880569458;-51.4544792175293
361;1666859728.8387535;46.976840499999994;7.1785736;59.165000915527344;1666859728.9100056;-3.2542450428009033;-0.5621934533119202;-52.205406188964844
362;1666859729.1438062;46.976850299999995;7.1785568;59.1410026550293;1666859729.2113073;-7.326165676116943;-0.951349675655365;-51.50713348388672
363;1666859729.36454;46.976858899999996;7.1785418;59.11900329589844;1666859729.4271514;-3.153858184814453;-1.2850276231765747;-51.811954498291016
364;1666859729.5799506;46.9768664;7.1785286;59.09800338745117;1666859729.6424155;2.575207471847534;-1.459013819694519;-51.66951370239258
365;1666859729.7975278;46.976872799999995;7.1785174;59.08200454711914;1666859729.8590157;4.02308988571167;-1.0646508932113647;-51.58266830444336
366;1666859729.9976077;46.976878299999996;7.1785076;59.070003509521484;1666859730.066915;6.893558025360107;-0.7179720401763916;-51.30465316772461
367;1666859730.2045324;46.976883;7.1784994;59.057003021240234;1666859730.2787085;-5.450931549072266;2.7623980045318604;-50.69667053222656
368;1666859730.423409;46.9768871;7.178492299999999;59.044002532958984;1666859730.502468;-0.02448313869535923;-0.01663607358932495;-49.717811584472656
369;1666859730.6430125;46.9768907;7.1784862;59.03400421142578;1666859730.707425;-5.64614725112915;0.9846451282501221;-49.29319763183594
370;1666859730.8694441;46.9768938;7.1784808;59.025001525878906;1666859730.940693;2.4770145416259766;-2.247243642807007;-48.303550720214844
371;1666859731.0822127;46.9768964;7.1784764;59.022003173828125;1666859731.1485808;0.005699665751308203;-0.019236158579587936;-47.800880432128906
372;1666859731.2949796;46.9768987;7.1784726999999995;59.02000427246094;1666859731.3584208;4.429589748382568;-1.9771389961242676;-47.82209014892578
373;1666859731.4979875;46.9769006;7.1784696;59.018001556396484;1666859731.5614283;6.614502429962158;0.2932118773460388;-47.46440887451172
374;1666859731.70978;46.9769023;7.1784669;59.0150032043457;1666859731.783956;-1.4455801248550415;-1.7500027418136597;-46.40338897705078
375;1666859731.9147408;46.976903899999996;7.178464399999999;59.0150032043457;1666859731.9733014;6.905251502990723;2.055741786956787;-47.80118942260742
376;1666859732.10994;46.9769053;7.1784624;59.009002685546875;1666859732.1733823;-8.35377025604248;-0.44194504618644714;-47.40327072143555
377;1666859732.3022134;46.9769066;7.178460599999999;59.009002685546875;1666859732.3627238;-0.9306116104125977;2.155500888824463;-47.79177474975586
378;1666859732.5013154;46.9769077;7.1784590999999995;59.01100158691406;1666859732.5628018;-3.3153488636016846;-2.313786745071411;-48.358673095703125
379;1666859732.8009508;46.976908699999996;7.1784579;59.013004302978516;1666859732.8614666;2.5901169776916504;-2.125459671020508;-48.80451202392578
380;1666859732.9961472;46.9769095;7.1784569;59.018001556396484;1666859733.0595887;2.3473057746887207;0.31901293992996216;-49.0367546081543
381;1666859733.2011092;46.9769101;7.178456199999999;59.051002502441406;1666859733.2635717;14.210553169250488;9.87210750579834;-42.78453826904297
382;1666859733.4070442;46.9769106;7.1784567;59.13500213623047;1666859733.4821954;8.009876251220703;9.945979118347168;-34.606197357177734
383;1666859733.620789;46.976911099999995;7.1784585;59.2760009765625;1666859733.6891105;-0.5759807229042053;11.70390796661377;-25.468069076538086
384;1666859733.9311588;46.9769119;7.1784612;59.483001708984375;1666859733.9945989;-6.606054782867432;9.781730651855469;-13.758365631103516
385;1666859734.1634448;46.9769131;7.178464399999999;59.750003814697266;1666859734.2249343;-15.869749069213867;12.838444709777832;-2.5960471630096436
386;1666859734.3645008;46.9769152;7.1784684;60.05500411987305;1666859734.4503903;-26.424673080444336;19.41099739074707;7.311560153961182
387;1666859734.600694;46.9769186;7.178473899999999;60.37000274658203;1666859734.6592565;-31.059703826904297;15.836617469787598;21.234479904174805
388;1666859734.8105345;46.976923199999995;7.178481499999999;60.70100402832031;1666859734.872998;-40.79656219482422;9.359955787658691;33.50239181518555
389;1666859735.0174465;46.9769291;7.178491299999999;61.03000259399414;1666859735.0839837;-48.627098083496094;1.6330753564834595;42.90165710449219
390;1666859735.229409;46.976936599999995;7.178503399999999;61.31900405883789;1666859735.290898;-42.16952133178711;-5.1908416748046875;50.26630783081055
391;1666859735.4343696;46.9769454;7.1785174;61.58500289916992;1666859735.508545;-39.55704116821289;-10.278244972229004;52.55211639404297
392;1666859735.659824;46.976955499999995;7.178532499999999;61.858001708984375;1666859735.7330256;-44.446598052978516;-8.682971000671387;49.08623123168945
393;1666859735.8686874;46.9769669;7.1785486999999994;62.12300109863281;1666859735.9321299;-41.960994720458984;-5.643603324890137;46.80097961425781
394;1666859736.0693488;46.976979299999996;7.1785657;62.39500427246094;1666859736.146917;-39.91862106323242;-2.0538535118103027;45.407981872558594
395;1666859736.3635888;46.976992599999996;7.178583799999999;62.698001861572266;1666859736.3928695;-43.57362747192383;-1.2468607425689697;45.76246643066406
396;1666859736.6261346;46.977006499999995;7.1786029;62.99500274658203;1666859736.679816;-39.45566177368164;0.6125637292861938;45.341514587402344
397;1666859736.8310957;46.9770208;7.178622799999999;63.29500198364258;1666859736.8896573;-37.23106002807617;0.177911177277565;45.84545135498047
398;1666859737.13951;46.977035099999995;7.1786430999999995;63.60000228881836;1666859737.2000253;-34.63374328613281;0.07350760698318481;46.107051849365234
399;1666859737.333738;46.9770494;7.178663599999999;63.910003662109375;1666859737.4079099;-32.85106658935547;0.13881908357143402;45.7677116394043
400;1666859737.5386946;46.977063199999996;7.178683599999999;64.2280044555664;1666859737.6968076;-32.60526657104492;0.25576817989349365;45.56208419799805
401;1666859737.8441844;46.977077;7.1787038;64.54800415039062;1666859737.910553;-32.64466857910156;-0.20495912432670593;45.32133865356445
402;1666859738.049143;46.9770907;7.1787239;64.87200164794922;1666859738.1252728;-32.61851501464844;-0.0059267994947731495;45.16501998901367
403;1666859738.2746015;46.9771043;7.1787439;65.2030029296875;1666859738.3302312;-32.00111770629883;0.21945689618587494;44.58976745605469
404;1666859738.4707758;46.977117799999995;7.1787638;65.53800201416016;1666859738.5488575;-32.85572814941406;-0.07131421566009521;44.50136184692383
405;1666859738.6942806;46.977131299999996;7.1787836;65.8759994506836;1666859738.7723613;-32.88223648071289;-0.331157386302948;44.49699783325195
406;1666859738.9090006;46.9771445;7.1788031;66.22000122070312;1666859738.9675608;-33.919769287109375;-0.4099871814250946;44.60305404663086
407;1666859739.113961;46.977157899999995;7.1788228;66.55400085449219;1666859739.1813056;-22.213207244873047;-0.06292935460805893;44.510040283203125
408;1666859739.3247766;46.9771711;7.1788419;66.85700225830078;1666859739.3843133;-11.762290000915527;0.152725949883461;43.81222915649414
409;1666859739.5326643;46.977183499999995;7.1788599;67.13600158691406;1666859739.5922046;-6.011916637420654;-1.5542685985565186;45.21078109741211
410;1666859739.7669077;46.9771948;7.1788761999999995;67.3800048828125;1666859739.8293693;-4.870119571685791;1.2129462957382202;45.5989875793457
411;1666859739.9601567;46.9772049;7.1788909;67.59400177001953;1666859740.0167632;9.902639389038086;-0.5931726694107056;46.013710021972656
412;1666859740.1651149;46.977213299999995;7.1789033;67.7770004272461;1666859740.2383173;4.681399822235107;-0.3988720774650574;46.02250671386719
413;1666859740.3847165;46.9772207;7.178914;67.94000244140625;1666859740.4442515;9.422898292541504;0.33798643946647644;46.170501708984375
414;1666859740.5838184;46.977227;7.1789232;68.08399963378906;1666859740.6531143;0.7168141007423401;0.2267511487007141;47.147586822509766
415;1666859740.7956107;46.9772325;7.1789311;68.21100616455078;1666859740.8551476;4.1563639640808105;-0.10131222009658813;46.722557067871094
416;1666859740.9986212;46.977237099999996;7.1789378;68.31500244140625;1666859741.0581577;-5.527262210845947;0.3394116759300232;47.68113327026367
