;pos_time;latitude;longitude;altitude;alt_time;pitch;roll;yaw
0;1673292427.8696115;47.1306424;7.2406201999999995;0.009000000543892384;1673292428.0399175;-0.12246768921613693;-0.5680748820304871;90.31391143798828
1;1673292428.0758028;47.1306423;7.2406203;0.006000000052154064;1673292428.2325401;0.05492865666747093;-0.5461485981941223;90.14384460449219
2;1673292428.2688134;47.1306423;7.2406203;0.0010000000474974513;1673292428.441752;0.0824131891131401;-0.28393906354904175;90.20243835449219
3;1673292428.477182;47.1306423;7.2406203;0.0;1673292428.6381063;0.05874932184815407;-0.45171821117401123;90.2860336303711
4;1673292428.6742952;47.1306424;7.2406203;0.0;1673292428.8313656;-0.0510437898337841;-0.26044535636901855;90.26253509521484
5;1673292428.870504;47.1306424;7.2406203;0.0;1673292429.025484;-0.20267102122306824;-0.39353111386299133;90.38296508789062
6;1673292429.0667603;47.1306424;7.2406201999999995;-0.0010000000474974513;1673292429.2329123;-0.1788543313741684;-0.2260710597038269;90.34757995605469
7;1673292429.2748194;47.1306424;7.2406201999999995;-0.004000000189989805;1673292429.4433243;0.1860039234161377;-0.16235783696174622;90.35592651367188
8;1673292429.4780314;47.1306423;7.2406201999999995;-0.0010000000474974513;1673292429.6366906;0.16636420786380768;-0.2929399013519287;90.53024291992188
9;1673292429.6751754;47.1306423;7.2406201999999995;-0.004000000189989805;1673292429.8438642;0.3584427237510681;-0.037532318383455276;90.36397552490234
10;1673292429.8844264;47.1306423;7.2406201;-0.007000000216066837;1673292430.0699813;0.37728795409202576;-0.15183618664741516;90.26929473876953
11;1673292430.1031961;47.1306423;7.24062;-0.007000000216066837;1673292430.273795;0.04291382059454918;-0.16958490014076233;90.26840209960938
12;1673292430.3111737;47.1306422;7.2406198999999996;-0.00800000037997961;1673292430.4702203;0.08058208972215652;-0.1847449541091919;90.38402557373047
13;1673292430.506621;47.1306422;7.240619799999999;-0.007000000216066837;1673292430.6910512;0.49144941568374634;-0.1586485505104065;90.64325714111328
14;1673292430.723002;47.1306422;7.2406197;-0.00800000037997961;1673292430.8820798;0.5879575610160828;0.050176095217466354;90.50881958007812
15;1673292430.910023;47.1306422;7.2406196;-0.01100000087171793;1673292431.065219;0.2261972576379776;-0.10239183157682419;90.32356262207031
16;1673292431.1062593;47.1306423;7.240619499999999;0.0;1673292431.2629654;0.45320773124694824;-0.16680575907230377;90.20885467529297
17;1673292431.2939582;47.1306423;7.240619499999999;0.005000000353902578;1673292431.440938;0.3429113030433655;0.18134039640426636;90.48077392578125
18;1673292431.4780731;47.1306423;7.2406194;0.005000000353902578;1673292431.6361089;0.4243159592151642;0.8933655023574829;89.80457305908203
19;1673292431.6739068;47.1306424;7.2406194;0.005000000353902578;1673292431.8293889;1.2772607803344727;-0.48175546526908875;90.28402709960938
20;1673292431.866098;47.1306424;7.2406194;0.007000000216066837;1673292432.035323;1.7232602834701538;0.3968140780925751;90.34830474853516
21;1673292432.0771246;47.1306423;7.2406194;0.010000000707805157;1673292432.240956;2.3288118839263916;-0.2716716229915619;90.40045928955078
22;1673292432.2773032;47.1306423;7.240619499999999;0.010000000707805157;1673292432.451969;3.506337881088257;-0.0093206986784935;90.44163513183594
23;1673292432.4941084;47.1306423;7.240619499999999;0.012000000104308128;1673292432.6741126;4.413314342498779;-0.2826493978500366;90.7952651977539
24;1673292432.711335;47.1306423;7.2406194;0.012000000104308128;1673292432.8930292;-1.6470816135406494;-0.20824706554412842;91.5094985961914
25;1673292432.9341397;47.1306422;7.240617899999999;0.006000000052154064;1673292433.0932271;-7.461933612823486;-0.11421656608581543;90.6148681640625
26;1673292433.1620605;47.1306422;7.240615399999999;0.01600000075995922;1673292433.2929177;-13.089217185974121;0.014680856838822365;90.08211517333984
27;1673292433.322194;47.1306422;7.240612;0.027000000700354576;1673292433.4710448;-16.79596519470215;-0.6368849277496338;90.23838806152344
28;1673292433.5053077;47.1306422;7.2406079;0.039000000804662704;1673292433.6611674;-17.01344108581543;-0.616046667098999;90.25142669677734
29;1673292433.694176;47.130642099999996;7.2406030999999995;0.058000002056360245;1673292433.8528972;-18.0659236907959;-0.3886049687862396;90.24807739257812
30;1673292433.8873568;47.130642099999996;7.2405979;0.08400000631809235;1673292434.0499556;-19.569019317626953;-0.6301083564758301;90.30680084228516
31;1673292434.085199;47.130641999999995;7.240592299999999;0.11400000751018524;1673292434.2451653;-21.36445426940918;-0.8715761303901672;90.34699249267578
32;1673292434.2768855;47.1306419;7.2405867;0.14600001275539398;1673292434.4415088;-23.29581069946289;-0.5679239630699158;90.30289459228516
33;1673292434.4825041;47.1306418;7.240581;0.18400001525878906;1673292434.6389651;-25.330673217773438;-0.7931848168373108;90.3033676147461
34;1673292434.675229;47.1306417;7.240575499999999;0.2290000170469284;1673292434.8522217;-27.410297393798828;-1.201345682144165;90.40536499023438
35;1673292434.890075;47.1306416;7.2405703;0.27900001406669617;1673292435.0663784;-29.4991512298584;-0.7028363943099976;90.32301330566406
36;1673292435.1064022;47.130641499999996;7.240565699999999;0.3330000042915344;1673292435.2555425;-31.638076782226562;-0.7154034376144409;90.25272369384766
37;1673292435.2986042;47.130641499999996;7.2405618;0.3890000283718109;1673292435.4577646;-33.80398941040039;-1.224975824356079;90.38614654541016
38;1673292435.4884527;47.130641399999995;7.2405588;0.44700002670288086;1673292435.6548424;-35.959659576416016;-0.8919668197631836;90.27752685546875
39;1673292435.690954;47.130641399999995;7.240556799999999;0.5100000500679016;1673292435.8503532;-38.16236877441406;-0.8307923078536987;90.20896911621094
40;1673292435.889775;47.130641399999995;7.2405558;0.5730000138282776;1673292436.0579789;-40.34346008300781;-1.3162317276000977;90.40223693847656
41;1673292436.0891967;47.130641399999995;7.2405561;0.6420000195503235;1673292436.258145;-42.52008056640625;-1.2023509740829468;90.35797119140625
42;1673292436.2903495;47.130641499999996;7.2405577;0.7160000205039978;1673292436.4449005;-44.71221923828125;-1.1346321105957031;90.30847930908203
43;1673292436.482067;47.130641499999996;7.240560899999999;0.796000063419342;1673292436.6535406;-46.85306167602539;-1.2931302785873413;90.20529174804688
44;1673292436.6906142;47.1306416;7.2405656;0.8800000548362732;1673292436.8612251;-44.46318054199219;-1.0600162744522095;90.09292602539062
45;1673292436.905197;47.1306417;7.2405718;0.9550000429153442;1673292437.0931294;-39.59265899658203;-0.9783725738525391;89.92109680175781
46;1673292437.1229506;47.1306418;7.2405791;1.0320000648498535;1673292437.2563787;-34.677738189697266;-0.9146368503570557;89.87399291992188
47;1673292437.286638;47.1306419;7.240586599999999;1.1140000820159912;1673292437.44972;-29.12836456298828;-0.8260647654533386;89.82447052001953
48;1673292437.498116;47.130642099999996;7.2405938999999995;1.1880000829696655;1673292437.6608243;-24.596481323242188;-0.41091102361679077;89.70594787597656
49;1673292437.695029;47.1306422;7.2406004;1.2580000162124634;1673292437.850983;-21.29017448425293;-0.448638379573822;89.77670288085938
50;1673292437.891122;47.1306423;7.2406058;1.3260000944137573;1673292438.055472;-19.943208694458008;-0.5151095986366272;89.91912078857422
51;1673292438.090704;47.1306423;7.2406099;1.3900001049041748;1673292438.2504892;-20.28171157836914;-0.9465998411178589;90.06138610839844
52;1673292438.2885995;47.1306423;7.2406127;1.4560000896453857;1673292438.450342;-21.600963592529297;-0.13144394755363464;89.85005950927734
53;1673292438.48423;47.1306423;7.240614399999999;1.53000009059906;1673292438.644162;-23.444501876831055;0.43971577286720276;84.55696868896484
54;1673292438.6825466;47.1306423;7.240615399999999;1.6110000610351562;1673292438.8552952;-24.732532501220703;-2.2399282455444336;85.77413940429688
55;1673292438.8935525;47.130642099999996;7.2406158;1.7060000896453857;1673292439.0570858;-25.84729766845703;-1.1445232629776;85.2982177734375
56;1673292439.0912454;47.130641999999995;7.2406158;1.818000078201294;1673292439.257381;-27.820600509643555;1.033627986907959;84.57400512695312
57;1673292439.2935245;47.130641999999995;7.240615699999999;1.9380000829696655;1673292439.4374835;-28.60114860534668;-2.298741340637207;85.80479431152344
58;1673292439.4785275;47.130641999999995;7.240615699999999;2.070000171661377;1673292439.6460922;-29.343833923339844;-0.921485185623169;85.56884765625
59;1673292439.685138;47.130642099999996;7.2406158;2.2170000076293945;1673292439.8528183;-29.26152992248535;1.3435184955596924;84.97234344482422
60;1673292439.8967378;47.130642099999996;7.2406160999999996;2.377000093460083;1673292440.0703387;-29.423295974731445;-1.9545869827270508;85.81009674072266
61;1673292440.1025815;47.130641999999995;7.2406166;2.5480000972747803;1673292440.2471814;-28.574634552001953;-2.179452896118164;85.72151184082031
62;1673292440.2824914;47.1306418;7.2406172;2.7270002365112305;1673292440.4440937;-28.252601623535156;0.2644628882408142;84.7437515258789
63;1673292440.4851449;47.1306417;7.240617899999999;2.9180002212524414;1673292440.6721096;-27.2338924407959;-2.523904323577881;85.84883880615234
64;1673292440.7153003;47.1306417;7.2406185;3.1100001335144043;1673292440.8565538;-27.01582908630371;-2.343005657196045;85.8349838256836
65;1673292440.8875134;47.1306418;7.2406191;3.305000066757202;1673292441.0482416;-26.395627975463867;0.9983466267585754;84.82356262207031
66;1673292441.0825965;47.1306419;7.240619499999999;3.504000186920166;1673292441.2448778;-26.245113372802734;-1.2090177536010742;85.54751586914062
67;1673292441.2909424;47.130641999999995;7.2406198999999996;3.703000068664551;1673292441.444927;-26.110849380493164;-2.628293514251709;85.97093963623047
68;1673292441.4801311;47.1306419;7.2406201;3.8990001678466797;1673292441.6445963;-26.408750534057617;0.8922611474990845;84.9449234008789
69;1673292441.680713;47.130641999999995;7.2406201999999995;4.0980000495910645;1673292441.838949;-26.635250091552734;-0.6799260377883911;85.5077896118164
70;1673292441.877006;47.130642099999996;7.2406201999999995;4.297000408172607;1673292442.0419767;-26.909168243408203;-2.3489785194396973;86.15056610107422
71;1673292442.0869718;47.130642099999996;7.2406201;4.49500036239624;1673292442.2583406;-27.06098175048828;1.2223708629608154;85.09245300292969
72;1673292442.2936292;47.1306422;7.24062;4.693000316619873;1673292442.440511;-27.476675033569336;0.1245855912566185;85.22036743164062
73;1673292442.4747112;47.1306422;7.2406198999999996;4.88700008392334;1673292442.6254323;-27.34159278869629;-2.7507731914520264;86.12467193603516
74;1673292442.6599872;47.130642099999996;7.2406198999999996;5.080000400543213;1673292442.8279138;-27.566532135009766;0.5877589583396912;85.07709503173828
75;1673292442.8613594;47.130642099999996;7.240619799999999;5.270000457763672;1673292443.0351727;-27.569643020629883;0.1000133752822876;85.13802337646484
76;1673292443.080408;47.130642099999996;7.240619799999999;5.466000080108643;1673292443.2411108;-27.4936580657959;-2.561126470565796;86.02938842773438
77;1673292443.28309;47.130642099999996;7.240619799999999;5.6620001792907715;1673292443.4501097;-27.49794578552246;0.14539995789527893;85.10733795166016
78;1673292443.4881675;47.130642099999996;7.240619799999999;5.861000061035156;1673292443.6505077;-27.454425811767578;0.39590558409690857;85.02630615234375
79;1673292443.6876917;47.130641999999995;7.2406198999999996;6.058000087738037;1673292443.8453958;-27.46767234802246;-2.870985746383667;86.14810180664062
80;1673292443.878564;47.130641999999995;7.2406198999999996;6.25700044631958;1673292444.0400157;-27.517032623291016;-0.4374711215496063;85.34602355957031
81;1673292444.0771933;47.130641999999995;7.2406198999999996;6.453000068664551;1673292444.2495441;-27.449785232543945;0.6587288975715637;84.93279266357422
82;1673292444.2857995;47.130641999999995;7.2406198999999996;6.64900016784668;1673292444.440827;-27.3521785736084;-2.4065020084381104;85.9189224243164
83;1673292444.4771411;47.130641999999995;7.24062;6.850000381469727;1673292444.6311705;-27.24552345275879;-0.946905255317688;85.47007751464844
84;1673292444.6654713;47.130641999999995;7.2406201;7.050000190734863;1673292444.8404794;-27.2239933013916;0.9950054883956909;84.79136657714844
85;1673292444.8824832;47.1306419;7.2406201;7.243000507354736;1673292445.054396;-27.41983985900879;-2.303131103515625;85.81881713867188
86;1673292445.0888453;47.1306419;7.2406201999999995;7.436000347137451;1673292445.236425;-27.171876907348633;-1.6474857330322266;85.68214416503906
87;1673292445.2702267;47.1306419;7.2406201999999995;7.624000549316406;1673292445.4481134;-27.491989135742188;1.0474138259887695;84.79480743408203
88;1673292445.483365;47.1306419;7.2406201999999995;7.816000461578369;1673292445.6611252;-27.295190811157227;-1.959494709968567;85.85498809814453
89;1673292445.693335;47.130641999999995;7.2406203;8.011000633239746;1673292445.8646219;-27.261932373046875;-1.7483224868774414;85.87284088134766
90;1673292445.9018726;47.130641999999995;7.2406203;8.207000732421875;1673292446.082397;-27.250900268554688;1.1225948333740234;84.87642669677734
91;1673292446.116696;47.130641999999995;7.2406204;8.39900016784668;1673292446.2772386;-27.277666091918945;-1.7323085069656372;85.6679458618164
92;1673292446.31188;47.130641999999995;7.2406204999999995;8.592000007629395;1673292446.4694028;-27.08176612854004;-2.0457711219787598;85.78716278076172
93;1673292446.5066526;47.130641999999995;7.2406204999999995;8.781000137329102;1673292446.6549838;-27.303958892822266;1.244805932044983;84.69316864013672
94;1673292446.6933193;47.130641999999995;7.2406206;8.970000267028809;1673292446.8617508;-27.058876037597656;-1.2316696643829346;85.53855895996094
95;1673292446.8992395;47.130642099999996;7.2406207;9.16200065612793;1673292447.0650587;-27.211122512817383;-2.277777671813965;86.0494613647461
96;1673292447.1041374;47.130642099999996;7.2406207;9.358000755310059;1673292447.2765183;-27.094463348388672;0.9346864819526672;84.91720581054688
97;1673292447.3109202;47.130642099999996;7.2406207;9.554000854492188;1673292447.4803185;-27.4512996673584;-1.0747923851013184;85.48062133789062
98;1673292447.5373955;47.130641999999995;7.2406207;9.754000663757324;1673292447.6843982;-27.165218353271484;-2.5830674171447754;86.02212524414062
99;1673292447.7196229;47.130641999999995;7.2406207;9.952000617980957;1673292447.8896897;-27.418502807617188;0.7239227294921875;84.87628936767578
100;1673292447.922049;47.130641999999995;7.2406207;10.153000831604004;1673292448.0891857;-28.116987228393555;-0.8450251817703247;85.39779663085938
101;1673292448.126843;47.130642099999996;7.2406209;10.405000686645508;1673292448.2824607;-33.72766876220703;-1.7699700593948364;85.88863372802734
102;1673292448.3206248;47.130642099999996;7.240621699999999;10.73900032043457;1673292448.5101047;-30.21827507019043;0.32168057560920715;85.05713653564453
103;1673292448.559516;47.1306422;7.2406231;11.119000434875488;1673292448.7007837;-26.619586944580078;-0.5338333249092102;85.26966857910156
104;1673292448.7608588;47.1306422;7.2406247;11.51200008392334;1673292448.9127867;-23.792587280273438;-2.5138120651245117;85.94821166992188
105;1673292448.9435203;47.1306423;7.2406261999999995;11.91100025177002;1673292449.1104207;-21.89646339416504;0.03831246495246887;85.14628601074219
106;1673292449.1444247;47.1306423;7.2406272;12.317000389099121;1673292449.2923744;-21.07638168334961;-0.4667204022407532;85.27938079833984
107;1673292449.3264275;47.1306423;7.2406276;12.725000381469727;1673292449.4780123;-21.49081802368164;-2.9925951957702637;86.01935577392578
108;1673292449.513521;47.1306423;7.2406274999999996;13.135000228881836;1673292449.7017825;-22.45448112487793;-0.03775536268949509;85.17261505126953
109;1673292449.7325923;47.1306424;7.2406269;13.547000885009766;1673292449.8788772;-24.09366226196289;0.38336607813835144;85.13317108154297
110;1673292449.9100356;47.1306424;7.240626;13.956000328063965;1673292450.0707312;-25.32429313659668;-2.638475179672241;86.12116241455078
111;1673292450.103961;47.1306425;7.240624899999999;14.36500072479248;1673292450.2623458;-26.68126106262207;0.44547218084335327;85.31674194335938
112;1673292450.2936227;47.130642599999995;7.2406239;14.779000282287598;1673292450.4524074;-27.423572540283203;1.0762858390808105;85.0963134765625
113;1673292450.4902186;47.130642699999996;7.2406231;15.192000389099121;1673292450.6513262;-27.814071655273438;-1.7360343933105469;85.94767761230469
114;1673292450.6876094;47.130642699999996;7.2406225;15.609001159667969;1673292450.8539443;-27.718463897705078;-0.24821361899375916;85.45638275146484
115;1673292450.891114;47.130642699999996;7.2406222;16.027000427246094;1673292451.050066;-27.666290283203125;1.000577449798584;84.92770385742188
116;1673292451.0896616;47.130642599999995;7.240622;16.440000534057617;1673292451.2541487;-27.399307250976562;-1.842647910118103;85.82276153564453
117;1673292451.2874665;47.1306425;7.240622;16.85300064086914;1673292451.4565847;-26.99739646911621;-1.017222285270691;85.6489486694336
118;1673292451.4986863;47.1306425;7.2406220999999995;17.269001007080078;1673292451.6751482;-26.623741149902344;0.9328760504722595;84.94922637939453
119;1673292451.7093842;47.130642599999995;7.2406222;17.68400001525879;1673292451.8787236;-26.498865127563477;-1.4315582513809204;85.65145874023438
120;1673292451.9133914;47.130642599999995;7.2406223;18.097000122070312;1673292452.0770345;-25.96074104309082;-1.771143913269043;85.89910125732422
121;1673292452.119103;47.1306425;7.2406225;18.510000228881836;1673292452.2685916;-25.956371307373047;0.7663122415542603;85.01398468017578
122;1673292452.3064053;47.1306425;7.2406225;18.920000076293945;1673292452.472954;-25.956321716308594;-0.7864927649497986;85.48252868652344
123;1673292452.5239406;47.1306425;7.2406223999999995;19.323001861572266;1673292452.6777582;-26.107519149780273;-2.1751482486724854;85.99588012695312
124;1673292452.7198732;47.130642599999995;7.2406223;19.73000144958496;1673292452.868732;-26.391674041748047;0.8076008558273315;85.01826477050781
125;1673292452.9148803;47.130642599999995;7.2406222;20.14000129699707;1673292453.0731242;-26.27213478088379;0.0042693354189395905;85.17998504638672
126;1673292453.1072845;47.130642599999995;7.2406220999999995;20.554000854492188;1673292453.2696435;-26.582883834838867;-2.276705503463745;86.0301742553711
127;1673292453.3018517;47.1306425;7.2406219;20.96500015258789;1673292453.4782963;-26.5321044921875;0.18549013137817383;85.2451171875
128;1673292453.5134861;47.1306425;7.2406217999999996;21.373001098632812;1673292453.6771433;-26.698299407958984;0.09217075258493423;85.20653533935547
129;1673292453.710353;47.1306424;7.2406216;21.773000717163086;1673292453.8460524;-26.616769790649414;-2.1601362228393555;85.96639251708984
130;1673292453.880286;47.1306424;7.2406215;22.174001693725586;1673292454.0433302;-26.8071231842041;0.15697069466114044;85.31886291503906
131;1673292454.0823987;47.1306425;7.240621399999999;22.57400131225586;1673292454.251007;-26.70096206665039;0.8783931136131287;85.01946258544922
132;1673292454.286355;47.1306425;7.240621399999999;22.97800064086914;1673292454.4483774;-26.6850528717041;-2.046276569366455;85.96807861328125
133;1673292454.485065;47.1306425;7.2406213;23.386001586914062;1673292454.64367;-26.515920639038086;-0.18527887761592865;85.44928741455078
134;1673292454.6808465;47.1306424;7.2406213;23.792001724243164;1673292454.8508406;-26.577314376831055;0.961674690246582;85.01842498779297
135;1673292454.8891258;47.1306424;7.2406213;24.19500160217285;1673292455.0716786;-26.418153762817383;-1.8171778917312622;85.9130859375
136;1673292455.107812;47.1306424;7.2406213;24.590002059936523;1673292455.2871118;-26.82111930847168;-0.5469462871551514;85.53104400634766
137;1673292455.322521;47.1306424;7.2406212;24.990001678466797;1673292455.4853532;-26.48795509338379;1.237871766090393;84.85374450683594
138;1673292455.5236323;47.1306424;7.2406212;25.394001007080078;1673292455.6963377;-26.695703506469727;-1.3135590553283691;85.6429672241211
139;1673292455.735389;47.1306423;7.2406212;25.79800033569336;1673292455.8879282;-26.407596588134766;-1.6727803945541382;85.84475708007812
140;1673292455.9181688;47.1306422;7.2406212;26.200000762939453;1673292456.0729356;-26.524669647216797;0.9817975759506226;84.88643646240234
141;1673292456.105149;47.130642099999996;7.2406212;26.604001998901367;1673292456.2670684;-26.430673599243164;-1.2092156410217285;85.58330535888672
142;1673292456.30525;47.130642099999996;7.2406212;27.000001907348633;1673292456.5011387;-26.65747833251953;-1.7376327514648438;85.89199829101562
143;1673292456.531756;47.1306422;7.240621099999999;27.399002075195312;1673292456.671555;-26.549999237060547;1.280530333518982;84.9601821899414
144;1673292456.6991198;47.1306422;7.240621099999999;27.799001693725586;1673292456.8554716;-26.848560333251953;-0.2778841257095337;85.32608795166016
145;1673292456.8934784;47.1306422;7.240621;28.19900131225586;1673292457.060777;-26.675539016723633;-2.0144150257110596;85.96826934814453
146;1673292457.1055973;47.1306422;7.240621;28.60300064086914;1673292457.2727025;-26.828758239746094;0.5815429091453552;85.08872985839844
147;1673292457.3068619;47.130642099999996;7.240621;29.006000518798828;1673292457.4897962;-26.6645565032959;-0.25810033082962036;85.3313980102539
148;1673292457.5259068;47.130642099999996;7.240621;29.411001205444336;1673292457.767911;-26.733678817749023;-2.221909761428833;86.04186248779297
149;1673292457.792961;47.1306422;7.240621;29.808000564575195;1673292457.929667;-26.66110610961914;0.6667194366455078;85.14803314208984
150;1673292457.9624147;47.1306422;7.240621;30.20600128173828;1673292458.1035986;-26.737953186035156;0.3364623486995697;85.19023895263672
151;1673292458.1358209;47.1306422;7.2406209;30.608001708984375;1673292458.2900767;-26.688003540039062;-2.3320822715759277;86.02822875976562
152;1673292458.3253982;47.130642099999996;7.240621;31.012001037597656;1673292458.5024428;-26.795244216918945;0.21171952784061432;85.26566314697266
153;1673292458.5405102;47.130642099999996;7.240621;31.415000915527344;1673292458.691955;-26.64572525024414;0.45916548371315;85.1341323852539
154;1673292458.7471788;47.1306422;7.240621;31.81500244140625;1673292458.9456465;-26.629274368286133;-1.9464082717895508;85.9277572631836
155;1673292458.9760842;47.1306422;7.240621;32.21000289916992;1673292459.1130893;-26.728025436401367;0.04857176914811134;85.36642456054688
156;1673292459.1468055;47.1306423;7.240621;32.60900115966797;1673292459.2992847;-26.629758834838867;0.8362396955490112;85.06259155273438
157;1673292459.327584;47.1306423;7.240621;33.013999938964844;1673292459.4809597;-26.824602127075195;-1.8397819995880127;85.9167251586914
158;1673292459.513217;47.1306423;7.240621;33.42100143432617;1673292459.6696045;-26.45423698425293;-0.22116774320602417;85.37266540527344
159;1673292459.709838;47.1306424;7.240621;33.8280029296875;1673292459.8833284;-26.729732513427734;1.1453564167022705;84.9517822265625
160;1673292459.927755;47.1306424;7.240621;34.23400115966797;1673292460.0979402;-26.62845230102539;-1.3773001432418823;85.88501739501953
161;1673292460.1327322;47.1306424;7.240621;34.63600158691406;1673292460.401063;-26.659595489501953;-0.8593276739120483;85.71929168701172
162;1673292460.4235098;47.1306424;7.240621;35.02900314331055;1673292460.6519637;-26.60239028930664;1.288633942604065;84.89823913574219
163;1673292460.6784878;47.1306424;7.240621;35.426002502441406;1673292460.824745;-26.782958984375;-1.4649555683135986;85.74019622802734
164;1673292460.855061;47.1306424;7.240621;35.827003479003906;1673292460.9893098;-26.626161575317383;-1.2920523881912231;85.7351303100586
165;1673292461.0286949;47.1306424;7.240621;36.22800064086914;1673292461.182288;-26.76902198791504;1.4410605430603027;84.89826965332031
166;1673292461.2200475;47.1306425;7.2406209;36.62700271606445;1673292461.3853922;-26.536962509155273;-0.780874490737915;85.67069244384766
167;1673292461.4186091;47.1306425;7.2406209;37.027000427246094;1673292461.5750372;-26.903118133544922;-1.5037751197814941;85.91478729248047
168;1673292461.6083264;47.1306425;7.2406209;37.42100143432617;1673292461.7566745;-26.46714973449707;1.41637122631073;84.83802795410156
169;1673292461.7898893;47.1306425;7.2406209;37.819000244140625;1673292461.9428396;-26.853866577148438;-0.5345790386199951;85.42018127441406
170;1673292461.9794896;47.1306425;7.2406209;38.220001220703125;1673292462.1422615;-26.541980743408203;-1.7140086889266968;85.93295288085938
171;1673292462.1776884;47.1306425;7.2406209;38.625;1673292462.3558493;-26.714143753051758;1.1678402423858643;84.97889709472656
172;1673292462.4242375;47.1306425;7.2406209;39.03300094604492;1673292462.561228;-26.548429489135742;-0.19114567339420319;85.41130828857422
173;1673292462.5954792;47.1306425;7.240620799999999;39.441001892089844;1673292462.7510667;-26.804847717285156;-1.9111899137496948;86.00798797607422
174;1673292462.7881837;47.1306425;7.240620799999999;39.84600067138672;1673292462.9552708;-26.638351440429688;0.8340080380439758;85.14057922363281
175;1673292462.9913754;47.1306425;7.2406207;40.2400016784668;1673292463.157558;-26.906696319580078;0.07171360403299332;85.32672119140625
176;1673292463.196639;47.1306424;7.2406206;40.6410026550293;1673292463.361937;-26.845829010009766;-2.1891002655029297;86.03416442871094
177;1673292463.3962154;47.1306424;7.2406204999999995;41.04800033569336;1673292463.5525851;-27.02887535095215;0.37685626745224;85.2784652709961
178;1673292463.5954566;47.1306425;7.2406204999999995;41.4530029296875;1673292463.7577949;-26.890249252319336;0.8668012619018555;85.08879089355469
179;1673292463.7940016;47.1306425;7.2406204;41.85600280761719;1673292463.954061;-26.898073196411133;-1.7466959953308105;85.92646789550781
180;1673292463.9952989;47.1306425;7.2406204;42.25700378417969;1673292464.161809;-26.82740020751953;0.009732043370604515;85.36793518066406
181;1673292464.2110062;47.1306425;7.2406204;42.650001525878906;1673292464.3846347;-26.81622314453125;1.2500613927841187;84.96333312988281
182;1673292464.423005;47.1306425;7.2406204;43.047000885009766;1673292464.566793;-26.86324119567871;-1.7721271514892578;85.95171356201172
183;1673292464.604858;47.1306425;7.2406204;43.448001861572266;1673292464.7810292;-27.018909454345703;-0.35239145159721375;85.5877456665039
184;1673292464.8201945;47.1306425;7.2406203;43.85000228881836;1673292464.980663;-27.0489444732666;1.443755865097046;84.96354675292969
185;1673292465.0236278;47.130642599999995;7.2406203;44.255001068115234;1673292465.1852307;-26.96499252319336;-0.6229315996170044;85.62218475341797
186;1673292465.223451;47.130642599999995;7.2406203;44.659000396728516;1673292465.372565;-27.03290367126465;-0.8439913988113403;85.7659912109375
187;1673292465.4050071;47.130642599999995;7.2406203;45.06100082397461;1673292465.5755913;-26.863088607788086;1.5572181940078735;84.84284210205078
188;1673292465.6070123;47.130642599999995;7.2406203;45.4530029296875;1673292465.772735;-27.000656127929688;-0.9435300827026367;85.67247009277344
189;1673292465.807118;47.1306425;7.2406201999999995;45.84800338745117;1673292465.9743154;-27.007118225097656;-1.377333164215088;85.90959167480469
190;1673292466.013542;47.1306425;7.2406203;46.246002197265625;1673292466.1806808;-26.92597198486328;1.3702622652053833;84.99330139160156
191;1673292466.2158163;47.130642599999995;7.2406203;46.64800262451172;1673292466.388171;-26.919281005859375;-0.16787660121917725;85.44303894042969
192;1673292466.4255147;47.130642599999995;7.2406203;47.051002502441406;1673292466.6193635;-26.927715301513672;-1.5819982290267944;85.9830322265625
193;1673292466.6525567;47.130642599999995;7.2406203;47.45600128173828;1673292466.7945087;-26.800546646118164;1.1763145923614502;84.9983139038086
194;1673292466.8247988;47.1306425;7.2406204;47.85300064086914;1673292466.9899065;-27.092479705810547;-0.3242145776748657;85.53844451904297
195;1673292467.0247731;47.1306425;7.2406203;48.237003326416016;1673292467.168456;-27.2680606842041;-1.3537774085998535;85.88739776611328
196;1673292467.2056844;47.1306425;7.2406201999999995;48.57500076293945;1673292467.3620918;-27.28219223022461;1.0715911388397217;85.11543273925781
197;1673292467.3991868;47.1306425;7.2406198999999996;48.862003326416016;1673292467.569789;-27.825136184692383;0.26954060792922974;85.37812805175781
198;1673292467.6070495;47.1306425;7.240619499999999;49.09700393676758;1673292467.7701757;-28.389333724975586;-1.1661384105682373;85.87842559814453
199;1673292467.8071327;47.1306425;7.240619;49.290000915527344;1673292467.971499;-21.685302734375;-2.0136430263519287;84.5374984741211
200;1673292468.0057719;47.1306425;7.2406182999999995;49.44400405883789;1673292468.1702676;-15.228889465332031;15.84925651550293;72.40299224853516
201;1673292468.2065277;47.1306424;7.240616999999999;49.522003173828125;1673292468.3695948;-23.608976364135742;15.28583812713623;62.79161834716797
202;1673292468.4053774;47.1306418;7.2406152;49.56100082397461;1673292468.560358;-23.920095443725586;14.683150291442871;52.187068939208984
203;1673292468.6089683;47.1306411;7.240613499999999;49.62700271606445;1673292468.7814167;-18.063989639282227;17.443323135375977;44.08881759643555
204;1673292468.8351293;47.1306404;7.2406118;49.691001892089844;1673292469.0484502;-17.378673553466797;19.470123291015625;34.25272750854492
205;1673292469.0813417;47.130639699999996;7.240609999999999;49.750003814697266;1673292469.2175565;-13.670350074768066;22.917509078979492;24.500497817993164
206;1673292469.2532415;47.130638999999995;7.2406083;49.798004150390625;1673292469.4045448;-9.310750961303711;27.011051177978516;15.460965156555176
207;1673292469.4443223;47.1306383;7.240606799999999;49.83000183105469;1673292469.5833294;-5.2552618980407715;30.08662986755371;6.297199249267578
208;1673292469.6115613;47.1306376;7.2406054;49.86000061035156;1673292469.7712514;-0.8933822512626648;31.760780334472656;-2.816091775894165
209;1673292469.8092697;47.130637;7.2406044;49.88500213623047;1673292469.964479;3.734131336212158;31.5205020904541;-12.013358116149902
210;1673292469.9966562;47.1306365;7.2406036;49.906002044677734;1673292470.1579812;9.112505912780762;29.704914093017578;-21.057920455932617
211;1673292470.2073867;47.1306361;7.240602999999999;49.923004150390625;1673292470.3784714;14.564318656921387;26.792936325073242;-30.06654930114746
212;1673292470.4190776;47.130635899999994;7.240602699999999;49.93600082397461;1673292470.5896955;19.031686782836914;23.652212142944336;-39.054264068603516
213;1673292470.625237;47.1306357;7.2406026;49.948001861572266;1673292470.781163;21.73992347717285;20.669654846191406;-48.08406066894531
214;1673292470.823311;47.1306355;7.240602699999999;49.9530029296875;1673292470.9726298;23.1823673248291;18.330373764038086;-52.97810363769531
215;1673292471.01718;47.130635399999996;7.2406029;49.95500183105469;1673292471.176924;22.803770065307617;19.72681427001953;-49.95813751220703
216;1673292471.2233534;47.1306352;7.2406030999999995;49.96000289916992;1673292471.3882995;21.855575561523438;21.20064926147461;-47.33987045288086
217;1673292471.4220743;47.1306351;7.2406033;49.9640007019043;1673292471.5793297;21.413780212402344;21.37980079650879;-46.243839263916016
218;1673292471.6182108;47.1306349;7.2406033999999995;49.970001220703125;1673292471.7838151;20.67227554321289;21.14227294921875;-45.85848617553711
219;1673292471.8226867;47.130634699999995;7.2406036;49.97600173950195;1673292471.9856977;20.047565460205078;20.449758529663086;-45.623313903808594
220;1673292472.0312693;47.1306345;7.2406038;49.97300338745117;1673292472.2055438;19.468297958374023;20.376935958862305;-45.48066329956055
221;1673292472.2448208;47.130634199999996;7.2406039;49.97900390625;1673292472.4118495;19.147153854370117;21.50020408630371;-45.21213150024414
222;1673292472.4462762;47.130634;7.2406039;49.98800277709961;1673292472.5852113;18.761194229125977;22.720998764038086;-45.14602279663086
223;1673292472.616491;47.1306339;7.2406038;49.99800109863281;1673292472.7760859;19.12099266052246;23.055438995361328;-45.31563949584961
224;1673292472.8455808;47.1306338;7.2406038;50.00800323486328;1673292473.0033095;19.72637939453125;22.93507957458496;-45.446678161621094
225;1673292473.0409608;47.1306339;7.2406038;50.0150032043457;1673292473.193637;-1.789991021156311;23.12092399597168;-48.98583984375
226;1673292473.244565;47.130634099999995;7.2406033999999995;50.01700210571289;1673292473.4174702;-32.76218795776367;20.11884307861328;-48.555301666259766
227;1673292473.4507554;47.1306356;7.240601099999999;50.01900100708008;1673292473.6015453;-52.30584716796875;11.140037536621094;-45.50746154785156
228;1673292473.6495721;47.130639099999996;7.2405952;50.0260009765625;1673292473.8421774;-52.3595085144043;6.402032852172852;-44.21662902832031
229;1673292473.8747194;47.130645099999995;7.240584699999999;50.0150032043457;1673292474.0587192;-49.722957611083984;7.35321044921875;-45.525455474853516
230;1673292474.0854464;47.130653599999995;7.2405696;50.000003814697266;1673292474.2806585;-52.78041076660156;7.079124927520752;-43.64109802246094
231;1673292474.3093045;47.1306641;7.240550799999999;49.99400329589844;1673292474.459073;-55.493003845214844;7.9182047843933105;-42.7939453125
232;1673292474.4875395;47.1306766;7.240528299999999;49.99500274658203;1673292474.6416452;-57.1059455871582;10.095026969909668;-42.892677307128906
233;1673292474.6706355;47.130691;7.240502599999999;49.992000579833984;1673292474.832595;-55.83394241333008;9.8924560546875;-42.27356719970703
234;1673292474.8676028;47.130707199999996;7.2404744;49.97900390625;1673292475.0175564;-53.40205383300781;10.442512512207031;-41.96137619018555
235;1673292475.053616;47.130725;7.240444;49.96900177001953;1673292475.2058222;-54.78249740600586;9.99974250793457;-38.42645263671875
236;1673292475.2381713;47.130744;7.240412;49.9640007019043;1673292475.4044757;-52.4197998046875;10.907602310180664;-38.151634216308594
237;1673292475.4626174;47.1307641;7.2403789;49.94400405883789;1673292475.6296563;-51.530555725097656;12.369307518005371;-39.1745491027832
238;1673292475.6726303;47.130784999999996;7.2403451;49.9160041809082;1673292475.8515427;-49.06550979614258;17.351123809814453;-40.584747314453125
239;1673292475.8942432;47.1308066;7.240310999999999;49.89200210571289;1673292476.0277004;-41.091304779052734;27.21312713623047;-39.42242431640625
240;1673292476.0606568;47.130828799999996;7.2402774;49.87800216674805;1673292476.2158718;-1.7824703454971313;27.88926124572754;-32.02500915527344
241;1673292476.250567;47.1308509;7.2402457;49.86600112915039;1673292476.397784;22.48912239074707;15.924549102783203;-34.072357177734375
242;1673292476.4325168;47.130871299999995;7.2402166;49.768001556396484;1673292476.5976157;15.82774543762207;4.957846164703369;-42.958091735839844
243;1673292476.6295342;47.1308888;7.240189999999999;49.59800338745117;1673292476.781688;16.464553833007812;2.9879281520843506;-44.094879150390625
244;1673292476.8188372;47.130902999999996;7.2401656999999995;49.51700210571289;1673292477.0315804;35.52171325683594;7.523167133331299;-45.32828903198242
245;1673292477.0877433;47.130913899999996;7.2401442;49.522003173828125;1673292477.291706;46.900970458984375;10.802631378173828;-46.475059509277344
246;1673292477.3214812;47.1309213;7.240126699999999;49.58400344848633;1673292477.4545739;47.93373489379883;10.625686645507812;-46.990272521972656
247;1673292477.492632;47.1309257;7.2401129;49.64500045776367;1673292477.6480165;49.8247184753418;13.587468147277832;-45.67400360107422
248;1673292477.682623;47.1309275;7.240102899999999;49.707000732421875;1673292477.8207622;51.091278076171875;15.248414993286133;-45.16014099121094
249;1673292477.8528008;47.1309271;7.2400965;49.76100158691406;1673292477.992497;51.83815002441406;16.93641471862793;-45.303070068359375
250;1673292478.0259142;47.130924799999995;7.2400937;49.81300354003906;1673292478.1780279;54.731788635253906;20.572669982910156;-45.11298370361328
251;1673292478.2131789;47.1309209;7.2400945;49.86900329589844;1673292478.3646655;55.74239730834961;23.90641975402832;-45.10810852050781
252;1673292478.4017467;47.1309159;7.2400989;49.9160041809082;1673292478.579284;51.508907318115234;23.48278045654297;-47.42255401611328
253;1673292478.637816;47.130910199999995;7.240106399999999;49.954002380371094;1673292478.8049145;49.01688766479492;26.52843475341797;-47.30549621582031
254;1673292478.8440764;47.130904199999996;7.2401162999999995;49.98800277709961;1673292479.008788;48.65826416015625;30.736881256103516;-46.3193244934082
255;1673292479.0460699;47.1308982;7.2401281;50.00300216674805;1673292479.2117789;43.88307571411133;32.11650466918945;-47.56806945800781
256;1673292479.2499657;47.130892599999996;7.2401418;50.012001037597656;1673292479.4140754;33.68836975097656;29.249645233154297;-47.15924835205078
257;1673292479.4513917;47.130887699999995;7.240156499999999;50.018001556396484;1673292479.590494;18.49702262878418;25.53182029724121;-43.74519348144531
258;1673292479.627356;47.130883499999996;7.2401709;50.01400375366211;1673292479.7748306;5.102562427520752;19.981552124023438;-41.60087203979492
259;1673292479.811679;47.1308802;7.240183699999999;50.00700378417969;1673292479.9687145;-1.676063895225525;15.604140281677246;-40.72624588012695
260;1673292480.006857;47.1308777;7.2401941999999995;49.98400115966797;1673292480.1704652;-20.932415008544922;-4.243072986602783;-41.44550704956055
261;1673292480.205614;47.1308754;7.240203299999999;49.69600296020508;1673292480.3612254;-47.8686408996582;-46.82758712768555;-26.30980682373047
262;1673292480.3963504;47.130873199999996;7.2402121;49.018001556396484;1673292480.565504;-54.11777877807617;-119.04368591308594;20.092449188232422
263;1673292480.6032119;47.130871;7.2402209;47.9630012512207;1673292480.7665944;-43.402835845947266;-158.08729553222656;41.2993049621582
264;1673292480.805807;47.130868899999996;7.2402295;46.55500030517578;1673292480.9971652;-44.94908905029297;-165.7906951904297;44.55155944824219
265;1673292481.036911;47.1308668;7.2402375999999995;44.78900146484375;1673292481.2628057;-63.51579666137695;-143.31591796875;31.153730392456055
266;1673292481.3090606;47.1308648;7.2402451999999995;42.65500259399414;1673292481.4578965;-60.20721435546875;-29.38558578491211;-59.26307678222656
267;1673292481.4907203;47.1308629;7.2402526;40.17300033569336;1673292481.6527824;-16.778636932373047;17.401294708251953;-67.95320129394531
268;1673292481.6853309;47.130860999999996;7.2402603;37.30600357055664;1673292481.9152281;15.308666229248047;45.89628982543945;-56.91009521484375
269;1673292481.9596026;47.130859;7.2402674;34.05000305175781;1673292482.1139936;28.72712516784668;49.63037109375;-57.03071212768555
270;1673292482.1560793;47.1308569;7.240273999999999;30.45100212097168;1673292482.3063135;17.35488510131836;20.35693359375;-76.69696807861328
271;1673292482.3341517;47.1308547;7.2402799;26.50800132751465;1673292482.4636555;-24.954755783081055;-14.083154678344727;-89.50812530517578
272;1673292482.4939005;47.1308523;7.2402852;22.16200065612793;1673292482.6648803;-65.71135711669922;-46.092533111572266;-76.46578979492188
273;1673292482.7066789;47.1308502;7.2402907;17.439001083374023;1673292482.8528621;-79.58724975585938;-30.10836410522461;-90.19416809082031
274;1673292482.8861892;47.1308484;7.2402963;12.4010009765625;1673292483.03589;-47.64445114135742;20.18941307067871;-123.56676483154297
275;1673292483.0944371;47.130846899999995;7.240302;7.044000148773193;1673292483.2481887;8.237513542175293;30.747249603271484;-112.67790985107422
276;1673292483.2775528;47.1308453;7.2403081;1.315000057220459;1673292483.4303062;9.17500114440918;22.101072311401367;-115.62706756591797
277;1673292483.4660103;47.130863299999994;7.2403165;-0.4270000159740448;1673292483.622288;9.628371238708496;27.763900756835938;-123.89275360107422
278;1673292483.6623516;47.1308894;7.240327499999999;-1.4170000553131104;1673292483.8412073;21.683433532714844;29.726116180419922;-116.58895874023438
279;1673292483.8756247;47.130918;7.2403394;-2.490000009536743;1673292484.0444129;20.69666290283203;31.070932388305664;-116.71611022949219
280;1673292484.0748868;47.130948599999996;7.2403514;-3.5450000762939453;1673292484.2075841;20.64872932434082;31.904111862182617;-116.5344009399414
281;1673292484.2474003;47.1309812;7.2403637;-4.617000102996826;1673292484.4351454;20.55385971069336;31.989646911621094;-116.45317840576172
282;1673292484.4694495;47.1310149;7.2403758;-5.521000385284424;1673292484.6390889;20.389854431152344;31.831613540649414;-116.4700698852539
283;1673292484.6739633;47.1310496;7.2403875;-6.210000514984131;1673292484.8182034;20.34890365600586;31.762372970581055;-116.43904876708984
284;1673292484.8499985;47.1310863;7.2403995;-0.6440000534057617;1673292484.9940264;20.37398338317871;31.609766006469727;-116.30014038085938
285;1673292485.0241532;47.1311269;7.2404129;-0.3070000112056732;1673292485.173922;20.373226165771484;31.292814254760742;-116.13543701171875
286;1673292485.2099833;47.1311664;7.2404259;-0.20200000703334808;1673292485.3738801;20.383880615234375;31.04741859436035;-116.07435607910156
287;1673292485.4226415;47.1312096;7.240439899999999;-0.18700000643730164;1673292485.5828707;20.417335510253906;30.73973274230957;-115.97540283203125
288;1673292485.618939;47.1312547;7.2404544;-0.21300001442432404;1673292485.7819743;20.412784576416016;30.411375045776367;-115.9236068725586
289;1673292485.8161213;47.131301799999996;7.2404693;-0.25;1673292485.9780376;20.374515533447266;30.13763427734375;-115.88201904296875
290;1673292486.0148675;47.1313507;7.2404847;-0.2880000174045563;1673292486.2101789;20.39188003540039;29.843290328979492;-115.85082244873047
291;1673292486.2483637;47.131401499999996;7.240500399999999;-0.320000022649765;1673292486.4138913;20.39920997619629;29.603763580322266;-115.80641174316406
292;1673292486.451228;47.1314542;7.240516599999999;-0.3970000147819519;1673292486.6049764;20.40587043762207;29.34554672241211;-115.79045867919922
293;1673292486.6404471;47.1315088;7.240533;-0.453000009059906;1673292486.8100321;20.35045051574707;29.06705093383789;-115.78883361816406
294;1673292486.8462715;47.131565099999996;7.240549799999999;-0.4660000205039978;1673292487.015245;20.360013961791992;28.809398651123047;-115.80302429199219
295;1673292487.0500603;47.1316233;7.2405669999999995;-0.45900002121925354;1673292487.2130294;20.327756881713867;28.590171813964844;-115.7904281616211
296;1673292487.2461057;47.1316834;7.2405845;-0.4480000138282776;1673292487.4052444;20.3038330078125;28.34522819519043;-115.7965316772461
297;1673292487.4430635;47.1317453;7.240602399999999;-0.4390000104904175;1673292487.6031156;20.322803497314453;28.179555892944336;-115.7719497680664
298;1673292487.640068;47.1318093;7.2406209;-0.4960000216960907;1673292487.8030236;20.282968521118164;27.96100616455078;-115.76758575439453
299;1673292487.8383253;47.1318749;7.2406394999999995;-0.527999997138977;1673292488.0100398;20.25172996520996;27.762855529785156;-115.7850341796875
300;1673292488.051754;47.1319423;7.2406584;-0.5139999985694885;1673292488.213092;20.25822639465332;27.58633041381836;-115.72278594970703
301;1673292488.2509463;47.132014399999996;7.240678399999999;-0.48600003123283386;1673292488.4172015;20.245107650756836;27.42887306213379;-115.7345199584961
302;1673292488.4610353;47.1320827;7.2406972;-0.46400001645088196;1673292488.6181612;20.245956420898438;27.245019912719727;-115.71000671386719
303;1673292488.6591134;47.1321146;7.240705999999999;-0.4440000355243683;1673292488.8277416;20.211135864257812;27.102970123291016;-115.72794342041016
304;;;;;1673292489.0353742;20.18219757080078;26.9636173248291;-115.71708679199219
305;;;;;1673292489.2482622;20.157133102416992;26.848657608032227;-115.74201965332031
306;;;;;1673292489.4339375;20.10148048400879;26.70881462097168;-115.77307891845703
307;;;;;1673292489.6173992;20.076168060302734;26.588693618774414;-115.8134994506836
308;;;;;1673292489.798066;20.017948150634766;26.40852165222168;-115.85061645507812
309;;;;;1673292490.0210404;20.04938316345215;26.09142303466797;-115.80038452148438
310;;;;;1673292490.2949336;20.0811767578125;25.82420539855957;-115.7760009765625
311;;;;;1673292490.5020053;19.990629196166992;25.683000564575195;-115.58735656738281
