;pos_time;latitude;longitude;altitude;alt_time;pitch;roll;yaw
0;1673285629.5699205;47.1306424;7.24062;-0.020000001415610313;1673285629.7128222;-0.1600155383348465;-0.549937903881073;90.03392028808594
1;1673285629.7695992;47.1306424;7.24062;-0.018000001087784767;1673285629.9099617;-0.11970112472772598;-0.36148524284362793;90.29019165039062
2;1673285629.9626784;47.1306424;7.24062;-0.017000000923871994;1673285630.0955641;-0.042802754789590836;-0.35678645968437195;90.12222290039062
3;1673285630.151196;47.1306424;7.24062;-0.015000000596046448;1673285630.2901657;-0.09245112538337708;-0.3758215308189392;90.25248718261719
4;1673285630.34287;47.1306424;7.24062;-0.012000000104308128;1673285630.4923391;-0.1280747950077057;-0.3218454420566559;90.16333770751953
5;1673285630.5499585;47.1306424;7.24062;-0.01100000087171793;1673285630.6985285;-0.22995543479919434;-0.521795928478241;90.30040740966797
6;1673285630.75437;47.1306423;7.24062;-0.012000000104308128;1673285630.9012694;-0.10558724403381348;-0.23409858345985413;90.24177551269531
7;1673285630.9620755;47.1306423;7.24062;-0.015000000596046448;1673285631.113031;-0.17598602175712585;-0.430841326713562;90.13758850097656
8;1673285631.1726756;47.1306423;7.2406198999999996;-0.01600000075995922;1673285631.3202746;-0.16465330123901367;-0.4576503336429596;90.35626220703125
9;1673285631.3823516;47.1306423;7.2406198999999996;-0.017000000923871994;1673285631.5226846;-0.22525599598884583;-0.24450592696666718;90.13424682617188
10;1673285631.5724688;47.1306423;7.2406197;-0.015000000596046448;1673285631.7113438;-0.20364581048488617;-0.36817118525505066;90.14985656738281
11;1673285631.7640588;47.1306423;7.2406197;-0.009000000543892384;1673285631.9022179;-0.18113936483860016;-0.3585396707057953;90.1236343383789
12;1673285631.9638069;47.1306423;7.2406197;-0.00800000037997961;1673285632.1049926;-0.17709803581237793;-0.3924826979637146;90.08985900878906
13;1673285632.1618476;47.1306423;7.2406197;-0.007000000216066837;1673285632.319904;-0.33140626549720764;-0.40522804856300354;90.2249526977539
14;1673285632.373703;47.1306423;7.2406197;-0.00800000037997961;1673285632.5231574;-0.24097242951393127;-0.32456937432289124;90.25963592529297
15;1673285632.5822837;47.1306423;7.240619799999999;-0.0020000000949949026;1673285632.71472;0.07740200310945511;-0.297711580991745;90.28776550292969
16;1673285632.770424;47.1306423;7.240619799999999;-0.005000000353902578;1673285632.9181857;-0.022974926978349686;-0.3145919740200043;90.15478515625
17;1673285632.97289;47.1306423;7.240619799999999;-0.006000000052154064;1673285633.1155655;0.026957156136631966;-0.2595910429954529;90.09217834472656
18;1673285633.176215;47.1306423;7.240619799999999;-0.003000000026077032;1673285633.3238602;-0.06895758211612701;-0.2618035674095154;90.21794891357422
19;1673285633.38223;47.1306423;7.2406198999999996;0.0010000000474974513;1673285633.5227175;-0.17282094061374664;-0.33450114727020264;90.34024810791016
20;1673285633.580378;47.1306423;7.240619799999999;0.003000000026077032;1673285633.7279453;0.19700215756893158;-0.14486899971961975;90.17499542236328
21;1673285633.7848885;47.1306423;7.240619799999999;0.0010000000474974513;1673285633.922778;0.2037733495235443;-0.38319694995880127;90.4078598022461
22;1673285633.981055;47.1306423;7.2406197;0.0;1673285634.1311312;-0.12115262448787689;0.0036925259046256542;90.33515167236328
23;1673285634.1849449;47.1306423;7.240619799999999;0.0;1673285634.3188097;0.024354305118322372;0.4404922127723694;90.29793548583984
24;1673285634.3758092;47.1306423;7.240619799999999;0.0010000000474974513;1673285634.5161772;-0.15748856961727142;-0.18586644530296326;90.37032318115234
25;1673285634.5717325;47.1306423;7.240619799999999;0.0020000000949949026;1673285634.718109;0.18751001358032227;-0.2716870605945587;90.388916015625
26;1673285634.7758882;47.1306422;7.240619799999999;0.004000000189989805;1673285634.9198694;-0.06745338439941406;-0.11071749776601791;90.41316223144531
27;1673285634.9776409;47.1306422;7.240619799999999;0.0010000000474974513;1673285635.1280003;0.06107252091169357;-0.09122958034276962;90.47737884521484
28;1673285635.184911;47.1306422;7.240619799999999;-0.0010000000474974513;1673285635.3338585;0.018249724060297012;-0.140613853931427;90.5289535522461
29;1673285635.3959098;47.1306422;7.240619799999999;-0.0010000000474974513;1673285635.5336199;0.19395388662815094;-0.027100130915641785;90.66925048828125
30;1673285635.6315897;47.1306422;7.2406198999999996;-0.0020000000949949026;1673285635.7748013;0.40862834453582764;-0.27791935205459595;91.00958251953125
31;1673285635.8296022;47.130642099999996;7.2406198999999996;0.0010000000474974513;1673285635.9669278;1.2190853357315063;-0.2616877853870392;91.1852035522461
32;1673285636.015063;47.130642099999996;7.2406198999999996;0.0010000000474974513;1673285636.133728;1.2282543182373047;-0.47754791378974915;92.66820526123047
33;1673285636.1828127;47.130642099999996;7.240619799999999;0.0010000000474974513;1673285636.3258805;-3.4850986003875732;0.7114105820655823;94.07341766357422
34;1673285636.385008;47.1306422;7.2406193;0.007000000216066837;1673285636.5447764;-9.146634101867676;-0.6432514190673828;92.1036376953125
35;1673285636.6270826;47.130642099999996;7.2406187;0.03200000151991844;1673285636.7559743;-10.227797508239746;-4.850606441497803;92.16793823242188
36;1673285636.8138552;47.130642099999996;7.2406182;0.07900000363588333;1673285636.9558058;-11.463726997375488;-0.2925603985786438;91.93132781982422
37;1673285637.006811;47.1306422;7.240617899999999;0.1420000046491623;1673285637.1748314;-11.704100608825684;2.3367507457733154;91.35279846191406
38;1673285637.2269132;47.1306424;7.2406178;0.2160000056028366;1673285637.3546548;-11.25601577758789;-2.6022579669952393;92.06986999511719
39;1673285637.4052925;47.130642599999995;7.240617899999999;0.30800002813339233;1673285637.541681;-10.742748260498047;-0.4194988012313843;91.61164093017578
40;1673285637.5940115;47.1306425;7.2406181;0.4140000343322754;1673285637.8100672;-10.075864791870117;2.5578372478485107;90.97499084472656
41;1673285637.8589432;47.1306425;7.2406185;0.5360000133514404;1673285637.990795;-9.322572708129883;-2.3074021339416504;91.52961730957031
42;1673285638.0403955;47.1306424;7.2406188;0.6720000505447388;1673285638.180199;-8.809568405151367;-2.4625184535980225;91.4575424194336
43;1673285638.236031;47.1306423;7.2406191;0.8190000653266907;1673285638.366733;-8.718072891235352;2.381779432296753;90.53473663330078
44;1673285638.4165702;47.1306423;7.2406194;0.9800000190734863;1673285638.5726454;-8.331357955932617;-0.8052918910980225;90.97583770751953
45;1673285638.6415753;47.1306424;7.2406196;1.15500009059906;1673285638.8142643;-8.555286407470703;-2.9115402698516846;91.30423736572266
46;1673285638.85916;47.1306424;7.240619799999999;1.343000054359436;1673285638.9780045;-8.48154067993164;1.1740068197250366;90.63796997070312
47;1673285639.0338137;47.1306424;7.240619799999999;1.534000039100647;1673285639.1669059;-8.751710891723633;0.797693133354187;90.12499237060547
48;1673285639.2263184;47.1306423;7.240619799999999;1.7320001125335693;1673285639.3662117;-8.797245979309082;-3.71822190284729;90.82829284667969
49;1673285639.41718;47.1306422;7.2406197;1.9310001134872437;1673285639.5389152;-9.130461692810059;0.11976996064186096;90.22759246826172
50;1673285639.5940988;47.1306422;7.2406196;2.132000207901001;1673285639.7420242;-9.41741943359375;1.5774198770523071;90.05963134765625
51;1673285639.8025708;47.1306422;7.240619499999999;2.3320000171661377;1673285639.9355829;-9.543336868286133;-2.770718812942505;90.89274597167969
52;1673285639.989023;47.1306423;7.240619499999999;2.5360000133514404;1673285640.1321487;-9.383695602416992;-0.5970985293388367;90.59341430664062
53;1673285640.2001345;47.1306422;7.240619499999999;2.7370002269744873;1673285640.335377;-9.517422676086426;1.5122684240341187;89.83488464355469
54;1673285640.389605;47.1306422;7.240619499999999;2.934000253677368;1673285640.5161185;-9.54269027709961;-2.5492403507232666;90.28589630126953
55;1673285640.5775907;47.130642099999996;7.240619499999999;3.133000135421753;1673285640.7192383;-9.552214622497559;-2.4352104663848877;90.56108093261719
56;1673285640.777807;47.130642099999996;7.240619499999999;3.3350002765655518;1673285640.9353788;-9.708126068115234;2.1832449436187744;89.75071716308594
57;1673285640.9936595;47.1306422;7.240619499999999;3.5400002002716064;1673285641.1355715;-9.513514518737793;-0.9089990854263306;90.30420684814453
58;1673285641.1844447;47.1306424;7.2406196;3.7430002689361572;1673285641.3163908;-9.576895713806152;-2.0622870922088623;90.64860534667969
59;1673285641.37495;47.1306424;7.2406197;3.943000078201294;1673285641.538326;-9.356765747070312;2.5166783332824707;89.91078186035156
60;1673285641.5954752;47.1306425;7.2406197;4.141000270843506;1673285641.7397144;-9.112405776977539;0.6947877407073975;90.24138641357422
61;1673285641.797974;47.1306425;7.240619799999999;4.343000411987305;1673285641.9481857;-9.23047924041748;-3.478766441345215;90.83403778076172
62;1673285642.0004683;47.1306423;7.2406198999999996;4.547000408172607;1673285642.1437135;-9.212358474731445;0.699590265750885;90.12704467773438
63;1673285642.204767;47.1306423;7.2406198999999996;4.755000114440918;1673285642.3471687;-9.434511184692383;1.6593562364578247;89.92430877685547
64;1673285642.404914;47.1306423;7.2406198999999996;4.963000297546387;1673285642.5501754;-9.33154296875;-3.0869524478912354;90.74519348144531
65;1673285642.5981634;47.1306423;7.2406198999999996;5.173000335693359;1673285642.734402;-9.397017478942871;0.21787673234939575;90.01314544677734
66;1673285642.7890763;47.1306423;7.2406198999999996;5.377000331878662;1673285642.931687;-9.504399299621582;1.6763527393341064;89.79291534423828
67;1673285642.988319;47.1306422;7.2406198999999996;5.579000473022461;1673285643.1347866;-9.575886726379395;-3.5287094116210938;90.67833709716797
68;1673285643.2055457;47.130642099999996;7.2406198999999996;5.7820000648498535;1673285643.342794;-9.49233627319336;-1.3969048261642456;90.28929138183594
69;1673285643.3960567;47.130641999999995;7.2406198999999996;5.986000061035156;1673285643.5306673;-9.61906909942627;1.8185079097747803;89.8277359008789
70;1673285643.5944068;47.130642099999996;7.2406198999999996;6.189000129699707;1673285643.7738378;-9.532319068908691;-1.3402693271636963;90.19631958007812
71;1673285643.8256536;47.1306423;7.2406198999999996;6.39400053024292;1673285643.9614835;-9.609909057617188;-1.476388692855835;90.52146911621094
72;1673285644.0187325;47.1306424;7.2406198999999996;6.5970001220703125;1673285644.16096;-9.704802513122559;2.62481427192688;89.7804946899414
73;1673285644.2171986;47.1306424;7.2406198999999996;6.797000408172607;1673285644.3581653;-9.493367195129395;-0.9543139934539795;90.26528930664062
74;1673285644.4115152;47.1306423;7.24062;7.000000476837158;1673285644.5527325;-9.587827682495117;-3.1544201374053955;90.77114868164062
75;1673285644.612763;47.1306422;7.24062;7.200000286102295;1673285644.7523494;-9.547667503356934;1.445129156112671;89.91127014160156
76;1673285644.8120425;47.1306422;7.24062;7.40000057220459;1673285644.936765;-9.467370986938477;0.3131488561630249;90.3228759765625
77;1673285644.9904494;47.1306423;7.2406201;7.6020002365112305;1673285645.140159;-9.618260383605957;-3.282165288925171;90.77410125732422
78;1673285645.1909611;47.1306423;7.2406201;7.803000450134277;1673285645.3238082;-9.576424598693848;1.2291563749313354;90.16114044189453
79;1673285645.3804913;47.1306423;7.2406201;8.00100040435791;1673285645.5231783;-9.630087852478027;1.6775230169296265;90.07527923583984
80;1673285645.577017;47.1306423;7.2406201;8.199000358581543;1673285645.7197125;-9.631650924682617;-3.7469003200531006;90.73424530029297
81;1673285645.782253;47.1306422;7.2406201;8.40000057220459;1673285645.9137723;-9.556497573852539;0.07264141738414764;90.34988403320312
82;1673285645.9690113;47.1306422;7.2406201;8.601000785827637;1673285646.1162143;-9.588549613952637;1.9298210144042969;89.81813049316406
83;1673285646.1807053;47.1306424;7.2406201999999995;8.797000885009766;1673285646.3371718;-9.538103103637695;-2.542752265930176;90.78107452392578
84;1673285646.397302;47.1306425;7.2406201999999995;8.993000030517578;1673285646.5413282;-9.512714385986328;-0.9616597294807434;90.34355926513672
85;1673285646.601488;47.1306425;7.2406201999999995;9.190999984741211;1673285646.7583961;-9.704421043395996;2.386030912399292;89.82846069335938
86;1673285646.8135862;47.1306424;7.2406201999999995;9.38700008392334;1673285646.9451234;-9.631538391113281;-2.1772072315216064;90.47789764404297
87;1673285647.002355;47.1306424;7.2406203;9.582000732421875;1673285647.1848392;-9.427923202514648;-2.5244834423065186;90.30599212646484
88;1673285647.2557118;47.1306424;7.2406203;9.77500057220459;1673285647.4255059;-9.45190143585205;2.4271652698516846;89.7226333618164
89;1673285647.4694233;47.1306425;7.2406203;9.968000411987305;1673285647.5763767;-9.42055892944336;-0.32477399706840515;90.1772689819336
90;1673285647.6188946;47.130642599999995;7.2406204;10.165000915527344;1673285647.7355878;-9.56002426147461;-2.4722464084625244;90.51795959472656
91;1673285647.7912314;47.130642699999996;7.2406204999999995;10.433000564575195;1673285647.936176;-11.04053783416748;0.9362697005271912;90.13713073730469
92;1673285647.9989333;47.130642599999995;7.2406207;10.784000396728516;1673285648.136216;-10.182048797607422;1.7167694568634033;90.07015991210938
93;1673285648.189904;47.1306425;7.240621099999999;11.163000106811523;1673285648.3433928;-9.158388137817383;-3.194885492324829;90.7859878540039
94;1673285648.3970792;47.1306424;7.240621399999999;11.554000854492188;1673285648.5329049;-8.51786994934082;-0.7145763635635376;90.40094757080078
95;1673285648.6087735;47.1306423;7.240621699999999;11.94800090789795;1673285648.747897;-7.8780012130737305;2.1557936668395996;89.71217346191406
96;1673285648.8117938;47.1306424;7.2406219;12.346000671386719;1673285648.9534478;-7.689809799194336;-1.8894991874694824;90.3935546875
97;1673285649.0151417;47.1306425;7.240622;12.742000579833984;1673285649.1545398;-7.993547439575195;-1.3074458837509155;90.44237518310547
98;1673285649.2128131;47.1306425;7.2406219;13.142000198364258;1673285649.3500726;-8.444218635559082;2.347736358642578;89.80644226074219
99;1673285649.4102948;47.1306425;7.240621699999999;13.53800106048584;1673285649.5424087;-8.683111190795898;-0.7572997212409973;90.3420181274414
100;1673285649.6000023;47.1306425;7.2406215;13.933000564575195;1673285649.771596;-8.907548904418945;-2.8624179363250732;90.64327239990234
101;1673285649.8472395;47.1306424;7.2406212;14.321001052856445;1673285649.9782948;-9.368319511413574;1.4348026514053345;90.07368469238281
102;1673285650.0291398;47.1306424;7.240621;14.710000991821289;1673285650.1550627;-9.538215637207031;0.5754312872886658;90.29438018798828
103;1673285650.2048943;47.1306425;7.2406209;15.097001075744629;1673285650.3431654;-9.643543243408203;-2.968975067138672;90.71920776367188
104;1673285650.3991096;47.1306425;7.240620799999999;15.483000755310059;1673285650.54576;-9.71752643585205;0.7328029870986938;89.99066925048828
105;1673285650.6045911;47.1306424;7.2406207;15.867000579833984;1673285650.745922;-9.582569122314453;1.5337014198303223;89.74993133544922
106;1673285650.7947433;47.1306423;7.2406206;16.25;1673285650.9365225;-9.411965370178223;-3.022427797317505;90.54924011230469
107;1673285650.9952521;47.1306423;7.2406207;16.63800048828125;1673285651.1301582;-9.444535255432129;-1.056100845336914;90.38755798339844
108;1673285651.217426;47.1306423;7.2406207;17.023000717163086;1673285651.3613546;-9.301349639892578;2.187539577484131;89.93319702148438
109;1673285651.4191113;47.1306424;7.2406207;17.411001205444336;1673285651.56109;-9.317936897277832;-1.8819586038589478;90.6535415649414
110;1673285651.6202478;47.1306425;7.240620799999999;17.80500030517578;1673285651.7579014;-9.065244674682617;-1.6577273607254028;90.55150604248047
111;1673285651.8112445;47.1306425;7.240620799999999;18.201000213623047;1673285651.9505363;-8.926270484924316;2.1934702396392822;89.77669525146484
112;1673285652.002047;47.1306425;7.240620799999999;18.59000015258789;1673285652.135853;-8.976346969604492;-0.10546445846557617;90.06103515625
113;1673285652.191691;47.1306424;7.240620799999999;18.97800064086914;1673285652.33395;-9.157837867736816;-2.9100091457366943;90.59850311279297
114;1673285652.3964217;47.1306424;7.2406207;19.368000030517578;1673285652.530034;-9.250246047973633;1.361756443977356;90.01265716552734
115;1673285652.5837162;47.1306424;7.2406207;19.760000228881836;1673285652.7258236;-9.146252632141113;0.8348998427391052;90.01123046875
116;1673285652.784651;47.130642599999995;7.2406206;20.14900016784668;1673285652.936519;-9.223469734191895;-2.7765047550201416;90.66151428222656
117;1673285652.998011;47.130642599999995;7.2406204999999995;20.536001205444336;1673285653.1541145;-9.438342094421387;0.21785561740398407;90.35681915283203
118;1673285653.2152436;47.130642599999995;7.2406204999999995;20.922000885009766;1673285653.3523295;-9.47757339477539;2.139810800552368;89.92642974853516
119;1673285653.4105036;47.130642599999995;7.2406204;21.3070011138916;1673285653.5507584;-9.541305541992188;-2.3309357166290283;90.55860137939453
120;1673285653.5947332;47.1306425;7.2406203;21.69500160217285;1673285653.7354693;-9.47991943359375;-1.5606122016906738;90.37602233886719
121;1673285653.7974296;47.1306425;7.2406203;22.08300018310547;1673285653.9377396;-9.501006126403809;2.179373025894165;89.94293212890625
122;1673285653.997323;47.130642599999995;7.2406201999999995;22.474000930786133;1673285654.1293137;-9.556869506835938;-0.7484410405158997;90.32217407226562
123;1673285654.1812637;47.130642599999995;7.2406201999999995;22.86600112915039;1673285654.3339508;-9.345924377441406;-2.6116507053375244;90.57872009277344
124;1673285654.391511;47.130642699999996;7.2406201999999995;23.260000228881836;1673285654.5293343;-9.53853702545166;2.0321452617645264;89.88131713867188
125;1673285654.5869555;47.130642699999996;7.2406201999999995;23.649002075195312;1673285654.7375796;-9.306456565856934;1.7398096323013306;89.94979858398438
126;1673285654.8020434;47.130642699999996;7.2406201999999995;24.043001174926758;1673285654.9470942;-9.388161659240723;-3.047708034515381;90.66256713867188
127;1673285655.0019608;47.130642699999996;7.2406201999999995;24.43600082397461;1673285655.1392703;-9.19238567352295;0.6614833474159241;90.26140594482422
128;1673285655.1951473;47.130642699999996;7.2406201999999995;24.832000732421875;1673285655.3372514;-9.3297758102417;1.9585837125778198;89.87031555175781
129;1673285655.3919103;47.1306428;7.2406201999999995;25.22800064086914;1673285655.5306597;-9.211015701293945;-2.102785587310791;90.62800598144531
130;1673285655.5844038;47.1306428;7.2406201999999995;25.628002166748047;1673285655.732213;-9.226890563964844;-0.4240807890892029;90.37016296386719
131;1673285655.7918708;47.1306428;7.2406201999999995;26.0260009765625;1673285655.9339087;-9.125924110412598;2.5770437717437744;89.93175506591797
132;1673285655.9905186;47.130642699999996;7.2406201999999995;26.422000885009766;1673285656.1362603;-9.318747520446777;-1.9788177013397217;90.4582748413086
133;1673285656.1929088;47.130642599999995;7.2406201999999995;26.82400131225586;1673285656.3403883;-9.270421981811523;-1.813645839691162;90.49205780029297
134;1673285656.3971348;47.1306425;7.2406201;27.231000900268555;1673285656.532051;-9.458505630493164;2.4651994705200195;89.85076904296875
135;1673285656.5888007;47.130642599999995;7.24062;27.641000747680664;1673285656.732571;-9.301098823547363;-0.01886671595275402;90.14814758300781
136;1673285656.7933786;47.130642699999996;7.24062;28.042001724243164;1673285656.9376824;-9.553611755371094;-2.4393367767333984;90.5730972290039
137;1673285656.9972742;47.130642699999996;7.2406198999999996;28.441001892089844;1673285657.2096598;-9.434804916381836;2.3031933307647705;89.94331359863281
138;1673285657.276294;47.130642699999996;7.2406198999999996;28.836000442504883;1673285657.4537563;-9.317659378051758;1.0002392530441284;90.11161804199219
139;1673285657.502666;47.130642599999995;7.2406198999999996;29.235000610351562;1673285657.649961;-9.522204399108887;-3.1702523231506348;90.6935806274414
140;1673285657.695044;47.1306425;7.2406198999999996;29.63500213623047;1673285657.8680801;-9.335750579833984;0.48116567730903625;90.1731185913086
141;1673285657.9337103;47.1306424;7.2406198999999996;30.035001754760742;1673285658.043565;-9.591817855834961;2.1555421352386475;89.89041900634766
142;1673285658.0836127;47.1306424;7.2406198999999996;30.434001922607422;1673285658.1885922;-9.29167652130127;-2.4993529319763184;90.67609405517578
143;1673285658.244078;47.1306425;7.2406198999999996;30.830001831054688;1673285658.3762112;-9.548430442810059;-0.34150731563568115;90.28714752197266
144;1673285658.4294846;47.1306424;7.2406198999999996;31.227001190185547;1673285658.5688405;-9.4815673828125;2.17244029045105;89.86952209472656
145;1673285658.6307018;47.1306424;7.2406198999999996;31.621002197265625;1673285658.7747743;-9.51867961883545;-1.042444109916687;90.27555847167969
146;1673285658.8281765;47.1306423;7.24062;32.020999908447266;1673285658.9673686;-9.389094352722168;-2.5739264488220215;90.57119750976562
147;1673285659.023105;47.1306422;7.24062;32.422000885009766;1673285659.1644938;-9.478246688842773;2.2303061485290527;89.84510803222656
148;1673285659.2197478;47.1306423;7.24062;32.823001861572266;1673285659.3630772;-9.388381004333496;-0.06491535902023315;90.27393341064453
149;1673285659.418154;47.1306424;7.24062;33.22100067138672;1673285659.5586092;-9.440108299255371;-2.8404691219329834;90.72431182861328
150;1673285659.609504;47.1306424;7.24062;33.62000274658203;1673285659.735661;-9.45767593383789;1.7062655687332153;90.04547882080078
151;1673285659.7895145;47.1306425;7.24062;34.01300048828125;1673285659.9293044;-9.290168762207031;1.6770199537277222;90.0533447265625
152;1673285659.9869516;47.130642599999995;7.24062;34.41400146484375;1673285660.137475;-9.523026466369629;-2.8562376499176025;90.6025161743164
153;1673285660.1962647;47.1306425;7.24062;34.81800079345703;1673285660.3298674;-9.401716232299805;0.10538782179355621;90.083251953125
154;1673285660.386504;47.1306425;7.24062;35.22100067138672;1673285660.5293314;-9.486678123474121;2.3384976387023926;89.81183624267578
155;1673285660.5910351;47.130642599999995;7.24062;35.62200164794922;1673285660.7541838;-9.293014526367188;-2.0210745334625244;90.69386291503906
156;1673285660.8183808;47.130642699999996;7.24062;36.020999908447266;1673285660.9833941;-9.519078254699707;-0.6815927028656006;90.37921142578125
157;1673285661.0382419;47.130642599999995;7.24062;36.41600036621094;1673285661.1772807;-9.34555721282959;2.5801146030426025;89.84146881103516
158;1673285661.231659;47.130642599999995;7.24062;36.80600357055664;1673285661.3602662;-9.545103073120117;-1.4109395742416382;90.42288208007812
159;1673285661.4123266;47.1306425;7.2406201;37.2030029296875;1673285661.5538144;-9.332239151000977;-1.9135398864746094;90.62262725830078
160;1673285661.609504;47.1306425;7.2406201;37.60600280761719;1673285661.7590072;-9.409828186035156;1.965819001197815;89.95368194580078
161;1673285661.8157728;47.1306425;7.2406201;38.00800323486328;1673285661.9594693;-9.47316837310791;0.32682228088378906;90.1428451538086
162;1673285662.0182583;47.130642599999995;7.24062;38.40700149536133;1673285662.1639879;-9.517633438110352;-2.430483341217041;90.5979232788086
163;1673285662.2148929;47.130642699999996;7.24062;38.803001403808594;1673285662.3546674;-9.590514183044434;1.9263222217559814;89.9393081665039
164;1673285662.41034;47.1306428;7.24062;39.19700241088867;1673285662.5601199;-9.396827697753906;1.9958748817443848;90.01097869873047
165;1673285662.62313;47.1306428;7.24062;39.59300231933594;1673285662.7693825;-9.341361999511719;-2.8988161087036133;90.67061614990234
166;1673285662.8256006;47.130642699999996;7.24062;39.9890022277832;1673285662.9621544;-9.208248138427734;-0.26962193846702576;90.32947540283203
167;1673285663.0187595;47.130642699999996;7.2406201;40.38900375366211;1673285663.162375;-9.328012466430664;2.756309747695923;89.84119415283203
168;1673285663.2324126;47.130642699999996;7.2406201;40.7920036315918;1673285663.3833764;-9.32628345489502;-1.8890752792358398;90.56261444091797
169;1673285663.4317727;47.130642699999996;7.2406201;41.195003509521484;1673285663.5708902;-9.601456642150879;-0.7825793027877808;90.41273498535156
170;1673285663.6545303;47.130642699999996;7.24062;41.59400177001953;1673285663.787054;-9.354194641113281;2.5707716941833496;89.74684143066406
171;1673285663.8432343;47.130642599999995;7.24062;41.9900016784668;1673285663.9774978;-9.511419296264648;-1.5601015090942383;90.2197265625
172;1673285664.0348794;47.1306425;7.2406198999999996;42.38900375366211;1673285664.2075238;-9.432948112487793;-2.290623664855957;90.38336944580078
173;1673285664.279058;47.1306424;7.24062;42.79100036621094;1673285664.40936;-9.531200408935547;2.2279410362243652;89.92469024658203
174;1673285664.4607952;47.1306424;7.24062;43.195003509521484;1673285664.5833743;-9.385205268859863;-0.2526889741420746;90.27215576171875
175;1673285664.6356528;47.1306425;7.24062;43.59600067138672;1673285664.7757654;-9.358427047729492;-2.687467336654663;90.68959045410156
176;1673285664.8301334;47.1306425;7.24062;43.99400329589844;1673285664.9683797;-9.339738845825195;1.809408187866211;90.01335906982422
177;1673285665.0232294;47.130642599999995;7.24062;44.38600158691406;1673285665.1450112;-9.427742004394531;1.5147825479507446;90.05238342285156
178;1673285665.199729;47.130642599999995;7.2406198999999996;44.78200149536133;1673285665.3368201;-9.434818267822266;-2.762035369873047;90.67790985107422
179;1673285665.3939652;47.1306425;7.2406198999999996;45.182003021240234;1673285665.5355413;-9.553577423095703;-0.034537747502326965;90.25129699707031
180;1673285665.591225;47.1306425;7.2406198999999996;45.58400344848633;1673285665.7382007;-9.45125961303711;2.1994311809539795;89.84609985351562
181;1673285665.8029585;47.1306425;7.2406198999999996;45.98500061035156;1673285665.9972796;-9.40874195098877;-2.0036349296569824;90.4292221069336
182;1673285666.0679803;47.130642599999995;7.2406198999999996;46.387001037597656;1673285666.198452;-9.55452823638916;-0.4999578595161438;90.4543228149414
183;1673285666.2587745;47.130642599999995;7.2406198999999996;46.78700256347656;1673285666.4128878;-9.487016677856445;2.913534641265869;89.95345306396484
184;1673285666.4612758;47.130642599999995;7.2406198999999996;47.18100357055664;1673285666.592743;-9.602119445800781;-0.6790391802787781;90.36421966552734
185;1673285666.644206;47.1306425;7.2406198999999996;47.577003479003906;1673285666.7699604;-9.466498374938965;-2.042309045791626;90.44632720947266
186;1673285666.8247132;47.1306424;7.2406198999999996;47.974002838134766;1673285666.9620485;-9.829835891723633;2.8428056240081787;89.9233169555664
187;1673285667.0328512;47.1306424;7.240619799999999;48.33000183105469;1673285667.154496;-9.68375015258789;-2.7748868465423584;90.45401000976562
188;1673285667.205258;47.1306424;7.240619799999999;48.637001037597656;1673285667.3400586;-9.743307113647461;-0.5346927046775818;90.33547973632812
189;1673285667.3948162;47.1306424;7.2406197;48.89500045776367;1673285667.5454414;-9.85270881652832;1.5680770874023438;90.04597473144531
190;1673285667.610113;47.1306424;7.240619499999999;49.108001708984375;1673285667.755482;-9.975695610046387;-0.8265615701675415;90.35965728759766
191;1673285667.8072116;47.1306424;7.2406193;49.2920036315918;1673285667.9549024;-1.6709399223327637;0.8733328580856323;89.625
192;1673285668.0114942;47.1306423;7.240618899999999;49.428001403808594;1673285668.1474416;2.4598703384399414;15.231201171875;80.32637023925781
193;1673285668.2021427;47.1306419;7.240617899999999;49.49100112915039;1673285668.3431592;-6.612440586090088;7.362490177154541;68.11376953125
194;1673285668.3960302;47.1306411;7.2406163999999995;49.54500198364258;1673285668.5329757;-4.978924751281738;7.249579429626465;57.533966064453125
195;1673285668.592074;47.130640299999996;7.2406149;49.58700180053711;1673285668.749322;-3.69844388961792;10.318960189819336;48.981666564941406
196;1673285668.8052247;47.1306395;7.2406133;49.624000549316406;1673285668.9371204;-6.409851551055908;8.672436714172363;39.943016052246094
197;1673285668.99405;47.1306386;7.2406118;49.65300369262695;1673285669.1440375;-6.445085048675537;6.089297294616699;30.99786949157715
198;1673285669.208057;47.1306377;7.2406105;49.68400192260742;1673285669.3567913;-5.846536159515381;6.503953456878662;22.191272735595703
199;1673285669.4149246;47.130637;7.2406093;49.71000289916992;1673285669.5730562;-3.8634238243103027;8.136411666870117;13.4446382522583
200;1673285669.6204665;47.1306365;7.2406083;49.73600387573242;1673285669.7668538;-0.744948148727417;11.088665962219238;4.519957065582275
201;1673285669.822734;47.1306361;7.2406074;49.762001037597656;1673285669.9511778;1.184265375137329;13.515103340148926;-3.8078651428222656
202;1673285670.0069716;47.130635899999994;7.2406067;49.78200149536133;1673285670.1491396;1.2877870798110962;12.394953727722168;-11.76547622680664
203;1673285670.2001839;47.1306357;7.240606199999999;49.79600143432617;1673285670.3490095;2.0176544189453125;9.31247329711914;-20.210399627685547
204;1673285670.4111788;47.1306355;7.2406058;49.807003021240234;1673285670.5460865;4.8688554763793945;7.31920051574707;-29.67462921142578
205;1673285670.6105387;47.130635399999996;7.2406054;49.81900405883789;1673285670.7570314;8.888554573059082;5.6948628425598145;-39.203338623046875
206;1673285670.8094525;47.130635299999994;7.2406049999999995;49.83400344848633;1673285670.9546843;11.07396125793457;5.851149559020996;-48.1660041809082
207;1673285671.0095816;47.1306351;7.2406047;49.849002838134766;1673285671.157263;8.632068634033203;10.802619934082031;-52.04988479614258
208;1673285671.2120202;47.130634799999996;7.2406044;49.86300277709961;1673285671.3489275;6.750927925109863;9.045823097229004;-51.22698211669922
209;1673285671.406661;47.1306345;7.2406041;49.87200164794922;1673285671.551369;5.748690128326416;6.764928817749023;-48.62918472290039
210;1673285671.6030972;47.130634199999996;7.2406041;49.87300109863281;1673285671.7361398;6.71321964263916;4.465141773223877;-46.621360778808594
211;1673285671.7939937;47.130634099999995;7.240603999999999;49.87900161743164;1673285671.9510772;8.055390357971191;5.094611644744873;-45.89800262451172
212;1673285672.0117085;47.1306339;7.2406038;49.88500213623047;1673285672.1545262;8.076528549194336;8.539349555969238;-45.83827590942383
213;1673285672.2132714;47.1306338;7.2406036;49.89400100708008;1673285672.3697498;6.278050422668457;9.966096878051758;-46.13417434692383
214;1673285672.4369183;47.130633599999996;7.2406033999999995;49.9010009765625;1673285672.6420572;5.076582431793213;9.007140159606934;-46.3237190246582
215;1673285672.6874301;47.130633499999995;7.2406033;49.906002044677734;1673285672.811482;5.708484172821045;6.737500190734863;-46.436954498291016
216;1673285672.8677745;47.1306334;7.2406032;49.90500259399414;1673285672.9963856;2.868084669113159;4.2531585693359375;-46.63124084472656
217;1673285673.0513487;47.1306334;7.240602999999999;49.90800094604492;1673285673.1908257;-25.399934768676758;8.318471908569336;-48.3443717956543
218;1673285673.251714;47.1306339;7.2406019;49.90800094604492;1673285673.3823898;-47.49504470825195;8.671483039855957;-48.754825592041016
219;1673285673.4402032;47.130635899999994;7.2405987;49.874000549316406;1673285673.5598218;-40.08012771606445;4.171298503875732;-46.7586669921875
220;1673285673.6236098;47.1306395;7.240592299999999;49.80600357055664;1673285673.7798586;-36.73099136352539;-0.127280130982399;-45.47345733642578
221;1673285673.8325558;47.1306443;7.240583399999999;49.74700164794922;1673285673.966576;-37.093910217285156;-3.1998050212860107;-44.630916595458984
222;1673285674.0166223;47.130649999999996;7.2405721;49.71200180053711;1673285674.1536703;-40.235374450683594;-2.1336710453033447;-44.51296615600586
223;1673285674.2099571;47.130656599999995;7.2405585;49.702003479003906;1673285674.336731;-45.704498291015625;2.255115270614624;-45.1004524230957
224;1673285674.3917224;47.1306644;7.2405424;49.720001220703125;1673285674.530823;-53.53984832763672;5.236722946166992;-45.542335510253906
225;1673285674.5908742;47.1306738;7.2405238999999995;49.76900100708008;1673285674.7476218;-60.46120071411133;8.2078275680542;-45.357200622558594
226;1673285674.8161178;47.1306855;7.240502599999999;49.83500289916992;1673285674.9550316;-61.15176010131836;7.501108169555664;-44.48175048828125
227;1673285675.0065303;47.130699299999996;7.240479;49.884002685546875;1673285675.1416771;-57.27442169189453;5.4340925216674805;-42.65054702758789
228;1673285675.1986182;47.130715099999996;7.2404535;49.900001525878906;1673285675.3356335;-56.4647331237793;3.696382522583008;-42.53132629394531
229;1673285675.3879354;47.1307322;7.2404266999999995;49.89400100708008;1673285675.5247016;-54.15849685668945;4.201478481292725;-43.231632232666016
230;1673285675.5846503;47.1307502;7.2403986;49.86900329589844;1673285675.7285872;-50.72088623046875;4.903698921203613;-43.5225830078125
231;1673285675.7861092;47.130769;7.240369599999999;49.833003997802734;1673285675.9297175;-48.80190658569336;5.2147626876831055;-43.46149826049805
232;1673285675.9908466;47.1307882;7.24034;49.798004150390625;1673285676.1467125;-47.74329376220703;7.218155384063721;-43.949371337890625
233;1673285676.202867;47.1308078;7.2403103;49.775001525878906;1673285676.3410263;-46.57460021972656;10.659929275512695;-43.9998893737793
234;1673285676.3997579;47.1308277;7.2402807;49.7650032043457;1673285676.54574;-33.553077697753906;20.771451950073242;-43.61849594116211
235;1673285676.5998135;47.130848;7.240252099999999;49.77700424194336;1673285676.7419717;5.599425315856934;23.53888702392578;-39.31460952758789
236;1673285676.8027978;47.1308675;7.2402261999999995;49.78900146484375;1673285676.9478757;28.027320861816406;15.374994277954102;-41.68975830078125
237;1673285677.0185614;47.1308851;7.2402038;49.689002990722656;1673285677.1576815;17.243850708007812;4.452324390411377;-46.26629638671875
238;1673285677.2166123;47.1309;7.2401848;49.51700210571289;1673285677.353836;16.183364868164062;2.145813226699829;-46.38969039916992
239;1673285677.4109528;47.130912099999996;7.2401691999999995;49.432003021240234;1673285677.558683;30.383766174316406;5.8230719566345215;-47.25937271118164
240;1673285677.6209993;47.1309215;7.240157;49.41400146484375;1673285677.7697341;43.17219543457031;7.6618332862854;-48.087432861328125
241;1673285677.8302531;47.1309281;7.2401487;49.4640007019043;1673285678.0382953;44.964881896972656;7.312369346618652;-49.078617095947266
242;1673285678.0857897;47.130932;7.2401444999999995;49.5150032043457;1673285678.2153285;48.919795989990234;10.669085502624512;-48.260215759277344
243;1673285678.260263;47.1309335;7.2401442;49.573001861572266;1673285678.384957;53.82742691040039;14.024235725402832;-47.08821487426758
244;1673285678.4392273;47.130932699999995;7.240148;49.63500213623047;1673285678.585163;54.55058670043945;15.442391395568848;-46.7683219909668
245;1673285678.648174;47.1309299;7.2401558999999995;49.69300079345703;1673285678.7835746;49.85826110839844;15.188033103942871;-47.81148147583008
246;1673285678.832972;47.1309255;7.2401675;49.74500274658203;1673285678.9653015;36.43464279174805;13.701384544372559;-48.14682388305664
247;1673285679.0189936;47.1309203;7.240181199999999;49.77400207519531;1673285679.147025;20.195648193359375;11.715868949890137;-47.08695983886719
248;1673285679.2026749;47.130914999999995;7.2401955;49.78700256347656;1673285679.3598208;5.72127628326416;6.89024019241333;-46.245765686035156
249;1673285679.4157019;47.1309101;7.2402088;49.794002532958984;1673285679.5534325;-3.4081435203552246;1.7795172929763794;-46.312522888183594
250;1673285679.6091304;47.1309058;7.2402204999999995;49.78900146484375;1673285679.7558072;1.275650978088379;2.967282295227051;-45.54854965209961
251;1673285679.8110323;47.1309021;7.2402302;49.78400421142578;1673285679.9475076;-0.3157590925693512;13.246334075927734;-43.584774017333984
252;1673285680.000916;47.1308988;7.2402383;49.7390022277832;1673285680.1522553;-26.19708251953125;35.53356170654297;-47.388282775878906
253;1673285680.2187498;47.130895599999995;7.240246;49.34800338745117;1673285680.3721297;-51.80284118652344;61.574676513671875;-69.2726058959961
254;1673285680.424408;47.130892499999995;7.2402532;48.60600280761719;1673285680.564182;-62.84695053100586;106.00708770751953;-121.83928680419922
255;1673285680.623899;47.130889499999995;7.240259999999999;47.4900016784668;1673285680.7822063;-57.230796813964844;130.88211059570312;-166.40008544921875
256;1673285680.845314;47.130886499999995;7.2402666;46.027000427246094;1673285680.9876425;-54.624080657958984;120.15841674804688;174.8614501953125
257;1673285681.062161;47.130883499999996;7.2402731;44.21000289916992;1673285681.1872518;-57.221466064453125;77.76010131835938;-177.94863891601562
258;1673285681.2397237;47.1308806;7.2402795;42.044002532958984;1673285681.3895972;-44.406288146972656;12.184487342834473;-151.49630737304688
259;1673285681.4409072;47.1308778;7.2402862;39.51000213623047;1673285681.5995657;-10.688151359558105;-29.140050888061523;-146.3126678466797
260;1673285681.6757786;47.1308752;7.2402928;36.58300018310547;1673285681.8066418;23.285398483276367;-45.86960983276367;-161.52569580078125
261;1673285681.8696556;47.1308728;7.240298999999999;33.277000427246094;1673285682.0388458;46.86355972290039;-39.543094635009766;-174.20858764648438
262;1673285682.085255;47.1308704;7.2403046;29.60900115966797;1673285682.2024946;51.13930892944336;4.5475335121154785;-164.0817413330078
263;1673285682.2597375;47.1308679;7.2403097999999995;25.59400177001953;1673285682.3784256;27.325685501098633;45.10929870605469;-168.37420654296875
264;1673285682.426267;47.1308651;7.2403148999999996;21.224000930786133;1673285682.5709167;-0.7943021059036255;63.0040168762207;165.1171112060547
265;1673285682.6304789;47.130862099999995;7.240320499999999;16.506999969482422;1673285682.7751;-24.63282012939453;54.86650085449219;142.1685333251953
266;1673285682.830734;47.1308594;7.2403264;11.461000442504883;1673285682.9745216;-35.24672317504883;9.718844413757324;146.39512634277344
267;1673285683.0244706;47.1308572;7.2403322999999995;6.075000286102295;1673285683.1623614;-9.567991256713867;-35.145835876464844;148.898193359375
268;1673285683.2258139;47.1308553;7.2403376999999995;0.31200000643730164;1673285683.3706832;-4.344311714172363;0.001806332147680223;147.9361572265625
269;1673285683.4293964;47.130858599999996;7.240351599999999;0.3960000276565552;1673285683.5623631;-4.19623327255249;-11.977112770080566;150.72494506835938
270;1673285683.6236515;47.1308642;7.2403701;0.3930000066757202;1673285683.7703116;-3.563202142715454;-8.354480743408203;151.2428741455078
271;1673285683.8428524;47.130869999999994;7.2403892999999995;0.42600002884864807;1673285683.9714143;-3.3326709270477295;-8.10428237915039;151.70318603515625
272;1673285684.0208888;47.130875499999995;7.240407599999999;0.4520000219345093;1673285684.1699266;-3.2463722229003906;-7.543619155883789;151.95831298828125
273;1673285684.2325552;47.130880499999996;7.2404249;0.47200003266334534;1673285684.3734937;-3.1571667194366455;-7.356605052947998;152.31936645507812
274;1673285684.4328566;47.1308862;7.2404446;0.4790000319480896;1673285684.5783818;-3.085007667541504;-6.915860652923584;152.662841796875
275;1673285684.6406014;47.1308922;7.240465899999999;0.48500001430511475;1673285684.7846446;-3.0037026405334473;-6.500185966491699;153.0203094482422
276;1673285684.8384936;47.1308985;7.2404885;0.48000001907348633;1673285684.9731615;-2.9057235717773438;-6.246026039123535;153.3666534423828
277;1673285685.0258672;47.1309051;7.2405121999999995;0.46400001645088196;1673285685.1712074;-2.7975778579711914;-6.076083660125732;153.70425415039062
278;1673285685.22427;47.1309119;7.240537;0.44200003147125244;1673285685.3729768;-2.7475335597991943;-5.972140312194824;154.02474975585938
279;1673285685.426265;47.130918799999996;7.2405626;0.41700002551078796;1673285685.5603402;-2.700657367706299;-5.84970235824585;154.32679748535156
280;1673285685.620101;47.1309259;7.240589099999999;0.39000001549720764;1673285685.7710166;-2.5851924419403076;-5.755415439605713;154.59414672851562
281;1673285685.8292542;47.1309332;7.2406163999999995;0.3630000054836273;1673285685.9733534;-2.5321857929229736;-5.79488468170166;154.8602294921875
282;1673285686.0223715;47.130940599999995;7.2406445999999995;0.33500000834465027;1673285686.161344;-2.4810712337493896;-5.861233711242676;155.1099395751953
283;1673285686.2272966;47.1309482;7.2406735;0.30300000309944153;1673285686.3733811;-2.4348652362823486;-5.907778739929199;155.34156799316406
284;1673285686.428085;47.1309559;7.2407033;0.27000001072883606;1673285686.5762165;-2.349146842956543;-6.044431209564209;155.52005004882812
285;1673285686.6400776;47.130963699999995;7.2407338;0.2370000183582306;1673285686.7861745;-2.325140953063965;-6.1703596115112305;155.678466796875
286;1673285686.844783;47.130971699999996;7.240765;0.20400001108646393;1673285686.9882362;-2.365691661834717;-6.3817033767700195;155.85931396484375
287;1673285687.0431628;47.1309799;7.240797;0.16900001466274261;1673285687.180315;-2.3088572025299072;-6.304388046264648;155.8880157470703
288;1673285687.2376885;47.1309882;7.240829799999999;0.12800000607967377;1673285687.3842363;-2.2990968227386475;-6.28585147857666;155.91554260253906
289;1673285687.4402156;47.130996599999996;7.2408632;0.09200000762939453;1673285687.576372;-2.3195862770080566;-6.445084095001221;155.96337890625
290;1673285687.6324577;47.131005099999996;7.240897299999999;0.05700000375509262;1673285687.7789161;-2.2728450298309326;-6.615181922912598;156.00315856933594
291;1673285687.8372107;47.1310138;7.240932;0.024000000208616257;1673285687.9772203;-2.2482187747955322;-6.799325942993164;156.0249481201172
292;1673285688.0301945;47.131022599999994;7.2409674;-0.003000000026077032;1673285688.1723497;-2.2181925773620605;-6.997395992279053;156.0723114013672
293;1673285688.2253814;47.1310315;7.2410035;-0.03500000014901161;1673285688.3542693;-2.2197327613830566;-7.197958469390869;156.13720703125
294;1673285688.4114652;47.1310406;7.2410406;-0.07900000363588333;1673285688.5571766;-2.163292407989502;-7.35819149017334;156.18527221679688
295;1673285688.6086173;47.1310499;7.241078099999999;-0.11400000751018524;1673285688.7594128;-2.1107752323150635;-7.512144565582275;156.2238006591797
296;1673285688.8142734;47.131059199999996;7.2411162;-0.14400000870227814;1673285688.9647033;-2.115966558456421;-7.707309722900391;156.2841033935547
297;1673285689.0223486;47.1310672;7.2411487;-0.1720000058412552;1673285689.1592035;-2.1122636795043945;-7.8394694328308105;156.33631896972656
298;;;;;1673285689.3623662;-2.059915065765381;-7.9414167404174805;156.38250732421875
299;;;;;1673285689.5713804;-2.028167963027954;-8.067157745361328;156.43075561523438
300;;;;;1673285689.8314729;-2.078296661376953;-8.208250045776367;156.5077362060547
301;;;;;1673285690.0304296;-2.084630012512207;-8.571410179138184;156.56985473632812
302;;;;;1673285690.220458;-2.055635929107666;-8.683523178100586;156.6085662841797
303;;;;;1673285690.3992052;-2.063955307006836;-8.851847648620605;156.69187927246094
