;pos_time;latitude;longitude;altitude;alt_time;pitch;roll;yaw
0;1673285379.8810422;47.1306425;7.2406197;0.010000000707805157;1673285380.0577698;-0.11660247296094894;-0.24896307289600372;90.15326690673828
1;1673285380.0887454;47.1306425;7.2406197;0.00800000037997961;1673285380.2477689;-0.06216849759221077;-0.4115174412727356;90.30856323242188
2;1673285380.285673;47.1306425;7.2406196;0.007000000216066837;1673285380.4342551;0.18932263553142548;-0.11979535967111588;90.12560272216797
3;1673285380.47071;47.1306425;7.2406197;0.006000000052154064;1673285380.6316664;0.13636872172355652;-0.42621031403541565;90.23245239257812
4;1673285380.6678455;47.1306425;7.2406197;0.009000000543892384;1673285380.833771;-0.087751604616642;-0.11874804645776749;90.08293151855469
5;1673285380.8727314;47.1306425;7.240619799999999;0.012000000104308128;1673285381.0390334;-0.11974005401134491;-0.41324663162231445;90.19624328613281
6;1673285381.080899;47.1306424;7.2406197;0.01100000087171793;1673285381.246692;-0.06611621379852295;-0.12854285538196564;90.20626068115234
7;1673285381.2839622;47.1306424;7.2406197;0.007000000216066837;1673285381.4478614;0.008357643149793148;-0.3731868863105774;90.27069091796875
8;1673285381.479127;47.1306424;7.240619799999999;0.007000000216066837;1673285381.6501827;-0.11749839037656784;-0.18943992257118225;90.17431640625
9;1673285381.6819253;47.1306424;7.240619799999999;0.007000000216066837;1673285381.8429644;-0.08003433793783188;-0.8497122526168823;90.097412109375
10;1673285381.8777478;47.1306424;7.2406198999999996;-0.0020000000949949026;1673285382.0357537;0.20971176028251648;-1.4669898748397827;89.9898452758789
11;1673285382.0708244;47.1306424;7.2406198999999996;-0.005000000353902578;1673285382.2337904;0.13552066683769226;-0.9082382917404175;90.13465118408203
12;1673285382.2756963;47.1306424;7.24062;-0.007000000216066837;1673285382.4547215;0.034516897052526474;-1.144594669342041;90.12252807617188
13;1673285382.489854;47.1306424;7.2406201;-0.006000000052154064;1673285382.6557028;-0.09376612305641174;-0.9564502239227295;90.06919860839844
14;1673285382.6928046;47.1306424;7.2406201;-0.004000000189989805;1673285382.8528066;0.12223725765943527;-1.259278655052185;90.119873046875
15;1673285382.89116;47.1306424;7.2406201;-0.005000000353902578;1673285383.0717614;0.1603231579065323;-1.864119052886963;90.0958023071289
16;1673285383.109099;47.1306424;7.24062;-0.004000000189989805;1673285383.2456455;0.36798545718193054;-1.7289015054702759;89.99285888671875
17;1673285383.2801435;47.1306425;7.24062;-0.0020000000949949026;1673285383.4459288;0.1960662454366684;-1.8495073318481445;89.7676010131836
18;1673285383.4817958;47.1306425;7.2406198999999996;0.0;1673285383.643848;0.1842416226863861;-1.060157060623169;89.56538391113281
19;1673285383.6819139;47.1306425;7.24062;-0.003000000026077032;1673285383.8450947;0.13146770000457764;-1.628757119178772;89.61151885986328
20;1673285383.8818467;47.1306425;7.24062;-0.005000000353902578;1673285384.0737581;0.3471410274505615;-0.48148638010025024;89.24112701416016
21;1673285384.1128743;47.130642599999995;7.2406201;-0.0020000000949949026;1673285384.2592301;1.1838757991790771;-1.1357988119125366;88.44490051269531
22;1673285384.2918096;47.130642699999996;7.2406201;0.0;1673285384.4487681;1.3900758028030396;-1.1752010583877563;87.49211883544922
23;1673285384.4857864;47.1306428;7.24062;0.0010000000474974513;1673285384.6599228;1.9619852304458618;-1.1156046390533447;86.40721893310547
24;1673285384.6938076;47.130643;7.24062;0.0;1673285384.8567817;2.0684285163879395;-0.3867438733577728;82.88426208496094
25;1673285384.8909776;47.130643299999996;7.240619799999999;-0.0020000000949949026;1673285385.045715;0.11520391702651978;0.956828236579895;70.03877258300781
26;1673285385.079831;47.130644;7.2406191;-0.010000000707805157;1673285385.2410266;-0.37206700444221497;-0.6447954177856445;59.44972610473633
27;1673285385.2822406;47.130645099999995;7.2406179999999996;-0.005000000353902578;1673285385.4657388;-0.30694183707237244;3.4284472465515137;64.08477783203125
28;1673285385.504872;47.1306467;7.2406159;-0.0020000000949949026;1673285385.6848373;-3.336444854736328;7.67515230178833;70.38908386230469
29;1673285385.7321699;47.130648799999996;7.2406128;0.013000000268220901;1673285385.8818047;-5.651116847991943;10.215042114257812;71.44801330566406
30;1673285385.9156735;47.1306513;7.2406089;0.04200000315904617;1673285386.064851;-6.4332685470581055;13.714670181274414;71.198486328125
31;1673285386.101027;47.130654199999995;7.2406044;0.08000000566244125;1673285386.2578168;-7.298147201538086;15.63942813873291;71.2251205444336
32;1673285386.2928505;47.130657299999996;7.2405995;0.1300000101327896;1673285386.4511042;-8.65190315246582;16.957683563232422;71.19393157958984
33;1673285386.486755;47.1306604;7.2405943;0.19500000774860382;1673285386.6478925;-9.933294296264648;18.933822631835938;71.18788146972656
34;1673285386.6891108;47.1306635;7.240589099999999;0.2770000100135803;1673285386.8468823;-10.965205192565918;21.039587020874023;71.17738342285156
35;1673285386.8809974;47.1306665;7.2405840999999995;0.3710000216960907;1673285387.0428815;-12.232403755187988;22.55171775817871;71.19959259033203
36;1673285387.0792065;47.1306692;7.240579299999999;0.48000001907348633;1673285387.2437737;-13.519119262695312;24.125272750854492;71.32192993164062
37;1673285387.2830987;47.1306717;7.2405751;0.6040000319480896;1673285387.45077;-14.773904800415039;26.022855758666992;71.41041564941406
38;1673285387.4967308;47.1306739;7.2405713;0.7440000176429749;1673285387.667818;-16.203413009643555;27.568222045898438;71.60834503173828
39;1673285387.7027977;47.1306757;7.2405681;0.9010000228881836;1673285387.889065;-17.715831756591797;29.356454849243164;71.88721466064453
40;1673285387.9288967;47.1306771;7.2405658;1.0750000476837158;1673285388.0955148;-19.284374237060547;30.835891723632812;72.20687103271484
41;1673285388.1280425;47.130677899999995;7.2405643;1.2660000324249268;1673285388.269636;-20.858400344848633;32.529056549072266;72.62843322753906
42;1673285388.302628;47.1306782;7.2405637;1.4610000848770142;1673285388.47025;-25.85878562927246;31.89187240600586;80.1707992553711
43;1673285388.509024;47.130677899999995;7.2405642;1.658000111579895;1673285388.6817331;-28.046180725097656;33.0351448059082;80.71086883544922
44;1673285388.7101963;47.1306771;7.2405658;1.8570001125335693;1673285388.86031;-29.19230842590332;34.94342803955078;81.19843292236328
45;1673285388.8989139;47.1306758;7.240568799999999;2.065999984741211;1673285389.0579197;-30.485319137573242;37.18173599243164;81.61662292480469
46;1673285389.094487;47.1306739;7.2405729999999995;2.2770001888275146;1673285389.254694;-30.616628646850586;38.10988235473633;82.40415954589844
47;1673285389.2913773;47.130671299999996;7.2405786;2.490000009536743;1673285389.455379;-29.006858825683594;30.896461486816406;90.20753479003906
48;1673285389.493692;47.130668;7.240584999999999;2.687000036239624;1673285389.6624186;-36.91400146484375;19.212081909179688;120.21810913085938
49;1673285389.6956475;47.1306642;7.2405916999999995;2.868000030517578;1673285389.8913538;-34.70815658569336;3.796396017074585;141.4866485595703
50;1673285389.942858;47.1306598;7.2405979;3.065000057220459;1673285390.095444;-26.461990356445312;0.9350293874740601;141.9752655029297
51;1673285390.1295943;47.1306553;7.2406036;3.247000217437744;1673285390.2773917;-20.28722381591797;-0.37119221687316895;140.58401489257812
52;1673285390.3154573;47.130651199999996;7.240608399999999;3.434000253677368;1673285390.4765902;-15.907099723815918;-1.9064425230026245;139.9742889404297
53;1673285390.5146527;47.1306478;7.240612199999999;3.619000196456909;1673285390.6597068;-14.345937728881836;-2.8486645221710205;139.45762634277344
54;1673285390.6983426;47.1306453;7.2406147;3.7970001697540283;1673285390.869189;-15.21740436553955;-3.9712369441986084;139.19383239746094
55;1673285390.9552305;47.1306438;7.2406160999999996;3.9760000705718994;1673285391.1668658;-17.807662963867188;-4.5326642990112305;139.1219482421875
56;1673285391.1898983;47.130643;7.2406166;4.164000034332275;1673285391.3251462;-21.56806182861328;-4.054505825042725;139.22775268554688
57;1673285391.382373;47.130643;7.2406166999999995;4.3520002365112305;1673285391.5169146;-25.172706604003906;-3.5941426753997803;139.05520629882812
58;1673285391.5462134;47.130643299999996;7.2406163;4.547000408172607;1673285391.7401369;-28.0223445892334;-3.904463768005371;139.199951171875
59;1673285391.7742984;47.130643899999995;7.240615699999999;4.748000144958496;1673285391.933608;-30.0811767578125;-2.3623783588409424;139.05259704589844
60;1673285391.9614666;47.130644499999995;7.240615399999999;4.954000473022461;1673285392.1023011;-31.402759552001953;-1.927258849143982;139.0373992919922
61;1673285392.1395757;47.1306449;7.2406152;5.163000106811523;1673285392.308712;-31.375511169433594;-3.0480291843414307;139.4817352294922
62;1673285392.3418958;47.130645099999995;7.2406153;5.374000072479248;1673285392.5052822;-30.586299896240234;-1.7503259181976318;139.310302734375
63;1673285392.5423713;47.130645099999995;7.240615699999999;5.579000473022461;1673285392.6758497;-30.36404800415039;-1.0190118551254272;138.86227416992188
64;1673285392.7086368;47.1306449;7.2406162;5.793000221252441;1673285392.8644123;-29.54220199584961;-2.225078821182251;139.1716766357422
65;1673285392.908996;47.1306446;7.2406166999999995;6.003000259399414;1673285393.057641;-28.520296096801758;-2.08207106590271;139.22291564941406
66;1673285393.09356;47.1306443;7.2406172;6.214000225067139;1673285393.2639394;-28.129602432250977;-1.2799516916275024;138.86680603027344
67;1673285393.3005884;47.130644;7.2406177;6.4210004806518555;1673285393.474191;-27.501815795898438;-2.4125373363494873;139.21572875976562
68;1673285393.5114489;47.1306436;7.2406182;6.62600040435791;1673285393.7276824;-26.50937843322754;-3.3270668983459473;139.5251922607422
69;1673285393.77664;47.130643299999996;7.2406185999999995;6.830000400543213;1673285393.942896;-26.45854377746582;-1.6374975442886353;138.93753051757812
70;1673285393.9873147;47.130643;7.240618899999999;7.028000354766846;1673285394.1362135;-26.57230567932129;-2.0445187091827393;139.0435028076172
71;1673285394.1695683;47.1306429;7.2406191;7.2260003089904785;1673285394.295786;-26.24739646911621;-3.8715341091156006;139.78103637695312
72;1673285394.3289752;47.1306428;7.240619199999999;7.425000190734863;1673285394.4682524;-26.524049758911133;-1.8077936172485352;139.0994873046875
73;1673285394.504913;47.1306428;7.2406193;7.627000331878662;1673285394.6684642;-27.0762882232666;-1.411124348640442;138.88583374023438
74;1673285394.7109637;47.1306428;7.2406193;7.828000545501709;1673285394.8660586;-26.996810913085938;-4.0407280921936035;139.7275390625
75;1673285394.9038005;47.1306429;7.240619199999999;8.029000282287598;1673285395.0805576;-27.31456756591797;-2.6678998470306396;139.36788940429688
76;1673285395.1517966;47.1306429;7.2406191;8.22700023651123;1673285395.305633;-27.610952377319336;-1.1505141258239746;138.68907165527344
77;1673285395.3388157;47.1306429;7.240619;8.426000595092773;1673285395.4846;-27.73188591003418;-3.6761255264282227;139.51083374023438
78;1673285395.520882;47.1306429;7.240619;8.623000144958496;1673285395.673097;-27.589502334594727;-3.334984064102173;139.44703674316406
79;1673285395.7131932;47.130643;7.2406191;8.825000762939453;1673285395.8900075;-27.850574493408203;-0.9508710503578186;138.6732177734375
80;1673285395.9251707;47.130643;7.240619199999999;9.032999992370605;1673285396.086583;-27.94335174560547;-2.606405735015869;139.13473510742188
81;1673285396.1266117;47.130643;7.240619199999999;9.24000072479248;1673285396.2777238;-27.3961124420166;-3.6721904277801514;139.5452880859375
82;1673285396.3174713;47.1306429;7.2406193;9.442000389099121;1673285396.4772885;-27.87731170654297;-1.3318489789962769;138.72361755371094
83;1673285396.511161;47.1306429;7.2406193;9.63900089263916;1673285396.6640227;-27.692180633544922;-1.8796615600585938;138.87237548828125
84;1673285396.7055438;47.1306429;7.2406194;9.838000297546387;1673285396.8702393;-27.49782371520996;-3.807386636734009;139.57261657714844
85;1673285396.9098258;47.1306429;7.2406196;10.03700065612793;1673285397.0666244;-26.6785945892334;-2.0013811588287354;139.0493927001953
86;1673285397.1042583;47.1306428;7.2406197;10.253000259399414;1673285397.255098;-28.028417587280273;-1.8906993865966797;138.7469482421875
87;1673285397.289883;47.130642599999995;7.24062;10.564000129699707;1673285397.4495325;-30.642913818359375;-3.1789655685424805;138.97911071777344
88;1673285397.4856627;47.1306422;7.2406204999999995;10.93600082397461;1673285397.6419501;-26.71698760986328;-1.9868720769882202;139.09910583496094
89;1673285397.67807;47.1306418;7.2406212;11.317000389099121;1673285397.8450694;-25.941164016723633;-2.3228302001953125;138.90513610839844
90;1673285397.8831265;47.1306413;7.2406217999999996;11.700000762939453;1673285398.070264;-24.821359634399414;-2.2804088592529297;138.9902801513672
91;1673285398.1093435;47.130640899999996;7.2406223999999995;12.0910005569458;1673285398.2689729;-24.116579055786133;-2.7593252658843994;139.28614807128906
92;1673285398.3066187;47.130640799999995;7.2406228;12.485000610351562;1673285398.4718325;-24.2589054107666;-1.4747273921966553;138.93292236328125
93;1673285398.508076;47.1306407;7.2406229;12.882000923156738;1673285398.6593835;-24.922527313232422;-1.9749699831008911;139.01031494140625
94;1673285398.692624;47.130640799999995;7.2406229;13.27400016784668;1673285398.8589606;-25.03002166748047;-3.003202438354492;139.46141052246094
95;1673285398.899666;47.130640899999996;7.240622699999999;13.659000396728516;1673285399.0481958;-25.807964324951172;-1.7292536497116089;139.06822204589844
96;1673285399.0852978;47.1306411;7.2406223;14.035000801086426;1673285399.2464604;-26.748748779296875;-1.679442048072815;139.00839233398438
97;1673285399.285717;47.1306413;7.240622;14.408000946044922;1673285399.4691553;-26.8249454498291;-3.0663435459136963;139.38710021972656
98;1673285399.5043902;47.130641499999996;7.240621699999999;14.77500057220459;1673285399.6669939;-27.13134765625;-2.3515686988830566;139.18504333496094
99;1673285399.7104893;47.1306416;7.2406215;15.146000862121582;1673285399.8822165;-27.531023025512695;-1.6754711866378784;138.8878936767578
100;1673285399.913999;47.1306417;7.2406213;15.518000602722168;1673285400.0834396;-27.454008102416992;-3.013484239578247;139.24615478515625
101;1673285400.1246042;47.1306417;7.2406212;15.892001152038574;1673285400.296818;-27.075212478637695;-2.8710315227508545;139.20977783203125
102;1673285400.332101;47.1306417;7.240621099999999;16.26300048828125;1673285400.4778676;-27.231487274169922;-1.819724678993225;138.9085693359375
103;1673285400.5125875;47.1306417;7.240621099999999;16.641000747680664;1673285400.6726801;-27.030559539794922;-2.5816707611083984;139.14979553222656
104;1673285400.7088459;47.1306416;7.2406212;17.019001007080078;1673285400.8727214;-26.594884872436523;-2.834139347076416;139.28273010253906
105;1673285400.9151204;47.1306416;7.2406213;17.394001007080078;1673285401.0662584;-26.79605484008789;-1.7307366132736206;138.97174072265625
106;1673285401.1039715;47.1306416;7.240621399999999;17.772001266479492;1673285401.2684495;-26.73076820373535;-2.4166111946105957;139.199462890625
107;1673285401.30729;47.130641499999996;7.2406215;18.150001525878906;1673285401.4907477;-26.36267852783203;-2.837691068649292;139.32118225097656
108;1673285401.523491;47.130641499999996;7.2406215;18.525001525878906;1673285401.6875277;-26.491498947143555;-1.6444114446640015;138.91184997558594
109;1673285401.7230127;47.130641499999996;7.2406215;18.894001007080078;1673285401.9039855;-26.71786880493164;-2.500965118408203;139.15625
110;1673285401.9383228;47.130641499999996;7.2406215;19.26500129699707;1673285402.0906034;-26.29926300048828;-2.877344846725464;139.38790893554688
111;1673285402.1238356;47.1306416;7.2406215;19.641000747680664;1673285402.2711475;-26.54756736755371;-1.6808527708053589;138.93394470214844
112;1673285402.3079062;47.1306416;7.2406215;20.018001556396484;1673285402.4509425;-26.6656494140625;-2.346963405609131;139.07415771484375
113;1673285402.484252;47.1306416;7.2406215;20.395000457763672;1673285402.639575;-26.334482192993164;-3.3702521324157715;139.49208068847656
114;1673285402.678608;47.1306416;7.240621399999999;20.7760009765625;1673285402.8359077;-26.442934036254883;-1.4097687005996704;138.91427612304688
115;1673285402.8702419;47.1306417;7.2406213;21.148000717163086;1673285403.0314703;-26.728681564331055;-1.9964003562927246;139.01255798339844
116;1673285403.0706594;47.1306417;7.2406213;21.527000427246094;1673285403.2438493;-26.455381393432617;-3.2870774269104004;139.54225158691406
117;1673285403.2868316;47.1306418;7.2406213;21.900001525878906;1673285403.443092;-26.507709503173828;-1.708865761756897;139.05104064941406
118;1673285403.4792233;47.1306419;7.2406212;22.273000717163086;1673285403.660826;-26.767147064208984;-1.4388233423233032;138.91360473632812
119;1673285403.703332;47.130641999999995;7.240621099999999;22.650001525878906;1673285403.8779476;-26.576539993286133;-3.3352832794189453;139.63706970214844
120;1673285403.928238;47.130641999999995;7.240621099999999;23.029001235961914;1673285404.07938;-26.445646286010742;-2.407301425933838;139.31063842773438
121;1673285404.1113462;47.130641999999995;7.240621;23.410001754760742;1673285404.2622807;-26.96873664855957;-1.101766586303711;138.75430297851562
122;1673285404.2996674;47.130642099999996;7.240620799999999;23.786001205444336;1673285404.463008;-26.60365104675293;-3.2314701080322266;139.48060607910156
123;1673285404.4971788;47.130642099999996;7.2406207;24.17300033569336;1673285404.6611595;-26.652902603149414;-2.694819211959839;139.3851776123047
124;1673285404.7085636;47.1306422;7.2406207;24.560001373291016;1673285404.8802025;-26.828916549682617;-1.156973123550415;138.7325897216797
125;1673285404.9163468;47.1306422;7.2406206;24.94700050354004;1673285405.077292;-26.937341690063477;-2.613006114959717;139.1776885986328
126;1673285405.1173394;47.1306422;7.2406204999999995;25.330001831054688;1673285405.279236;-26.34293556213379;-3.286259174346924;139.48046875
127;1673285405.3421853;47.1306422;7.2406204999999995;25.71200180053711;1673285405.5056872;-26.673564910888672;-1.2029204368591309;138.82708740234375
128;1673285405.536966;47.1306422;7.2406204999999995;26.090002059936523;1673285405.6890678;-26.69356918334961;-2.0910470485687256;139.08676147460938
129;1673285405.727801;47.1306422;7.2406204999999995;26.47800064086914;1673285405.8877194;-26.558156967163086;-3.4289965629577637;139.61009216308594
130;1673285405.9280908;47.1306423;7.2406206;26.871002197265625;1673285406.074823;-26.668560028076172;-1.2147393226623535;138.9190673828125
131;1673285406.1085556;47.1306424;7.2406206;27.26300048828125;1673285406.2701771;-26.9315128326416;-1.2733169794082642;138.9391326904297
132;1673285406.311626;47.1306424;7.2406204999999995;27.65300178527832;1673285406.4675627;-26.578256607055664;-3.329346179962158;139.61331176757812
133;1673285406.5023193;47.1306424;7.2406204999999995;28.047000885009766;1673285406.6698308;-26.616857528686523;-1.8422245979309082;139.1204071044922
134;1673285406.706958;47.1306424;7.2406204999999995;28.444002151489258;1673285406.877413;-27.024049758911133;-0.8890619277954102;138.73165893554688
135;1673285406.9171638;47.1306424;7.2406204;28.8330020904541;1673285407.0687318;-26.63835334777832;-2.9153125286102295;139.42428588867188
136;1673285407.1024497;47.1306424;7.2406203;29.224000930786133;1673285407.2729867;-26.681169509887695;-2.5579681396484375;139.2651824951172
137;1673285407.308745;47.1306424;7.2406203;29.614002227783203;1673285407.4716232;-26.777751922607422;-1.1643894910812378;138.7506103515625
138;1673285407.5055158;47.1306424;7.2406201999999995;30.00400161743164;1673285407.6844149;-27.014371871948242;-2.85082745552063;139.2724609375
139;1673285407.720616;47.1306423;7.2406201;30.3960018157959;1673285407.8808153;-26.49930191040039;-3.4716036319732666;139.40240478515625
140;1673285407.919914;47.1306423;7.2406201;30.790000915527344;1673285408.071039;-26.946434020996094;-1.3090780973434448;138.77816772460938
141;1673285408.1037858;47.1306423;7.24062;31.177001953125;1673285408.2557158;-26.89483070373535;-2.040925979614258;138.99618530273438
142;1673285408.2976837;47.1306423;7.24062;31.56800079345703;1673285408.4699132;-26.551876068115234;-3.6325416564941406;139.63255310058594
143;1673285408.5071032;47.1306423;7.2406201;31.964000701904297;1673285408.664101;-26.720849990844727;-1.4854977130889893;138.9341278076172
144;1673285408.7044053;47.1306423;7.2406201;32.36300277709961;1673285408.8611703;-27.029796600341797;-1.4507988691329956;138.84962463378906
145;1673285408.894666;47.1306423;7.2406201;32.76100158691406;1673285409.0729134;-26.6469783782959;-3.5301880836486816;139.55235290527344
146;1673285409.1142201;47.1306422;7.2406201;33.15999984741211;1673285409.2849352;-26.46656608581543;-2.3385753631591797;139.1641387939453
147;1673285409.3204112;47.1306422;7.2406201;33.555999755859375;1673285409.4828703;-27.086965560913086;-0.9638327956199646;138.7006378173828
148;1673285409.5153363;47.1306422;7.24062;33.945003509521484;1673285409.6747007;-26.766218185424805;-2.8922746181488037;139.34423828125
149;1673285409.7117171;47.1306422;7.2406201;34.33500289916992;1673285409.8668568;-26.718852996826172;-3.2575583457946777;139.48280334472656
150;1673285409.9014866;47.1306422;7.2406201;34.72800064086914;1673285410.0639608;-26.67234230041504;-1.6226862668991089;138.89620971679688
151;1673285410.0987206;47.1306422;7.2406201;35.125;1673285410.269775;-27.070405960083008;-2.2498972415924072;139.035888671875
152;1673285410.3157835;47.1306422;7.2406201;35.5260009765625;1673285410.4827707;-26.452251434326172;-3.533773422241211;139.53123474121094
153;1673285410.511676;47.1306422;7.2406201;35.927001953125;1673285410.6848037;-26.669029235839844;-1.9058758020401;138.9538116455078
154;1673285410.7198026;47.1306422;7.2406201;36.31800079345703;1673285410.892813;-27.026660919189453;-1.90320885181427;138.92312622070312
155;1673285410.9320252;47.1306422;7.2406201;36.71600341796875;1673285411.0917609;-26.613122940063477;-3.620317220687866;139.59341430664062
156;1673285411.1466892;47.1306422;7.2406201999999995;37.117000579833984;1673285411.298738;-26.753314971923828;-1.5909383296966553;138.95556640625
157;1673285411.3269477;47.1306423;7.2406201999999995;37.51700210571289;1673285411.4739618;-26.90520477294922;-1.2682204246520996;138.82589721679688
158;1673285411.5086312;47.1306423;7.2406203;37.91400146484375;1673285411.675734;-26.676881790161133;-3.480825901031494;139.6314697265625
159;1673285411.7149394;47.1306423;7.2406203;38.3120002746582;1673285411.8816092;-26.628019332885742;-2.124237060546875;139.25497436523438
160;1673285411.9158359;47.1306424;7.2406203;38.71000289916992;1673285412.0696495;-27.128143310546875;-0.9941021800041199;138.745849609375
161;1673285412.106862;47.1306424;7.2406201999999995;39.09800338745117;1673285412.272992;-26.875308990478516;-2.890821695327759;139.35333251953125
162;1673285412.3080785;47.1306424;7.2406203;39.48800277709961;1673285412.4737265;-26.706295013427734;-2.749756336212158;139.387451171875
163;1673285412.5094872;47.1306425;7.2406203;39.880001068115234;1673285412.6697366;-27.035839080810547;-1.1396172046661377;138.79393005371094
164;1673285412.7065818;47.1306425;7.2406201999999995;40.27400207519531;1673285412.8821206;-27.184213638305664;-2.206145763397217;139.1911163330078
165;1673285412.9207256;47.1306425;7.2406201999999995;40.6670036315918;1673285413.082083;-26.66937828063965;-3.458068370819092;139.63363647460938
166;1673285413.1166704;47.1306425;7.2406201999999995;41.06100082397461;1673285413.2751768;-26.882230758666992;-1.4847416877746582;138.96900939941406
167;1673285413.3130364;47.1306425;7.2406201999999995;41.44900131225586;1673285413.4848442;-27.057607650756836;-1.5259177684783936;138.82217407226562
168;1673285413.5250406;47.1306424;7.2406201999999995;41.84400177001953;1673285413.6894438;-26.615934371948242;-3.1688954830169678;139.46319580078125
169;1673285413.72066;47.1306424;7.2406201999999995;42.242000579833984;1673285413.8950102;-26.7539005279541;-1.8742501735687256;139.00198364257812
170;1673285413.9290454;47.1306424;7.2406203;42.64200210571289;1673285414.0797868;-26.91206169128418;-1.2480536699295044;138.81549072265625
171;1673285414.1176634;47.1306424;7.2406201999999995;43.0420036315918;1673285414.28082;-26.870723724365234;-3.2838191986083984;139.53965759277344
172;1673285414.3167372;47.1306424;7.2406201999999995;43.44300079345703;1673285414.480746;-26.65035629272461;-2.416196346282959;139.2049102783203
173;1673285414.5178936;47.1306425;7.2406201;43.842002868652344;1673285414.6770766;-27.153133392333984;-1.0459051132202148;138.695068359375
174;1673285414.7137988;47.1306425;7.24062;44.230003356933594;1673285414.8760624;-26.957279205322266;-2.536216974258423;139.19805908203125
175;1673285414.924204;47.1306425;7.24062;44.62200164794922;1673285415.079234;-26.784208297729492;-3.214561700820923;139.49179077148438
176;1673285415.1179194;47.1306425;7.24062;45.01900100708008;1673285415.2810023;-26.97913932800293;-1.2533791065216064;138.78028869628906
177;1673285415.3194702;47.1306424;7.24062;45.41400146484375;1673285415.468746;-27.04328155517578;-2.5352954864501953;139.19720458984375
178;1673285415.5050864;47.1306424;7.24062;45.810001373291016;1673285415.6720064;-26.59809112548828;-3.3946382999420166;139.5816192626953
179;1673285415.7078483;47.1306424;7.24062;46.207000732421875;1673285415.8759363;-26.813079833984375;-1.4010554552078247;138.93280029296875
180;1673285415.9168267;47.1306424;7.24062;46.59700393676758;1673285416.0746222;-27.100513458251953;-1.831225872039795;139.0154571533203
181;1673285416.1128263;47.1306425;7.2406198999999996;46.993003845214844;1673285416.2816489;-26.75371742248535;-3.3613431453704834;139.5770263671875
182;1673285416.3227763;47.1306425;7.24062;47.39500045776367;1673285416.4988694;-27.034297943115234;-1.5138434171676636;138.96409606933594
183;1673285416.5366528;47.1306425;7.24062;47.79900360107422;1673285416.7048473;-27.24424171447754;-1.9465991258621216;138.98329162597656
184;1673285416.7477338;47.1306425;7.2406198999999996;48.18800354003906;1673285416.897745;-27.407711029052734;-2.8684420585632324;139.2633514404297
185;1673285416.9288695;47.130642599999995;7.240619799999999;48.52400207519531;1673285417.0988066;-27.49309539794922;-1.8290210962295532;138.97283935546875
186;1673285417.1367142;47.1306428;7.2406196;48.80400085449219;1673285417.3076398;-28.38265609741211;-1.727734923362732;138.833251953125
187;1673285417.343763;47.130643;7.2406193;49.02900314331055;1673285417.5009153;-28.696767807006836;-2.6343226432800293;139.11964416503906
188;1673285417.5402796;47.130643199999994;7.240619;49.220001220703125;1673285417.7206383;-29.462308883666992;0.8752948045730591;138.39227294921875
189;1673285417.753855;47.1306434;7.2406187;49.38300323486328;1673285417.930625;-29.63581085205078;10.774438858032227;141.52467346191406
190;1673285417.965754;47.1306434;7.2406179999999996;49.50800323486328;1673285418.1202412;-32.553409576416016;2.2228894233703613;156.2503662109375
191;1673285418.161464;47.1306429;7.2406166;49.583003997802734;1673285418.3036044;-27.097591400146484;-12.339632987976074;164.68255615234375
192;1673285418.331342;47.130642099999996;7.2406147;49.63600158691406;1673285418.5154967;-26.91836929321289;-13.513008117675781;174.2043914794922
193;1673285418.5569592;47.1306412;7.2406128999999995;49.672000885009766;1673285418.7123468;-21.607418060302734;-18.271385192871094;-176.54904174804688
194;1673285418.7485096;47.1306401;7.2406109999999995;49.7130012512207;1673285418.8934646;-16.6769962310791;-21.651580810546875;-167.49652099609375
195;1673285418.942387;47.130639099999996;7.2406093;49.750003814697266;1673285419.1302645;-10.525212287902832;-25.76509666442871;-157.77566528320312
196;1673285419.1674793;47.1306382;7.2406077;49.781002044677734;1673285419.3034751;-4.415808200836182;-28.511878967285156;-148.0828094482422
197;1673285419.3312464;47.1306374;7.2406063;49.810001373291016;1673285419.4704206;0.7290381789207458;-29.428630828857422;-138.4619903564453
198;1673285419.507392;47.1306369;7.2406052;49.832000732421875;1673285419.6983573;6.189351558685303;-28.7716064453125;-128.87484741210938
199;1673285419.7307632;47.1306365;7.2406042;49.84800338745117;1673285419.885931;11.551193237304688;-26.58525276184082;-119.84589385986328
200;1673285419.9223187;47.1306363;7.2406036;49.85300064086914;1673285420.1147006;15.886218070983887;-24.23870849609375;-110.90312957763672
201;1673285420.1521487;47.1306363;7.2406030999999995;49.868003845214844;1673285420.318103;19.115751266479492;-21.971233367919922;-101.95024108886719
202;1673285420.354489;47.1306364;7.2406028;49.884002685546875;1673285420.5192754;21.742137908935547;-19.697021484375;-92.71373748779297
203;1673285420.5555792;47.1306365;7.2406026;49.897003173828125;1673285420.7160919;24.263086318969727;-18.0037841796875;-83.95260620117188
204;1673285420.7493236;47.130636599999995;7.2406025;49.906002044677734;1673285420.9027843;26.38949203491211;-15.845210075378418;-75.50713348388672
205;1673285420.9369462;47.130636599999995;7.240602399999999;49.91800308227539;1673285421.0945;27.966724395751953;-12.499553680419922;-67.06356811523438
206;1673285421.130614;47.1306365;7.2406026;49.9160041809082;1673285421.2937229;28.711511611938477;-7.9085798263549805;-58.58032989501953
207;1673285421.3309145;47.1306364;7.240602699999999;49.927001953125;1673285421.49425;29.07368278503418;-3.0172183513641357;-49.78074645996094
208;1673285421.5245066;47.1306364;7.2406028;49.939002990722656;1673285421.6940784;28.74905776977539;2.40830135345459;-40.7838249206543
209;1673285421.7263055;47.1306362;7.2406028;49.94900131225586;1673285421.9037278;28.301965713500977;5.927832126617432;-38.29423904418945
210;1673285421.9447124;47.1306361;7.2406028;49.958003997802734;1673285422.1087532;28.890636444091797;3.113647222518921;-41.74664306640625
211;1673285422.1448693;47.130635899999994;7.2406029;49.9630012512207;1673285422.3041792;29.44820213317871;0.6649686694145203;-43.85261154174805
212;1673285422.3414917;47.1306358;7.240602999999999;49.965003967285156;1673285422.5006382;28.88560676574707;-0.35188916325569153;-44.72895050048828
213;1673285422.5377243;47.1306358;7.2406033;49.954002380371094;1673285422.698921;27.963159561157227;-0.7757408022880554;-45.08388900756836
214;1673285422.734722;47.1306358;7.2406036;49.95000076293945;1673285422.8990383;21.033775329589844;6.677473720628768e-05;-45.76784133911133
215;1673285422.93321;47.130635899999994;7.2406038;49.95000076293945;1673285423.0963986;-12.646327018737793;2.286249876022339;-47.33234786987305
216;1673285423.1344676;47.130636599999995;7.240602999999999;49.941001892089844;1673285423.300783;-37.62721633911133;2.8834152221679688;-48.793701171875
217;1673285423.3359182;47.1306389;7.2405997;49.87900161743164;1673285423.4893444;-35.30108642578125;1.0403443574905396;-47.53533935546875
218;1673285423.5257492;47.1306435;7.2405928;49.81100082397461;1673285423.6944015;-49.691104888916016;0.03672143444418907;-47.30690002441406
219;1673285423.7300828;47.130651;7.240581499999999;49.794002532958984;1673285423.8907526;-49.718936920166016;-0.5166677236557007;-47.31669998168945
220;1673285423.9245667;47.1306608;7.2405653999999995;49.785003662109375;1673285424.085567;-48.23182678222656;-1.3787298202514648;-46.37451934814453
221;1673285424.1273987;47.1306728;7.240545399999999;49.781002044677734;1673285424.2866101;-51.6570930480957;-0.7856571674346924;-45.70508575439453
222;1673285424.331728;47.1306869;7.2405219;49.7920036315918;1673285424.4798722;-54.709556579589844;0.9281466603279114;-46.662322998046875
223;1673285424.5166519;47.1307031;7.2404952;49.81100082397461;1673285424.6846173;-57.8791618347168;2.0321924686431885;-47.392208099365234
224;1673285424.7218013;47.1307216;7.240465599999999;49.832000732421875;1673285424.883752;-58.81510543823242;1.4599679708480835;-46.86825180053711
225;1673285424.9351676;47.1307422;7.240433299999999;49.85300064086914;1673285425.0998259;-57.10483932495117;1.7600891590118408;-46.69575500488281
226;1673285425.135124;47.1307645;7.2403987;49.87000274658203;1673285425.2999625;-57.67388153076172;1.9858760833740234;-46.81853485107422
227;1673285425.3417885;47.1307883;7.2403621;49.87700271606445;1673285425.479812;-50.928855895996094;1.5432252883911133;-46.621273040771484
228;1673285425.5178032;47.1308133;7.2403239;49.88200378417969;1673285425.675549;-16.188207626342773;1.1954079866409302;-46.66305923461914
229;1673285425.7150078;47.1308387;7.2402856;49.880001068115234;1673285425.8816319;32.57075881958008;-0.9527553915977478;-47.147552490234375
230;1673285425.9175584;47.1308625;7.2402497;49.86300277709961;1673285426.090826;29.854366302490234;-0.7928259372711182;-45.23418045043945
231;1673285426.122757;47.1308843;7.2402168;49.6510009765625;1673285426.2866786;18.077335357666016;-1.4981156587600708;-46.494102478027344
232;1673285426.3237355;47.130902999999996;7.2401881999999995;49.39400100708008;1673285426.4775834;15.724851608276367;-0.5965147614479065;-47.63571548461914
233;1673285426.5117757;47.130919399999996;7.240163;49.2650032043457;1673285426.6837258;45.99690628051758;-0.5232557058334351;-48.39433288574219
234;1673285426.719682;47.130933299999995;7.2401417;49.33000183105469;1673285426.8898885;52.98310852050781;-1.202199935913086;-48.002220153808594
235;1673285426.9406335;47.1309439;7.2401256;49.439002990722656;1673285427.097636;60.65021896362305;-0.34078681468963623;-47.491455078125
236;1673285427.133616;47.1309508;7.2401151;49.58000183105469;1673285427.287987;62.27484893798828;-0.7067682147026062;-47.85169219970703
237;1673285427.3246713;47.1309544;7.240109899999999;49.7030029296875;1673285427.4900517;61.79341506958008;-0.72272789478302;-47.265926361083984
238;1673285427.527017;47.1309551;7.2401094;49.80600357055664;1673285427.6890414;63.01518630981445;-0.9771010875701904;-47.444828033447266
239;1673285427.7241151;47.1309532;7.2401127999999995;49.875003814697266;1673285427.8828495;61.52687454223633;-0.788879930973053;-47.19552230834961
240;1673285427.9207342;47.1309493;7.240119;49.906002044677734;1673285428.0946388;57.0905647277832;-0.8547059297561646;-46.92207717895508
241;1673285428.1298256;47.1309439;7.2401276;49.906002044677734;1673285428.301967;55.102447509765625;-0.765968918800354;-46.88844299316406
242;1673285428.3433106;47.130937499999995;7.2401377;49.88900375366211;1673285428.5022275;53.734981536865234;-0.8121268153190613;-46.90039825439453
243;1673285428.539152;47.130930299999996;7.240149;49.85900115966797;1673285428.6948602;50.737762451171875;-0.8601428866386414;-47.0245475769043
244;1673285428.737875;47.1309225;7.2401611;49.82500076293945;1673285428.8996801;42.79297637939453;-0.7733739614486694;-46.98820877075195
245;1673285428.9344075;47.130914399999995;7.2401734;49.80900192260742;1673285429.1159208;29.831323623657227;-0.37015920877456665;-47.5722770690918
246;1673285429.1443665;47.130906499999995;7.2401855;49.80900192260742;1673285429.3015237;13.747228622436523;0.1650376170873642;-48.261268615722656
247;1673285429.339316;47.1308994;7.2401963;49.80000305175781;1673285429.4894269;4.332923889160156;0.5915970206260681;-47.962310791015625
248;1673285429.5270748;47.1308936;7.240204899999999;49.78600311279297;1673285429.68089;9.218291282653809;2.9286015033721924;-46.75454330444336
249;1673285429.7185435;47.130889499999995;7.2402112999999995;49.772003173828125;1673285429.881305;18.47767448425293;12.253458023071289;-45.6323356628418
250;1673285429.9147403;47.130886499999995;7.2402162;49.70000076293945;1673285430.0763817;5.621528625488281;23.548236846923828;-49.34335708618164
251;1673285430.1130295;47.130883999999995;7.2402204999999995;49.2920036315918;1673285430.2853477;-20.78507423400879;36.57775115966797;-63.569175720214844
252;1673285430.325053;47.130881699999996;7.2402242;48.492000579833984;1673285430.4840941;-47.971839904785156;64.49104309082031;-100.15444946289062
253;1673285430.522864;47.1308795;7.240227699999999;47.31300354003906;1673285430.6896286;-51.20835876464844;108.02031707763672;-159.19256591796875
254;1673285430.723052;47.1308771;7.2402311;45.7660026550293;1673285430.88883;-41.97660827636719;117.40969848632812;171.51242065429688
255;1673285430.9246585;47.130874899999995;7.240234399999999;43.867000579833984;1673285431.100124;-39.04667282104492;96.17135620117188;171.61453247070312
256;1673285431.1357977;47.1308729;7.2402375999999995;41.62000274658203;1673285431.3034751;-30.519203186035156;50.73860549926758;-165.14344787597656
257;1673285431.3333042;47.1308711;7.2402408;39.018001556396484;1673285431.5040157;-1.5362941026687622;8.021770477294922;-140.0167694091797
258;1673285431.5506628;47.130869499999996;7.240244199999999;36.01900100708008;1673285431.7071717;38.53400802612305;-8.503355979919434;-133.97085571289062
259;1673285431.7448058;47.1308681;7.2402473;32.62700271606445;1673285431.909478;59.608131408691406;-1.819252848625183;-130.548583984375
260;1673285431.9435186;47.1308667;7.2402497;28.874000549316406;1673285432.111968;49.40706253051758;20.848878860473633;-127.58235168457031
261;1673285432.147649;47.1308654;7.2402516;24.779001235961914;1673285432.3103945;15.574793815612793;38.29341506958008;-146.25894165039062
262;1673285432.352948;47.1308637;7.240253099999999;20.321001052856445;1673285432.514742;-17.592456817626953;53.88286209106445;-174.70936584472656
263;1673285432.5484674;47.130862;7.2402548;15.494000434875488;1673285432.6926897;-34.582366943359375;49.990081787109375;169.11451721191406
264;1673285432.7306209;47.1308605;7.240257;10.327000617980957;1673285432.8818274;-26.061294555664062;12.513984680175781;-177.1748504638672
265;1673285432.9185243;47.1308596;7.2402593;4.811000347137451;1673285433.076597;14.817377090454102;-17.902591705322266;-173.2109375
266;1673285433.1137006;47.1308595;7.2402622;0.12700000405311584;1673285433.291735;-12.443777084350586;-1.2859634160995483;-164.89117431640625
267;1673285433.328391;47.1308641;7.2402697;0.36400002241134644;1673285433.4874113;-7.264991760253906;-0.9830783605575562;-165.98776245117188
268;1673285433.526142;47.130870699999996;7.2402789;0.42600002884864807;1673285433.6866763;1.7855294942855835;2.71134877204895;-166.54144287109375
269;1673285433.7204225;47.1308769;7.2402878;0.46300002932548523;1673285433.89609;2.4624953269958496;5.7896342277526855;-167.2008819580078
270;1673285433.936146;47.1308826;7.240296;0.49800002574920654;1673285434.102329;2.454312562942505;6.753888130187988;-167.30274963378906
271;1673285434.1382968;47.130888399999996;7.2403046;0.5490000247955322;1673285434.297048;2.305189371109009;6.736446380615234;-167.58169555664062
272;1673285434.3388045;47.1308927;7.240310999999999;0.5840000510215759;1673285434.496358;2.064955234527588;6.511425495147705;-167.87998962402344
273;1673285434.5291517;47.1308959;7.2403157;0.6130000352859497;1673285434.676098;1.8159525394439697;6.301126956939697;-168.209716796875
274;1673285434.7102838;47.130897999999995;7.2403186999999996;0.6390000581741333;1673285434.880206;1.5905349254608154;6.081294536590576;-168.5128173828125
275;1673285434.9182787;47.1308991;7.240320199999999;0.6680000424385071;1673285435.0919626;1.287537693977356;5.851367473602295;-168.80235290527344
276;1673285435.132021;47.130899299999996;7.240320199999999;0.6970000267028809;1673285435.3022876;0.9911864399909973;5.364662170410156;-169.08224487304688
277;1673285435.3413727;47.130898699999996;7.2403192;0.7290000319480896;1673285435.4935174;0.8252933025360107;4.925562381744385;-169.21182250976562
278;1673285435.53507;47.130899799999995;7.2403208;0.7750000357627869;1673285435.702508;0.595867931842804;4.684732913970947;-169.4989013671875
279;1673285435.7372174;47.1308989;7.2403194;0.8140000104904175;1673285435.8999283;0.31977400183677673;4.403688907623291;-169.8319091796875
280;1673285435.9380708;47.1308966;7.240316099999999;0.8470000624656677;1673285436.1085322;0.053430892527103424;4.138519763946533;-170.12405395507812
281;1673285436.149301;47.130893699999994;7.2403119;0.878000020980835;1673285436.31214;-0.5787494778633118;4.127547740936279;-170.7208251953125
282;1673285436.354309;47.1308867;7.2403008;0.9270000457763672;1673285436.5175726;-0.9774388670921326;3.9791173934936523;-171.1537628173828
283;1673285436.5522783;47.1308796;7.2402899;0.9720000624656677;1673285436.7084851;-1.1020839214324951;3.6819980144500732;-171.3040313720703
284;1673285436.7467306;47.130875599999996;7.240283799999999;1.0150001049041748;1673285436.8999913;-1.2161256074905396;3.4211413860321045;-171.44393920898438
285;1673285436.9372795;47.130871899999995;7.240278099999999;1.0420000553131104;1673285437.1055574;-1.3638575077056885;3.139659881591797;-171.60760498046875
286;1673285437.1471035;47.130868799999995;7.2402735;1.0509999990463257;1673285437.3159804;-1.4286301136016846;2.908234119415283;-171.71226501464844
287;1673285437.3546;47.1308666;7.2402701;1.0490000247955322;1673285437.5248692;-1.466947317123413;2.597672462463379;-171.79531860351562
288;1673285437.556106;47.1308649;7.2402678;1.040000081062317;1673285437.7130873;-1.5108832120895386;2.321450710296631;-171.86378479003906
289;1673285437.7556813;47.1308637;7.2402660999999995;1.0220000743865967;1673285437.930426;-1.562629222869873;2.089840888977051;-171.92308044433594
290;1673285437.974252;47.130862799999996;7.2402649;0.9980000257492065;1673285438.1495738;-1.6458708047866821;1.7044893503189087;-171.99830627441406
291;1673285438.1829576;47.130862199999996;7.240264499999999;0.987000048160553;1673285438.331926;-1.6890935897827148;1.359196424484253;-172.0345458984375
292;1673285438.3690536;47.1308618;7.2402641;0.9690000414848328;1673285438.5292172;-1.6663153171539307;1.0819268226623535;-172.07125854492188
293;1673285438.564337;47.1308613;7.2402637;0.9450000524520874;1673285438.7275033;-1.6766318082809448;0.8027197122573853;-172.1063690185547
294;1673285438.7613366;47.130860999999996;7.2402634;0.9160000681877136;1673285438.9270222;-1.6768797636032104;0.604186475276947;-172.1465301513672
295;1673285438.9609137;47.1308606;7.240263199999999;0.8840000629425049;1673285439.1253874;-1.631814956665039;0.3588443398475647;-172.17333984375
296;1673285439.1620636;47.130860299999995;7.240263;0.8500000238418579;1673285439.3318377;-1.661424160003662;0.16644585132598877;-172.21804809570312
297;1673285439.365998;47.1308599;7.240262899999999;0.8220000267028809;1673285439.5158875;-1.6366604566574097;0.002193872584030032;-172.24000549316406
298;1673285439.549613;47.1308596;7.2402628;0.7900000214576721;1673285439.7132738;-1.5770577192306519;-0.18669681251049042;-172.26412963867188
299;1673285439.7499287;47.1308594;7.2402627;0.7550000548362732;1673285439.9060292;-1.7177430391311646;-0.9855369925498962;-172.31130981445312
300;1673285439.943166;47.130859199999996;7.240262599999999;0.7220000624656677;1673285440.0943089;-1.6215299367904663;-1.4918617010116577;-172.29647827148438
301;1673285440.1380107;47.130859;7.240262599999999;-0.0010000000474974513;1673285440.2997139;-1.5816898345947266;-1.9060860872268677;-172.32452392578125
302;1673285440.3374486;47.1308588;7.2402625;-0.01900000125169754;1673285440.5077355;-1.566032886505127;-2.1970605850219727;-172.34915161132812
303;1673285440.5487761;47.1308587;7.2402625;-0.049000002443790436;1673285440.7124605;-1.532783031463623;-2.466295003890991;-172.34991455078125
304;1673285440.7481422;47.1308583;7.2402624;-0.08400000631809235;;;;
