;pos_time;latitude;longitude;altitude;alt_time;pitch;roll;yaw
0;1673293100.6569111;47.1306425;7.2406201999999995;0.0020000000949949026;1673293100.7926915;0.5425007939338684;-0.030627192929387093;90.16210174560547
1;1673293100.853753;47.1306425;7.2406201;0.006000000052154064;1673293100.9987803;0.24591749906539917;-0.05210574343800545;90.10964965820312
2;1673293101.0525055;47.1306425;7.2406201;0.00800000037997961;1673293101.1932578;0.1055126041173935;-0.03775374963879585;90.34774780273438
3;1673293101.2547424;47.1306425;7.2406201999999995;0.007000000216066837;1673293101.4041977;0.05920448899269104;-0.1338571459054947;90.31970977783203
4;1673293101.4617865;47.1306425;7.2406201999999995;0.006000000052154064;1673293101.6005943;-0.07943757623434067;-0.4347531497478485;90.30619049072266
5;1673293101.6572165;47.1306425;7.2406203;0.007000000216066837;1673293101.8031907;0.06287739425897598;-0.23390544950962067;90.4502944946289
6;1673293101.853992;47.1306424;7.2406204;0.006000000052154064;1673293101.9920118;0.03371113911271095;-0.23033501207828522;90.105712890625
7;1673293102.0497434;47.1306424;7.2406204;0.006000000052154064;1673293102.2033935;-0.1879235953092575;-0.3305642604827881;90.29508209228516
8;1673293102.2601662;47.1306424;7.2406204;0.005000000353902578;1673293102.4097385;-0.23277464509010315;-0.2437288910150528;90.29815673828125
9;1673293102.4660678;47.1306424;7.2406203;0.004000000189989805;1673293102.6033478;-0.24895094335079193;-0.32626694440841675;90.32243347167969
10;1673293102.6629272;47.1306424;7.2406203;0.0010000000474974513;1673293102.8165255;-0.29152554273605347;-0.262156218290329;90.3097915649414
11;1673293102.8703547;47.1306425;7.2406201999999995;0.0;1673293103.027233;0.10121432691812515;-0.30575504899024963;90.18872833251953
12;1673293103.084305;47.1306425;7.2406201;0.0020000000949949026;1673293103.2653866;-0.04505176842212677;-0.36583831906318665;90.2083511352539
13;1673293103.3504195;47.1306425;7.24062;0.003000000026077032;1673293103.4780018;-0.022369801998138428;-0.29782894253730774;90.39402770996094
14;1673293103.5219297;47.130642599999995;7.24062;0.003000000026077032;1673293103.6415267;-0.2237890213727951;-0.29977694153785706;90.2808609008789
15;1673293103.690868;47.130642599999995;7.24062;0.0;1673293103.8344197;-0.316616415977478;-0.2666172385215759;90.2142105102539
16;1673293103.918662;47.130642599999995;7.2406201;0.0010000000474974513;1673293104.049644;-0.15092024207115173;-0.2708074450492859;90.22245025634766
17;1673293104.0995305;47.130642599999995;7.2406201999999995;0.006000000052154064;1673293104.2236187;0.04549168795347214;-0.2631911635398865;90.30093383789062
18;1673293104.2796166;47.130642599999995;7.2406201999999995;0.01100000087171793;1673293104.4234776;0.05112890526652336;-0.37765932083129883;90.23193359375
19;1673293104.4744847;47.1306425;7.2406201999999995;0.014000000432133675;1673293104.6156619;-0.022258291020989418;-0.299130916595459;90.10716247558594
20;1673293104.6767557;47.1306425;7.2406203;0.017000000923871994;1673293104.8445168;-0.18544670939445496;-0.5806476473808289;90.13009643554688
21;1673293104.9205537;47.1306425;7.2406204;0.01900000125169754;1673293105.0933912;-0.177775040268898;-0.49065494537353516;90.28656768798828
22;1673293105.1393828;47.1306425;7.2406204;0.020000001415610313;1673293105.2645924;-0.1785014420747757;-0.35878652334213257;90.52560424804688
23;1673293105.3175452;47.1306425;7.2406204999999995;0.02200000174343586;1673293105.4395971;-0.20148374140262604;0.22298386693000793;90.45870208740234
24;1673293105.4915292;47.1306425;7.2406204999999995;0.004000000189989805;1673293105.6304722;-0.18448486924171448;-0.8432523608207703;90.31428527832031
25;1673293105.6955667;47.1306424;7.2406204999999995;0.012000000104308128;1673293105.8445046;-0.10456990450620651;-0.5867610573768616;90.3814468383789
26;1673293105.900572;47.1306424;7.2406204;0.01600000075995922;1673293106.0378392;-0.16641195118427277;-0.36853522062301636;90.50064086914062
27;1673293106.087512;47.1306425;7.2406203;0.017000000923871994;1673293106.2326314;-0.24312780797481537;-0.2471628487110138;90.36149597167969
28;1673293106.2826142;47.1306425;7.2406203;0.017000000923871994;1673293106.4254076;-0.19216838479042053;-0.2777378261089325;90.39019012451172
29;1673293106.4795156;47.1306425;7.2406203;0.01600000075995922;1673293106.632549;-0.21094068884849548;-0.24339930713176727;90.48974609375
30;1673293106.7018967;47.1306425;7.2406201999999995;0.015000000596046448;1673293106.8446045;-0.2858707308769226;-0.2018754631280899;90.46275329589844
31;1673293106.8974116;47.1306424;7.2406201999999995;0.01100000087171793;1673293107.039409;-0.298038512468338;-0.293338805437088;90.2213363647461
32;1673293107.0967226;47.1306424;7.2406201999999995;0.007000000216066837;1673293107.241511;-0.31198829412460327;-0.2378646582365036;89.92984771728516
33;1673293107.2994564;47.1306424;7.2406203;0.005000000353902578;1673293107.4364073;2.48889422416687;-0.02166423760354519;88.60603332519531
34;1673293107.4903822;47.1306424;7.2406204999999995;0.012000000104308128;1673293107.6325765;8.311636924743652;-1.6193639039993286;89.32255554199219
35;1673293107.6906524;47.1306424;7.2406209;0.03200000151991844;1673293107.833528;11.565829277038574;2.4987831115722656;90.09202575683594
36;1673293107.890515;47.1306424;7.2406212;0.06800000369548798;1673293108.0305312;11.264459609985352;-1.011182427406311;90.28994750976562
37;1673293108.081502;47.1306424;7.240621399999999;0.11900000274181366;1673293108.2426448;11.759415626525879;-2.626042604446411;89.93277740478516
38;1673293108.3317144;47.1306423;7.240621399999999;0.18000000715255737;1673293108.468413;12.401737213134766;1.0070120096206665;89.67586517333984
39;1673293108.5217042;47.1306424;7.240621399999999;0.25200000405311584;1673293108.6647828;11.048201560974121;1.4330190420150757;90.13078308105469
40;1673293108.721819;47.130642599999995;7.2406212;0.3370000123977661;1673293108.8906858;10.945841789245605;-1.6293669939041138;90.6251449584961
41;1673293108.939483;47.130642699999996;7.2406209;0.43400001525878906;1673293109.096202;10.111231803894043;-0.6931608319282532;90.68802642822266
42;1673293109.1393862;47.1306428;7.2406206;0.5490000247955322;1673293109.2658572;8.840096473693848;3.6483633518218994;90.43464660644531
43;1673293109.317527;47.130643;7.2406203;0.6780000329017639;1673293109.4416509;9.524497032165527;0.4374111592769623;89.95262145996094
44;1673293109.4935997;47.1306429;7.2406201;0.8210000395774841;1673293109.6266763;9.232312202453613;-2.437316417694092;89.63423919677734
45;1673293109.6855838;47.1306428;7.2406198999999996;0.9820000529289246;1673293109.87765;9.63517951965332;-0.21594370901584625;90.19412994384766
46;1673293109.9604337;47.130642699999996;7.2406197;1.156000018119812;1673293110.089352;9.997859954833984;2.2232449054718018;90.67285919189453
47;1673293110.1394827;47.130642699999996;7.2406197;1.3360000848770142;1673293110.2848043;10.293183326721191;-1.1766921281814575;91.08565521240234
48;1673293110.331678;47.130642699999996;7.2406196;1.5180001258850098;1673293110.457394;8.99963665008545;-1.296476125717163;90.371337890625
49;1673293110.507461;47.1306428;7.2406196;1.7100000381469727;1673293110.7756224;8.462251663208008;3.082231044769287;89.66072082519531
50;1673293110.8254895;47.1306429;7.2406196;1.902000069618225;1673293110.9544299;9.251968383789062;1.0995784997940063;89.33869934082031
51;1673293111.006507;47.1306428;7.2406196;2.0900001525878906;1673293111.1426823;9.18658447265625;-2.7874433994293213;89.27935028076172
52;1673293111.2005477;47.130642699999996;7.2406196;2.2780001163482666;1673293111.335519;9.659235954284668;-1.441777229309082;89.64871215820312
53;1673293111.3857322;47.1306425;7.2406197;2.4640002250671387;1673293111.52547;10.639488220214844;2.1986629962921143;90.15971374511719
54;1673293111.5749178;47.1306425;7.2406197;2.6520001888275146;1673293111.7206037;10.743255615234375;-0.4929097592830658;90.17866516113281
55;1673293111.7655346;47.1306425;7.2406197;2.8440001010894775;1673293111.9084892;9.872856140136719;-2.827939987182617;89.57301330566406
56;1673293111.966653;47.1306425;7.2406196;3.0430002212524414;1673293112.1186745;8.758980751037598;1.4827793836593628;89.48016357421875
57;1673293112.1794987;47.130642599999995;7.2406194;3.242000102996826;1673293112.3227828;8.478919982910156;2.0403664112091064;89.57176208496094
58;1673293112.3846087;47.130642699999996;7.2406193;3.443000078201294;1673293112.5376344;8.054737091064453;-2.3554749488830566;89.83355712890625
59;1673293112.594771;47.130642599999995;7.2406193;3.644000291824341;1673293112.742607;8.656006813049316;-1.109034776687622;90.54247283935547
60;1673293112.7984164;47.1306425;7.2406194;3.8400001525878906;1673293112.944425;9.843080520629883;2.3333208560943604;90.60206604003906
61;1673293113.0055428;47.1306424;7.240619499999999;4.0329999923706055;1673293113.1346672;10.378479957580566;-1.0442700386047363;89.89842224121094
62;1673293113.18585;47.1306423;7.2406197;4.230000019073486;1673293113.3186548;10.098700523376465;-3.210155487060547;89.29810333251953
63;1673293113.3696954;47.1306422;7.240619799999999;4.426000118255615;1673293113.5125248;9.800968170166016;0.8378058671951294;89.58686065673828
64;1673293113.5755436;47.1306424;7.240619799999999;4.624000072479248;1673293113.6983836;9.466788291931152;1.9289697408676147;89.91559600830078
65;1673293113.7507598;47.130642599999995;7.2406198999999996;4.828000068664551;1673293113.9049997;8.79520034790039;-1.993121862411499;90.00218200683594
66;1673293113.9657867;47.130642699999996;7.2406198999999996;5.0370001792907715;1673293114.1165454;9.194523811340332;-0.8397461771965027;90.38992309570312
67;1673293114.1798365;47.130642699999996;7.24062;5.236000061035156;1673293114.3198025;9.9069242477417;2.4499988555908203;90.54295349121094
68;1673293114.3787422;47.130642599999995;7.2406201;5.434000492095947;1673293114.5328257;10.376046180725098;0.09501819312572479;89.82860565185547
69;1673293114.5907538;47.1306425;7.2406201999999995;5.639000415802002;1673293114.7274232;10.339716911315918;-2.414080858230591;89.07836151123047
70;1673293114.781779;47.1306425;7.2406203;5.839000225067139;1673293114.923532;10.785449028015137;0.5952287316322327;89.40612030029297
71;1673293114.9797184;47.1306425;7.2406204999999995;6.039000511169434;1673293115.1228936;10.190450668334961;2.1478984355926514;89.86277770996094
72;1673293115.1776285;47.130642699999996;7.2406204999999995;6.238000392913818;1673293115.3066766;9.60662841796875;-1.4757157564163208;90.16861724853516
73;1673293115.360828;47.1306428;7.2406204999999995;6.432000160217285;1673293115.5165968;9.391762733459473;-0.4519234299659729;90.24311065673828
74;1673293115.574573;47.1306429;7.2406204999999995;6.62600040435791;1673293115.715492;9.620126724243164;2.997525930404663;90.07109069824219
75;1673293115.7703855;47.1306429;7.2406204999999995;6.824000358581543;1673293115.918716;9.971275329589844;0.23222458362579346;89.75718688964844
76;1673293115.982607;47.130642699999996;7.2406206;7.02400016784668;1673293116.1383224;10.645882606506348;-2.9264843463897705;89.16577911376953
77;1673293116.1916037;47.1306425;7.2406207;7.218000411987305;1673293116.316142;11.102521896362305;-0.5131062269210815;89.31102752685547
78;1673293116.375265;47.1306424;7.2406207;7.4160003662109375;1673293116.5181322;10.011919021606445;1.3453131914138794;90.32649230957031
79;1673293116.5758948;47.1306425;7.2406206;7.612000465393066;1673293116.7216315;9.849748611450195;-1.7843331098556519;90.49478912353516
80;1673293116.7778308;47.1306425;7.2406206;7.805000305175781;1673293116.9244075;9.522171974182129;-0.9955064058303833;90.14524841308594
81;1673293116.981116;47.130642599999995;7.2406204999999995;7.999000549316406;1673293117.130293;9.159462928771973;2.596503734588623;90.11241912841797
82;1673293117.1896417;47.130642699999996;7.2406204999999995;8.193000793457031;1673293117.3150022;9.586808204650879;0.9956825375556946;89.77839660644531
83;1673293117.364663;47.130642599999995;7.2406206;8.38700008392334;1673293117.510682;10.113741874694824;-2.9328551292419434;89.45906829833984
84;1673293117.5738897;47.1306425;7.2406207;8.580000877380371;1673293117.727142;10.560633659362793;-0.3541845381259918;89.95448303222656
85;1673293117.7897987;47.1306424;7.2406207;8.778000831604004;1673293117.9295006;10.560437202453613;1.9300098419189453;90.33238220214844
86;1673293117.990273;47.1306425;7.2406207;8.976000785827637;1673293118.1501641;10.530132293701172;-1.0417264699935913;90.2904281616211
87;1673293118.212818;47.1306425;7.2406207;9.172000885009766;1673293118.3525748;10.00765323638916;-1.7798521518707275;90.14768981933594
88;1673293118.4111254;47.1306425;7.2406207;9.371000289916992;1673293118.5407948;8.906501770019531;2.3632235527038574;89.59307861328125
89;1673293118.5893402;47.130642599999995;7.2406207;9.567000389099121;1673293118.7177556;9.663363456726074;0.8942060470581055;88.92671203613281
90;1673293118.7701428;47.130642599999995;7.2406207;9.76400089263916;1673293118.9036372;9.954392433166504;-2.9111697673797607;89.3441162109375
91;1673293118.9676702;47.1306425;7.2406207;9.962000846862793;1673293119.1195962;9.985920906066895;-0.6969600319862366;90.04833984375
92;1673293119.1856046;47.1306424;7.2406207;10.158000946044922;1673293119.3258367;10.586511611938477;2.052685499191284;90.45375061035156
93;1673293119.3811564;47.1306425;7.2406206;10.42400074005127;1673293119.5224347;11.932340621948242;0.13236528635025024;90.00981903076172
94;1673293119.577542;47.1306424;7.2406203;10.780000686645508;1673293119.705997;11.11129379272461;-2.3697426319122314;89.43151092529297
95;1673293119.7622867;47.1306424;7.240619799999999;11.164000511169434;1673293119.9044452;9.505475044250488;0.9958755970001221;89.74127960205078
96;1673293119.9666696;47.1306425;7.2406193;11.5600004196167;1673293120.1051874;8.317327499389648;1.961397409439087;89.96696472167969
97;1673293120.1652114;47.130642599999995;7.2406188;11.964000701904297;1673293120.3104463;7.122143745422363;-1.6606029272079468;90.08539581298828
98;1673293120.3659487;47.1306425;7.2406185999999995;12.371000289916992;1673293120.5040364;7.323089599609375;-1.427582025527954;90.41065216064453
99;1673293120.5582602;47.1306424;7.2406185;12.77400016784668;1673293120.7130008;8.183732032775879;2.1997861862182617;90.263427734375
100;1673293120.7711267;47.1306424;7.2406185999999995;13.176000595092773;1673293120.9174821;8.68956470489502;0.3166920840740204;89.91490173339844
101;1673293120.9794915;47.1306423;7.2406187;13.583000183105469;1673293121.1227999;9.370539665222168;-2.7458865642547607;89.50205993652344
102;1673293121.1838756;47.1306422;7.240619;13.995000839233398;1673293121.3515716;9.844856262207031;-0.669596791267395;89.66956329345703
103;1673293121.416308;47.1306423;7.240619199999999;14.409000396728516;1673293121.557462;9.867441177368164;2.0814130306243896;89.89483642578125
104;1673293121.6209188;47.1306424;7.2406194;14.825000762939453;1673293121.7487957;9.560946464538574;-0.7232509255409241;90.12992095947266
105;1673293121.7991664;47.1306425;7.2406196;15.24100112915039;1673293121.9390626;9.595963478088379;-1.9574915170669556;89.95382690429688
106;1673293121.9994895;47.1306425;7.2406197;15.655000686645508;1673293122.149832;9.454873085021973;1.8773245811462402;90.06885528564453
107;1673293122.207136;47.1306424;7.240619799999999;16.064001083374023;1673293122.3564322;9.489808082580566;1.3894453048706055;89.78276062011719
108;1673293122.4111996;47.1306424;7.2406198999999996;16.475000381469727;1673293122.5435154;10.27520751953125;-2.8049213886260986;89.50439453125
109;1673293122.600159;47.1306423;7.24062;16.881999969482422;1673293122.749384;10.675281524658203;-1.1219533681869507;89.60090637207031
110;1673293122.8005939;47.1306423;7.24062;17.291000366210938;1673293122.939423;10.19064998626709;2.0512332916259766;90.2736587524414
111;1673293122.9923522;47.1306424;7.2406201;17.70400047302246;1673293123.1288419;10.089869499206543;-0.30446889996528625;90.263916015625
112;1673293123.180818;47.1306425;7.24062;18.113000869750977;1673293123.3287356;9.77990436553955;-1.9545735120773315;89.89349365234375
113;1673293123.3868606;47.130642599999995;7.24062;18.516000747680664;1673293123.5323687;9.153879165649414;1.9124648571014404;89.61012268066406
114;1673293123.5817819;47.130642699999996;7.24062;18.917001724243164;1673293123.7285633;9.274187088012695;1.8375986814498901;89.90637969970703
115;1673293123.783758;47.130642699999996;7.24062;19.31599998474121;1673293123.932823;9.008843421936035;-2.38405442237854;89.790771484375
116;1673293123.9851665;47.130642699999996;7.24062;19.71700096130371;1673293124.1292582;9.38577938079834;-0.7963353991508484;89.97301483154297
117;1673293124.191433;47.130642599999995;7.24062;20.119001388549805;1673293124.3455036;9.744793891906738;2.299710750579834;89.94662475585938
118;1673293124.4016883;47.130642699999996;7.24062;20.520000457763672;1673293124.5430217;10.117499351501465;0.30640652775764465;89.92266845703125
119;1673293124.5973957;47.1306428;7.24062;20.918001174926758;1673293124.7523465;10.209524154663086;-1.9448736906051636;89.65674591064453
120;1673293124.8134303;47.1306428;7.24062;21.316001892089844;1673293124.959276;10.334342002868652;0.5415317416191101;89.8019790649414
121;1673293125.0100956;47.1306429;7.24062;21.72100067138672;1673293125.1606297;9.529975891113281;3.0003955364227295;90.06351470947266
122;1673293125.2133343;47.130643;7.2406198999999996;22.128000259399414;1673293125.3822246;8.693046569824219;-0.880748450756073;90.14453125
123;1673293125.4580667;47.1306429;7.2406197;22.534000396728516;1673293125.5824256;8.65311050415039;-1.8239972591400146;90.23973083496094
124;1673293125.6331763;47.130642699999996;7.2406196;22.939001083374023;1673293125.7641716;9.086424827575684;1.7843780517578125;90.14618682861328
125;1673293125.8383934;47.130642699999996;7.2406196;23.345001220703125;1673293125.974618;9.065533638000488;1.2799437046051025;89.90115356445312
126;1673293126.0175493;47.1306425;7.2406196;23.74700164794922;1673293126.1471653;9.712510108947754;-2.780898094177246;89.39081573486328
127;1673293126.2034955;47.1306425;7.2406196;24.149002075195312;1673293126.3348575;10.056294441223145;-1.073578119277954;89.65269470214844
128;1673293126.387276;47.1306425;7.2406196;24.55500030517578;1673293126.5255184;9.833784103393555;2.261115312576294;90.23997497558594
129;1673293126.578762;47.130642599999995;7.2406196;24.957000732421875;1673293126.7182295;9.839166641235352;-0.4179314374923706;90.22113037109375
130;1673293126.7750444;47.130642599999995;7.2406196;25.358001708984375;1673293126.9185107;9.452857971191406;-1.7111215591430664;89.86164855957031
131;1673293126.9753728;47.130642599999995;7.240619499999999;25.76300048828125;1673293127.122345;9.05024242401123;1.0957685708999634;89.72431945800781
132;1673293127.1883826;47.130642599999995;7.240619499999999;26.167001724243164;1673293127.3257222;9.200685501098633;1.6797592639923096;89.80062103271484
133;1673293127.3781667;47.1306425;7.2406196;26.562002182006836;1673293127.5244043;9.423768997192383;-2.5743536949157715;89.77948760986328
134;1673293127.591982;47.1306425;7.2406197;26.96200180053711;1673293127.7443118;9.948673248291016;-0.32309868931770325;89.9209213256836
135;1673293127.8074903;47.1306425;7.2406197;27.362001419067383;1673293127.9782708;10.14853572845459;2.350471258163452;90.16468048095703
136;1673293128.0291126;47.130642699999996;7.240619799999999;27.76300048828125;1673293128.1596544;10.646291732788086;0.3309674561023712;90.17416381835938
137;1673293128.2072477;47.1306428;7.240619799999999;28.171001434326172;1673293128.341164;9.756117820739746;-1.551859736442566;89.76702117919922
138;1673293128.3936331;47.130642699999996;7.240619799999999;28.590002059936523;1673293128.5221827;9.415837287902832;1.6112966537475586;89.56841278076172
139;1673293128.5784435;47.130642699999996;7.240619799999999;28.972002029418945;1673293128.737344;9.555477142333984;1.3408358097076416;89.71807098388672
140;1673293128.7945814;47.130642599999995;7.240619799999999;29.371002197265625;1673293128.933262;9.036405563354492;-2.605451822280884;90.03547668457031
141;1673293128.9875154;47.1306424;7.240619799999999;29.769001007080078;1673293129.1246116;9.364834785461426;-0.9520233869552612;90.05145263671875
142;1673293129.1824677;47.1306425;7.240619799999999;30.16600227355957;1673293129.326428;9.644098281860352;2.3910133838653564;90.00882720947266
143;1673293129.376797;47.1306425;7.240619799999999;30.566001892089844;1673293129.513169;10.189988136291504;0.17414386570453644;89.72650146484375
144;1673293129.5743427;47.130642599999995;7.240619799999999;30.964000701904297;1673293129.7216115;9.984655380249023;-1.9881068468093872;89.48387908935547
145;1673293129.786598;47.130642599999995;7.240619799999999;31.358001708984375;1673293129.947402;9.839502334594727;1.0306479930877686;89.54119873046875
146;1673293130.001937;47.130642599999995;7.240619799999999;31.751001358032227;1673293130.1783113;9.413076400756836;2.002669095993042;90.0680923461914
147;1673293130.2339792;47.130642599999995;7.240619799999999;32.152000427246094;1673293130.397456;8.702046394348145;-1.7372400760650635;90.2613296508789
148;1673293130.447394;47.130642599999995;7.240619799999999;32.55400085449219;1673293130.5814867;9.218448638916016;-1.2114728689193726;90.4681625366211
149;1673293130.6382554;47.130642599999995;7.240619799999999;32.95600128173828;1673293130.7658823;9.3491792678833;2.4560272693634033;90.00892639160156
150;1673293130.8212583;47.130642699999996;7.240619799999999;33.361000061035156;1673293130.9617357;9.483664512634277;0.6732040643692017;89.62310028076172
151;1673293131.013273;47.1306428;7.240619799999999;33.763999938964844;1673293131.1419227;9.933399200439453;-2.083353042602539;89.42003631591797
152;1673293131.1971605;47.1306429;7.240619799999999;34.16200256347656;1673293131.3336167;10.105202674865723;1.022569179534912;89.84747314453125
153;1673293131.390888;47.130643;7.2406197;34.566001892089844;1673293131.5359454;9.742053985595703;2.688589334487915;90.04180145263672
154;1673293131.589267;47.1306431;7.2406197;34.97100067138672;1673293131.7412748;9.200935363769531;-1.4492229223251343;89.96082305908203
155;1673293131.799468;47.130643;7.2406197;35.3910026550293;1673293131.937832;9.007752418518066;-1.2261989116668701;89.85070037841797
156;1673293131.9942536;47.1306429;7.2406196;35.78200149536133;1673293132.126211;8.363140106201172;2.4194655418395996;89.89881134033203
157;1673293132.1886618;47.130643;7.2406196;36.191001892089844;1673293132.326799;8.89462661743164;1.4049593210220337;89.41439056396484
158;1673293132.3956525;47.130643;7.2406196;36.59400177001953;1673293132.5473013;9.684367179870605;-1.955883264541626;89.40199279785156
159;1673293132.5981686;47.130643;7.2406197;36.9890022277832;1673293132.770796;9.998188972473145;-0.5820082426071167;89.9007568359375
160;1673293132.849436;47.130643;7.240619799999999;37.387001037597656;1673293132.9704547;9.995978355407715;2.8211190700531006;90.39024353027344
161;1673293133.0183394;47.130643;7.240619799999999;37.785003662109375;1673293133.1518161;10.193672180175781;0.47975271940231323;90.14312744140625
162;1673293133.201175;47.130643;7.2406198999999996;38.18400192260742;1673293133.329598;9.747241973876953;-1.7864835262298584;89.72110748291016
163;1673293133.3829908;47.1306429;7.2406198999999996;38.586002349853516;1673293133.5233526;9.44402027130127;0.9972220659255981;89.77437591552734
164;1673293133.5825186;47.130642699999996;7.2406198999999996;38.983001708984375;1673293133.7219188;9.32102108001709;1.484801173210144;89.9167251586914
165;1673293133.7829778;47.130642599999995;7.2406198999999996;39.37900161743164;1673293133.922322;9.186863899230957;-2.1447136402130127;89.87651062011719
166;1673293133.9756467;47.1306425;7.24062;39.781002044677734;1673293134.1109838;9.303184509277344;-1.7458642721176147;89.99515533447266
167;1673293134.171706;47.1306425;7.2406201;40.18400192260742;1673293134.320974;10.03561019897461;2.4217193126678467;90.04238891601562
168;1673293134.378687;47.130642599999995;7.2406201;40.586002349853516;1673293134.526078;10.43057632446289;0.8727093935012817;89.98666381835938
169;1673293134.5807943;47.130642699999996;7.2406201999999995;40.987003326416016;1673293134.737468;10.262563705444336;-1.4691097736358643;89.60104370117188
170;1673293134.8025277;47.130642699999996;7.2406201999999995;41.38800048828125;1673293134.9397683;9.88557243347168;-0.29698702692985535;89.50867462158203
171;1673293134.9949586;47.130642599999995;7.2406201;41.78300094604492;1673293135.1331558;10.033215522766113;1.5789532661437988;89.84345245361328
172;1673293135.1815286;47.130642599999995;7.2406201;42.17500305175781;1673293135.3275778;9.027338027954102;-1.3036644458770752;90.22076416015625
173;1673293135.396452;47.1306425;7.24062;42.57200241088867;1673293135.5356145;9.281805038452148;-1.661910057067871;90.22337341308594
174;1673293135.5870595;47.130642599999995;7.24062;42.97100067138672;1673293135.7322705;9.103649139404297;2.1953091621398926;89.92916870117188
175;1673293135.7885056;47.130642699999996;7.2406198999999996;43.37200164794922;1673293135.9403055;9.374600410461426;1.4179178476333618;89.69161224365234
176;1673293135.992601;47.1306428;7.240619799999999;43.772003173828125;1673293136.142238;9.66317081451416;-1.7192423343658447;89.73580932617188
177;1673293136.2046163;47.1306429;7.2406197;44.17000198364258;1673293136.3447165;10.02518081665039;0.25173115730285645;89.84973907470703
178;1673293136.4382222;47.1306429;7.2406197;44.56500244140625;1673293136.6007907;9.648128509521484;2.4121084213256836;90.20259094238281
179;1673293136.654645;47.1306429;7.2406196;44.96600341796875;1673293136.7782116;9.023157119750977;-0.5628936290740967;90.3353271484375
180;1673293136.8247828;47.1306429;7.2406196;45.36600112915039;1673293136.9455373;8.988814353942871;-1.518195629119873;90.12487030029297
181;1673293137.0085561;47.1306428;7.2406196;45.7650032043457;1673293137.16862;8.701375961303711;1.2520818710327148;89.83990478515625
182;1673293137.2242975;47.1306428;7.2406196;46.1670036315918;1673293137.3617065;8.681936264038086;1.9621907472610474;89.43048095703125
183;1673293137.4130397;47.1306429;7.2406196;46.56700134277344;1673293137.5443847;9.468796730041504;-1.8919293880462646;89.42880249023438
184;1673293137.5957196;47.1306429;7.2406196;46.96800231933594;1673293137.7459424;9.682211875915527;-1.214315414428711;89.67249298095703
185;1673293137.8135862;47.1306429;7.2406196;47.36600112915039;1673293137.948016;9.82745361328125;2.684556722640991;90.28553771972656
186;1673293138.0003388;47.130643;7.2406197;47.7660026550293;1673293138.141433;9.753408432006836;0.5257990956306458;90.01643371582031
187;1673293138.191609;47.130643;7.2406197;48.152000427246094;1673293138.331305;9.311319351196289;-1.992870807647705;90.06513977050781
188;1673293138.3890035;47.1306429;7.2406197;48.4890022277832;1673293138.5323868;9.103681564331055;1.769755244255066;90.16809844970703
189;1673293138.5903208;47.1306429;7.240619799999999;48.7760009765625;1673293138.7386959;9.358680725097656;1.7131249904632568;90.11481475830078
190;1673293138.8016787;47.1306429;7.2406198999999996;49.012001037597656;1673293138.9378664;9.776326179504395;-1.9290188550949097;89.49553680419922
191;1673293138.994146;47.1306429;7.2406201999999995;49.204002380371094;1673293139.1340256;13.558332443237305;1.6201907396316528;89.47623443603516
192;1673293139.190353;47.1306429;7.2406203;49.368003845214844;1673293139.338387;18.01484489440918;0.46124446392059326;86.12909698486328
193;1673293139.399452;47.1306429;7.2406201999999995;49.47900390625;1673293139.5478404;3.179363489151001;3.774836540222168;75.96660614013672
194;1673293139.5971358;47.1306428;7.24062;49.509002685546875;1673293139.7480574;21.08670425415039;5.117779731750488;65.07988739013672
195;1673293139.8060389;47.1306423;7.24062;49.535003662109375;1673293139.9590564;20.872785568237305;-1.498573660850525;55.04545974731445
196;1673293140.0182192;47.1306411;7.240619199999999;49.57100296020508;1673293140.1831899;6.418633937835693;-5.557841777801514;45.804691314697266
197;1673293140.2311342;47.1306398;7.2406181;49.6140022277832;1673293140.3511395;9.219215393066406;-10.465973854064941;37.131080627441406
198;1673293140.4021819;47.130638499999996;7.240616999999999;49.65500259399414;1673293140.547998;5.026311874389648;-11.250557899475098;28.842681884765625
199;1673293140.609682;47.1306374;7.2406159;49.698001861572266;1673293140.7545533;2.912524938583374;-11.669302940368652;19.852415084838867
200;1673293140.8071198;47.1306365;7.2406147;49.73800277709961;1673293140.9374042;1.5623219013214111;-9.52083969116211;11.051766395568848
201;1673293140.9893396;47.1306358;7.2406137;49.772003173828125;1673293141.138943;-0.16851282119750977;-8.963789939880371;1.9497750997543335
202;1673293141.1973484;47.1306352;7.2406128999999995;49.79900360107422;1673293141.342851;-2.0279746055603027;-6.323519229888916;-6.915477752685547
203;1673293141.420207;47.130634799999996;7.240612199999999;49.82200241088867;1673293141.5513864;-3.876289129257202;-6.708751678466797;-15.759998321533203
204;1673293141.6039827;47.1306346;7.2406118;49.83400344848633;1673293141.7430484;-5.661355495452881;-7.525970935821533;-24.831186294555664
205;1673293141.7989597;47.1306345;7.240611599999999;49.84300231933594;1673293141.9697468;-6.380673408508301;-8.482494354248047;-34.43084716796875
206;1673293142.026582;47.1306345;7.240611599999999;49.849002838134766;1673293142.1767228;-6.740119934082031;-10.414074897766113;-43.924049377441406
207;1673293142.2329168;47.1306344;7.240611599999999;49.855003356933594;1673293142.380938;-6.923563480377197;-9.36136245727539;-51.92283630371094
208;1673293142.4342666;47.1306343;7.240611599999999;49.86100387573242;1673293142.5705194;-7.076764106750488;-8.092429161071777;-53.63877868652344
209;1673293142.6228077;47.130634099999995;7.2406114;49.868003845214844;1673293142.7629795;-7.444636821746826;-3.8665578365325928;-51.426334381103516
210;1673293142.8221655;47.1306338;7.2406112;49.87200164794922;1673293142.9604065;-8.206389427185059;-4.312526226043701;-48.68529510498047
211;1673293143.0380785;47.1306337;7.2406109999999995;49.87300109863281;1673293143.1772606;-9.426344871520996;-6.684634685516357;-46.885833740234375
212;1673293143.2262528;47.1306337;7.2406109999999995;49.87900161743164;1673293143.3540726;-9.626192092895508;-8.615763664245605;-46.417930603027344
213;1673293143.4106812;47.1306337;7.2406109999999995;49.88500213623047;1673293143.5564609;-8.486970901489258;-11.253079414367676;-46.08468246459961
214;1673293143.6113005;47.1306337;7.2406109;49.88900375366211;1673293143.7547188;-7.021082878112793;-10.173501968383789;-46.21413803100586
215;1673293143.8157768;47.1306338;7.2406108;49.8910026550293;1673293143.9522018;-5.7098069190979;-9.334909439086914;-45.83710861206055
216;1673293144.0059109;47.1306338;7.2406105;49.8900032043457;1673293144.181622;-4.475358486175537;-7.702518463134766;-45.80962371826172
217;1673293144.2319877;47.1306337;7.240610299999999;49.88600158691406;1673293144.364352;-12.869455337524414;-8.097140312194824;-45.58317184448242
218;1673293144.4234474;47.130633599999996;7.2406101;49.88900375366211;1673293144.58636;-35.568763732910156;-3.2006571292877197;-46.16948318481445
219;1673293144.632651;47.1306339;7.2406090999999995;49.90300369262695;1673293144.779045;-51.180171966552734;-0.14286108314990997;-47.95220947265625
220;1673293144.830292;47.1306356;7.2406061;49.9170036315918;1673293144.9712903;-56.61973190307617;0.1055452823638916;-49.07353973388672
221;1673293145.0246947;47.1306395;7.240600199999999;49.9160041809082;1673293145.1693976;-53.77414321899414;-2.7606232166290283;-48.47319412231445
222;1673293145.2192733;47.1306454;7.2405914;49.90800094604492;1673293145.3574324;-55.24931335449219;-3.8279874324798584;-48.333709716796875
223;1673293145.4434333;47.1306535;7.2405795;49.910003662109375;1673293145.5913892;-57.4687385559082;-1.4838335514068604;-49.26577377319336
224;1673293145.6403406;47.1306626;7.240565699999999;49.915000915527344;1673293145.7882104;-57.096641540527344;-0.7876659035682678;-50.070289611816406
225;1673293145.8442807;47.130673699999996;7.240549;49.92100143432617;1673293145.9761956;-55.10786819458008;-1.3875566720962524;-49.20181655883789
226;1673293146.0343497;47.1306861;7.2405304;49.92500305175781;1673293146.1693099;-54.52714157104492;-1.3761073350906372;-48.55022048950195
227;1673293146.2260716;47.1306995;7.2405102999999995;49.92000198364258;1673293146.3682384;-53.61479949951172;-3.2947940826416016;-48.31492614746094
228;1673293146.4343958;47.1307137;7.2404892;49.90300369262695;1673293146.5829923;-51.88679885864258;-2.350421667098999;-49.33489227294922
229;1673293146.6514833;47.130728399999995;7.240467199999999;49.87600326538086;1673293146.7811959;-49.58287811279297;-2.342918634414673;-49.12554168701172
230;1673293146.835403;47.130743599999995;7.2404446;49.845001220703125;1673293146.9634664;-47.78839874267578;-2.7441883087158203;-48.93891143798828
231;1673293147.0216897;47.130759;7.2404215999999995;49.81800079345703;1673293147.1571953;-48.017608642578125;-2.943451166152954;-48.956459045410156
232;1673293147.2164764;47.130774599999995;7.2403982;49.80400085449219;1673293147.3662198;-49.25392532348633;-3.4088284969329834;-48.844268798828125
233;1673293147.4226635;47.1307903;7.240374699999999;49.803001403808594;1673293147.568071;-49.447689056396484;-3.7097725868225098;-48.880252838134766
234;1673293147.6214936;47.1308061;7.240350899999999;49.80500411987305;1673293147.7741992;-48.99964141845703;-4.988229274749756;-48.71442413330078
235;1673293147.8247983;47.130822099999996;7.2403268;49.807003021240234;1673293147.9733825;-48.9007682800293;-7.018186092376709;-48.5627555847168
236;1673293148.0422506;47.130838;7.2403023;49.807003021240234;1673293148.18123;-48.27669143676758;-11.246293067932129;-47.930931091308594
237;1673293148.2502391;47.130853599999995;7.2402774;49.803001403808594;1673293148.3934083;-33.2723274230957;-11.117844581604004;-50.826141357421875
238;1673293148.446357;47.1308687;7.2402523;49.81900405883789;1673293148.575367;10.362163543701172;-16.500972747802734;-51.92182159423828
239;1673293148.6342072;47.130882299999996;7.2402288;49.829002380371094;1673293148.7662303;32.717838287353516;-4.092047214508057;-54.80815505981445
240;1673293148.8226979;47.130894;7.240208699999999;49.6670036315918;1673293148.9600654;18.760807037353516;-4.269587993621826;-49.11827850341797
241;1673293149.0101418;47.1309037;7.240192599999999;49.358001708984375;1673293149.1544652;15.370749473571777;-4.113852024078369;-48.08362579345703
242;1673293149.2110488;47.130911;7.2401808999999995;49.083003997802734;1673293149.352305;14.127613067626953;-3.890394926071167;-47.94485092163086
243;1673293149.407131;47.130916199999994;7.2401732999999995;48.92900085449219;1673293149.5478463;24.93208122253418;-8.595501899719238;-47.81483840942383
244;1673293149.6083596;47.1309195;7.2401689;48.96000289916992;1673293149.7444258;42.246665954589844;-13.19040584564209;-46.564697265625
245;1673293149.800042;47.1309203;7.2401681;49.064002990722656;1673293149.9514914;46.421844482421875;-12.384886741638184;-43.77152633666992
246;1673293150.0003233;47.130918199999996;7.2401708;49.17900085449219;1673293150.1419618;44.32239532470703;-15.439542770385742;-44.4362678527832
247;1673293150.1975944;47.1309134;7.240176399999999;49.2920036315918;1673293150.336676;32.523441314697266;-16.703109741210938;-45.27914047241211
248;1673293150.3904023;47.130906499999995;7.240183999999999;49.400001525878906;1673293150.525759;11.807143211364746;-12.580244064331055;-44.71253967285156
249;1673293150.5844748;47.130898599999995;7.2401921;49.493003845214844;1673293150.7528129;-10.65723705291748;-4.7029547691345215;-46.06456756591797
250;1673293150.8192358;47.130891;7.2401998999999995;49.57100296020508;1673293150.9589696;-28.687210083007812;-5.306087017059326;-48.22197723388672
251;1673293151.0133529;47.1308844;7.240206499999999;49.617000579833984;1673293151.1437676;-40.86094665527344;-0.7491942644119263;-49.5821533203125
252;1673293151.2111208;47.1308794;7.2402112999999995;49.618003845214844;1673293151.3508124;-57.47291564941406;-5.988035678863525;-50.171051025390625
253;1673293151.4107544;47.1308758;7.2402144999999996;49.4630012512207;1673293151.5498703;-81.59198760986328;-4.62177848815918;-52.515960693359375
254;1673293151.6026106;47.1308724;7.240217599999999;48.9530029296875;1673293151.7423072;-80.26939392089844;165.97755432128906;140.4152069091797
255;1673293151.796025;47.1308692;7.2402207;48.07200241088867;1673293151.9357681;-71.62744903564453;170.1533966064453;143.97274780273438
256;1673293151.991541;47.1308661;7.240223599999999;46.81200408935547;1673293152.1423478;-75.33245086669922;177.7088165283203;147.26258850097656
257;1673293152.1962628;47.1308631;7.2402266;45.194000244140625;1673293152.3449984;-84.61591339111328;-39.76576232910156;20.17606544494629
258;1673293152.406538;47.1308602;7.240229599999999;43.21800231933594;1673293152.5629663;-51.266422271728516;13.225815773010254;-12.052963256835938
259;1673293152.6176019;47.1308572;7.2402327;40.88500213623047;1673293152.7553203;-4.092164993286133;26.661888122558594;1.6542396545410156
260;1673293152.8090034;47.130854;7.2402356999999995;38.17000198364258;1673293152.9495413;37.67085266113281;44.18852615356445;24.688493728637695
261;1673293153.0072875;47.1308509;7.2402384;35.06500244140625;1673293153.1502442;59.66019058227539;58.373390197753906;50.076812744140625
262;1673293153.2176023;47.130848199999996;7.240240999999999;31.602001190185547;1673293153.3647778;61.623043060302734;30.07305145263672;38.01911544799805
263;1673293153.4174893;47.1308456;7.2402435999999994;27.796001434326172;1673293153.559614;29.361452102661133;-8.151586532592773;21.7806396484375
264;1673293153.6152432;47.130843299999995;7.240246399999999;23.645000457763672;1673293153.7668679;-20.6679744720459;-27.84718894958496;31.419021606445312
265;1673293153.827315;47.1308412;7.240249599999999;19.10700035095215;1673293153.9748092;-58.00043869018555;-44.29853820800781;53.726837158203125
266;1673293154.025671;47.1308387;7.2402529;14.212000846862793;1673293154.1694565;-66.14020538330078;-21.152935028076172;47.563758850097656
267;1673293154.2270203;47.130835999999995;7.2402562999999995;9.006000518798828;1673293154.3666883;-32.56332778930664;14.99404239654541;34.971370697021484
268;1673293154.4281936;47.130832899999994;7.2402593;3.4700002670288086;1673293154.5708716;1.817278265953064;4.583459377288818;48.75318908691406
269;1673293154.619722;47.1308302;7.240263;0.21300001442432404;1673293154.7559123;2.8669931888580322;4.13652229309082;45.22315979003906
270;1673293154.8165267;47.1308267;7.2402698999999995;0.4130000174045563;1673293154.9620168;2.185638666152954;7.128174304962158;44.08384323120117
271;1673293155.0186343;47.1308217;7.2402776;0.5190000534057617;1673293155.1589134;2.09354305267334;3.7581868171691895;44.329444885253906
272;1673293155.2174942;47.1308168;7.2402850999999995;0.5940000414848328;1673293155.3617647;2.0543529987335205;3.336446523666382;44.471832275390625
273;1673293155.4292257;47.1308121;7.240291999999999;0.6420000195503235;1673293155.5588272;2.0750772953033447;3.309291362762451;44.48979568481445
274;1673293155.6145768;47.1308079;7.2402980999999995;0.6780000329017639;1673293155.762309;2.076892137527466;3.0333430767059326;44.50441360473633
275;1673293155.8215616;47.130804;7.2403036;0.7140000462532043;1673293155.9736655;2.091686964035034;2.6348702907562256;44.55620574951172
276;1673293156.0225377;47.130800099999995;7.240308799999999;0.7620000243186951;1673293156.1719255;2.0888795852661133;2.29410719871521;44.50623321533203
277;1673293156.227587;47.1307976;7.2403121;0.800000011920929;1673293156.3740835;2.0969443321228027;1.9769834280014038;44.455448150634766
278;1673293156.4297178;47.1307961;7.2403137;0.8320000171661377;1673293156.5628433;2.1034417152404785;1.6343399286270142;44.38652038574219
279;1673293156.6185253;47.1307954;7.240314;0.8630000352859497;1673293156.7656648;2.0260379314422607;1.33295738697052;44.33924102783203
280;1673293156.8248572;47.130795199999994;7.2403134;0.8940000534057617;1673293156.9633617;2.002209186553955;0.9940366744995117;44.27803039550781
281;1673293157.0260851;47.130795199999994;7.2403125;0.9260000586509705;1673293157.1998787;2.035752296447754;1.0384957790374756;44.22517013549805
282;1673293157.266477;47.130794599999994;7.2403124;0.9650000333786011;1673293157.3958383;1.9761461019515991;0.7608343362808228;44.16886901855469
283;1673293157.4539914;47.1307955;7.2403102;0.9980000257492065;1673293157.5932686;1.8697072267532349;0.5166336297988892;44.10930633544922
284;1673293157.6435835;47.130797199999996;7.240306899999999;1.027999997138977;1673293157.7828877;1.8558467626571655;0.36131900548934937;44.02976608276367
285;1673293157.841318;47.1307992;7.2403032;1.0500000715255737;1673293157.9903908;1.7952187061309814;0.23733195662498474;43.97312927246094
286;1673293158.041806;47.1308024;7.2402986;1.0700000524520874;1673293158.2402565;1.5016847848892212;-0.35996273159980774;44.01955795288086
287;1673293158.2862556;47.1308103;7.2402903;1.1050000190734863;1673293158.4117022;1.387535572052002;-0.6443643569946289;44.03329086303711
288;1673293158.4630487;47.130817;7.2402834;1.13100004196167;1673293158.5981212;1.2959377765655518;-0.5640513896942139;44.01776123046875
289;1673293158.659325;47.1308207;7.2402793999999995;1.1510000228881836;1673293158.7936082;1.183222770690918;-0.6033394932746887;44.00853729248047
290;1673293158.8519382;47.130824;7.2402758;1.15500009059906;1673293158.9971833;1.153497576713562;-0.5873153805732727;43.98332214355469
291;1673293159.0828476;47.1308265;7.240272999999999;1.1440000534057617;1673293159.2001646;1.0967789888381958;-0.5411920547485352;43.97087860107422
292;1673293159.2446575;47.130828199999996;7.2402709;1.125;1673293159.366227;1.050499439239502;-0.5125799775123596;43.963836669921875
293;1673293159.4170935;47.130829399999996;7.2402694;1.1010000705718994;1673293159.5578392;0.93741375207901;-0.4690357446670532;43.92940902709961
294;1673293159.6066391;47.1308301;7.2402682;1.0770000219345093;1673293159.7406762;0.8901466131210327;-0.39398589730262756;43.93225860595703
295;1673293159.7924037;47.1308304;7.2402675;1.055999994277954;1673293159.9555886;0.8712833523750305;-0.3449174761772156;43.91836166381836
296;1673293160.045851;47.130830599999996;7.2402669;1.0290000438690186;1673293160.186145;0.7953109741210938;-0.30253738164901733;43.938053131103516
297;1673293160.2361212;47.1308308;7.2402663;0.9980000257492065;1673293160.3722572;0.7711776494979858;-0.2677900791168213;43.930538177490234
298;1673293160.4276805;47.130831;7.2402659;0.9630000591278076;1673293160.564627;0.6617305278778076;-0.24524067342281342;43.938499450683594
299;1673293160.6193676;47.130831099999995;7.2402655;0.9250000715255737;1673293160.7541645;0.6474372744560242;-0.19886410236358643;43.96904754638672
300;1673293160.8058915;47.130831199999996;7.240265099999999;0.8880000710487366;1673293160.9505184;0.5470354557037354;-0.15818652510643005;43.950992584228516
301;1673293161.0111284;47.1308313;7.240264799999999;0.8510000109672546;1673293161.158741;0.5076952576637268;-0.14113277196884155;43.94695281982422
302;1673293161.2300005;47.1308313;7.240264499999999;0.8210000395774841;1673293161.3595033;0.45317909121513367;-0.21804185211658478;43.979801177978516
303;1673293161.4142156;47.1308314;7.2402643;0.7940000295639038;1673293161.555549;0.412104070186615;-0.33445194363594055;44.000919342041016
304;1673293161.6102054;47.1308314;7.2402641999999995;-0.0020000000949949026;;;;
