;pos_time;latitude;longitude;altitude;alt_time;pitch;roll;yaw
0;1673293183.1867495;47.1306424;7.24062;-0.018000001087784767;1673293183.1672282;-0.12921017408370972;-0.048954058438539505;90.37724304199219
1;1673293183.3920038;47.1306424;7.24062;-0.01900000125169754;1673293183.3754134;-0.12948623299598694;-0.012428154237568378;90.4873275756836
2;1673293183.626403;47.1306424;7.2406198999999996;-0.018000001087784767;1673293183.6088488;-0.16185690462589264;-0.05554654449224472;90.45632934570312
3;1673293183.8298237;47.1306424;7.240619799999999;-0.018000001087784767;1673293183.8151305;-0.08626450598239899;-0.02700894884765148;90.36970520019531
4;1673293184.0277824;47.1306423;7.2406197;-0.014000000432133675;1673293184.0102131;-0.08042629808187485;-0.1632210910320282;90.49542236328125
5;1673293184.238248;47.1306423;7.2406196;-0.009000000543892384;1673293184.2216702;-0.07320200651884079;-0.07896173745393753;90.43199157714844
6;1673293184.422762;47.1306423;7.2406196;-0.009000000543892384;1673293184.409099;-0.010730686597526073;-0.09689772874116898;90.49366760253906
7;1673293184.6034706;47.1306423;7.240619499999999;-0.010000000707805157;1673293184.585815;-0.1268162727355957;0.05892004445195198;90.33723449707031
8;1673293184.7941513;47.1306422;7.240619499999999;-0.012000000104308128;1673293184.7795107;-0.10753259062767029;-0.1864580512046814;90.40040588378906
9;1673293185.0113592;47.1306423;7.240619499999999;-0.013000000268220901;1673293184.9928148;0.17692705988883972;-0.013912259601056576;90.49341583251953
10;1673293185.2386322;47.1306423;7.2406196;-0.014000000432133675;1673293185.2179613;-0.11545801907777786;-0.22653071582317352;90.33373260498047
11;1673293185.4222155;47.1306423;7.2406196;-0.01600000075995922;1673293185.4046624;-0.0352071188390255;-0.22616522014141083;90.5118637084961
12;1673293185.7005575;47.1306423;7.2406196;-0.015000000596046448;1673293185.6516454;-0.10217931866645813;-0.012744278647005558;90.27277374267578
13;1673293185.8628721;47.1306424;7.2406196;-0.009000000543892384;1673293185.8492017;-0.050054632127285004;-0.2586279511451721;90.53466796875
14;1673293186.0290246;47.1306424;7.2406197;0.0020000000949949026;1673293186.0137777;-0.15658405423164368;-0.11284388601779938;90.45218658447266
15;1673293186.2561624;47.1306424;7.240619799999999;0.005000000353902578;1673293186.2412286;-0.28955724835395813;-0.16968023777008057;90.31974029541016
16;1673293186.4481137;47.1306424;7.240619799999999;0.010000000707805157;1673293186.4319696;-0.2766317129135132;-0.20913128554821014;90.36544799804688
17;1673293186.6310236;47.1306424;7.240619799999999;0.009000000543892384;1673293186.6161375;-0.09899953007698059;-0.24457140266895294;90.48880767822266
18;1673293186.8159914;47.1306424;7.2406198999999996;0.013000000268220901;1673293186.7990112;0.12821345031261444;-0.08491500467061996;90.2362060546875
19;1673293187.0039396;47.1306424;7.24062;0.01600000075995922;1673293186.9839332;-0.28971344232559204;-0.14767543971538544;90.45130157470703
20;1673293187.1979327;47.1306424;7.2406201;0.014000000432133675;1673293187.1820812;-0.20211495459079742;0.037415456026792526;90.2093734741211
21;1673293187.453128;47.1306423;7.24062;0.01100000087171793;1673293187.421982;-0.27052751183509827;-0.4737599790096283;90.4890365600586
22;1673293187.6280484;47.1306423;7.24062;-0.0010000000474974513;1673293187.6133199;-0.06480857729911804;-0.3739239573478699;90.50843811035156
23;1673293187.8111053;47.1306423;7.2406201;-0.0020000000949949026;1673293187.794;-0.3308465778827667;0.06895807385444641;90.41407012939453
24;1673293188.0130877;47.1306423;7.2406201;-0.005000000353902578;1673293187.9980884;-0.31677061319351196;-0.15492618083953857;90.43951416015625
25;1673293188.2051084;47.1306422;7.24062;-0.004000000189989805;1673293188.1903706;-0.08569541573524475;-0.06958752125501633;90.48751831054688
26;1673293188.419478;47.1306422;7.2406198999999996;-0.0020000000949949026;1673293188.4049213;-0.08834946900606155;-0.1291070282459259;90.58733367919922
27;1673293188.5848036;47.1306422;7.2406198999999996;-0.0020000000949949026;1673293188.5710795;-0.24949179589748383;-0.032057225704193115;90.47395324707031
28;1673293188.7910044;47.1306422;7.2406198999999996;0.0;1673293188.776912;-0.18684084713459015;-0.17588043212890625;90.48787689208984
29;1673293188.9921737;47.1306422;7.2406198999999996;-0.003000000026077032;1673293188.973939;-0.17789554595947266;-0.1742488443851471;90.62703704833984
30;1673293189.1989243;47.1306422;7.24062;-0.005000000353902578;1673293189.1841078;-0.4288354218006134;-0.17423492670059204;90.55564880371094
31;1673293189.3940918;47.1306422;7.24062;-0.00800000037997961;1673293189.379213;-0.36080074310302734;-0.31056270003318787;90.03075408935547
32;1673293189.5969946;47.1306422;7.2406201;-0.010000000707805157;1673293189.581288;0.30649226903915405;-0.37828224897384644;88.9083023071289
33;1673293189.7901814;47.1306423;7.2406204999999995;-0.004000000189989805;1673293189.7748713;4.2464919090271;-0.26449206471443176;87.40608215332031
34;1673293190.0058866;47.1306424;7.2406209;0.020000001415610313;1673293189.9779115;10.955320358276367;-0.46871402859687805;88.0475082397461
35;1673293190.2169793;47.1306425;7.2406212;0.06100000441074371;1673293190.201091;10.711033821105957;-3.067474842071533;88.81612396240234
36;1673293190.4229763;47.130642599999995;7.2406213;0.11700000613927841;1673293190.4050899;10.012293815612793;1.9666653871536255;89.58390808105469
37;1673293190.630062;47.130642699999996;7.2406213;0.1900000125169754;1673293190.6058493;11.270550727844238;2.6639881134033203;89.31937408447266
38;1673293190.815066;47.130642699999996;7.2406213;0.2710000276565552;1673293190.801036;11.821186065673828;-1.9425874948501587;88.53922271728516
39;1673293191.008018;47.130642699999996;7.240621099999999;0.3580000102519989;1673293190.9920366;11.900288581848145;0.13363969326019287;88.59288024902344
40;1673293191.2039928;47.1306425;7.240620799999999;0.4610000252723694;1673293191.1869917;10.780131340026855;1.9821290969848633;88.90389251708984
41;1673293191.4066024;47.1306424;7.2406204;0.5760000348091125;1673293191.387912;9.095200538635254;-2.665020704269409;89.3544921875
42;1673293191.5990808;47.1306423;7.2406201;0.7020000219345093;1673293191.5818195;9.17175579071045;-1.735671877861023;90.33012390136719
43;1673293191.7850597;47.1306423;7.2406197;0.8480000495910645;1673293191.7689288;8.879467010498047;2.995328903198242;90.8724365234375
44;1673293191.9829557;47.1306424;7.2406193;1.0;1673293191.9690254;8.991778373718262;-0.5261364579200745;90.45568084716797
45;1673293192.1869261;47.1306424;7.2406191;1.1670000553131104;1673293192.1689098;9.486122131347656;-2.206428289413452;90.17870330810547
46;1673293192.3839629;47.1306424;7.240619;1.346000075340271;1673293192.369211;9.55738639831543;1.6882028579711914;90.33397674560547
47;1673293192.5778847;47.1306425;7.240618899999999;1.5350000858306885;1673293192.5610497;9.095402717590332;1.6559655666351318;90.26210021972656
48;1673293192.8259506;47.1306424;7.240618899999999;1.7230000495910645;1673293192.8101184;8.84860610961914;-2.0025858879089355;91.08704376220703
49;1673293193.0689325;47.1306424;7.240619;1.9160001277923584;1673293193.0570052;8.55717945098877;0.03824838623404503;91.04080963134766
50;1673293193.2749913;47.1306424;7.2406191;2.111999988555908;1673293193.2611492;8.676861763000488;2.98301100730896;91.08128356933594
51;1673293193.4549794;47.1306424;7.2406191;2.31000018119812;1673293193.4422007;9.716577529907227;-2.076582670211792;90.5452880859375
52;1673293193.6158903;47.1306424;7.240619199999999;2.507000207901001;1673293193.6010447;10.362404823303223;-0.9775733351707458;90.40414428710938
53;1673293193.8229926;47.1306423;7.2406193;2.699000120162964;1673293193.8070853;10.362768173217773;2.2563235759735107;90.83454132080078
54;1673293194.0210414;47.1306423;7.2406193;2.8940000534057617;1673293194.0072274;9.971884727478027;-1.1478402614593506;90.6595230102539
55;1673293194.2049513;47.1306422;7.2406193;3.0900001525878906;1673293194.1900892;9.652460098266602;-2.5886459350585938;90.76566314697266
56;1673293194.4324293;47.1306423;7.2406193;3.2830002307891846;1673293194.4158459;9.19611930847168;2.1048128604888916;90.84326934814453
57;1673293194.646359;47.1306425;7.2406193;3.4770002365112305;1673293194.6307416;8.919903755187988;0.7292773723602295;90.78897094726562
58;1673293194.8703613;47.130642599999995;7.2406194;3.6720001697540283;1673293194.8547347;9.558250427246094;-1.8347434997558594;90.57490539550781
59;1673293195.0414433;47.130642699999996;7.2406194;3.864000082015991;1673293195.026802;9.859014511108398;2.3308780193328857;90.8124008178711
60;1673293195.2212913;47.130642699999996;7.2406196;4.056000232696533;1673293195.2066517;10.288528442382812;2.290517807006836;91.11003875732422
61;1673293195.4109974;47.1306425;7.2406197;4.252000331878662;1673293195.3933427;10.214533805847168;-2.464986801147461;90.51384735107422
62;1673293195.6006896;47.1306424;7.240619799999999;4.453000068664551;1673293195.5806003;9.825987815856934;0.42990419268608093;90.63121795654297
63;1673293195.8095853;47.1306424;7.2406198999999996;4.653000354766846;1673293195.7939696;9.48815631866455;2.2717182636260986;90.58427429199219
64;1673293196.0185618;47.1306425;7.2406198999999996;4.853000164031982;1673293196.0029445;9.717411994934082;-2.003450632095337;90.46564483642578
65;1673293196.2132888;47.1306425;7.2406198999999996;5.053000450134277;1673293196.1985402;10.024429321289062;-0.4677790403366089;90.600830078125
66;1673293196.4064374;47.1306424;7.2406198999999996;5.248000144958496;1673293196.3908334;10.350327491760254;2.7860960960388184;91.15279388427734
67;1673293196.6020849;47.1306424;7.2406198999999996;5.446000099182129;1673293196.586469;10.32871150970459;-1.204589605331421;90.97055053710938
68;1673293196.8063464;47.1306423;7.2406198999999996;5.644000053405762;1673293196.7907405;9.876078605651855;-1.864736795425415;90.4786376953125
69;1673293196.9891675;47.1306423;7.240619799999999;5.843000411987305;1673293196.9720016;9.415118217468262;2.2548036575317383;90.5946044921875
70;1673293197.1935456;47.1306424;7.2406198999999996;6.044000148773193;1673293197.1783354;9.259711265563965;0.17028020322322845;90.65319061279297
71;1673293197.3871086;47.1306425;7.2406198999999996;6.24500036239624;1673293197.3719203;9.544620513916016;-1.844679832458496;90.59187316894531
72;1673293197.5830796;47.1306425;7.2406198999999996;6.441000461578369;1673293197.5664845;9.85644817352295;2.3172848224639893;90.9151611328125
73;1673293197.7900405;47.1306425;7.24062;6.639000415802002;1673293197.771878;10.521718978881836;1.7846864461898804;90.86550903320312
74;1673293198.0049007;47.1306424;7.24062;6.836000442504883;1673293197.9848382;10.347330093383789;-2.4639384746551514;90.43612670898438
75;1673293198.2054498;47.1306422;7.2406201;7.033000469207764;1673293198.1853952;10.154644012451172;0.1284102201461792;90.36278533935547
76;1673293198.408552;47.1306423;7.2406201;7.2260003089904785;1673293198.3947363;9.95787525177002;1.9151023626327515;90.59493255615234
77;1673293198.6162899;47.1306424;7.2406201;7.422000408172607;1673293198.5986824;9.466401100158691;-1.7860628366470337;90.56962585449219
78;1673293198.8099604;47.1306423;7.2406201;7.62000036239624;1673293198.7943604;9.520440101623535;-1.052857756614685;90.73309326171875
79;1673293199.0064883;47.1306423;7.2406201;7.817000389099121;1673293198.9889193;9.9696683883667;2.4741756916046143;90.8922119140625
80;1673293199.2078004;47.1306423;7.2406201999999995;8.020000457763672;1673293199.1921833;10.601309776306152;-0.8161494731903076;90.66946411132812
81;1673293199.3957944;47.1306422;7.2406201999999995;8.225000381469727;1673293199.3796537;10.252359390258789;-2.067965269088745;90.01927185058594
82;1673293199.6185682;47.1306422;7.2406201999999995;8.427000045776367;1673293199.600778;10.166424751281738;1.6693958044052124;90.30519104003906
83;1673293199.8099146;47.1306423;7.2406201999999995;8.625;1673293199.7962523;9.831707000732422;0.8618900775909424;90.69428253173828
84;1673293200.0260787;47.1306424;7.2406201999999995;8.822999954223633;1673293200.0123718;9.542466163635254;-2.188023328781128;90.52289581298828
85;1673293200.2046556;47.1306425;7.2406201999999995;9.017000198364258;1673293200.189997;9.835164070129395;2.137329339981079;90.82394409179688
86;1673293200.3989468;47.1306425;7.2406203;9.213000297546387;1673293200.381103;10.372004508972168;1.8175677061080933;90.78217315673828
87;1673293200.6100407;47.1306425;7.2406203;9.407999992370605;1673293200.5924048;10.438943862915039;-2.3755180835723877;90.69989776611328
88;1673293200.814478;47.1306424;7.2406204;9.609000205993652;1673293200.7988617;10.530712127685547;0.5298535227775574;90.52140045166016
89;1673293201.0197058;47.1306425;7.2406204;9.807000160217285;1673293201.0040872;10.097607612609863;2.219304323196411;90.69479370117188
90;1673293201.211307;47.130642599999995;7.2406204;10.006000518798828;1673293201.1976097;9.807354927062988;-1.8186242580413818;90.60951232910156
91;1673293201.4068627;47.1306425;7.2406204;10.213000297546387;1673293201.3932035;9.84067153930664;0.16455942392349243;90.75225830078125
92;1673293201.6119394;47.1306425;7.2406201999999995;10.498000144958496;1673293201.591344;10.31895923614502;2.6108386516571045;90.64881896972656
93;1673293201.8085408;47.1306424;7.24062;10.858000755310059;1673293201.7875063;11.575826644897461;-0.5354586243629456;90.44670104980469
94;1673293202.005058;47.1306423;7.2406196;11.23900032043457;1673293201.9879882;10.54452133178711;-1.711216688156128;90.47193908691406
95;1673293202.2282917;47.1306423;7.2406193;11.631000518798828;1673293202.2126539;10.092912673950195;1.156376600265503;90.7599105834961
96;1673293202.4731495;47.1306423;7.240619;12.030000686645508;1673293202.456545;8.48121452331543;0.5252528786659241;90.98267364501953
97;1673293202.6349118;47.1306424;7.2406188;12.429000854492188;1673293202.6202826;8.250771522521973;-2.091231107711792;90.97294616699219
98;1673293202.8178003;47.1306424;7.2406187;12.827000617980957;1673293202.802187;7.942273139953613;1.8237545490264893;90.7873306274414
99;1673293203.0489423;47.1306424;7.2406187;13.230000495910645;1673293203.0341444;8.491426467895508;1.7255860567092896;90.61721801757812
100;1673293203.2498274;47.1306424;7.240618899999999;13.637001037597656;1673293203.2342117;9.100110054016113;-2.2331833839416504;90.55146026611328
101;1673293203.4387362;47.1306423;7.2406191;14.045001029968262;1673293203.4241223;9.402876853942871;-0.12659184634685516;90.61895751953125
102;1673293203.6234524;47.1306423;7.2406193;14.450000762939453;1673293203.6049094;9.864019393920898;2.2448983192443848;90.74147033691406
103;1673293203.812916;47.1306425;7.240619499999999;14.857000350952148;1673293203.798276;9.967249870300293;-1.2880228757858276;90.70856475830078
104;1673293203.9987757;47.1306425;7.2406196;15.262001037597656;1673293203.983435;9.91658878326416;-0.5080453753471375;90.69754791259766
105;1673293204.2276962;47.1306424;7.2406196;15.665000915527344;1673293204.2019567;9.402246475219727;2.6251158714294434;90.69317626953125
106;1673293204.4345932;47.1306424;7.2406196;16.07200050354004;1673293204.417858;9.547852516174316;-0.5099701881408691;90.74087524414062
107;1673293204.6388357;47.1306424;7.2406196;16.47800064086914;1673293204.621184;9.554688453674316;-1.7173467874526978;90.60894012451172
108;1673293204.8431902;47.1306424;7.2406196;16.886001586914062;1673293204.828505;9.71285629272461;2.1622276306152344;90.81395721435547
109;1673293205.030836;47.1306425;7.2406196;17.296001434326172;1673293205.017173;9.628974914550781;0.736178994178772;90.7967758178711
110;1673293205.2124925;47.1306425;7.2406196;17.71000099182129;1673293205.1934097;9.930404663085938;-1.976487398147583;90.55022430419922
111;1673293205.4059389;47.130642599999995;7.2406196;18.121000289916992;1673293205.391211;9.782909393310547;1.650631070137024;90.7271728515625
112;1673293205.61221;47.130642599999995;7.240619499999999;18.535001754760742;1673293205.5853186;9.616450309753418;2.033411741256714;90.68040466308594
113;1673293205.8019319;47.130642599999995;7.240619499999999;18.94900131225586;1673293205.7847927;9.210883140563965;-2.0913021564483643;90.62425994873047
114;1673293205.993958;47.1306425;7.2406194;19.365001678466797;1673293205.9763744;9.3697509765625;0.2644011676311493;90.6957778930664
115;1673293206.1863496;47.130642599999995;7.2406194;19.786001205444336;1673293206.1717036;9.361417770385742;2.3518052101135254;90.68953704833984
116;1673293206.3993485;47.130642699999996;7.2406194;20.203001022338867;1673293206.3817306;9.509963035583496;-1.2279797792434692;90.6946792602539
117;1673293206.6053693;47.130642699999996;7.240619499999999;20.617000579833984;1673293206.5890484;9.761414527893066;-0.3475961983203888;90.62934112548828
118;1673293206.8142369;47.130642599999995;7.240619499999999;21.023000717163086;1673293206.800041;9.88720417022705;2.89713191986084;90.8146743774414
119;1673293207.013437;47.130642599999995;7.240619499999999;21.4320011138916;1673293206.993388;9.588720321655273;-0.7177456021308899;90.61310577392578
120;1673293207.2343776;47.1306425;7.2406194;21.836000442504883;1673293207.2099268;9.61172103881836;-1.6887210607528687;90.57315063476562
121;1673293207.4333384;47.1306425;7.2406194;22.242000579833984;1673293207.4116044;9.4088716506958;2.194239616394043;90.78933715820312
122;1673293207.629581;47.130642599999995;7.2406194;22.650001525878906;1673293207.613965;9.407240867614746;0.1740606129169464;90.62283325195312
123;1673293207.8182647;47.130642599999995;7.2406193;23.05500030517578;1673293207.8020988;9.52270793914795;-1.8935571908950806;90.59339141845703
124;1673293208.0088735;47.130642699999996;7.2406193;23.451000213623047;1673293207.9936402;9.551883697509766;1.9383411407470703;90.63330841064453
125;1673293208.2327876;47.130642699999996;7.2406193;23.849000930786133;1673293208.212242;9.625944137573242;1.6505045890808105;90.70836639404297
126;1673293208.462828;47.130642599999995;7.2406193;24.25200080871582;1673293208.4087408;9.777466773986816;-2.27018141746521;90.60284423828125
127;1673293208.657849;47.130642599999995;7.2406193;24.655000686645508;1673293208.6412568;9.653074264526367;0.6505488157272339;90.62505340576172
128;1673293208.8416488;47.130642699999996;7.240619199999999;25.0570011138916;1673293208.826988;9.582977294921875;2.4288604259490967;90.72526550292969
129;1673293209.0402117;47.1306428;7.240619199999999;25.461000442504883;1673293209.0216684;9.175372123718262;-1.0933438539505005;90.51811218261719
130;1673293209.2394755;47.1306428;7.240619199999999;25.86600112915039;1673293209.222884;9.323549270629883;-0.011292205192148685;90.70023345947266
131;1673293209.4525845;47.130642699999996;7.240619199999999;26.26000213623047;1673293209.4388652;9.494123458862305;2.866502046585083;90.79754638671875
132;1673293209.6584995;47.130642699999996;7.240619199999999;26.659000396728516;1673293209.6380045;9.63294792175293;-0.8353880643844604;90.71100616455078
133;1673293209.8510315;47.130642599999995;7.2406193;27.064001083374023;1673293209.8373232;9.959857940673828;-1.3767485618591309;90.55945587158203
134;1673293210.0451827;47.130642599999995;7.2406194;27.470001220703125;1673293210.0295863;9.839163780212402;2.655935764312744;90.6828384399414
135;1673293210.2290165;47.130642699999996;7.2406194;27.874000549316406;1673293210.2173028;9.838394165039062;0.7901641726493835;90.60054016113281
136;1673293210.4396691;47.130642699999996;7.2406194;28.277000427246094;1673293210.4221008;9.41832447052002;-1.5381462574005127;90.58772277832031
137;1673293210.6354363;47.130642699999996;7.2406194;28.673002243041992;1673293210.6146936;9.40907096862793;1.9712584018707275;90.66502380371094
138;1673293210.8398;47.130642599999995;7.240619499999999;29.071001052856445;1673293210.822652;9.347476959228516;2.0399956703186035;90.65335845947266
139;1673293211.0507329;47.130642599999995;7.240619499999999;29.46700096130371;1673293211.0327709;9.449444770812988;-2.094858169555664;90.52698516845703
140;1673293211.2412035;47.1306425;7.240619499999999;29.863000869750977;1673293211.2222748;9.782096862792969;0.2709468603134155;90.65531921386719
141;1673293211.4335082;47.130642599999995;7.240619499999999;30.262001037597656;1673293211.4178927;9.781342506408691;2.684096574783325;90.81851959228516
142;1673293211.6259942;47.130642699999996;7.2406196;30.66200065612793;1673293211.6078866;9.88609790802002;-0.5606572031974792;90.65086364746094
143;1673293211.8314068;47.130642699999996;7.240619499999999;31.06300163269043;1673293211.811869;9.5836181640625;-0.5265489816665649;90.70301055908203
144;1673293212.033594;47.130642599999995;7.240619499999999;31.459001541137695;1673293212.0160298;9.5285005569458;2.7280118465423584;90.63904571533203
145;1673293212.2554858;47.1306425;7.240619499999999;31.865001678466797;1673293212.2377777;9.272294998168945;-0.12135092169046402;90.73661041259766
146;1673293212.4448452;47.1306425;7.240619499999999;32.27000045776367;1673293212.4292674;9.420248985290527;-1.671491265296936;90.6645736694336
147;1673293212.6628985;47.1306425;7.240619499999999;32.67500305175781;1673293212.6227014;9.387699127197266;1.9707072973251343;90.74539184570312
148;1673293212.8491817;47.130642599999995;7.240619499999999;33.079002380371094;1673293212.8349075;9.460028648376465;1.4372230768203735;90.71245574951172
149;1673293213.046133;47.130642599999995;7.2406196;33.480003356933594;1673293213.0295506;9.611516952514648;-1.9132474660873413;90.49118041992188
150;1673293213.2838511;47.130642699999996;7.2406196;33.875;1673293213.2682338;9.86601448059082;1.1516965627670288;90.66796875
151;1673293213.4772031;47.130642699999996;7.2406196;34.27900314331055;1673293213.4625533;9.836196899414062;2.6717276573181152;90.72789001464844
152;1673293213.6835606;47.130642699999996;7.2406196;34.685001373291016;1673293213.6698954;9.808025360107422;-1.390580177307129;90.63909912109375
153;1673293213.9157436;47.130642599999995;7.2406196;35.09000015258789;1673293213.9005713;9.668856620788574;-0.9132802486419678;90.66779327392578
154;1673293214.094288;47.130642599999995;7.2406196;35.49500274658203;1673293214.0737944;9.529241561889648;2.715327739715576;90.75575256347656
155;1673293214.4105017;47.130642699999996;7.2406196;35.89800262451172;1673293214.39195;9.619526863098145;-0.0689118504524231;90.62279510498047
156;1673293214.6095493;47.1306428;7.2406196;36.30000305175781;1673293214.6017408;9.437177658081055;-1.1897516250610352;90.55683898925781
157;1673293214.7633336;47.1306428;7.2406196;36.69200134277344;1673293214.7516227;9.478822708129883;2.633561134338379;90.67604064941406
158;1673293214.926606;47.1306428;7.2406196;37.08400344848633;1673293214.911929;9.497151374816895;1.319291591644287;90.78528594970703
159;1673293215.1097221;47.130642699999996;7.2406196;37.48500061035156;1673293215.0950701;9.501640319824219;-1.7256073951721191;90.54693603515625
160;1673293215.3060007;47.130642699999996;7.2406196;37.887001037597656;1673293215.2894208;9.590317726135254;1.454969048500061;90.67786407470703
161;1673293215.5123682;47.130642699999996;7.2406196;38.29100036621094;1673293215.4986944;9.524537086486816;2.338552713394165;90.73865509033203
162;1673293215.7056434;47.130642699999996;7.2406196;38.691001892089844;1673293215.68904;9.57807445526123;-1.7397900819778442;90.51974487304688
163;1673293215.8989563;47.130642699999996;7.2406196;39.08500289916992;1673293215.8813872;9.610281944274902;0.513649046421051;90.80001068115234
164;1673293216.0948493;47.130642699999996;7.2406196;39.48100280761719;1673293216.0782492;9.550155639648438;2.88171648979187;90.81720733642578
165;1673293216.2950838;47.130642699999996;7.2406196;39.87900161743164;1673293216.2794693;9.651742935180664;-1.0982797145843506;90.7174301147461
166;1673293216.5128973;47.130642599999995;7.2406196;40.281002044677734;1673293216.496295;9.634331703186035;-1.024715781211853;90.67903137207031
167;1673293216.701623;47.130642599999995;7.2406196;40.685001373291016;1673293216.6889255;9.73648738861084;2.6341874599456787;90.79359436035156
168;1673293216.8943048;47.130642599999995;7.2406196;41.08700180053711;1673293216.8776453;9.63489818572998;0.40991029143333435;90.78876495361328
169;1673293217.0852485;47.130642599999995;7.2406196;41.48600387573242;1673293217.0715854;9.721576690673828;-1.6667588949203491;90.58366394042969
170;1673293217.2830613;47.130642599999995;7.2406196;41.87900161743164;1673293217.2615433;9.708040237426758;2.030362367630005;90.6691665649414
171;1673293217.4779181;47.130642599999995;7.240619499999999;42.27900314331055;1673293217.462301;9.553531646728516;1.2979671955108643;90.60900115966797
172;1673293217.6709926;47.1306425;7.240619499999999;42.68300247192383;1673293217.6534376;9.523414611816406;-2.1038742065429688;90.6596908569336
173;1673293217.8799229;47.1306425;7.2406194;43.08700180053711;1673293217.862308;9.481715202331543;1.1845513582229614;90.76898956298828
174;1673293218.080048;47.1306425;7.2406194;43.492000579833984;1673293218.0651982;9.654114723205566;2.0257821083068848;90.59419250488281
175;1673293218.273212;47.130642599999995;7.2406194;43.89400100708008;1673293218.254668;9.488957405090332;-1.4135531187057495;90.52748107910156
176;1673293218.473606;47.130642699999996;7.2406194;44.28600311279297;1673293218.4599423;9.49402904510498;0.17231479287147522;90.58698272705078
177;1673293218.6700723;47.1306428;7.2406194;44.68100357055664;1673293218.6456728;9.186656951904297;3.167884349822998;90.83493041992188
178;1673293218.8680668;47.1306428;7.2406194;45.08100128173828;1673293218.8514314;9.100001335144043;-0.11873167008161545;90.73527526855469
179;1673293219.0794437;47.130642699999996;7.2406194;45.48200225830078;1673293219.0560193;9.10959529876709;-0.9086688756942749;90.6414566040039
180;1673293219.2809775;47.130642599999995;7.2406194;45.87800216674805;1673293219.266346;9.446370124816895;2.759324312210083;90.79573822021484
181;1673293219.5138586;47.130642699999996;7.2406194;46.28000259399414;1673293219.5010064;9.326485633850098;0.5666025280952454;90.65455627441406
182;1673293219.7149727;47.130642699999996;7.2406194;46.68300247192383;1673293219.696402;9.689546585083008;-1.6683447360992432;90.42829132080078
183;1673293219.8965297;47.130642699999996;7.2406194;47.0780029296875;1673293219.881893;9.725467681884766;2.2926082611083984;90.72449493408203
184;1673293220.0923648;47.130642599999995;7.2406194;47.47500228881836;1673293220.075773;9.55496597290039;1.8215547800064087;90.80323028564453
185;1673293220.2779713;47.1306425;7.2406194;47.875003814697266;1673293220.263422;9.328200340270996;-2.2275311946868896;90.69578552246094
186;1673293220.4813557;47.1306424;7.2406194;48.250003814697266;1673293220.4577827;9.26453971862793;0.9991352558135986;90.48896026611328
187;1673293220.689007;47.1306424;7.240619499999999;48.58000183105469;1673293220.6733923;9.363323211669922;1.885879635810852;90.90813446044922
188;1673293220.8931055;47.1306424;7.2406196;48.8640022277832;1673293220.8755515;9.370953559875488;-1.8585119247436523;90.5800552368164
189;1673293221.0887332;47.1306425;7.240619799999999;49.09100341796875;1673293221.0701842;9.694503784179688;0.5319287180900574;90.48168182373047
190;1673293221.2857528;47.1306425;7.2406201;49.285003662109375;1673293221.2681682;9.846575736999512;2.7139830589294434;90.80142974853516
191;1673293221.4890826;47.1306424;7.2406201999999995;49.44400405883789;1673293221.4754205;17.984357833862305;3.813789129257202;89.42833709716797
192;1673293221.682869;47.130641999999995;7.2406198999999996;49.52800369262695;1673293221.6680799;23.72965431213379;10.775531768798828;80.52056121826172
193;1673293221.886219;47.1306411;7.240619;49.582000732421875;1673293221.8653994;11.111380577087402;-4.509580612182617;66.31339263916016
194;1673293222.0783472;47.130640199999995;7.2406179999999996;49.625003814697266;1673293222.0591552;14.450506210327148;-6.424636363983154;57.242671966552734
195;1673293222.273314;47.130639099999996;7.2406166999999995;49.665000915527344;1673293222.2551463;12.644906997680664;-4.588253974914551;49.403221130371094
196;1673293222.478218;47.130638;7.2406155;49.695003509521484;1673293222.4621294;9.01097297668457;-4.720320224761963;40.88682174682617
197;1673293222.6753306;47.1306369;7.240614399999999;49.724002838134766;1673293222.6595325;5.592129707336426;-4.683591842651367;31.816770553588867
198;1673293222.8773336;47.1306358;7.240613499999999;49.75400161743164;1673293222.861214;1.0043615102767944;-6.832666873931885;22.564550399780273
199;1673293223.0864034;47.130635;7.2406128999999995;49.78300094604492;1673293223.0671623;-2.246642589569092;-9.208374977111816;13.391406059265137
200;1673293223.283169;47.1306344;7.2406125999999995;49.80800247192383;1673293223.2612193;-3.419670820236206;-11.622830390930176;4.220005035400391
201;1673293223.478128;47.130634099999995;7.2406124;49.8280029296875;1673293223.461446;-2.693695306777954;-10.865827560424805;-4.96954345703125
202;1673293223.671218;47.130634;7.2406123;49.840003967285156;1673293223.6544075;-2.2278194427490234;-9.500835418701172;-13.556694984436035
203;1673293223.8902285;47.130634;7.2406121;49.85300064086914;1673293223.8721352;-3.1125824451446533;-7.502513408660889;-21.96819496154785
204;1673293224.089086;47.130634;7.240612;49.8650016784668;1673293224.0740535;-5.717004299163818;-6.539974689483643;-30.58608055114746
205;1673293224.302128;47.130634099999995;7.240612;49.87700271606445;1673293224.2863927;-7.853181838989258;-7.7118330001831055;-39.768436431884766
206;1673293224.502891;47.130634199999996;7.2406121;49.88800048828125;1673293224.479674;-8.655695915222168;-10.602314949035645;-48.793006896972656
207;1673293224.7010171;47.1306343;7.240612;49.897003173828125;1673293224.6833344;-8.068839073181152;-10.727522850036621;-53.47126007080078
208;1673293224.9024906;47.1306345;7.2406118;49.90500259399414;1673293224.88465;-6.922793865203857;-9.015849113464355;-52.2651252746582
209;1673293225.091518;47.1306346;7.2406115;49.90400314331055;1673293225.0734193;-6.358377456665039;-6.8345537185668945;-48.939910888671875
210;1673293225.2929354;47.1306346;7.2406112;49.906002044677734;1673293225.2751431;-7.485501766204834;-4.939878940582275;-46.74584197998047
211;1673293225.489876;47.1306346;7.2406109999999995;49.91100311279297;1673293225.4722729;-8.829371452331543;-6.130679607391357;-45.75783157348633
212;1673293225.7019694;47.1306346;7.2406108;49.915000915527344;1673293225.6873152;-8.199823379516602;-9.694048881530762;-45.8786735534668
213;1673293225.9029033;47.1306346;7.240610599999999;49.91800308227539;1673293225.8863208;-6.411890029907227;-10.995963096618652;-46.31760025024414
214;1673293226.1003795;47.1306345;7.240610299999999;49.91800308227539;1673293226.0837877;-5.274399280548096;-9.089385032653809;-46.43217849731445
215;1673293226.3934739;47.1306344;7.2406099;49.910003662109375;1673293226.3568184;-4.512201309204102;-7.7857465744018555;-46.058841705322266
216;1673293226.5776117;47.130634199999996;7.2406096;49.90700149536133;1673293226.567841;-14.25267505645752;-6.616063594818115;-45.65122604370117
217;1673293226.7527297;47.1306345;7.2406086;49.913002014160156;1673293226.7340574;-37.14421081542969;-2.0230987071990967;-45.99069595336914
218;1673293226.9392972;47.1306361;7.2406058;49.927001953125;1673293226.9244823;-52.74689865112305;-0.20874960720539093;-47.5797119140625
219;1673293227.1123967;47.1306399;7.240600199999999;49.923004150390625;1673293227.097101;-56.647926330566406;-0.3486660122871399;-49.26788330078125
220;1673293227.3132184;47.130645799999996;7.240591599999999;49.90800094604492;1673293227.295104;-54.048789978027344;-3.3393046855926514;-48.73259353637695
221;1673293227.4990149;47.130653599999995;7.2405801;49.91100311279297;1673293227.4837434;-55.704246520996094;-2.982583522796631;-48.677093505859375
222;1673293227.687902;47.1306632;7.240565699999999;49.9160041809082;1673293227.672161;-58.34059143066406;-1.1537671089172363;-49.61882400512695
223;1673293227.8972127;47.1306746;7.2405488;49.9170036315918;1673293227.8824673;-57.0958366394043;-1.610522985458374;-49.797027587890625
224;1673293228.1262753;47.130687099999996;7.2405301;49.913002014160156;1673293228.1101353;-53.886085510253906;-1.3392047882080078;-48.97696304321289
225;1673293228.3181386;47.130700499999996;7.240510199999999;49.90700149536133;1673293228.3023264;-54.0158805847168;-2.1892409324645996;-48.263607025146484
226;1673293228.5081105;47.1307148;7.240488999999999;49.89400100708008;1673293228.4933636;-54.312801361083984;-3.6350162029266357;-47.864871978759766
227;1673293228.7044854;47.1307298;7.2404668999999995;49.87900161743164;1673293228.6853478;-50.34621047973633;-3.0151329040527344;-48.856910705566406
228;1673293228.9251797;47.130744899999996;7.2404442;49.858001708984375;1673293228.9093616;-48.85422897338867;-3.095541477203369;-48.92679977416992
229;1673293229.1622324;47.1307603;7.2404211;49.84300231933594;1673293229.1442113;-49.03147506713867;-3.6663620471954346;-48.66419219970703
230;1673293229.3389251;47.130775899999996;7.2403976;49.83100128173828;1673293229.3231936;-48.597389221191406;-3.7186660766601562;-48.754493713378906
231;1673293229.557315;47.130791599999995;7.2403737999999995;49.823001861572266;1673293229.544264;-48.87043762207031;-3.8446295261383057;-48.867271423339844
232;1673293229.7591226;47.130807399999995;7.2403496999999994;49.82100296020508;1673293229.745297;-48.881683349609375;-4.50276517868042;-48.777156829833984
233;1673293229.9661;47.130823299999996;7.240325299999999;49.81900405883789;1673293229.9522455;-48.3492317199707;-6.135955810546875;-48.622108459472656
234;1673293230.1589422;47.130838999999995;7.240300599999999;49.81300354003906;1673293230.1456902;-48.56230926513672;-8.837298393249512;-48.28770065307617
235;1673293230.4223886;47.130854299999996;7.2402755;49.80600357055664;1673293230.388279;-46.590362548828125;-12.240968704223633;-48.556758880615234
236;1673293230.5804038;47.1308691;7.2402503;49.82500076293945;1673293230.5690496;-24.00837516784668;-11.809427261352539;-50.53836441040039
237;1673293230.7582998;47.1308824;7.240227;49.83400344848633;1673293230.7450502;22.89876365661621;-12.931017875671387;-51.329345703125
238;1673293230.9580379;47.130893799999996;7.240207;49.64900207519531;1673293230.942218;28.845096588134766;-1.6471408605575562;-54.96992111206055
239;1673293231.1487358;47.1309033;7.2401912;49.32600402832031;1673293231.1257048;17.49319076538086;-2.305717945098877;-48.97248077392578
240;1673293231.352553;47.1309105;7.2401798;49.02800369262695;1673293231.3400645;15.264859199523926;-1.8440306186676025;-47.71352005004883
241;1673293231.538633;47.130915599999994;7.2401725;48.86600112915039;1673293231.5238438;14.827554702758789;-2.1084046363830566;-47.6094856262207
242;1673293231.7250333;47.130918799999996;7.240168799999999;48.91100311279297;1673293231.7096944;31.7935733795166;-6.564197540283203;-47.94359588623047
243;1673293231.90921;47.1309195;7.240169099999999;49.04500198364258;1673293231.892618;48.006317138671875;-10.63500690460205;-47.24245834350586
244;1673293232.112899;47.1309173;7.2401732;49.177001953125;1673293232.0941896;48.38508987426758;-10.477824211120605;-44.4904670715332
245;1673293232.3001866;47.1309124;7.2401804;49.30500411987305;1673293232.2855551;39.68962097167969;-15.386460304260254;-44.40383529663086
246;1673293232.49358;47.1309056;7.2401892;49.41200256347656;1673293232.475978;23.271549224853516;-17.062685012817383;-44.26753616333008
247;1673293232.7000842;47.130898099999996;7.240198299999999;49.50400161743164;1673293232.6775641;1.817018747329712;-14.101415634155273;-44.66094207763672
248;1673293232.8978326;47.1308911;7.2402063;49.5780029296875;1673293232.880208;-16.61893081665039;-9.0120210647583;-46.5216064453125
249;1673293233.0939229;47.1308849;7.2402128;49.61300277709961;1673293233.07733;-29.957700729370117;-0.23535656929016113;-47.851619720458984
250;1673293233.2974432;47.130880399999995;7.240217299999999;49.60300064086914;1673293233.275977;-41.08456802368164;0.5617011785507202;-49.2833366394043
251;1673293233.4971294;47.1308776;7.240220099999999;49.51000213623047;1673293233.482252;-31.004474639892578;2.8305158615112305;-48.10536575317383
252;1673293233.6987057;47.1308751;7.2402225;49.09600067138672;1673293233.6811278;-7.415406227111816;18.094539642333984;-41.61982345581055
253;1673293233.9180882;47.1308728;7.2402247;48.30400085449219;1673293233.9014761;13.973445892333984;37.525447845458984;-29.297590255737305
254;1673293234.1158006;47.130870599999994;7.2402267;47.11300277709961;1673293234.097256;28.283058166503906;58.80740737915039;-11.872213363647461
255;1673293234.34118;47.1308685;7.240228699999999;45.564002990722656;1673293234.3235288;34.24592971801758;73.55844116210938;3.2302980422973633
256;1673293234.5712883;47.130866499999996;7.240230599999999;43.656002044677734;1673293234.5478632;35.01486587524414;71.48297882080078;7.299461841583252
257;1673293234.7588782;47.130864599999995;7.2402323;41.3900032043457;1673293234.7374077;30.4574031829834;48.48481750488281;-1.4704201221466064
258;1673293234.9723108;47.130862699999994;7.2402339;38.75600051879883;1673293234.949863;13.025334358215332;15.149192810058594;-12.859247207641602
259;1673293235.1750667;47.130860999999996;7.2402353999999995;35.730003356933594;1673293235.1632078;-12.477523803710938;-17.489810943603516;-13.060726165771484
260;1673293235.3417275;47.130859199999996;7.240237199999999;32.319000244140625;1673293235.3255649;-31.040843963623047;-39.94211196899414;-4.899920463562012
261;1673293235.537046;47.1308574;7.2402394999999995;28.53900146484375;1673293235.521847;-36.285667419433594;-36.84687805175781;-4.176855087280273
262;1673293235.7117755;47.130855399999994;7.2402422;24.409000396728516;1673293235.697044;-23.947702407836914;-7.428368091583252;-13.216873168945312
263;1673293235.89999;47.1308532;7.240245;19.893001556396484;1673293235.8824222;3.368408679962158;24.133594512939453;-12.288516998291016
264;1673293236.1220973;47.1308511;7.2402475;14.999000549316406;1673293236.1064453;25.199113845825195;41.881202697753906;-2.5881075859069824
265;1673293236.3556852;47.1308491;7.2402495;9.760000228881836;1673293236.3420074;29.57782554626465;29.655874252319336;-4.229719638824463
266;1673293236.5429404;47.1308474;7.2402511;4.156000137329102;1673293236.53026;10.540757179260254;-3.071120500564575;-12.199227333068848
267;1673293236.7269862;47.1308461;7.2402501;0.20200000703334808;1673293236.711369;5.999373435974121;-6.181954860687256;-13.563433647155762
268;1673293236.914062;47.1308467;7.2402403;0.2850000262260437;1673293236.8993587;7.818057060241699;0.2874837815761566;-19.527034759521484
269;1673293237.1086643;47.130848199999996;7.2402285;0.2710000276565552;1673293237.088146;1.975465178489685;-7.675754070281982;-22.369287490844727
270;1673293237.3012636;47.1308495;7.2402174;0.2760000228881836;1673293237.2807558;2.1239538192749023;-4.3024983406066895;-21.908525466918945
271;1673293237.4937913;47.1308504;7.2402074;0.2710000276565552;1673293237.4723272;2.182342767715454;-4.66873836517334;-21.520429611206055
272;1673293237.6922214;47.1308511;7.240199;0.2600000202655792;1673293237.6775453;2.302467107772827;-4.688416957855225;-21.170270919799805
273;1673293237.8903103;47.1308514;7.2401922999999995;0.24000000953674316;1673293237.8746936;2.446984052658081;-4.6036763191223145;-20.802282333374023
274;1673293238.1146584;47.1308516;7.2401846;0.22500000894069672;1673293238.0960553;2.4849934577941895;-4.482570648193359;-20.550867080688477
275;1673293238.321715;47.1308516;7.2401805999999995;0.20900000631809235;1673293238.300173;2.656736373901367;-3.905179738998413;-20.191020965576172
276;1673293238.5430698;47.130851299999996;7.2401795;0.19700001180171967;1673293238.5263999;2.765105724334717;-3.2899882793426514;-19.8348388671875
277;1673293238.7311902;47.1308508;7.240180499999999;0.19100001454353333;1673293238.7124727;2.976266622543335;-2.7629506587982178;-19.55954933166504
278;1673293238.9256046;47.130850099999996;7.2401835;0.1900000125169754;1673293238.9080274;3.1605379581451416;-2.1210274696350098;-19.291807174682617
279;1673293239.1565602;47.1308492;7.2401877;0.1940000057220459;1673293239.1409488;3.305610418319702;-1.5767483711242676;-19.013702392578125
280;1673293239.4225602;47.1308483;7.2401884999999995;0.20200000703334808;1673293239.4030323;3.2837748527526855;-1.3471623659133911;-18.919912338256836
281;1673293239.589775;47.1308472;7.2401927;0.21300001442432404;1673293239.5673187;3.4702372550964355;-0.8544023036956787;-18.706764221191406
282;1673293239.7883844;47.1308461;7.2401987;0.22500000894069672;1673293239.7687633;3.620051383972168;-0.3469797372817993;-18.465654373168945
283;1673293239.9761732;47.1308477;7.2402133;0.25699999928474426;1673293239.9566538;3.669484853744507;0.6612789630889893;-17.96039390563965
284;1673293240.1942773;47.130849;7.2402254;0.28200000524520874;1673293240.1825955;3.6633665561676025;1.1690688133239746;-17.686723709106445
285;1673293240.382384;47.130849999999995;7.2402340999999995;0.30100002884864807;1673293240.3608735;3.616849660873413;1.3761260509490967;-17.60296058654785
286;1673293240.5624273;47.1308504;7.24024;0.3100000023841858;1673293240.5497382;3.6324989795684814;1.5813500881195068;-17.53058433532715
287;1673293240.7799606;47.1308503;7.2402431;0.31700000166893005;1673293240.7565503;3.602787494659424;1.741906762123108;-17.527517318725586
288;1673293240.974235;47.1308502;7.2402453;0.31700000166893005;1673293240.9615364;3.5372183322906494;1.892084002494812;-17.504268646240234
289;1673293241.1893597;47.130850099999996;7.240247;0.30900001525878906;1673293241.1609972;3.4430246353149414;2.007164478302002;-17.492095947265625
290;1673293241.3739357;47.1308499;7.2402482;0.30000001192092896;1673293241.3583217;3.3846781253814697;2.0824244022369385;-17.465896606445312
291;1673293241.5855508;47.1308497;7.2402491;0.2880000174045563;1673293241.5738401;3.393355369567871;2.1611926555633545;-17.473751068115234
292;1673293241.7720175;47.130849399999995;7.2402498;0.2760000228881836;1673293241.7601278;3.288827657699585;2.225602388381958;-17.480682373046875
293;1673293241.9428117;47.130848799999995;7.240250499999999;0.26600000262260437;1673293241.9294875;3.3070783615112305;2.2824268341064453;-17.44995880126953
294;1673293242.1584954;47.1308484;7.240251;0.2510000169277191;1673293242.14288;3.2731823921203613;2.3236610889434814;-17.46541976928711
295;1673293242.361067;47.130848099999994;7.2402514;0.2370000183582306;1673293242.346425;3.1933860778808594;2.3751232624053955;-17.47690773010254
296;1673293242.5790854;47.1308478;7.240251799999999;0.22200001776218414;1673293242.5624676;3.174464464187622;2.3933606147766113;-17.485898971557617
297;1673293242.7685933;47.130847599999996;7.240252099999999;0.20800000429153442;1673293242.7529764;3.110947608947754;2.455019474029541;-17.484512329101562
298;1673293242.9895682;47.1308473;7.2402523;0.19200000166893005;1673293242.9767253;3.073770761489868;2.45739483833313;-17.498268127441406
299;1673293243.179929;47.1308471;7.2402524999999995;0.18000000715255737;1673293243.1594522;2.95151686668396;2.489535331726074;-17.48109245300293
300;1673293243.3706806;47.1308466;7.2402532;0.1680000126361847;1673293243.3570054;2.9117956161499023;2.6732208728790283;-17.492341995239258
301;1673293243.5834227;47.130846299999995;7.2402535;0.1600000113248825;1673293243.5599897;2.8729848861694336;2.4301633834838867;-17.516014099121094
302;1673293243.7996175;47.1308461;7.240253699999999;-0.0010000000474974513;1673293243.774991;2.787928342819214;2.366744041442871;-17.526540756225586
303;1673293243.9674413;47.130846;7.2402538;-0.005000000353902578;1673293243.9535997;2.7300360202789307;2.28299617767334;-17.536354064941406
