;pos_time;latitude;longitude;altitude;alt_time;pitch;roll;yaw
0;1673282219.1147254;47.1306424;7.2406201999999995;-0.006000000052154064;1673282219.2646816;-0.06397004425525665;0.061692774295806885;89.78914642333984
1;1673282219.3267136;47.1306424;7.2406201;-0.004000000189989805;1673282219.4746442;-0.06451762467622757;0.2113242745399475;90.11753845214844
2;1673282219.5338337;47.1306424;7.2406201;0.0;1673282219.6701167;-0.16248323023319244;0.14684031903743744;89.86534881591797
3;1673282219.7223992;47.1306424;7.2406201999999995;0.0020000000949949026;1673282219.86153;0.03802354261279106;-0.0973120629787445;90.1296157836914
4;1673282219.9225845;47.1306424;7.2406201999999995;0.005000000353902578;1673282220.0509841;-0.05871047452092171;-0.6984519362449646;89.93508911132812
5;1673282220.108129;47.1306424;7.2406201999999995;0.00800000037997961;1673282220.2443273;0.03611692041158676;-0.4958016574382782;89.8424072265625
6;1673282220.296074;47.1306424;7.2406201;0.009000000543892384;1673282220.4328163;-0.11888787895441055;-0.5128770470619202;89.9005355834961
7;1673282220.4943094;47.1306424;7.2406201;0.009000000543892384;1673282220.6693978;-0.07417106628417969;-0.670240581035614;90.19107818603516
8;1673282220.7325802;47.1306424;7.2406201;0.007000000216066837;1673282220.8709207;-0.027800017967820168;-0.41311946511268616;89.9024658203125
9;1673282220.9232109;47.1306424;7.2406201;0.00800000037997961;1673282221.0643563;-0.06723124533891678;-0.605461835861206;89.99492645263672
10;1673282221.1205435;47.1306423;7.2406201;0.01100000087171793;1673282221.2684858;0.01717218942940235;-0.5750513076782227;90.11149597167969
11;1673282221.326614;47.1306423;7.2406201999999995;0.015000000596046448;1673282221.4774506;0.039910610765218735;-0.4386413097381592;89.91883087158203
12;1673282221.5670762;47.1306423;7.2406201;0.01900000125169754;1673282221.7087653;-0.12056215852499008;-0.6074140667915344;90.05313110351562
13;1673282221.7644706;47.1306423;7.2406201;0.023000001907348633;1673282221.8883157;-0.2572264075279236;-0.2835744023323059;89.9636459350586
14;1673282221.9425595;47.1306424;7.2406201;0.024000000208616257;1673282222.0788162;-0.28106003999710083;-0.9577246904373169;89.97357177734375
15;1673282222.1380353;47.1306424;7.2406201;0.0;1673282222.286059;-0.21092839539051056;-1.6519451141357422;90.06094360351562
16;1673282222.3403752;47.1306424;7.2406201999999995;-0.0020000000949949026;1673282222.482766;-0.16180482506752014;-1.1803219318389893;90.00981903076172
17;1673282222.549431;47.1306424;7.2406201999999995;0.0;1673282222.6830707;-0.3154805898666382;-1.3533388376235962;90.02864074707031
18;1673282222.7369854;47.1306424;7.2406203;0.0;1673282222.889856;0.1508394479751587;-1.2821718454360962;90.08914184570312
19;1673282222.942063;47.1306424;7.2406203;0.0020000000949949026;1673282223.0739145;-0.137464240193367;-1.2279940843582153;90.21727752685547
20;1673282223.1251388;47.1306424;7.2406203;0.005000000353902578;1673282223.2658637;-0.40733781456947327;-1.514694094657898;90.26493072509766
21;1673282223.314834;47.1306424;7.2406204;0.005000000353902578;1673282223.4861054;-0.43717214465141296;-0.9824739098548889;90.2337646484375
22;1673282223.560038;47.1306425;7.2406204;0.0;1673282223.701142;-0.213628888130188;-1.010115146636963;90.14421081542969
23;1673282223.755932;47.1306425;7.2406204;0.0;1673282223.8999918;-0.5068126916885376;-0.3950745761394501;90.42009735107422
24;1673282223.9597619;47.1306425;7.2406204;0.0;1673282224.0931826;-0.38061124086380005;-0.3505217432975769;90.2662582397461
25;1673282224.163298;47.1306425;7.2406203;-0.003000000026077032;1673282224.3010056;-0.7406160831451416;-1.0370945930480957;90.8085708618164
26;1673282224.3447282;47.1306425;7.2406201999999995;-0.007000000216066837;1673282224.4781957;-0.666447639465332;-0.9673972129821777;91.23632049560547
27;1673282224.5365884;47.130642599999995;7.2406201999999995;-0.01100000087171793;1673282224.682191;-0.7067170739173889;-0.9790582656860352;91.5335693359375
28;1673282224.7321274;47.130642699999996;7.2406201999999995;-0.012000000104308128;1673282224.882458;-0.8983892202377319;-0.7242246270179749;92.9913330078125
29;1673282224.9416401;47.1306429;7.2406203;-0.010000000707805157;1673282225.0849;-0.08047130703926086;-0.8311681151390076;99.05284118652344
30;1673282225.1399946;47.130643199999994;7.2406207;-0.007000000216066837;1673282225.2861617;-0.39982157945632935;-0.08282233029603958;101.15283203125
31;1673282225.347057;47.130643899999995;7.2406216;-0.00800000037997961;1673282225.4914768;0.31635352969169617;0.2905309200286865;105.48883819580078
32;1673282225.5443065;47.130645099999995;7.2406232;-0.01100000087171793;1673282225.6849968;3.9258289337158203;1.9314405918121338;99.26405334472656
33;1673282225.7461436;47.130646899999995;7.2406257;-0.00800000037997961;1673282225.886077;7.1166815757751465;6.577309608459473;97.03426361083984
34;1673282225.952063;47.1306492;7.2406292;0.0010000000474974513;1673282226.1072364;8.520689964294434;11.207206726074219;96.8521728515625
35;1673282226.18017;47.130652;7.2406331999999995;0.023000001907348633;1673282226.3138974;9.410704612731934;13.823219299316406;96.785888671875
36;1673282226.3670654;47.130654899999996;7.2406377;0.055000003427267075;1673282226.5001948;10.959994316101074;14.685300827026367;96.7313461303711
37;1673282226.551274;47.130657799999994;7.2406426999999995;0.09200000762939453;1673282226.6869824;12.483929634094238;15.273024559020996;96.70620727539062
38;1673282226.7441185;47.1306608;7.2406478;0.12800000607967377;1673282226.87798;14.080601692199707;16.996044158935547;96.79743957519531
39;1673282226.9306247;47.1306636;7.240653;0.16600000858306885;1673282227.0825117;15.552891731262207;18.191204071044922;96.83525085449219
40;1673282227.151409;47.130666399999996;7.2406581;0.1980000138282776;1673282227.3063502;17.23936653137207;19.183443069458008;96.7805404663086
41;1673282227.375215;47.130669;7.240662899999999;0.23200000822544098;1673282227.4977596;18.95220947265625;20.63216209411621;96.67610168457031
42;1673282227.5441763;47.130671299999996;7.2406673999999995;0.2670000195503235;1673282227.6872828;20.64366912841797;21.860824584960938;96.55632019042969
43;1673282227.7532253;47.1306734;7.2406714;0.2939999997615814;1673282227.8972669;22.442934036254883;23.0395450592041;96.30570983886719
44;1673282228.0090997;47.1306751;7.2406748;0.31800001859664917;1673282228.1664767;24.327239990234375;24.277463912963867;96.02042388916016
45;1673282228.2173696;47.1306765;7.240677499999999;0.34200000762939453;1673282228.3521576;26.148998260498047;25.723045349121094;95.79339599609375
46;1673282228.3999817;47.1306775;7.240679399999999;0.36400002241134644;1673282228.5205774;28.15383529663086;26.594898223876953;95.36245727539062
47;1673282228.5748103;47.130677999999996;7.2406804;0.3830000162124634;1673282228.7169614;30.3593807220459;27.705242156982422;94.86082458496094
48;1673282228.802481;47.130677999999996;7.240680599999999;0.40400001406669617;1673282228.965425;32.41058349609375;28.96135902404785;94.30228424072266
49;1673282229.0171525;47.130677399999996;7.2406798;0.4230000078678131;1673282229.1773815;34.81730270385742;29.73851203918457;93.67937469482422
50;1673282229.2232528;47.130676199999996;7.240678;0.4410000145435333;1673282229.3816028;37.20612716674805;30.724285125732422;92.93478393554688
51;1673282229.4343014;47.1306744;7.2406749999999995;0.45500001311302185;1673282229.5535245;39.75118637084961;31.287933349609375;92.05741119384766
52;1673282229.6033654;47.130671799999995;7.2406707;0.4650000333786011;1673282229.7182412;39.52664566040039;29.681100845336914;90.43970489501953
53;1673282229.7705693;47.1306685;7.2406652;0.4690000116825104;1673282229.9117596;35.456146240234375;25.977283477783203;88.51054382324219
54;1673282229.9718556;47.1306647;7.2406589;0.4710000157356262;1673282230.1120462;30.980039596557617;22.1430721282959;87.23841857910156
55;1673282230.1633315;47.1306608;7.2406523;0.46700000762939453;1673282230.3123388;25.6036434173584;18.54349136352539;86.49931335449219
56;1673282230.3605103;47.130657;7.240645799999999;0.4750000238418579;1673282230.5266333;21.187580108642578;16.102853775024414;86.89688873291016
57;1673282230.580848;47.1306535;7.240639799999999;0.5070000290870667;1673282230.7093365;17.53636932373047;13.502034187316895;86.63460540771484
58;1673282230.7684944;47.130650499999994;7.240634699999999;0.5470000505447388;1673282230.923242;14.87411880493164;12.882948875427246;86.96934509277344
59;1673282230.9824123;47.130648099999995;7.240630599999999;0.593000054359436;1673282231.161274;14.268339157104492;12.623491287231445;86.9955062866211
60;1673282231.2217848;47.1306466;7.2406277999999995;0.6450000405311584;1673282231.339487;14.94106674194336;11.50877857208252;86.61869049072266
61;1673282231.3850362;47.1306455;7.240626;0.7080000042915344;1673282231.5291646;16.305171966552734;14.754049301147461;87.16101837158203
62;1673282231.5835307;47.1306449;7.240624899999999;0.7800000309944153;1673282231.7198644;18.316329956054688;15.530570030212402;87.10091400146484
63;1673282231.818148;47.1306446;7.2406242999999995;0.859000027179718;1673282231.9344075;20.38262367248535;15.384998321533203;86.69925689697266
64;1673282231.9886322;47.1306446;7.2406242;0.9470000267028809;1673282232.1435034;21.824968338012695;18.510387420654297;87.11257934570312
65;1673282232.2026024;47.1306446;7.2406242;1.0470000505447388;1673282232.3580453;23.1519775390625;19.32101821899414;87.1304702758789
66;1673282232.438236;47.1306447;7.2406242999999995;1.162000060081482;1673282232.5805912;23.99140167236328;17.577301025390625;86.51248168945312
67;1673282232.6574812;47.1306446;7.2406242;1.2920000553131104;1673282232.7876477;23.972991943359375;19.448841094970703;86.70973205566406
68;1673282232.8335767;47.130644499999995;7.2406239;1.4380000829696655;1673282232.9577122;23.823917388916016;19.422950744628906;86.71340942382812
69;1673282233.0104167;47.1306443;7.240623599999999;1.596000075340271;1673282233.1232677;23.675596237182617;16.853172302246094;84.843994140625
70;1673282233.1823914;47.130644;7.2406231;1.7620000839233398;1673282233.3168213;22.999845504760742;17.794103622436523;85.09182739257812
71;1673282233.364224;47.1306437;7.2406225;1.9300000667572021;1673282233.4945958;22.359439849853516;18.029573440551758;85.21609497070312
72;1673282233.5585606;47.1306434;7.2406219;2.111999988555908;1673282233.703639;21.71388053894043;15.886507034301758;84.59002685546875
73;1673282233.7598224;47.130643199999994;7.240621399999999;2.2990000247955322;1673282233.9048135;21.32225227355957;16.93954849243164;84.81241607666016
74;1673282233.9639199;47.130643;7.240621;2.4870002269744873;1673282234.1111627;21.384775161743164;18.044593811035156;84.93087768554688
75;1673282234.1709447;47.130643;7.2406207;2.6740000247955322;1673282234.316177;21.26876449584961;16.073091506958008;84.3121566772461
76;1673282234.3685372;47.1306429;7.2406204999999995;2.8610000610351562;1673282234.515499;21.66229248046875;16.44963264465332;84.5458755493164
77;1673282234.5775506;47.130642699999996;7.2406204999999995;3.052000045776367;1673282234.7099767;21.819597244262695;18.139196395874023;84.97566223144531
78;1673282234.766157;47.130642699999996;7.2406204999999995;3.2430002689361572;1673282234.9056492;22.047014236450195;16.19220733642578;84.27391815185547
79;1673282234.9667423;47.130642699999996;7.2406204999999995;3.434000253677368;1673282235.1146789;22.245929718017578;16.718774795532227;84.34747314453125
80;1673282235.165985;47.130642699999996;7.2406204999999995;3.627000093460083;1673282235.317007;22.424123764038086;18.657026290893555;84.84770965576172
81;1673282235.369282;47.1306428;7.2406206;3.817000150680542;1673282235.4988413;22.49922752380371;16.897260665893555;84.54612731933594
82;1673282235.5505776;47.130642699999996;7.2406206;4.006999969482422;1673282235.7028265;22.58365249633789;16.451431274414062;84.35879516601562
83;1673282235.764865;47.130642699999996;7.2406206;4.201000213623047;1673282235.9110456;22.505769729614258;18.387130737304688;84.9172134399414
84;1673282235.9660058;47.130642699999996;7.2406206;4.394999980926514;1673282236.1087427;22.532320022583008;16.812728881835938;84.61470794677734
85;1673282236.1625645;47.130642699999996;7.2406206;4.589000225067139;1673282236.3149147;22.40975570678711;16.067428588867188;84.28337097167969
86;1673282236.3730578;47.130642699999996;7.2406206;4.7820000648498535;1673282236.520038;22.465564727783203;18.41292381286621;84.84359741210938
87;1673282236.5822964;47.130642699999996;7.2406206;4.975000381469727;1673282236.7341604;22.464975357055664;16.871740341186523;84.55025482177734
88;1673282236.7942421;47.130642699999996;7.2406206;5.1660003662109375;1673282236.9441142;22.378841400146484;16.03829574584961;84.26703643798828
89;1673282237.0012596;47.130642599999995;7.2406206;5.3580002784729;1673282237.1335573;22.530559539794922;18.377418518066406;84.86491394042969
90;1673282237.1897378;47.130642699999996;7.2406206;5.547000408172607;1673282237.314236;22.410266876220703;17.32378387451172;84.55918884277344
91;1673282237.3684695;47.130642699999996;7.2406206;5.735000133514404;1673282237.5134764;22.47271156311035;16.03178596496582;84.27781677246094
92;1673282237.5687387;47.130642699999996;7.2406204999999995;5.924000263214111;1673282237.7295318;22.437009811401367;18.42955780029297;84.83235168457031
93;1673282237.7857056;47.130642699999996;7.2406204999999995;6.12000036239624;1673282237.934602;22.49913787841797;17.38016700744629;84.58783721923828
94;1673282237.9946878;47.130642699999996;7.2406204999999995;6.314000129699707;1673282238.1221654;22.444250106811523;16.009140014648438;84.23284912109375
95;1673282238.1764445;47.130642699999996;7.2406204999999995;6.506000518798828;1673282238.336351;22.347488403320312;18.137184143066406;84.7208251953125
96;1673282238.3935435;47.130642699999996;7.2406204999999995;6.698000431060791;1673282238.5201383;22.440799713134766;17.652938842773438;84.75668334960938
97;1673282238.5842118;47.130642699999996;7.2406204999999995;6.89300012588501;1673282238.7175672;22.350610733032227;16.066761016845703;84.23133087158203
98;1673282238.7688723;47.130642599999995;7.2406204;7.088000297546387;1673282238.912926;22.32386016845703;18.16936683654785;84.84455108642578
99;1673282238.9769673;47.130642599999995;7.2406204;7.28000020980835;1673282239.1219983;22.298398971557617;17.325489044189453;84.65094757080078
100;1673282239.1830845;47.1306425;7.2406203;7.474000453948975;1673282239.3330073;22.30575180053711;15.813483238220215;84.21265411376953
101;1673282239.3971539;47.1306425;7.2406203;7.672000408172607;1673282239.5333562;22.364290237426758;17.776756286621094;84.67003631591797
102;1673282239.5907319;47.1306425;7.2406203;7.869000434875488;1673282239.7374434;22.18868064880371;17.806499481201172;84.83283233642578
103;1673282239.7955828;47.130642599999995;7.2406201999999995;8.068000793457031;1673282239.9563854;22.21260643005371;15.874186515808105;84.24091339111328
104;1673282240.0112476;47.130642599999995;7.2406201999999995;8.267000198364258;1673282240.1329484;22.37462043762207;18.0457706451416;84.66958618164062
105;1673282240.186208;47.130642599999995;7.2406201999999995;8.460000038146973;1673282240.3283305;22.446020126342773;17.927156448364258;84.76528930664062
106;1673282240.381581;47.130642599999995;7.2406201999999995;8.654000282287598;1673282240.5258434;22.18613624572754;16.08269691467285;84.4067153930664
107;1673282240.6064453;47.130642599999995;7.2406201999999995;8.850000381469727;1673282240.7466648;22.4112548828125;17.431570053100586;84.54898834228516
108;1673282240.7980988;47.130642599999995;7.2406201999999995;9.051000595092773;1673282240.9374914;22.31089973449707;18.448516845703125;84.84848022460938
109;1673282240.9946325;47.130642699999996;7.2406201999999995;9.25100040435791;1673282241.1393654;22.317331314086914;16.195711135864258;84.33639526367188
110;1673282241.187232;47.130642699999996;7.2406201999999995;9.45300006866455;1673282241.3578172;22.26961898803711;17.3494930267334;84.5607681274414
111;1673282241.4159484;47.1306428;7.2406201999999995;9.659000396728516;1673282241.55817;22.396915435791016;18.45819664001465;84.8347396850586
112;1673282241.6164114;47.130642699999996;7.2406201999999995;9.862000465393066;1673282241.7709184;22.448001861572266;16.224794387817383;84.49559783935547
113;1673282241.828256;47.130642699999996;7.2406203;10.066000938415527;1673282241.965303;22.473033905029297;15.741995811462402;84.29862976074219
114;1673282242.0267897;47.130642699999996;7.2406201999999995;10.3100004196167;1673282242.1733968;21.070659637451172;17.9877986907959;84.86813354492188
115;1673282242.2233663;47.130642599999995;7.240619799999999;10.679000854492188;1673282242.3537567;23.392414093017578;18.222087860107422;84.69140625
116;1673282242.410953;47.1306425;7.2406194;11.081000328063965;1673282242.5461535;21.07364273071289;16.70648193359375;84.30467224121094
117;1673282242.6023874;47.1306422;7.240619;11.483000755310059;1673282242.731091;21.021766662597656;17.511642456054688;84.96562957763672
118;1673282242.7833693;47.1306419;7.2406187;11.884000778198242;1673282242.9131267;20.440275192260742;15.301689147949219;84.50372314453125
119;1673282242.9670162;47.1306418;7.2406185;12.291000366210938;1673282243.1030247;20.36513900756836;15.198507308959961;84.4298095703125
120;1673282243.1586652;47.1306417;7.2406184;12.703001022338867;1673282243.298646;20.273014068603516;17.142822265625;84.81288146972656
121;1673282243.3555276;47.1306418;7.2406182999999995;13.11500072479248;1673282243.4964185;20.624128341674805;15.846055030822754;84.5349349975586
122;1673282243.5579913;47.1306419;7.2406184;13.529000282287598;1673282243.7008457;20.7945613861084;15.740767478942871;84.4244155883789
123;1673282243.7545705;47.130642099999996;7.2406185;13.941000938415527;1673282243.9019585;21.032398223876953;17.8515682220459;84.88714599609375
124;1673282243.9648345;47.1306422;7.2406185999999995;14.350000381469727;1673282244.1081038;21.295196533203125;16.922042846679688;84.5964126586914
125;1673282244.1682231;47.1306423;7.2406188;14.75100040435791;1673282244.3063977;21.463525772094727;16.03437042236328;84.30181121826172
126;1673282244.3620532;47.1306425;7.240618899999999;15.156001091003418;1673282244.5115173;21.635290145874023;18.642091751098633;84.84912872314453
127;1673282244.5745351;47.130642599999995;7.2406191;15.562000274658203;1673282244.7147124;21.819992065429688;17.29977035522461;84.53742980957031
128;1673282244.7738295;47.130642699999996;7.2406193;15.971000671386719;1673282244.9209468;22.1123046875;16.287696838378906;84.4021224975586
129;1673282244.9749687;47.130642699999996;7.2406194;16.380001068115234;1673282245.1240833;21.7912540435791;18.143146514892578;84.7681655883789
130;1673282245.1812382;47.130642699999996;7.240619499999999;16.784000396728516;1673282245.3185897;21.839494705200195;16.80217933654785;84.52598571777344
131;1673282245.377802;47.130642699999996;7.240619499999999;17.18000030517578;1673282245.5181315;21.70564079284668;15.992149353027344;84.23722076416016
132;1673282245.5741398;47.130642699999996;7.240619499999999;17.58100128173828;1673282245.7232113;21.66172218322754;18.325611114501953;84.77020263671875
133;1673282245.7816129;47.130642699999996;7.240619499999999;17.983001708984375;1673282245.9156644;21.67054557800293;16.845508575439453;84.55599212646484
134;1673282245.9761875;47.130642699999996;7.2406196;18.39000129699707;1673282246.1114652;21.517518997192383;16.18243408203125;84.38140869140625
135;1673282246.1708453;47.130642599999995;7.2406196;18.796001434326172;1673282246.315238;21.480926513671875;17.811275482177734;84.7483139038086
136;1673282246.375009;47.130642599999995;7.2406196;19.19900131225586;1673282246.5218852;21.398298263549805;16.85694694519043;84.54913330078125
137;1673282246.57819;47.130642599999995;7.2406196;19.601001739501953;1673282246.7157238;21.381818771362305;15.81865406036377;84.28849029541016
138;1673282246.7700193;47.1306425;7.2406196;19.996000289916992;1673282246.9108875;21.621511459350586;18.043302536010742;84.81502532958984
139;1673282246.9646168;47.1306425;7.2406197;20.394001007080078;1673282247.106512;21.359939575195312;16.73918342590332;84.51702880859375
140;1673282247.162219;47.1306425;7.2406197;20.79400062561035;1673282247.3008518;21.37154197692871;15.894002914428711;84.33655548095703
141;1673282247.3556168;47.1306425;7.2406197;21.196001052856445;1673282247.4989033;21.519739151000977;17.950002670288086;84.75570678710938
142;1673282247.5535953;47.1306425;7.2406197;21.599000930786133;1673282247.6934783;21.443073272705078;17.098438262939453;84.66964721679688
143;1673282247.7495048;47.130642599999995;7.2406197;21.999000549316406;1673282247.8955102;21.59844207763672;16.01523780822754;84.35127258300781
144;1673282247.9501655;47.1306425;7.240619799999999;22.393001556396484;1673282248.0928123;21.382078170776367;18.142316818237305;84.80191802978516
145;1673282248.1484416;47.130642599999995;7.240619799999999;22.793001174926758;1673282248.2911057;21.411218643188477;17.42078399658203;84.73892974853516
146;1673282248.3497612;47.1306425;7.240619799999999;23.19500160217285;1673282248.492403;21.54326057434082;15.792381286621094;84.31122589111328
147;1673282248.549222;47.1306425;7.240619799999999;23.600000381469727;1673282248.6908622;21.518638610839844;17.554683685302734;84.6532974243164
148;1673282248.7464921;47.1306425;7.240619799999999;24.005001068115234;1673282248.8869836;21.5612850189209;17.719762802124023;84.72152709960938
149;1673282248.9422388;47.1306425;7.2406198999999996;24.407001495361328;1673282249.0835383;21.561933517456055;15.79611587524414;84.37886810302734
150;1673282249.1412227;47.1306424;7.2406198999999996;24.810001373291016;1673282249.2809887;21.459779739379883;17.51350212097168;84.77318572998047
151;1673282249.3376052;47.1306424;7.2406198999999996;25.205001831054688;1673282249.4782434;21.464981079101562;17.14295196533203;84.67809295654297
152;1673282249.5338802;47.1306423;7.2406198999999996;25.604001998901367;1673282249.6765325;21.444908142089844;15.592132568359375;84.3751449584961
153;1673282249.732165;47.1306423;7.2406198999999996;26.006000518798828;1673282249.874945;21.472394943237305;17.546716690063477;84.62197875976562
154;1673282249.9315777;47.1306424;7.2406198999999996;26.411001205444336;1673282250.0726542;21.548978805541992;17.46866798400879;84.73098754882812
155;1673282250.1288342;47.1306425;7.2406198999999996;26.817001342773438;1673282250.2679956;21.33145523071289;16.20929527282715;84.28459167480469
156;1673282250.3261101;47.1306425;7.2406198999999996;27.22100067138672;1673282250.4662402;21.69105339050293;17.127561569213867;84.54845428466797
157;1673282250.525364;47.1306425;7.24062;27.61800193786621;1673282250.666542;21.491424560546875;17.924053192138672;84.70771026611328
158;1673282250.7246785;47.1306425;7.2406198999999996;28.019001007080078;1673282250.8678122;21.39333724975586;15.979028701782227;84.30192565917969
159;1673282250.9249783;47.1306425;7.24062;28.423002243041992;1673282251.065098;21.531728744506836;16.680843353271484;84.52320098876953
160;1673282251.1222353;47.1306425;7.24062;28.82900047302246;1673282251.2623506;21.442153930664062;18.274600982666016;84.81510925292969
161;1673282251.3175507;47.130642599999995;7.24062;29.23600196838379;1673282251.4596102;21.358776092529297;16.48039436340332;84.35653686523438
162;1673282251.5157864;47.130642599999995;7.24062;29.63800048828125;1673282251.6588695;21.405080795288086;16.724576950073242;84.46597290039062
163;1673282251.7158003;47.130642599999995;7.24062;30.03700065612793;1673282251.85962;21.40982437133789;18.161550521850586;84.8678970336914
164;1673282251.9143765;47.130642599999995;7.24062;30.428001403808594;1673282252.059607;21.536605834960938;16.341577529907227;84.5083236694336
165;1673282252.1158202;47.130642599999995;7.2406201;30.825000762939453;1673282252.2589893;21.49797248840332;16.138813018798828;84.35432434082031
166;1673282252.3172858;47.130642599999995;7.2406201;31.227001190185547;1673282252.4632003;21.61376190185547;18.255460739135742;84.8657455444336
167;1673282252.5193672;47.130642599999995;7.2406201;31.62900161743164;1673282252.663075;21.54155921936035;16.992340087890625;84.64421081542969
168;1673282252.7187686;47.130642699999996;7.2406201;32.02900314331055;1673282252.8628283;21.594249725341797;16.289709091186523;84.39173126220703
169;1673282252.9199986;47.130642699999996;7.2406201;32.427001953125;1673282253.0620928;21.522937774658203;17.738237380981445;84.64750671386719
170;1673282253.118267;47.130642599999995;7.2406201;32.81800079345703;1673282253.2662115;21.46340560913086;17.645986557006836;84.77288055419922
171;1673282253.3243306;47.130642599999995;7.24062;33.21600341796875;1673282253.4664447;21.55185890197754;15.795722007751465;84.36298370361328
172;1673282253.522622;47.130642599999995;7.24062;33.617000579833984;1673282253.6632745;21.475112915039062;17.199451446533203;84.59321594238281
173;1673282253.7199318;47.130642599999995;7.24062;34.02000045776367;1673282253.8631256;21.447010040283203;18.1798095703125;84.82412719726562
174;1673282253.9220357;47.130642699999996;7.2406198999999996;34.42399978637695;1673282254.062034;21.426837921142578;16.51646614074707;84.3680648803711
175;1673282254.118347;47.130642699999996;7.2406198999999996;34.8280029296875;1673282254.261325;21.462617874145508;16.697040557861328;84.4251480102539
176;1673282254.3210793;47.130642699999996;7.2406198999999996;35.22800064086914;1673282254.4638288;21.472442626953125;17.94921112060547;84.74842834472656
177;1673282254.5197806;47.130642599999995;7.2406198999999996;35.61600112915039;1673282254.668679;21.42588996887207;17.201045989990234;84.63721466064453
178;1673282254.7297623;47.130642599999995;7.2406198999999996;36.01000213623047;1673282254.8700218;21.402082443237305;15.782628059387207;84.3572998046875
179;1673282254.9291291;47.130642599999995;7.2406198999999996;36.40500259399414;1673282255.0714092;21.357402801513672;18.144283294677734;84.7475814819336
180;1673282255.1285636;47.130642599999995;7.2406198999999996;36.80400085449219;1673282255.270793;21.313695907592773;17.097389221191406;84.5497817993164
181;1673282255.3277469;47.130642599999995;7.240619799999999;37.20600128173828;1673282255.469297;21.189680099487305;16.183246612548828;84.2831039428711
182;1673282255.5255344;47.130642599999995;7.240619799999999;37.608001708984375;1673282255.6668234;21.276470184326172;17.86265754699707;84.73318481445312
183;1673282255.7249887;47.130642599999995;7.240619799999999;38.00300216674805;1673282255.8710175;21.213186264038086;17.241762161254883;84.67987823486328
184;1673282255.9283466;47.1306425;7.240619799999999;38.402000427246094;1673282256.070609;21.23455238342285;15.744590759277344;84.31793975830078
185;1673282256.1268265;47.1306425;7.240619799999999;38.80400085449219;1673282256.2679815;21.241104125976562;18.00676918029785;84.8019027709961
186;1673282256.3241498;47.130642599999995;7.240619799999999;39.20600128173828;1673282256.4652402;21.217853546142578;17.232547760009766;84.75439453125
187;1673282256.5292523;47.130642699999996;7.240619799999999;39.60700225830078;1673282256.6719162;21.230262756347656;16.43821144104004;84.42179107666016
188;1673282256.729514;47.130642699999996;7.240619799999999;40.00400161743164;1673282256.8706052;21.510480880737305;17.822298049926758;84.7169418334961
189;1673282256.9277449;47.130642699999996;7.240619799999999;40.40400314331055;1673282257.0825012;21.328155517578125;17.581974029541016;84.72672271728516
190;1673282257.1397433;47.130642699999996;7.240619799999999;40.79800033569336;1673282257.2872694;21.36800765991211;15.760529518127441;84.3153076171875
191;1673282257.3448532;47.130642599999995;7.240619799999999;41.19600296020508;1673282257.4876254;21.376873016357422;17.658082962036133;84.73310089111328
192;1673282257.5462215;47.130642599999995;7.240619799999999;41.60000228881836;1673282257.691589;21.41689109802246;17.60631561279297;84.67869567871094
193;1673282257.767869;47.130642699999996;7.240619799999999;42.00700378417969;1673282257.8920972;21.27086639404297;15.99726676940918;84.33270263671875
194;1673282257.9467525;47.130642599999995;7.240619799999999;42.413002014160156;1673282258.0923085;21.442626953125;17.50376319885254;84.65612030029297
195;1673282258.1479263;47.130642599999995;7.240619799999999;42.820003509521484;1673282258.2896426;21.28350257873535;17.69892692565918;84.7530746459961
196;1673282258.346256;47.130642599999995;7.240619799999999;43.2140007019043;1673282258.4869115;21.262508392333984;15.589591979980469;84.2984390258789
197;1673282258.5435233;47.130642599999995;7.240619799999999;43.61100387573242;1673282258.6871896;21.309492111206055;17.546653747558594;84.6357650756836
198;1673282258.7447743;47.130642599999995;7.240619799999999;44.01400375366211;1673282258.8903253;21.39019775390625;18.004777908325195;84.74344635009766
199;1673282258.948875;47.130642699999996;7.240619799999999;44.41400146484375;1673282259.0914834;21.34809684753418;16.22224998474121;84.38670349121094
200;1673282259.1480918;47.130642699999996;7.240619799999999;44.814002990722656;1673282259.2916906;21.37274169921875;17.650453567504883;84.67779541015625
201;1673282259.3473227;47.130642699999996;7.240619799999999;45.215003967285156;1673282259.487982;21.349178314208984;18.05361557006836;84.86687469482422
202;1673282259.5455663;47.1306428;7.240619799999999;45.6150016784668;1673282259.6892045;21.318185806274414;16.163721084594727;84.34545135498047
203;1673282259.7448328;47.130642699999996;7.240619799999999;46.009002685546875;1673282259.8884084;21.251977920532227;17.518667221069336;84.54925537109375
204;1673282259.9430907;47.1306428;7.240619799999999;46.40500259399414;1673282260.0915973;21.559255599975586;18.295473098754883;84.73456573486328
205;1673282260.1472232;47.130642699999996;7.2406198999999996;46.80500411987305;1673282260.2917936;21.367124557495117;16.261886596679688;84.36681365966797
206;1673282260.3493774;47.130642699999996;7.2406198999999996;47.207000732421875;1673282260.4900508;21.488075256347656;17.200212478637695;84.64732360839844
207;1673282260.545682;47.130642599999995;7.2406198999999996;47.608001708984375;1673282260.6922631;21.263368606567383;17.97919464111328;84.80580139160156
208;1673282260.7488515;47.130642599999995;7.2406198999999996;48.009002685546875;1673282260.894474;21.505279541015625;16.400741577148438;84.50830078125
209;1673282260.9501061;47.130642599999995;7.2406198999999996;48.3640022277832;1673282261.094788;21.492124557495117;17.898813247680664;84.7820816040039
210;1673282261.1528356;47.130642699999996;7.2406201;48.67000198364258;1673282261.2962735;21.693849563598633;18.075223922729492;84.80818176269531
211;1673282261.3549726;47.1306428;7.2406203;48.93100357055664;1673282261.5064642;22.00180435180664;16.727218627929688;84.42481994628906
212;1673282261.5747852;47.1306429;7.2406206;49.152000427246094;1673282261.7282007;22.6942138671875;17.98004722595215;84.67013549804688
213;1673282261.7848208;47.130643;7.2406209;49.33400344848633;1673282261.9254882;32.75045394897461;14.085114479064941;82.16065979003906
214;1673282261.9819741;47.130643199999994;7.240621;49.48400115966797;1673282262.1240768;27.271379470825195;15.687200546264648;73.10291290283203
215;1673282262.1819098;47.1306434;7.2406207;49.553001403808594;1673282262.3230639;23.869409561157227;14.806107521057129;60.94094467163086
216;1673282262.3799312;47.1306435;7.240620799999999;49.552001953125;1673282262.5219672;39.76991653442383;5.056267738342285;51.31361389160156
217;1673282262.5781012;47.1306431;7.240621;49.566001892089844;1673282262.7180097;38.01652526855469;-2.475673198699951;42.17720413208008
218;1673282262.778099;47.1306423;7.2406204;49.59700393676758;1673282262.930802;28.131589889526367;-5.37764310836792;33.72758483886719
219;1673282262.9926584;47.1306412;7.2406194;49.6400032043457;1673282263.1449034;31.104890823364258;-9.813313484191895;24.609079360961914
220;1673282263.2079856;47.130640199999995;7.2406184;49.682003021240234;1673282263.3481922;26.257795333862305;-13.403742790222168;15.656573295593262
221;1673282263.4039059;47.1306392;7.2406172;49.71900177001953;1673282263.5408;22.454986572265625;-17.75642204284668;6.2347731590271
222;1673282263.5960314;47.1306382;7.240615999999999;49.74400329589844;1673282263.738178;18.441118240356445;-21.334144592285156;-3.3443357944488525
223;1673282263.7929385;47.1306375;7.240615;49.77100372314453;1673282263.9339716;14.449100494384766;-24.124391555786133;-12.68798542022705
224;1673282263.9943123;47.1306369;7.2406142;49.79600143432617;1673282264.1371198;10.368402481079102;-25.750381469726562;-21.968564987182617
225;1673282264.1926882;47.1306365;7.2406136;49.81700134277344;1673282264.340243;5.690751552581787;-26.69924545288086;-31.219284057617188
226;1673282264.3989823;47.1306362;7.240613199999999;49.8380012512207;1673282264.5449617;0.7461457848548889;-26.492525100708008;-40.37515640258789
227;1673282264.604057;47.1306361;7.240613;49.86000061035156;1673282264.7500796;-3.951536178588867;-25.855188369750977;-49.442169189453125
228;1673282264.812118;47.1306361;7.2406128;49.88100051879883;1673282264.9503016;-6.131423473358154;-25.4366455078125;-52.51463317871094
229;1673282265.0074828;47.1306362;7.240612499999999;49.88800048828125;1673282265.1612988;-3.640080451965332;-28.242515563964844;-48.873878479003906
230;1673282265.2204602;47.1306365;7.2406123;49.906002044677734;1673282265.3703413;-1.0885961055755615;-30.46834945678711;-46.34737014770508
231;1673282265.4275298;47.1306368;7.240612199999999;49.92500305175781;1673282265.5725536;-0.005941410548985004;-30.974821090698242;-45.49946212768555
232;1673282265.6305983;47.1306371;7.2406121;49.94000244140625;1673282265.778936;0.4160125255584717;-30.18914031982422;-45.23007583618164
233;1673282265.8380377;47.1306373;7.240611899999999;49.954002380371094;1673282265.9840355;0.4174281060695648;-29.060415267944336;-45.18873977661133
234;1673282266.0392694;47.1306374;7.2406118;49.965003967285156;1673282266.179575;0.5175714492797852;-28.396848678588867;-45.095603942871094
235;1673282266.2408652;47.1306373;7.2406115;49.958003997802734;1673282266.3809192;0.7817009091377258;-28.652738571166992;-45.019657135009766
236;1673282266.439674;47.130637199999995;7.240611299999999;49.958003997802734;1673282266.5797782;1.1762504577636719;-30.35720443725586;-45.004783630371094
237;1673282266.6316943;47.1306371;7.240611299999999;49.9640007019043;1673282266.7709641;0.9263778924942017;-31.14198875427246;-44.90206527709961
238;1673282266.8262138;47.1306369;7.240611299999999;49.96800231933594;1673282266.9653761;-1.4165598154067993;-29.515209197998047;-44.944496154785156
239;1673282267.0198362;47.1306367;7.2406112;49.96800231933594;1673282267.1606376;-23.676103591918945;-26.90659523010254;-45.69114685058594
240;1673282267.2158875;47.1306368;7.240610599999999;49.97200393676758;1673282267.3556027;-41.70838928222656;-19.471792221069336;-47.22801208496094
241;1673282267.409657;47.130638;7.240608399999999;49.97500228881836;1673282267.5513213;-53.70789337158203;-14.033101081848145;-48.445133209228516
242;1673282267.6076174;47.130641399999995;7.2406036;49.967002868652344;1673282267.752546;-55.78833770751953;-10.85452651977539;-48.83849334716797
243;1673282267.8084154;47.1306474;7.2405959;49.95100402832031;1673282267.9484787;-53.548561096191406;-11.572541236877441;-49.65583419799805
244;1673282268.0061162;47.130655999999995;7.240585899999999;49.94300079345703;1673282268.1487885;-54.67198944091797;-13.036164283752441;-51.51639175415039
245;1673282268.20551;47.1306666;7.2405738;49.939002990722656;1673282268.3465734;-53.429447174072266;-12.918352127075195;-51.7734489440918
246;1673282268.4044046;47.1306788;7.2405598;49.926002502441406;1673282268.5447466;-52.34062194824219;-14.2719087600708;-51.23918151855469
247;1673282268.6023517;47.1306923;7.240544099999999;49.906002044677734;1673282268.7425473;-51.4790153503418;-12.811884880065918;-50.94742965698242
248;1673282268.8008885;47.1307068;7.2405269;49.87000274658203;1673282269.0714922;-47.85913848876953;-13.749407768249512;-50.99225997924805
249;1673282269.1347659;47.1307221;7.2405088;49.8380012512207;1673282269.2867196;-49.03219223022461;-12.902192115783691;-53.85541915893555
250;1673282269.3454156;47.1307379;7.2404899;49.81500244140625;1673282269.4973168;-46.72697448730469;-12.862608909606934;-53.56576156616211
251;1673282269.5575144;47.1307542;7.2404703999999995;49.7910041809082;1673282269.7124662;-46.5152702331543;-14.086971282958984;-52.764305114746094
252;1673282269.7728348;47.1307707;7.240450399999999;49.77800369262695;1673282269.9233572;-46.418907165527344;-15.513606071472168;-52.535133361816406
253;1673282269.9806108;47.130787399999996;7.24043;49.77000045776367;1673282270.1243255;-45.79981994628906;-16.368568420410156;-52.8623161315918
254;1673282270.1824253;47.1308041;7.240409199999999;49.762001037597656;1673282270.3233657;-46.00246047973633;-17.417516708374023;-52.843318939208984
255;1673282270.3789842;47.1308206;7.240387999999999;49.750003814697266;1673282270.5199764;-44.159053802490234;-18.769744873046875;-52.85198974609375
256;1673282270.5820591;47.130837;7.2403664;49.74400329589844;1673282270.7244384;-43.06525802612305;-22.071720123291016;-52.914344787597656
257;1673282270.775411;47.130853099999996;7.2403445;49.74700164794922;1673282270.8966572;-42.016136169433594;-28.029157638549805;-52.96918487548828
258;1673282270.9514294;47.1308685;7.2403222;49.762001037597656;1673282271.0815082;-40.655067443847656;-30.134803771972656;-54.385215759277344
259;1673282271.1333094;47.130883;7.240299599999999;49.775001525878906;1673282271.269269;-34.04433059692383;-35.81414794921875;-54.94314956665039
260;1673282271.3245962;47.130896299999996;7.2402767;49.77700424194336;1673282271.4633572;-10.097265243530273;-39.31071853637695;-58.958168029785156
261;1673282271.5187347;47.130907799999996;7.2402546;49.742000579833984;1673282271.6593275;10.185225486755371;-18.166561126708984;-59.53641891479492
262;1673282271.7155113;47.1309178;7.2402351;49.66400146484375;1673282271.8570287;19.094358444213867;-8.558077812194824;-48.32695770263672
263;1673282271.9127152;47.1309265;7.24022;49.621002197265625;1673282272.0549889;28.761350631713867;-4.434242248535156;-47.47847366333008
264;1673282272.112182;47.130933999999996;7.2402101;49.61000061035156;1673282272.2544963;36.99458694458008;-8.421147346496582;-46.72163009643555
265;1673282272.3111658;47.1309401;7.2402057;49.64600372314453;1673282272.4653444;45.96470642089844;-14.250163078308105;-47.27893829345703
266;1673282272.5244398;47.130944199999995;7.2402064;49.70100402832031;1673282272.6607049;43.942996978759766;-15.769792556762695;-46.18120193481445
267;1673282272.716917;47.130946099999996;7.2402115;49.74800109863281;1673282272.8583326;45.755496978759766;-23.45917320251465;-46.052040100097656
268;1673282272.9140222;47.1309457;7.240220099999999;49.807003021240234;1673282273.0591319;47.583465576171875;-30.68625831604004;-45.03101348876953
269;1673282273.1160758;47.1309427;7.2402311;49.880001068115234;1673282273.2632513;46.0589485168457;-32.75966262817383;-45.77804946899414
270;1673282273.3195763;47.1309373;7.2402434;49.94400405883789;1673282273.4597173;44.03985595703125;-31.852230072021484;-47.0931510925293
271;1673282273.5155416;47.1309299;7.2402565999999995;49.992000579833984;1673282273.6553907;46.708229064941406;-28.320463180541992;-48.312965393066406
272;1673282273.7111404;47.130921;7.240270799999999;50.022003173828125;1673282273.8512778;46.635284423828125;-21.244895935058594;-48.818214416503906
273;1673282273.908171;47.130910799999995;7.2402865;50.03700256347656;1673282274.059212;42.327396392822266;-8.16085433959961;-48.29502868652344
274;1673282274.1212661;47.1309002;7.240303399999999;49.93700408935547;1673282274.267373;24.202547073364258;20.916784286499023;-51.06536102294922
275;1673282274.3275785;47.1308898;7.240320499999999;49.48200225830078;1673282274.4690323;0.45095932483673096;60.2456169128418;-70.12738037109375
276;1673282274.5350676;47.1308795;7.2403375;48.634002685546875;1673282274.6957626;-6.428802490234375;106.96449279785156;-105.3559799194336
277;1673282274.7605474;47.130869;7.240354399999999;47.40700149536133;1673282274.901682;5.842360019683838;134.1189422607422;-134.3404541015625
278;1673282274.9543946;47.1308587;7.2403713;45.8280029296875;1673282275.101908;15.825702667236328;133.1554718017578;-152.91481018066406
279;1673282275.1546118;47.1308487;7.2403882;43.88200378417969;1673282275.297238;18.771385192871094;108.27526092529297;-163.0433807373047
280;1673282275.352082;47.130838999999995;7.2404049;41.57500076293945;1673282275.5018306;15.821518898010254;58.25880432128906;-163.73280334472656
281;1673282275.561678;47.1308297;7.2404217;38.90700149536133;1673282275.7174747;19.207735061645508;-8.507266998291016;-153.9212188720703
282;1673282275.7692182;47.1308204;7.2404388;35.845001220703125;1673282275.9053829;35.90602111816406;-63.29930114746094;-155.91624450683594
283;1673282275.9553022;47.1308113;7.2404557;32.39400100708008;1673282276.1174452;45.540794372558594;-84.15217590332031;-165.20184326171875
284;1673282276.167255;47.130802599999996;7.2404722999999995;28.610000610351562;1673282276.3099024;48.31343078613281;-53.82461929321289;-159.93397521972656
285;1673282276.374311;47.1307942;7.2404889;24.50200080871582;1673282276.502549;35.87282943725586;16.69080352783203;-147.57691955566406
286;1673282276.5572522;47.1307858;7.2405048999999995;20.033000946044922;1673282276.6896899;14.01248550415039;72.3508071899414;-157.5265655517578
287;1673282276.7609363;47.1307774;7.2405211;15.178000450134277;1673282276.9056442;2.0870206356048584;85.88935089111328;-173.14205932617188
288;1673282276.959324;47.130769;7.2405377;10.011000633239746;1673282277.1039274;-6.424019813537598;50.532894134521484;-172.25233459472656
289;1673282277.1624856;47.130761;7.2405547;4.539000034332275;1673282277.3090408;6.478689193725586;-17.423715591430664;-155.53173828125
290;1673282277.3636913;47.1307554;7.2405702;0.23200000822544098;1673282277.5084057;6.657830715179443;-4.618133068084717;-148.82553100585938
291;1673282277.5630684;47.1307565;7.2405814;0.5;1673282277.7018254;5.1166229248046875;-1.5925260782241821;-148.80923461914062
292;1673282277.7584152;47.130757599999995;7.240594199999999;0.5980000495910645;1673282277.9000654;5.717900276184082;-4.081177711486816;-149.49278259277344
293;1673282277.956673;47.1307589;7.2406073;0.6770000457763672;1673282278.0973291;5.767699241638184;-4.2110466957092285;-149.79139709472656
294;1673282278.160768;47.1307604;7.240620799999999;0.7590000629425049;1673282278.3104236;5.779331684112549;-3.9089767932891846;-150.14016723632812
295;1673282278.3661602;47.130761899999996;7.2406327;0.8160000443458557;1673282278.5059388;5.619128227233887;-3.595433473587036;-150.52830505371094
296;1673282278.5761414;47.1307633;7.240642599999999;0.8550000190734863;1673282278.7061226;5.494654655456543;-3.2714688777923584;-150.91488647460938
297;1673282278.7627275;47.1307646;7.2406507;0.8830000162124634;1673282278.9076502;5.378514766693115;-3.0860395431518555;-151.25531005859375
298;1673282278.968154;47.1307664;7.2406606;0.8980000615119934;1673282279.1098723;5.3686604499816895;-2.8575448989868164;-151.5833740234375
299;1673282279.168422;47.130768599999996;7.2406729;0.9030000567436218;1673282279.317145;5.373128890991211;-2.716653347015381;-151.8763427734375
300;1673282279.3866174;47.1307712;7.2406866;0.9240000247955322;1673282279.5320723;5.34246826171875;-2.7535107135772705;-152.1251678466797
301;1673282279.5799975;47.130773999999995;7.2407014;0.9320000410079956;1673282279.7114549;5.341001510620117;-2.695112466812134;-152.39599609375
302;1673282279.7749078;47.130777099999996;7.2407169;0.9280000329017639;1673282279.9214294;5.2935919761657715;-2.7079718112945557;-152.62728881835938
303;1673282279.9790213;47.1307804;7.240733;0.9200000166893005;1673282280.1068375;5.289322853088379;-2.786513090133667;-152.82650756835938
304;1673282280.1574624;47.1307839;7.2407496;0.909000039100647;1673282280.2987545;5.2912278175354;-2.8627564907073975;-153.02987670898438
305;1673282280.3626626;47.1307876;7.2407667;0.893000066280365;1673282280.5266917;5.276552677154541;-2.9740333557128906;-153.2078399658203
306;1673282280.586817;47.1307915;7.2407844;0.8750000596046448;1673282280.7306266;5.196644306182861;-3.0892865657806396;-153.36788940429688
307;1673282280.7976847;47.1307956;7.2408024;0.8680000305175781;1673282280.9366167;5.132776737213135;-3.1699111461639404;-153.50131225585938
308;1673282280.9887452;47.1307998;7.2408209;0.8530000448226929;1673282281.1357052;5.145391464233398;-3.410799264907837;-153.58493041992188
309;1673282281.1886883;47.1308042;7.2408399;0.8290000557899475;1673282281.322607;5.178483009338379;-3.6390156745910645;-153.60214233398438
310;1673282281.3716576;47.1308088;7.2408594;0.8020000457763672;1673282281.502005;5.146788597106934;-3.7709476947784424;-153.6168212890625
311;1673282281.562779;47.130813599999996;7.2408793;0.7750000357627869;1673282281.7177253;5.107625484466553;-3.8390262126922607;-153.63111877441406
312;1673282281.7847445;47.1308186;7.2408996;0.7470000386238098;1673282281.9286976;5.060013294219971;-3.852999687194824;-153.62306213378906
313;1673282281.9800842;47.1308237;7.240920399999999;0.7230000495910645;1673282282.1318634;5.061662673950195;-3.832812547683716;-153.65074157714844
314;1673282282.187247;47.130829;7.2409415;0.6930000185966492;1673282282.322505;5.073367118835449;-3.8179633617401123;-153.69866943359375
315;1673282282.3758852;47.1308344;7.2409631;0.6640000343322754;1673282282.5062616;5.046205043792725;-3.7816953659057617;-153.71571350097656
316;1673282282.566825;47.13084;7.2409851;0.6350000500679016;1673282282.71377;5.027847766876221;-3.75848126411438;-153.7305450439453
317;1673282282.7737224;47.130845799999996;7.2410076;0.6020000576972961;1673282282.91896;5.018535137176514;-3.726482391357422;-153.7730712890625
318;1673282282.9698257;47.130851799999995;7.2410304;0.5680000185966492;1673282283.1148806;5.003482341766357;-3.691903591156006;-153.8069305419922
319;1673282283.167361;47.130857899999995;7.241053699999999;0.5350000262260437;1673282283.3136945;5.019182205200195;-3.6624937057495117;-153.8210906982422
320;1673282283.3698354;47.1308641;7.2410773;0.5020000338554382;1673282283.5137694;4.976259231567383;-3.65571928024292;-153.84629821777344
321;1673282283.568819;47.1308705;7.2411014;0.46800002455711365;1673282283.7129872;4.929984092712402;-3.653236150741577;-153.8699493408203
322;1673282283.775806;47.1308724;7.241108199999999;0.43700000643730164;1673282283.9191155;4.922305107116699;-3.6629867553710938;-153.86241149902344
323;;;;;1673282284.1328433;4.83803129196167;-3.256941795349121;-153.85035705566406
324;;;;;1673282284.3217359;4.798261642456055;-3.132418155670166;-153.85585021972656
325;;;;;1673282284.5169597;4.839900493621826;-3.021014928817749;-153.86544799804688
326;;;;;1673282284.709645;4.821231842041016;-2.9261269569396973;-153.87022399902344
327;;;;;1673282284.9060473;4.829936504364014;-2.8306808471679688;-153.88201904296875
328;;;;;1673282285.103651;4.824319839477539;-2.756105661392212;-153.8684844970703
