;pos_time;latitude;longitude;altitude;alt_time;pitch;roll;yaw
0;1673284456.5459878;47.1306424;7.2406197;-0.007000000216066837;1673284456.7333603;-0.40357980132102966;-0.1806100755929947;90.29264068603516
1;1673284456.7569618;47.1306424;7.2406198999999996;-0.007000000216066837;1673284456.9616065;-0.3057468831539154;-0.16039925813674927;90.16412353515625
2;1673284456.98532;47.1306425;7.2406198999999996;-0.006000000052154064;1673284457.1533144;-0.23401983082294464;-0.38980960845947266;90.44114685058594
3;1673284457.1660068;47.1306425;7.2406198999999996;-0.006000000052154064;1673284457.3606126;-0.009050000458955765;-0.21380959451198578;90.37602996826172
4;1673284457.3733094;47.1306425;7.240619799999999;-0.004000000189989805;1673284457.526265;-0.43034827709198;-0.20851381123065948;90.24227905273438
5;1673284457.539925;47.1306425;7.240619799999999;0.0;1673284457.713109;-0.43868526816368103;-0.3674027621746063;90.47638702392578
6;1673284457.7279756;47.1306425;7.240619799999999;0.005000000353902578;1673284457.8928723;-0.1262837052345276;-0.1574879288673401;90.3777084350586
7;1673284457.9084878;47.1306425;7.240619799999999;0.005000000353902578;1673284458.0833032;-0.11641152203083038;-0.3398875296115875;90.2535629272461
8;1673284458.101405;47.1306425;7.2406197;0.004000000189989805;1673284458.2901928;-0.1870751678943634;-0.24598360061645508;90.37582397460938
9;1673284458.3048692;47.1306424;7.240619799999999;0.003000000026077032;1673284458.483893;-0.20049554109573364;-0.21363185346126556;90.3795166015625
10;1673284458.4995415;47.1306424;7.240619799999999;0.003000000026077032;1673284458.6793914;-0.37364792823791504;-0.3521544337272644;90.47767639160156
11;1673284458.6950788;47.1306424;7.2406198999999996;0.0;1673284458.8643136;-0.35872167348861694;-0.06013944000005722;90.30111694335938
12;1673284458.8801217;47.1306425;7.24062;-0.0020000000949949026;1673284459.0648324;-0.32500791549682617;-0.30448105931282043;90.26073455810547
13;1673284459.0814507;47.1306425;7.2406198999999996;-0.005000000353902578;1673284459.2638574;-0.36256149411201477;-0.19647037982940674;90.28826904296875
14;1673284459.280459;47.1306425;7.2406198999999996;-0.00800000037997961;1673284459.4703538;-0.17836344242095947;-0.35027816891670227;90.30175018310547
15;1673284459.4889932;47.1306425;7.2406198999999996;-0.0010000000474974513;1673284459.6952026;-0.25425881147384644;-0.5748554468154907;90.29342651367188
16;1673284459.7245624;47.1306425;7.24062;-0.005000000353902578;1673284459.885393;-0.5113100409507751;-0.5467055439949036;90.43196868896484
17;1673284459.9031594;47.1306425;7.2406201;-0.004000000189989805;1673284460.0639873;-0.17233061790466309;-0.5109931230545044;90.350341796875
18;1673284460.0854518;47.1306425;7.2406201;-0.004000000189989805;1673284460.2826364;-0.18958181142807007;-0.5400485396385193;90.36140441894531
19;1673284460.300424;47.1306425;7.24062;0.0;1673284460.4821808;-0.37952739000320435;-0.5487244129180908;90.37981414794922
20;1673284460.4963815;47.130642599999995;7.24062;0.0020000000949949026;1673284460.6624508;-0.3867108225822449;-0.5142661929130554;90.38558959960938
21;1673284460.6855114;47.130642599999995;7.2406201;0.0020000000949949026;1673284460.8746054;-0.236641526222229;-0.6806243062019348;90.42897033691406
22;1673284460.893542;47.130642599999995;7.2406201;0.0;1673284461.0744205;-0.3754747807979584;-0.628999650478363;90.38135528564453
23;1673284461.0913253;47.130642599999995;7.24062;0.0;1673284461.2776427;-0.06517250090837479;-0.6982996463775635;90.46968078613281
24;1673284461.293482;47.1306425;7.2406198999999996;0.0;1673284461.4854872;0.05516514927148819;-0.6657909750938416;90.48458862304688
25;1673284461.5013309;47.1306425;7.240619799999999;-0.0010000000474974513;1673284461.6724906;0.014959421008825302;-0.5858588218688965;90.24553680419922
26;1673284461.687319;47.1306425;7.240619799999999;-0.0010000000474974513;1673284461.8845105;0.2202640175819397;-0.5324815511703491;90.58552551269531
27;1673284461.901217;47.1306425;7.240619799999999;-0.003000000026077032;1673284462.0893512;0.2017352133989334;-0.40133917331695557;90.43250274658203
28;1673284462.1036339;47.1306425;7.240619799999999;-0.007000000216066837;1673284462.2636154;0.1200791597366333;-0.7424330115318298;90.5762939453125
29;1673284462.2776709;47.1306425;7.240619799999999;-0.013000000268220901;1673284462.4745612;0.05158748850226402;-0.5168682336807251;90.71040344238281
30;1673284462.490282;47.1306425;7.240619799999999;-0.017000000923871994;1673284462.6783593;0.16105306148529053;-0.5763248801231384;90.46328735351562
31;1673284462.6944637;47.1306425;7.240619799999999;-0.012000000104308128;1673284462.874539;-0.0831638053059578;-0.3647926151752472;89.78585815429688
32;1673284462.8894582;47.130642599999995;7.2406197;-0.01100000087171793;1673284463.0653527;-0.3655451536178589;0.0018178275786340237;87.78052520751953
33;1673284463.080447;47.130642699999996;7.2406196;-0.012000000104308128;1673284463.2733274;-1.914844036102295;3.06388258934021;88.684814453125
34;1673284463.2915401;47.1306429;7.2406194;-0.0020000000949949026;1673284463.4645243;-7.0168962478637695;7.317573070526123;89.1998519897461
35;1673284463.4855354;47.130643;7.240619199999999;0.018000001087784767;1673284463.6855145;-9.179634094238281;5.71804141998291;89.42538452148438
36;1673284463.700505;47.1306431;7.240619;0.05900000408291817;1673284463.884938;-7.974201679229736;8.504523277282715;88.46266174316406
37;1673284463.9022446;47.1306431;7.240619;0.12000000476837158;1673284464.0765502;-7.152955532073975;8.888855934143066;88.04923248291016
38;1673284464.0924325;47.1306431;7.240619;0.19500000774860382;1673284464.2940235;-7.186138153076172;4.685256004333496;88.38208770751953
39;1673284464.3155277;47.130643;7.2406191;0.2800000011920929;1673284464.50805;-6.802202224731445;7.848179817199707;87.72795867919922
40;1673284464.52659;47.1306429;7.2406193;0.37700000405311584;1673284464.7081795;-6.282520294189453;9.211453437805176;87.25973510742188
41;1673284464.7257872;47.130642699999996;7.240619499999999;0.4910000264644623;1673284464.8829832;-6.354740142822266;3.7689085006713867;87.79782104492188
42;1673284464.8995874;47.1306425;7.2406196;0.6220000386238098;1673284465.0805376;-6.402369022369385;5.620439529418945;87.31649017333984
43;1673284465.0987592;47.1306423;7.2406197;0.7680000066757202;1673284465.2772937;-6.374722957611084;8.758749961853027;86.88361358642578
44;1673284465.2928977;47.1306422;7.240619799999999;0.9310000538825989;1673284465.4793243;-6.281920909881592;4.438938140869141;87.51092529296875
45;1673284465.4952304;47.1306422;7.2406198999999996;1.1019999980926514;1673284465.6922874;-6.406747341156006;5.119287967681885;87.53218078613281
46;1673284465.7092826;47.1306422;7.2406198999999996;1.2820000648498535;1673284465.8917196;-5.994844436645508;9.446160316467285;86.91122436523438
47;1673284465.909368;47.1306422;7.2406198999999996;1.471000075340271;1673284466.0878992;-6.183619022369385;5.439559459686279;87.45985412597656
48;1673284466.10258;47.130642099999996;7.2406198999999996;1.6660001277923584;1673284466.283632;-6.30165433883667;4.180373191833496;87.41650390625
49;1673284466.2992628;47.130642099999996;7.240619799999999;1.8620001077651978;1673284466.4900832;-6.647397518157959;9.02505874633789;86.62953186035156
50;1673284466.508787;47.130642099999996;7.240619799999999;2.063000202178955;1673284466.6952028;-6.818530082702637;7.040807247161865;86.70376586914062
51;1673284466.713865;47.1306422;7.2406197;2.26200008392334;1673284466.9038167;-6.897981643676758;4.228935241699219;87.08148956298828
52;1673284466.9223974;47.1306422;7.2406197;2.455000162124634;1673284467.0842333;-6.5682830810546875;8.814870834350586;86.57209777832031
53;1673284467.1009822;47.1306423;7.240619799999999;2.6490001678466797;1673284467.288162;-6.315186977386475;8.600337982177734;86.66366577148438
54;1673284467.306711;47.1306422;7.240619799999999;2.8520002365112305;1673284467.4899368;-6.257656097412109;3.4274187088012695;87.16343688964844
55;1673284467.509668;47.1306422;7.240619799999999;3.0510001182556152;1673284467.698854;-6.834593772888184;6.436163902282715;86.84896087646484
56;1673284467.718416;47.1306422;7.240619799999999;3.252000093460083;1673284467.9061544;-6.7603936195373535;9.226065635681152;86.6714859008789
57;1673284467.9227908;47.1306424;7.240619799999999;3.4580001831054688;1673284468.091752;-6.828165054321289;4.852878570556641;87.32986450195312
58;1673284468.1045103;47.1306425;7.2406198999999996;3.6630001068115234;1673284468.2784162;-6.735280990600586;7.2709150314331055;87.06521606445312
59;1673284468.296107;47.130642599999995;7.24062;3.8610002994537354;1673284468.4803936;-6.265712261199951;9.731266021728516;86.78105163574219
60;1673284468.4950325;47.130642599999995;7.2406201;4.062000274658203;1673284468.6749752;-6.08329963684082;4.953117847442627;87.12962341308594
61;1673284468.692531;47.1306425;7.2406201;4.264000415802002;1673284468.889337;-6.536088466644287;4.828956127166748;87.04226684570312
62;1673284468.9063132;47.1306424;7.2406201999999995;4.466000080108643;1673284469.0913744;-6.288876056671143;10.13805866241455;86.5599594116211
63;1673284469.1070013;47.1306425;7.2406201999999995;4.669000148773193;1673284469.297464;-6.1244635581970215;6.260151386260986;87.02974700927734
64;1673284469.3147416;47.130642599999995;7.2406201999999995;4.872000217437744;1673284469.5010824;-6.509236812591553;4.827587604522705;87.04283142089844
65;1673284469.5178423;47.130642599999995;7.2406201999999995;5.077000141143799;1673284469.695639;-6.431308269500732;9.236083030700684;86.39529418945312
66;1673284469.7112577;47.130642599999995;7.2406203;5.276000022888184;1673284469.8802168;-6.343964099884033;7.168781757354736;86.67778778076172
67;1673284469.8949926;47.1306425;7.2406203;5.478000164031982;1673284470.0844421;-6.427813529968262;4.010362148284912;87.09281158447266
68;1673284470.1010497;47.1306424;7.2406203;5.681000232696533;1673284470.2969654;-6.341608047485352;9.221198081970215;86.67333221435547
69;1673284470.3145437;47.1306425;7.2406203;5.885000228881836;1673284470.4878933;-6.082879543304443;8.09457778930664;86.89328002929688
70;1673284470.506548;47.130642599999995;7.2406203;6.089000225067139;1673284470.692182;-6.4664812088012695;4.596382141113281;87.25066375732422
71;1673284470.708916;47.130642699999996;7.2406203;6.293000221252441;1673284470.8874874;-6.641018390655518;8.18805980682373;86.73278045654297
72;1673284470.9031007;47.130642699999996;7.2406203;6.492000102996826;1673284471.089728;-6.623167514801025;9.44473648071289;86.6541748046875
73;1673284471.105347;47.130642699999996;7.2406203;6.688000202178955;1673284471.2891126;-6.663721084594727;4.31558084487915;87.36416625976562
74;1673284471.3058586;47.130642599999995;7.2406201999999995;6.885000228881836;1673284471.4893568;-6.813803672790527;6.984262466430664;86.97927856445312
75;1673284471.507604;47.130642599999995;7.2406201999999995;7.083000183105469;1673284471.693507;-6.502579212188721;9.503069877624512;86.68917846679688
76;1673284471.710266;47.130642699999996;7.2406201999999995;7.282000541687012;1673284471.8902423;-6.583714962005615;4.857628345489502;87.24798583984375
77;1673284471.9087899;47.130642699999996;7.2406201999999995;7.484000205993652;1673284472.0899205;-6.795511722564697;6.306711673736572;87.04936218261719
78;1673284472.109558;47.130642599999995;7.2406201999999995;7.684000492095947;1673284472.292472;-6.662066459655762;9.363557815551758;86.60289764404297
79;1673284472.3130486;47.1306425;7.2406201;7.881000518798828;1673284472.487106;-6.668797969818115;4.689908027648926;87.18522644042969
80;1673284472.5027294;47.1306424;7.2406201999999995;8.07800006866455;1673284472.6755927;-6.810861110687256;5.297997951507568;87.00363159179688
81;1673284472.6962583;47.1306425;7.2406201999999995;8.273000717163086;1673284472.8927672;-6.606472969055176;9.861940383911133;86.3360824584961
82;1673284472.9113185;47.130642599999995;7.2406201999999995;8.473000526428223;1673284473.101244;-6.461961269378662;6.712687969207764;86.82691955566406
83;1673284473.1213102;47.1306428;7.2406201999999995;8.671000480651855;1673284473.3122077;-6.573512077331543;5.20253849029541;87.14314270019531
84;1673284473.3290257;47.1306428;7.2406201999999995;8.866000175476074;1673284473.5041685;-6.642303943634033;9.448424339294434;86.51872253417969
85;1673284473.5208085;47.1306428;7.2406201999999995;9.062000274658203;1673284473.680307;-6.624483585357666;7.249836444854736;86.8599624633789
86;1673284473.6959248;47.130642699999996;7.2406201999999995;9.256999969482422;1673284473.8914654;-6.895168781280518;4.32511043548584;87.22576904296875
87;1673284473.906815;47.130642699999996;7.2406201999999995;9.452000617980957;1673284474.1019936;-6.8431549072265625;9.537097930908203;86.70474243164062
88;1673284474.1196485;47.1306428;7.2406201999999995;9.648000717163086;1673284474.3031838;-6.523462295532227;8.181245803833008;86.8666000366211
89;1673284474.319815;47.1306429;7.2406203;9.848000526428223;1673284474.5085669;-6.618924140930176;4.766388893127441;87.31249237060547
90;1673284474.52422;47.130643;7.2406204;10.046000480651855;1673284474.6920924;-6.415396213531494;8.203060150146484;86.9023208618164
91;1673284474.7072923;47.130643;7.2406204;10.26400089263916;1673284474.8856034;-6.925264358520508;10.20840835571289;86.48882293701172
92;1673284474.9002786;47.1306428;7.2406204999999995;10.575000762939453;1673284475.0890841;-7.314700126647949;5.60084342956543;87.25825500488281
93;1673284475.1047914;47.130642599999995;7.2406207;10.943000793457031;1673284475.296157;-6.784444808959961;5.831149101257324;87.11983489990234
94;1673284475.3147395;47.1306424;7.2406209;11.332000732421875;1673284475.556481;-6.002747058868408;9.134439468383789;86.560791015625
95;1673284475.570199;47.1306424;7.240621099999999;11.72700023651123;1673284475.776805;-5.451132297515869;5.489531993865967;86.9283218383789
96;1673284475.7914438;47.1306424;7.2406213;12.128000259399414;1673284475.9550316;-5.5821075439453125;4.460556983947754;87.28242492675781
97;1673284475.9706438;47.1306423;7.240621399999999;12.52500057220459;1673284476.1623452;-5.566245079040527;8.568472862243652;86.74019622802734
98;1673284476.1750338;47.1306422;7.2406213;12.921000480651855;1673284476.342523;-5.764244556427002;5.841577529907227;86.88858032226562
99;1673284476.3593419;47.130642099999996;7.2406212;13.317000389099121;1673284476.5339894;-6.086383819580078;3.7749624252319336;87.06816864013672
100;1673284476.550556;47.130642099999996;7.240621099999999;13.720000267028809;1673284476.721668;-6.3382978439331055;8.9208402633667;86.69144439697266
101;1673284476.7412317;47.1306423;7.240621;14.123001098632812;1673284476.9096448;-6.353410243988037;7.621139049530029;86.8929672241211
102;1673284476.9327483;47.1306424;7.240620799999999;14.52500057220459;1673284477.1646414;-6.6590752601623535;4.512369155883789;87.26763153076172
103;1673284477.1803296;47.1306425;7.2406207;14.92500114440918;1673284477.3582313;-6.613856315612793;7.9120402336120605;86.72804260253906
104;1673284477.3728704;47.1306425;7.2406207;15.322000503540039;1673284477.5400877;-6.437133312225342;9.063924789428711;86.56145477294922
105;1673284477.5542912;47.1306425;7.2406206;15.712000846862793;1673284477.713802;-6.445846080780029;4.256197929382324;87.13533020019531
106;1673284477.7343688;47.1306424;7.2406206;16.108001708984375;1673284477.9646006;-6.571177959442139;7.260580539703369;87.02115631103516
107;1673284477.9821687;47.1306425;7.2406204999999995;16.50800132751465;1673284478.1544917;-6.286306858062744;9.596303939819336;86.75326538085938
108;1673284478.1708598;47.130642599999995;7.2406204999999995;16.9060001373291;1673284478.3564503;-6.316309928894043;5.177712917327881;87.0719223022461
109;1673284478.3691335;47.130642599999995;7.2406204999999995;17.299001693725586;1673284478.5384183;-6.802726745605469;5.921913146972656;86.89250946044922
110;1673284478.5725906;47.130642599999995;7.2406204999999995;17.69700050354004;1673284478.7722602;-6.413771152496338;9.430374145507812;86.56002807617188
111;1673284478.7870014;47.1306425;7.2406204999999995;18.088001251220703;1673284478.9499547;-6.263356685638428;5.176112651824951;87.11308288574219
112;1673284478.9706242;47.1306424;7.2406204999999995;18.48400115966797;1673284479.1448584;-6.2942891120910645;4.66201639175415;87.1988525390625
113;1673284479.16581;47.1306424;7.2406206;18.881999969482422;1673284479.3213527;-6.050481796264648;9.690799713134766;86.68641662597656
114;1673284479.3365626;47.1306425;7.2406206;19.279001235961914;1673284479.4968712;-6.04809045791626;6.8485894203186035;86.78578186035156
115;1673284479.5124876;47.130642699999996;7.2406204999999995;19.676000595092773;1673284479.6939583;-6.387857437133789;4.916214466094971;87.10358428955078
116;1673284479.708593;47.130642699999996;7.2406204999999995;20.066001892089844;1673284479.9047587;-6.315548419952393;8.876401901245117;86.55555725097656
117;1673284479.9213595;47.130642699999996;7.2406204999999995;20.457000732421875;1673284480.0880876;-6.193815231323242;8.17713451385498;86.78585052490234
118;1673284480.105089;47.130642699999996;7.2406204;20.84200096130371;1673284480.284538;-6.417434215545654;4.291476249694824;87.25807189941406
119;1673284480.3020895;47.130642699999996;7.2406204;21.23400115966797;1673284480.5017076;-6.697429656982422;8.327728271484375;86.73773193359375
120;1673284480.522304;47.130642699999996;7.2406203;21.630001068115234;1673284480.7144256;-6.290987491607666;9.341521263122559;86.60436248779297
121;1673284480.7310576;47.1306428;7.2406203;22.022001266479492;1673284480.9157054;-6.510936260223389;4.712400913238525;87.09033203125
122;1673284480.9313326;47.1306429;7.2406201999999995;22.416000366210938;1673284481.102989;-6.643057346343994;7.052243232727051;87.04088592529297
123;1673284481.1215296;47.1306428;7.2406201999999995;22.81100082397461;1673284481.2923782;-6.322409152984619;9.311713218688965;86.73332214355469
124;1673284481.3099418;47.130642699999996;7.2406201;23.200000762939453;1673284481.4905703;-6.516054630279541;4.634669780731201;87.11328125
125;1673284481.5052102;47.130642599999995;7.2406201;23.593000411987305;1673284481.6916285;-6.959092617034912;5.873905658721924;86.83421325683594
126;1673284481.7082076;47.130642599999995;7.2406201;23.992000579833984;1673284481.8828654;-6.525640487670898;9.631023406982422;86.46784973144531
127;1673284481.9005964;47.130642699999996;7.2406201;24.386001586914062;1673284482.0891562;-6.478842258453369;6.253592491149902;87.07962036132812
128;1673284482.1047733;47.1306428;7.2406201;24.781002044677734;1673284482.2881222;-6.540947437286377;5.513413906097412;87.31746673583984
129;1673284482.3056898;47.1306428;7.2406201999999995;25.172000885009766;1673284482.4838817;-6.0515828132629395;10.148923873901367;86.69277954101562
130;1673284482.504533;47.1306429;7.2406201999999995;25.566001892089844;1673284482.692203;-5.9521379470825195;6.647174835205078;86.87232971191406
131;1673284482.7059016;47.1306429;7.2406201999999995;25.957000732421875;1673284482.8891075;-6.448159694671631;5.2217183113098145;87.06623840332031
132;1673284482.9049964;47.1306429;7.2406201999999995;26.354001998901367;1673284483.1022024;-6.4862799644470215;9.824841499328613;86.51908874511719
133;1673284483.1188557;47.130643;7.2406201999999995;26.75200080871582;1673284483.2991009;-6.407402038574219;8.7177734375;86.69097137451172
134;1673284483.315674;47.130643;7.2406201;27.152000427246094;1673284483.5043893;-6.672370910644531;4.983066558837891;87.35899353027344
135;1673284483.523918;47.1306429;7.24062;27.554000854492188;1673284483.731857;-6.428710460662842;7.975286960601807;86.86186218261719
136;1673284483.7465436;47.1306428;7.24062;27.948001861572266;1673284483.9577854;-6.280709743499756;9.167543411254883;86.60575866699219
137;1673284483.9724185;47.130642699999996;7.24062;28.334001541137695;1673284484.2452705;-6.279017448425293;4.1789751052856445;87.14739227294922
138;1673284484.2550204;47.130642599999995;7.24062;28.724000930786133;1673284484.3945975;-6.640545845031738;6.87177848815918;86.98613739013672
139;1673284484.4053617;47.1306425;7.2406198999999996;29.11800193786621;1673284484.5902057;-6.539503574371338;9.398517608642578;86.57705688476562
140;1673284484.6038804;47.130642599999995;7.2406198999999996;29.51300048828125;1673284484.8031125;-6.528271198272705;5.803382396697998;86.98322296142578
141;1673284484.8167937;47.130642599999995;7.240619799999999;29.910001754760742;1673284484.961854;-7.017402172088623;5.010748386383057;87.24382781982422
142;1673284484.9755175;47.1306425;7.240619799999999;30.304000854492188;1673284485.1381674;-6.45565938949585;9.39043140411377;86.43036651611328
143;1673284485.1533437;47.1306425;7.2406198999999996;30.698001861572266;1673284485.3252254;-6.319814682006836;6.5424699783325195;86.72280883789062
144;1673284485.3480036;47.1306425;7.2406198999999996;31.089000701904297;1673284485.5271506;-6.420591831207275;4.8618059158325195;87.18309783935547
145;1673284485.5442874;47.1306425;7.2406198999999996;31.488000869750977;1673284485.7219057;-6.363554000854492;9.635467529296875;86.71609497070312
146;1673284485.7385259;47.130642599999995;7.2406198999999996;31.891000747680664;1673284485.9076777;-6.105451583862305;8.24085807800293;86.92990112304688
147;1673284485.9213388;47.130642599999995;7.2406198999999996;32.294002532958984;1673284486.1027398;-6.673347473144531;4.749000549316406;87.07762145996094
148;1673284486.1203077;47.130642599999995;7.2406198999999996;32.694000244140625;1673284486.303446;-6.753218173980713;8.169873237609863;86.56651306152344
149;1673284486.319073;47.1306425;7.2406198999999996;33.092002868652344;1673284486.4957385;-6.379714488983154;8.794264793395996;86.58612823486328
150;1673284486.5133052;47.1306424;7.2406198999999996;33.48500061035156;1673284486.6864395;-6.4717206954956055;3.9957363605499268;87.26289367675781
151;1673284486.7031794;47.1306424;7.2406198999999996;33.88100051879883;1673284486.8914337;-6.473179817199707;7.402911186218262;86.99945831298828
152;1673284486.9101174;47.1306425;7.2406198999999996;34.284000396728516;1673284487.1039727;-6.167703151702881;9.356441497802734;86.69529724121094
153;1673284487.123484;47.130642599999995;7.24062;34.69000244140625;1673284487.3161914;-6.266514301300049;4.923397064208984;87.0848159790039
154;1673284487.3376472;47.130642599999995;7.24062;35.09300231933594;1673284487.5183606;-6.636096477508545;6.269772052764893;86.84961700439453
155;1673284487.5341187;47.130642599999995;7.24062;35.49100112915039;1673284487.7133949;-6.619826793670654;9.99966812133789;86.43412017822266
156;1673284487.7291641;47.130642699999996;7.2406198999999996;35.887001037597656;1673284487.9264977;-6.569455146789551;6.003740310668945;87.09161376953125
157;1673284487.9470923;47.130642699999996;7.24062;36.28000259399414;1673284488.136594;-6.669302940368652;5.744775295257568;87.29072570800781
158;1673284488.157654;47.1306428;7.24062;36.67900085449219;1673284488.3369536;-6.198428630828857;10.24414348602295;86.7578125
159;1673284488.3531184;47.1306429;7.2406201;37.077003479003906;1673284488.5123885;-5.93613338470459;7.677826404571533;86.73843383789062
160;1673284488.5280046;47.1306429;7.2406201;37.47800064086914;1673284488.7059956;-6.364382266998291;4.80814790725708;86.99723052978516
161;1673284488.7236094;47.1306429;7.2406201;37.87700271606445;1673284488.9142334;-6.479179859161377;8.956969261169434;86.6016616821289
162;1673284488.9328105;47.1306429;7.2406201;38.26900100708008;1673284489.1273956;-6.364187717437744;8.208661079406738;86.88553619384766
163;1673284489.1440034;47.1306428;7.2406201;38.65400314331055;1673284489.3354406;-6.679657936096191;4.296987056732178;87.28256225585938
164;1673284489.352366;47.130642699999996;7.2406201;39.044002532958984;1673284489.5412486;-6.69753360748291;8.484057426452637;86.66165161132812
165;1673284489.5583785;47.1306428;7.2406201;39.4370002746582;1673284489.749183;-6.122474670410156;9.005617141723633;86.58660888671875
166;1673284489.7638156;47.1306428;7.2406201;39.827003479003906;1673284489.9341042;-6.073008060455322;5.057840347290039;87.06883239746094
167;1673284489.950265;47.1306428;7.2406201999999995;40.220001220703125;1673284490.1393042;-6.275166034698486;6.92141580581665;86.90540313720703
168;1673284490.1545222;47.1306428;7.2406201999999995;40.6140022277832;1673284490.3263063;-6.235927581787109;10.001072883605957;86.6808090209961
169;1673284490.3400211;47.1306428;7.2406201999999995;41.01100158691406;1673284490.511579;-6.455876350402832;5.119424343109131;87.24085998535156
170;1673284490.5291479;47.1306428;7.2406201;41.40300369262695;1673284490.7189744;-6.723189830780029;6.2840399742126465;87.01416015625
171;1673284490.7357929;47.1306429;7.2406201;41.79900360107422;1673284490.9216664;-6.257567882537842;10.114870071411133;86.57585906982422
172;1673284490.9402244;47.1306429;7.2406201;42.195003509521484;1673284491.1033502;-6.229434490203857;6.511456489562988;86.9555892944336
173;1673284491.1179898;47.1306429;7.2406201;42.59000015258789;1673284491.2984302;-6.481459617614746;5.226344585418701;87.28387451171875
174;1673284491.3158998;47.1306428;7.24062;42.98100280761719;1673284491.5118346;-6.34346342086792;9.137008666992188;86.73057556152344
175;1673284491.5295591;47.130642699999996;7.24062;43.37300109863281;1673284491.7323105;-6.379279136657715;6.855087757110596;86.99295043945312
176;1673284491.7519367;47.130642599999995;7.24062;43.76000213623047;1673284491.915395;-6.6664252281188965;4.308582305908203;87.0548324584961
177;1673284491.9319866;47.130642599999995;7.24062;44.150001525878906;1673284492.096032;-6.803136348724365;9.163692474365234;86.52556610107422
178;1673284492.1126218;47.130642599999995;7.2406198999999996;44.54100036621094;1673284492.3143826;-6.309688568115234;8.182573318481445;86.69757080078125
179;1673284492.3310585;47.130642699999996;7.2406198999999996;44.93100357055664;1673284492.509905;-6.599109649658203;4.5999298095703125;87.27167510986328
180;1673284492.5353198;47.130642699999996;7.2406198999999996;45.32400131225586;1673284492.7277641;-6.571639060974121;7.5771355628967285;86.86290740966797
181;1673284492.7433975;47.130642599999995;7.2406198999999996;45.720001220703125;1673284492.9322875;-6.363516330718994;8.842058181762695;86.67767333984375
182;1673284492.9539928;47.130642699999996;7.2406198999999996;46.11900329589844;1673284493.1471257;-6.4684343338012695;4.96758508682251;87.13089752197266
183;1673284493.1638126;47.130642699999996;7.2406198999999996;46.51000213623047;1673284493.3391654;-6.6827216148376465;7.177308559417725;86.90872955322266
184;1673284493.3533702;47.130642699999996;7.2406198999999996;46.906002044677734;1673284493.5293486;-6.481705188751221;9.809981346130371;86.6097640991211
185;1673284493.5449736;47.1306428;7.2406198999999996;47.301002502441406;1673284493.7379506;-6.596346855163574;5.924311637878418;87.11882019042969
186;1673284493.7542517;47.1306428;7.2406198999999996;47.69400405883789;1673284493.937886;-6.862681865692139;6.542687892913818;86.92107391357422
187;1673284493.953543;47.130642699999996;7.240619799999999;48.08000183105469;1673284494.138863;-6.5915327072143555;9.870774269104004;86.77519226074219
188;1673284494.1822743;47.130642599999995;7.240619799999999;48.42500305175781;1673284494.3829582;-6.595249176025391;6.356749534606934;87.0673599243164
189;1673284494.3977787;47.130642599999995;7.2406197;48.71200180053711;1673284494.5763943;-6.898777484893799;5.209990978240967;87.2014389038086
190;1673284494.5929768;47.130642699999996;7.2406196;48.96000289916992;1673284494.7487845;-6.791945457458496;10.447999000549316;86.62516021728516
191;1673284494.762181;47.1306428;7.240619499999999;49.17000198364258;1673284494.929333;-3.6350090503692627;10.110970497131348;86.91756439208984
192;1673284494.9460914;47.1306429;7.2406194;49.34400177001953;1673284495.1202555;2.856980085372925;5.843754291534424;82.90278625488281
193;1673284495.1350596;47.1306428;7.2406188;49.4640007019043;1673284495.3166862;-13.6609525680542;11.050605773925781;70.29876708984375
194;1673284495.3338718;47.1306428;7.2406179999999996;49.51000213623047;1673284495.513923;8.900227546691895;14.520429611206055;60.97134780883789
195;1673284495.5327888;47.130642599999995;7.2406174;49.5260009765625;1673284495.728848;11.209895133972168;10.15589427947998;49.79377365112305
196;1673284495.7442954;47.130641999999995;7.2406163999999995;49.53900146484375;1673284495.94078;-0.9979871511459351;14.372735977172852;40.338356018066406
197;1673284495.9558952;47.1306412;7.240615;49.560001373291016;1673284496.1438177;6.833939075469971;12.157504081726074;32.2419548034668
198;1673284496.158668;47.130640199999995;7.240613799999999;49.590003967285156;1673284496.330881;5.183710098266602;11.700738906860352;22.716766357421875
199;1673284496.348144;47.1306392;7.2406125999999995;49.6150016784668;1673284496.5248475;4.878561019897461;8.454838752746582;13.707651138305664
200;1673284496.544841;47.1306383;7.240611599999999;49.63900375366211;1673284496.7348034;4.77883768081665;5.777622699737549;5.054015159606934
201;1673284496.7518442;47.1306374;7.2406108;49.663002014160156;1673284496.9518318;5.515437602996826;5.882963180541992;-3.5301010608673096
202;1673284496.9678354;47.130636599999995;7.2406101;49.68100357055664;1673284497.1690366;6.979560375213623;7.152202606201172;-11.955777168273926
203;1673284497.1838992;47.1306362;7.2406093;49.7030029296875;1673284497.3908777;7.818334579467773;9.20518684387207;-20.37871551513672
204;1673284497.404744;47.130635999999996;7.2406086;49.72200393676758;1673284497.5730855;6.401811599731445;5.822554588317871;-28.233623504638672
205;1673284497.5879223;47.130635899999994;7.2406082;49.743003845214844;1673284497.766943;6.501409530639648;2.013942003250122;-36.495025634765625
206;1673284497.7825577;47.1306361;7.2406079;49.7650032043457;1673284497.97532;8.375255584716797;-2.050712823867798;-46.15349197387695
207;1673284498.016637;47.1306364;7.240607499999999;49.78400421142578;1673284498.2051466;10.824557304382324;-5.230329990386963;-52.66120147705078
208;1673284498.2218342;47.1306367;7.240607;49.80400085449219;1673284498.4154763;11.508973121643066;-3.3216371536254883;-51.609989166259766
209;1673284498.4322388;47.1306369;7.2406066;49.814002990722656;1673284498.6269739;10.980118751525879;0.9955314993858337;-47.91828536987305
210;1673284498.6377842;47.1306369;7.2406061;49.82400131225586;1673284498.8154206;9.711874961853027;0.3888572156429291;-45.83430862426758
211;1673284498.8290906;47.1306369;7.240605599999999;49.83500289916992;1673284498.975441;9.623616218566895;-1.0711179971694946;-45.85911178588867
212;1673284498.9881282;47.1306368;7.2406051;49.845001220703125;1673284499.1498117;10.67059326171875;-2.670229434967041;-46.35670471191406
213;1673284499.1712813;47.1306367;7.240604599999999;49.855003356933594;1673284499.438911;12.950607299804688;-2.4817912578582764;-45.90742874145508
214;1673284499.4589639;47.130636599999995;7.2406041;49.862003326416016;1673284499.6149607;13.617253303527832;1.7450053691864014;-45.058101654052734
215;1673284499.6291573;47.1306363;7.2406039;49.86100387573242;1673284499.802125;11.480170249938965;2.2893941402435303;-44.856266021728516
216;1673284499.8168435;47.130635999999996;7.2406039;49.86300277709961;1673284499.973452;8.828123092651367;2.732228994369507;-45.22273635864258
217;1673284499.9861279;47.1306356;7.240603999999999;49.86600112915039;1673284500.1655931;-5.871113300323486;0.9549042582511902;-46.508201599121094
218;1673284500.1842885;47.1306355;7.2406039;49.871002197265625;1673284500.3612735;-36.55488967895508;0.2700054347515106;-48.969032287597656
219;1673284500.378998;47.1306361;7.240602699999999;49.86600112915039;1673284500.545772;-42.99776840209961;-0.30615654587745667;-48.155174255371094
220;1673284500.5619237;47.130638399999995;7.240599;49.81300354003906;1673284500.7317314;-38.370033264160156;-1.3402369022369385;-46.057525634765625
221;1673284500.753981;47.1306425;7.240592299999999;49.75300216674805;1673284500.9291277;-38.304935455322266;-1.906632900238037;-45.383460998535156
222;1673284500.949012;47.1306483;7.240583;49.702003479003906;1673284501.1417565;-42.32579803466797;-1.3163695335388184;-45.479793548583984
223;1673284501.159751;47.130655399999995;7.240571;49.68300247192383;1673284501.353863;-47.97549057006836;-0.8002732396125793;-46.03279113769531
224;1673284501.3706424;47.1306638;7.2405563;49.69400405883789;1673284501.5342283;-52.958229064941406;-0.6417892575263977;-46.57133483886719
225;1673284501.5494533;47.1306738;7.2405389;49.72500228881836;1673284501.7338014;-58.2280158996582;2.7438089847564697;-47.34111404418945
226;1673284501.750537;47.1306856;7.240518499999999;49.7760009765625;1673284501.9257941;-59.62688064575195;3.557424783706665;-47.4936408996582
227;1673284501.9448116;47.1306996;7.2404952;49.82500076293945;1673284502.1267123;-57.39738845825195;2.047765016555786;-47.17765426635742
228;1673284502.1449895;47.130715599999995;7.2404695;49.85000228881836;1673284502.3276618;-55.373023986816406;2.517707586288452;-47.69260787963867
229;1673284502.34696;47.1307328;7.2404417;49.858001708984375;1673284502.5356407;-53.767372131347656;2.938610315322876;-47.51917266845703
230;1673284502.5544605;47.1307511;7.2404125;49.858001708984375;1673284502.7378058;-53.47844314575195;3.1441524028778076;-47.45968246459961
231;1673284502.7548835;47.130770399999996;7.2403822;49.849002838134766;1673284502.9518423;-50.44264221191406;2.3772075176239014;-46.91853332519531
232;1673284502.9696395;47.1307903;7.2403511;49.8380012512207;1673284503.1538124;-48.72759246826172;2.293569564819336;-46.7772331237793
233;1673284503.1696181;47.1308107;7.2403197;49.827003479003906;1673284503.347834;-44.662410736083984;2.181717872619629;-46.5175666809082
234;1673284503.3928845;47.1308314;7.240287899999999;49.827003479003906;1673284503.5682642;-5.990106105804443;4.210264682769775;-47.29500198364258
235;1673284503.582862;47.1308517;7.2402571;49.83400344848633;1673284503.7738614;34.683712005615234;1.5446083545684814;-45.98466873168945
236;1673284503.7907178;47.1308705;7.240228999999999;49.78900146484375;1673284503.956961;21.823259353637695;-0.659896969795227;-46.451805114746094
237;1673284503.9749622;47.1308872;7.240203999999999;49.54300308227539;1673284504.1672573;16.375133514404297;-1.376182198524475;-47.58232879638672
238;1673284504.1836321;47.130900999999994;7.240183099999999;49.275001525878906;1673284504.4091678;15.02698040008545;-1.2460908889770508;-47.95994186401367
239;1673284504.4268403;47.1309124;7.240165999999999;49.10900115966797;1673284504.611117;37.416141510009766;-2.315727710723877;-48.76709747314453
240;1673284504.6262202;47.130921199999996;7.2401525;49.1510009765625;1673284504.8076499;55.38007736206055;-3.6802546977996826;-48.7823600769043
241;1673284504.821734;47.130926599999995;7.240144099999999;49.29300308227539;1673284504.9930341;58.268680572509766;-2.091805934906006;-47.16618347167969
242;1673284505.0106413;47.1309282;7.2401412;49.457000732421875;1673284505.184735;58.94575119018555;-1.5558898448944092;-46.989315032958984
243;1673284505.1995819;47.1309264;7.240143;49.59700393676758;1673284505.3676493;55.74053955078125;-1.474714756011963;-46.90573501586914
244;1673284505.384241;47.1309221;7.2401487;49.70100402832031;1673284505.5590065;48.80760192871094;-0.9561148285865784;-47.23103713989258
245;1673284505.5743067;47.1309158;7.2401573;49.772003173828125;1673284505.7544699;37.075782775878906;-0.7271685004234314;-47.50666046142578
246;1673284505.7726154;47.130908399999996;7.2401675999999995;49.81200408935547;1673284505.969142;19.730127334594727;0.8565236926078796;-47.967044830322266
247;1673284505.9858468;47.1309007;7.240178299999999;49.802001953125;1673284506.1649828;4.862546443939209;1.3810124397277832;-48.20603561401367
248;1673284506.179223;47.1308936;7.2401881999999995;49.790000915527344;1673284506.3632855;-9.851544380187988;1.5192608833312988;-48.285614013671875
249;1673284506.3804193;47.1308874;7.2401969;49.77000045776367;1673284506.5466337;-21.282102584838867;3.7443249225616455;-47.79566192626953
250;1673284506.5604892;47.1308827;7.2402036;49.724002838134766;1673284506.733214;-23.60495948791504;3.9298489093780518;-47.780067443847656
251;1673284506.75079;47.1308797;7.240208;49.65500259399414;1673284506.9325597;-20.4538631439209;5.287454605102539;-47.544254302978516
252;1673284506.949151;47.1308784;7.2402099;49.57500076293945;1673284507.13377;-10.301229476928711;-12.6931791305542;-48.16940689086914
253;1673284507.1562166;47.1308782;7.240210299999999;49.393001556396484;1673284507.3564568;-1.436098575592041;-36.61516189575195;-52.54793930053711
254;1673284507.3716328;47.1308782;7.240210299999999;48.8380012512207;1673284507.5580924;2.784466028213501;-55.79237747192383;-56.8790397644043
255;1673284507.5747323;47.130878499999994;7.240209999999999;47.92400360107422;1673284507.7578762;3.5248279571533203;-64.84227752685547;-58.288551330566406
256;1673284507.7733212;47.1308789;7.240209699999999;46.6510009765625;1673284507.9524317;2.006535530090332;-60.36501693725586;-55.869632720947266
257;1673284507.969567;47.1308795;7.2402093;45.01100158691406;1673284508.1542072;-2.6197128295898438;-40.30512619018555;-50.45530319213867
258;1673284508.1698565;47.1308802;7.2402089;43.00600051879883;1673284508.3425517;-11.586690902709961;-6.786543846130371;-46.9492073059082
259;1673284508.357905;47.130881099999996;7.2402086;40.62300109863281;1673284508.5579355;-19.444828033447266;29.438865661621094;-48.50450134277344
260;1673284508.5784795;47.1308819;7.2402083;37.84300231933594;1673284508.7668004;-21.852834701538086;50.56095504760742;-49.40110778808594
261;1673284508.783051;47.1308825;7.2402077;34.67000198364258;1673284508.9661822;-19.274160385131836;45.159912109375;-44.41128921508789
262;1673284508.9820662;47.130883;7.240207;31.160001754760742;1673284509.1490993;-9.180908203125;14.989312171936035;-36.84834289550781
263;1673284509.167646;47.1308833;7.240206;27.29400062561035;1673284509.3475084;5.0020751953125;-22.179548263549805;-36.13629913330078
264;1673284509.3631394;47.130883499999996;7.240204899999999;23.035001754760742;1673284509.544586;12.308248519897461;-43.442054748535156;-38.35567092895508
265;1673284509.5611894;47.1308839;7.240203999999999;18.394001007080078;1673284509.74562;9.3833589553833;-32.4758415222168;-33.67838668823242
266;1673284509.763209;47.130884599999995;7.240203299999999;13.4010009765625;1673284509.9595444;-4.911962509155273;2.35075044631958;-28.56477928161621
267;1673284509.9796119;47.1308856;7.2402029;8.018000602722168;1673284510.1693046;-18.48794174194336;33.36519241333008;-30.880922317504883
268;1673284510.187103;47.1308866;7.240202399999999;2.247000217437744;1673284510.398158;-9.497381210327148;15.813741683959961;-33.71585464477539
269;1673284510.4150307;47.130896299999996;7.2402102;-0.2970000207424164;1673284510.5929976;-4.089138507843018;28.992218017578125;-45.84269332885742
270;1673284510.6057036;47.1309146;7.2402253;-0.8910000324249268;1673284510.7694514;-3.677302360534668;25.177587509155273;-45.20668411254883
271;1673284510.7846382;47.1309336;7.2402413999999995;-1.475000023841858;1673284510.9691136;-3.502375841140747;25.74113655090332;-45.38028335571289
272;1673284510.993551;47.1309525;7.2402576;-2.0530002117156982;1673284511.1888504;-3.410313367843628;25.4301815032959;-45.359249114990234
273;1673284511.206555;47.1309733;7.240275899999999;-2.6510000228881836;1673284511.3724625;-3.3497531414031982;25.18323516845703;-45.33286666870117
274;1673284511.3866627;47.1309957;7.2402959;-3.264000177383423;1673284511.561755;-3.2687385082244873;24.89435386657715;-45.298622131347656
275;1673284511.577531;47.1310195;7.2403173999999995;-3.885000228881836;1673284511.7516918;-3.2246553897857666;24.677162170410156;-45.21418762207031
276;1673284511.7663362;47.131043899999995;7.2403401;-4.480000019073486;1673284511.952905;-3.0932607650756836;24.13248634338379;-45.35797882080078
277;1673284511.9694958;47.1310682;7.240361699999999;-4.75100040435791;1673284512.167024;-2.957820415496826;23.652645111083984;-45.50025177001953
278;1673284512.18249;47.1310928;7.240383199999999;-4.794000148773193;1673284512.3589916;-2.867091417312622;23.33245849609375;-45.613040924072266
279;1673284512.374965;47.131118099999995;7.240405399999999;-4.628000259399414;1673284512.57921;-2.7944817543029785;23.356731414794922;-45.61830520629883
280;1673284512.595966;47.1311454;7.240430099999999;-0.4400000274181366;1673284512.8228846;-2.745335578918457;23.436315536499023;-45.589237213134766
281;1673284512.837292;47.1311744;7.2404570999999995;-0.11300000548362732;1673284513.0080638;-2.6975104808807373;23.543792724609375;-45.58980178833008
282;1673284513.0249681;47.1312049;7.240486;0.018000001087784767;1673284513.1927993;-2.6399362087249756;23.69071388244629;-45.581844329833984
283;1673284513.2080908;47.131236799999996;7.2405167;0.04500000178813934;1673284513.4299152;-2.6110756397247314;23.82663345336914;-45.56117630004883
284;1673284513.4440224;47.1312699;7.2405488;0.021000001579523087;1673284513.6161995;-2.574798583984375;23.966533660888672;-45.54931640625
285;1673284513.630961;47.1313041;7.2405824;-0.01900000125169754;1673284513.8040295;-2.50976300239563;24.07891082763672;-45.56705093383789
286;1673284513.825877;47.131339499999996;7.2406172;-0.06000000238418579;1673284514.0013032;-2.454237937927246;24.201862335205078;-45.53866195678711
287;1673284514.016987;47.131375999999996;7.2406535;-0.13100001215934753;1673284514.1951842;-2.435114622116089;24.322561264038086;-45.55144119262695
288;1673284514.212032;47.1314135;7.240691;-0.17400000989437103;1673284514.3981464;-2.4061970710754395;24.40482521057129;-45.55512619018555
289;1673284514.412964;47.1314522;7.240729699999999;-0.1990000158548355;1673284514.596031;-2.4155781269073486;24.467601776123047;-45.55781936645508
290;1673284514.6129014;47.1314919;7.2407698;-0.2120000123977661;1673284514.7899587;-2.3500261306762695;24.534330368041992;-45.54786682128906
291;1673284514.8048437;47.1315326;7.2408112;-0.22100001573562622;1673284514.9929988;-2.370229721069336;24.557817459106445;-45.51137161254883
292;1673284515.008086;47.1315745;7.2408538;-0.22100001573562622;1673284515.1740696;-2.3445897102355957;24.62887954711914;-45.49420928955078
293;1673284515.231105;47.1316175;7.240897899999999;-0.26200002431869507;1673284515.4469662;-2.354538679122925;24.666505813598633;-45.49911117553711
294;1673284515.4629097;47.1316615;7.2409431;-0.27800002694129944;1673284515.6133428;-2.341327428817749;24.698776245117188;-45.486595153808594
295;1673284515.6337004;47.1317066;7.2409896;-0.27900001406669617;1673284515.8050582;-2.3541054725646973;24.70853042602539;-45.489227294921875
296;1673284515.8390925;47.1317509;7.2410355;-0.27900001406669617;1673284516.0110617;-2.321816921234131;24.717979431152344;-45.503662109375
297;;;;;1673284516.1930156;-2.334421396255493;24.732763290405273;-45.48765563964844
298;;;;;1673284516.4060986;-2.3032023906707764;24.737489700317383;-45.477447509765625
299;;;;;1673284516.6096592;-2.2967793941497803;24.75461196899414;-45.46893310546875
300;;;;;1673284516.793266;-2.2976467609405518;24.76140785217285;-45.471744537353516
301;;;;;1673284516.9700985;-2.297036647796631;24.74930191040039;-45.48555374145508
302;;;;;1673284517.1740654;-2.271239995956421;24.71991539001465;-45.48175048828125
303;;;;;1673284517.386968;-2.331491231918335;24.6838321685791;-45.48681640625
