;pos_time;latitude;longitude;altitude;alt_time;pitch;roll;yaw
0;1673285293.639335;47.1306424;7.2406203;0.004000000189989805;1673285293.7895188;-0.2435503602027893;-0.5336993932723999;90.38601684570312
1;1673285293.827767;47.1306424;7.2406204;0.004000000189989805;1673285293.9935565;-0.14852125942707062;-0.42917847633361816;90.49998474121094
2;1673285294.0404608;47.1306424;7.2406204;0.006000000052154064;1673285294.2012954;-0.14162318408489227;-0.5223910808563232;90.44276428222656
3;1673285294.2486825;47.1306424;7.2406204999999995;0.006000000052154064;1673285294.405643;0.07427412271499634;-0.40181270241737366;90.54487609863281
4;1673285294.4431884;47.1306423;7.2406204;0.005000000353902578;1673285294.6147852;-0.23584409058094025;-0.37581074237823486;90.3988037109375
5;1673285294.6982148;47.1306423;7.2406203;0.005000000353902578;1673285294.8386307;-0.12940505146980286;-0.5258669853210449;90.56171417236328
6;1673285294.8718214;47.1306423;7.2406203;0.004000000189989805;1673285295.0081987;-0.01391574926674366;-0.4359409213066101;90.58800506591797
7;1673285295.0912805;47.1306423;7.2406203;0.004000000189989805;1673285295.2493067;-0.10205896198749542;-0.33189553022384644;90.41840362548828
8;1673285295.2863941;47.1306423;7.2406203;0.003000000026077032;1673285295.4458702;-0.09929437190294266;-0.5807875394821167;90.49726867675781
9;1673285295.4810398;47.1306423;7.2406201999999995;0.004000000189989805;1673285295.6482193;0.1860416829586029;-0.33432233333587646;90.6587905883789
10;1673285295.7000256;47.1306423;7.2406201;0.005000000353902578;1673285295.8479335;0.013603121042251587;-0.42779064178466797;90.31598663330078
11;1673285295.8890564;47.1306423;7.2406201;0.005000000353902578;1673285296.03559;-0.15245087444782257;-0.4101426303386688;90.57933807373047
12;1673285296.0697339;47.1306423;7.24062;0.004000000189989805;1673285296.232221;-0.06018172577023506;-0.3564438819885254;90.3625717163086
13;1673285296.2839293;47.1306423;7.24062;0.0;1673285296.4271646;-0.15276256203651428;-0.36882442235946655;90.53670501708984
14;1673285296.460006;47.1306423;7.24062;-0.0010000000474974513;1673285296.6041327;0.12435388565063477;-0.5479944348335266;90.2965316772461
15;1673285296.6349316;47.1306424;7.24062;-0.0010000000474974513;1673285296.794433;0.09669150412082672;-1.586722493171692;90.57160949707031
16;1673285296.84169;47.1306424;7.24062;-0.004000000189989805;1673285297.0150921;0.2737918794155121;-1.1873853206634521;90.63756561279297
17;1673285297.0566313;47.1306424;7.2406198999999996;-0.006000000052154064;1673285297.2154431;-0.11335352063179016;-1.3321516513824463;90.38081359863281
18;1673285297.2501647;47.1306424;7.2406198999999996;-0.007000000216066837;1673285297.4196427;-0.21424809098243713;-1.227632761001587;90.4724349975586
19;1673285297.4594245;47.1306424;7.2406198999999996;-0.010000000707805157;1673285297.6194854;-0.16444049775600433;-1.1503210067749023;90.40167999267578
20;1673285297.657344;47.1306424;7.2406198999999996;-0.012000000104308128;1673285297.831126;0.197114035487175;-1.5783966779708862;90.43574523925781
21;1673285297.868416;47.1306424;7.24062;-0.01600000075995922;1673285298.0322754;0.19268693029880524;-1.6903659105300903;90.19364929199219
22;1673285298.069221;47.1306424;7.24062;-0.020000001415610313;1673285298.2274146;0.29190051555633545;-1.6206990480422974;90.19107055664062
23;1673285298.2603621;47.1306424;7.2406198999999996;0.0;1673285298.4192264;0.03759795054793358;-1.3794581890106201;90.0091552734375
24;1673285298.4507189;47.1306424;7.2406198999999996;0.0;1673285298.6083872;0.21133820712566376;-0.7882211208343506;89.74901580810547
25;1673285298.6463122;47.1306425;7.240619799999999;0.0020000000949949026;1673285298.8207738;0.5008208155632019;-0.9719627499580383;89.616455078125
26;1673285298.8605537;47.1306425;7.240619799999999;0.004000000189989805;1673285299.0132973;0.7370872497558594;-1.2556016445159912;88.85507202148438
27;1673285299.047342;47.130642599999995;7.240619799999999;0.0010000000474974513;1673285299.2182684;1.2601792812347412;-1.2466976642608643;88.01954650878906
28;1673285299.2552483;47.130642699999996;7.2406197;-0.005000000353902578;1673285299.4213374;1.6631669998168945;-0.8977125287055969;86.8463363647461
29;1673285299.4546125;47.1306429;7.2406197;-0.01100000087171793;1673285299.5992882;1.4897040128707886;0.022113114595413208;84.02909088134766
30;1673285299.6344168;47.1306431;7.240619499999999;-0.01900000125169754;1673285299.8304403;0.3799574375152588;0.5694071054458618;76.02840423583984
31;1673285299.875596;47.1306437;7.240618899999999;-0.02500000037252903;1673285300.0213335;0.06201111152768135;-0.6143901348114014;69.4520263671875
32;1673285300.0545235;47.1306448;7.2406177;-0.029000001028180122;1673285300.2084124;-0.3107813000679016;2.709939956665039;75.00045776367188
33;1673285300.2433434;47.130646399999996;7.240615699999999;-0.03400000184774399;1673285300.3909621;-4.4970293045043945;6.303626537322998;81.0409164428711
34;1673285300.4263892;47.1306483;7.2406128;-0.02500000037252903;1673285300.5954065;-8.811859130859375;11.27574348449707;81.50706481933594
35;1673285300.6342394;47.130650499999994;7.2406092;-0.010000000707805157;1673285300.8011239;-9.7130708694458;13.865598678588867;80.67486572265625
36;1673285300.8414657;47.130652999999995;7.2406052;0.02200000174343586;1673285301.0132852;-10.499031066894531;14.625138282775879;80.230224609375
37;1673285301.052387;47.1306557;7.2406007;0.07300000637769699;1673285301.2225823;-11.511174201965332;16.298091888427734;79.7142333984375
38;1673285301.2585108;47.130658499999996;7.240596099999999;0.13900001347064972;1673285301.4610257;-12.600386619567871;17.905303955078125;79.3615951538086
39;1673285301.4947615;47.1306612;7.2405915;0.21800000965595245;1673285301.643014;-13.940652847290039;19.189661026000977;79.14083862304688
40;1673285301.677183;47.130663899999995;7.240587;0.3050000071525574;1673285301.8296337;-15.285298347473145;20.520984649658203;79.01139068603516
41;1673285301.8628714;47.130666399999996;7.2405827;0.3830000162124634;1673285302.0182688;-16.645145416259766;22.335180282592773;78.86994171142578
42;1673285302.0603945;47.1306687;7.2405786999999995;0.45100003480911255;1673285302.2421966;-18.13800811767578;23.63556480407715;78.85016632080078
43;1673285302.274431;47.1306708;7.2405751;0.5090000033378601;1673285302.4209511;-19.6521053314209;25.1688175201416;78.8483657836914
44;1673285302.4573226;47.1306726;7.2405719;0.5580000281333923;1673285302.643884;-21.22264289855957;26.63262939453125;78.9952163696289
45;1673285302.6810286;47.130674;7.240569499999999;0.5980000495910645;1673285302.8275979;-22.9217472076416;28.02284049987793;79.30009460449219
46;1673285302.8589597;47.1306751;7.2405677;0.6320000290870667;1673285303.022785;-24.813867568969727;29.276206970214844;79.67384338378906
47;1673285303.0579274;47.1306757;7.240566599999999;0.6650000214576721;1673285303.216168;-26.61673927307129;30.860431671142578;79.96681213378906
48;1673285303.2454515;47.1306758;7.2405664;0.6930000185966492;1673285303.3930473;-28.599403381347656;32.29192352294922;80.49920654296875
49;1673285303.4291797;47.1306754;7.2405671;0.7190000414848328;1673285303.5840502;-30.971403121948242;33.21151351928711;81.29621887207031
50;1673285303.6206968;47.130674299999995;7.2405688999999995;0.7430000305175781;1673285303.7925878;-33.16921615600586;34.6074104309082;82.0322265625
51;1673285303.8325982;47.1306726;7.2405718;0.7670000195503235;1673285304.0349174;-35.743560791015625;35.20287322998047;82.92166900634766
52;1673285304.0988946;47.130670099999996;7.240575799999999;0.7870000600814819;1673285304.2751958;-33.69620895385742;32.4360237121582;84.81523895263672
53;1673285304.3050084;47.130666999999995;7.240580899999999;0.7990000247955322;1673285304.4539177;-30.30575180053711;28.690580368041992;86.35790252685547
54;1673285304.4935431;47.1306635;7.2405867;0.8040000200271606;1673285304.6434803;-26.334138870239258;24.55582046508789;87.51716613769531
55;1673285304.6816769;47.1306598;7.240592599999999;0.8050000667572021;1673285304.8472183;-22.382017135620117;21.02989959716797;89.19985961914062
56;1673285304.8834016;47.1306562;7.240598299999999;0.8550000190734863;1673285305.042099;-20.32679557800293;18.83789825439453;89.3873291015625
57;1673285305.0713785;47.1306529;7.240603699999999;0.9440000653266907;1673285305.219676;-15.497983932495117;15.686134338378906;89.18016815185547
58;1673285305.2617075;47.130649999999996;7.240608099999999;1.037000060081482;1673285305.4259748;-14.171226501464844;14.619331359863281;88.50106811523438
59;1673285305.4669795;47.1306478;7.240611599999999;1.1340000629425049;1673285305.6107259;-13.343194007873535;14.181073188781738;87.88916015625
60;1673285305.64197;47.1306461;7.2406142;1.2320001125335693;1673285305.798557;-13.955888748168945;14.453939437866211;87.47728729248047
61;1673285305.8399017;47.130645;7.2406158;1.3360000848770142;1673285306.0110576;-15.103972434997559;16.95290756225586;86.62057495117188
62;1673285306.0530934;47.1306443;7.2406166999999995;1.4550000429153442;1673285306.2143064;-16.41680145263672;18.257434844970703;86.14680480957031
63;1673285306.252355;47.130644;7.240616999999999;1.5940001010894775;1673285306.418211;-17.838207244873047;17.16364860534668;86.1844711303711
64;1673285306.4514678;47.130643899999995;7.240616999999999;1.7510000467300415;1673285306.611734;-18.403003692626953;20.995162963867188;85.20893096923828
65;1673285306.6449556;47.130643899999995;7.2406168;1.9230000972747803;1673285306.798321;-18.938997268676758;20.73044204711914;85.13469696044922
66;1673285306.8394687;47.130643899999995;7.2406166;2.1080000400543213;1673285307.0377316;-20.602672576904297;19.06882095336914;85.57771301269531
67;1673285307.0713441;47.130644;7.2406165;2.302000045776367;1673285307.2586946;-20.26822280883789;22.93610191345215;84.60003662109375
68;1673285307.3029084;47.130644;7.2406163999999995;2.499000072479248;1673285307.4431396;-20.23192024230957;21.1914119720459;85.06841278076172
69;1673285307.4782615;47.130644;7.2406166;2.697000026702881;1673285307.63383;-20.431800842285156;19.993209838867188;85.60394287109375
70;1673285307.6699793;47.130644;7.2406169;2.8940000534057617;1673285307.842546;-19.838220596313477;22.954797744750977;84.86167907714844
71;1673285307.8796391;47.1306438;7.2406172;3.0900001525878906;1673285308.0127952;-19.450963973999023;20.27025604248047;85.5747299194336
72;1673285308.044033;47.1306437;7.240617599999999;3.2860002517700195;1673285308.2073746;-19.881649017333984;19.52533531188965;85.6666030883789
73;1673285308.2425437;47.1306435;7.240617899999999;3.4790000915527344;1673285308.4095542;-18.71978759765625;22.411951065063477;84.91512298583984
74;1673285308.4522784;47.1306434;7.2406182999999995;3.6750001907348633;1673285308.6270978;-18.676755905151367;19.65966796875;85.58769226074219
75;1673285308.6685364;47.130643299999996;7.2406187;3.867000102996826;1673285308.8384504;-18.948835372924805;19.95539093017578;85.50395965576172
76;1673285308.8717532;47.130643199999994;7.240619;4.054000377655029;1673285309.042047;-17.81907081604004;21.805118560791016;84.90188598632812
77;1673285309.0781658;47.1306431;7.240619199999999;4.244000434875488;1673285309.2641947;-18.66486358642578;18.962308883666992;85.45268249511719
78;1673285309.2954922;47.130643;7.2406194;4.436000347137451;1673285309.454924;-18.748205184936523;20.193246841430664;85.19734191894531
79;1673285309.4871418;47.130643;7.240619499999999;4.635000228881836;1673285309.6669793;-18.008060455322266;22.214693069458008;84.84136199951172
80;1673285309.699817;47.130643;7.240619499999999;4.831000328063965;1673285309.8744204;-18.881250381469727;18.834503173828125;85.57391357421875
81;1673285309.9023309;47.130643;7.2406196;5.02400016784668;1673285310.0370317;-18.95875358581543;20.730268478393555;85.12529754638672
82;1673285310.1034374;47.1306429;7.2406196;5.219000339508057;1673285310.2465463;-18.45844078063965;21.755352020263672;84.84513854980469
83;1673285310.2769;47.1306428;7.2406196;5.4150004386901855;1673285310.4408154;-19.33294105529785;18.47492218017578;85.71463775634766
84;1673285310.4775195;47.1306428;7.2406196;5.610000133514404;1673285310.62654;-19.11803436279297;21.118030548095703;85.21259307861328
85;1673285310.6627119;47.1306428;7.2406196;5.804000377655029;1673285310.805386;-18.640077590942383;21.581989288330078;84.97699737548828
86;1673285310.8469012;47.1306428;7.2406197;5.996000289916992;1673285311.0018568;-19.33424186706543;18.45122718811035;85.72044372558594
87;1673285311.0506682;47.1306428;7.2406197;6.183000087738037;1673285311.212858;-18.83664321899414;21.553194046020508;85.09561157226562
88;1673285311.2470262;47.1306428;7.240619799999999;6.369000434875488;1673285311.4193497;-18.480186462402344;20.89556884765625;85.14241790771484
89;1673285311.457517;47.1306428;7.2406198999999996;6.556000232696533;1673285311.6108658;-19.14299774169922;18.88298225402832;85.66741943359375
90;1673285311.65576;47.1306428;7.24062;6.744000434875488;1673285311.8318722;-18.5986328125;21.96480941772461;84.93629455566406
91;1673285311.899901;47.130642699999996;7.24062;6.933000564575195;1673285312.0730386;-18.4853572845459;20.41022300720215;85.26749420166016
92;1673285312.1048083;47.130642599999995;7.24062;7.125000476837158;1673285312.250983;-19.39594078063965;18.52499008178711;85.69452667236328
93;1673285312.2841814;47.130642599999995;7.24062;7.316000461578369;1673285312.4499447;-18.590131759643555;21.900466918945312;84.81321716308594
94;1673285312.482191;47.130642599999995;7.24062;7.510000228881836;1673285312.634694;-18.58281707763672;20.23040199279785;85.20710754394531
95;1673285312.6718142;47.130642599999995;7.2406201;7.704000473022461;1673285312.839748;-19.141433715820312;19.254222869873047;85.68421936035156
96;1673285312.888291;47.130642699999996;7.2406201;7.89400053024292;1673285313.0561342;-18.627483367919922;22.528507232666016;84.87643432617188
97;1673285313.0893245;47.130642699999996;7.2406201;8.085000038146973;1673285313.2573638;-18.570714950561523;20.07644271850586;85.35909271240234
98;1673285313.2916572;47.130642599999995;7.2406201;8.277000427246094;1673285313.4433217;-19.346248626708984;19.015531539916992;85.6062240600586
99;1673285313.4764988;47.130642599999995;7.2406201;8.469000816345215;1673285313.6269972;-18.628490447998047;22.42250633239746;84.81993103027344
100;1673285313.6631145;47.130642599999995;7.2406201;8.663000106811523;1673285313.8272085;-18.65630531311035;19.69394874572754;85.42153930664062
101;1673285313.864393;47.130642599999995;7.2406201999999995;8.863000869750977;1673285314.023042;-19.145246505737305;19.66261863708496;85.49712371826172
102;1673285314.0552478;47.130642599999995;7.2406201999999995;9.064000129699707;1673285314.2187304;-18.32585334777832;22.315414428710938;84.91034698486328
103;1673285314.25777;47.130642599999995;7.2406201999999995;9.26400089263916;1673285314.4723413;-18.77640724182129;19.376604080200195;85.49712371826172
104;1673285314.505362;47.130642599999995;7.2406201999999995;9.460000038146973;1673285314.6505492;-19.251968383789062;19.870868682861328;85.50263977050781
105;1673285314.679882;47.130642599999995;7.2406201999999995;9.654000282287598;1673285314.8413749;-18.398231506347656;22.329050064086914;84.81487274169922
106;1673285314.880415;47.130642699999996;7.2406203;9.850000381469727;1673285315.0311196;-18.8967342376709;19.45160675048828;85.50482940673828
107;1673285315.061375;47.130642699999996;7.2406203;10.052000045776367;1673285315.2208226;-18.4757137298584;19.850688934326172;85.5596694946289
108;1673285315.2540054;47.130642599999995;7.2406204;10.279000282287598;1673285315.4030035;-20.316944122314453;21.80199432373047;85.21330261230469
109;1673285315.4398794;47.1306425;7.2406206;10.616000175476074;1673285315.598539;-21.387752532958984;22.57215118408203;85.34422302246094
110;1673285315.6371708;47.130642099999996;7.240621099999999;11.004000663757324;1673285315.8089664;-19.249446868896484;20.673660278320312;85.68135070800781
111;1673285315.8578827;47.1306417;7.2406219;11.402000427246094;1673285316.024644;-17.728595733642578;20.1368350982666;85.00385284423828
112;1673285316.0597804;47.1306413;7.2406226;11.8100004196167;1673285316.2084796;-16.846155166625977;17.855674743652344;85.5116958618164
113;1673285316.250517;47.130640899999996;7.2406231;12.218000411987305;1673285316.4098234;-16.46666145324707;18.32218360900879;85.25591278076172
114;1673285316.4469252;47.1306407;7.2406234;12.621000289916992;1673285316.6188672;-16.104310989379883;18.958648681640625;84.87875366210938
115;1673285316.6569643;47.1306407;7.2406235;13.02500057220459;1673285316.828148;-16.689233779907227;16.78599739074707;85.61930847167969
116;1673285316.8781552;47.130640799999995;7.240623299999999;13.432001113891602;1673285317.070229;-16.8126277923584;19.498098373413086;84.94609832763672
117;1673285317.1035383;47.130640899999996;7.240622999999999;13.837000846862793;1673285317.2638643;-17.029430389404297;20.03932762145996;84.86048889160156
118;1673285317.3180392;47.1306411;7.2406226;14.246000289916992;1673285317.5032432;-18.121999740600586;17.907564163208008;85.70559692382812
119;1673285317.5381963;47.1306413;7.2406222;14.657000541687012;1673285317.6848192;-18.241945266723633;20.732885360717773;85.16258239746094
120;1673285317.7195847;47.130641499999996;7.2406217999999996;15.07300090789795;1673285317.8562186;-18.154191970825195;21.305927276611328;85.013427734375
121;1673285317.88942;47.1306418;7.2406215;15.496000289916992;1673285318.0337982;-18.909381866455078;18.744211196899414;85.76116180419922
122;1673285318.0796697;47.130641999999995;7.2406212;15.908000946044922;1673285318.2700925;-18.873947143554688;20.646705627441406;85.32490539550781
123;1673285318.3023493;47.130642099999996;7.240621;16.314001083374023;1673285318.4411666;-18.277311325073242;21.703716278076172;84.98301696777344
124;1673285318.4753115;47.130642099999996;7.2406209;16.720001220703125;1673285318.6179223;-18.842670440673828;18.9339542388916;85.52247619628906
125;1673285318.6511772;47.130642099999996;7.240620799999999;17.123001098632812;1673285318.8131986;-18.854488372802734;19.590368270874023;85.51811218261719
126;1673285318.8524837;47.1306422;7.2406207;17.529001235961914;1673285319.020442;-18.246496200561523;21.695880889892578;85.05559539794922
127;1673285319.0595489;47.1306422;7.2406207;17.93600082397461;1673285319.224789;-18.178070068359375;19.58141326904297;85.4912109375
128;1673285319.2980747;47.1306423;7.2406207;18.345001220703125;1673285319.4408731;-18.49309539794922;19.163434982299805;85.56343078613281
129;1673285319.4692028;47.1306423;7.2406207;18.751001358032227;1673285319.6281164;-17.901691436767578;21.694520950317383;84.89712524414062
130;1673285319.6622925;47.1306423;7.2406206;19.1510009765625;1673285319.8357146;-17.794221878051758;19.684650421142578;85.2990493774414
131;1673285319.875731;47.1306422;7.2406206;19.551000595092773;1673285320.0674775;-18.491744995117188;18.612255096435547;85.55352783203125
132;1673285320.097832;47.1306423;7.2406206;19.955001831054688;1673285320.249122;-18.030086517333984;21.122285842895508;85.04609680175781
133;1673285320.2813687;47.1306423;7.2406204999999995;20.358001708984375;1673285320.4321573;-18.064064025878906;20.836328506469727;85.17262268066406
134;1673285320.4653401;47.1306424;7.2406204;20.762001037597656;1673285320.6235735;-18.515478134155273;18.91600799560547;85.67706298828125
135;1673285320.6617935;47.1306424;7.2406203;21.166000366210938;1673285320.8109725;-18.36098289489746;20.879440307617188;85.16294860839844
136;1673285320.8464346;47.1306424;7.2406203;21.565000534057617;1673285321.005631;-17.87002944946289;21.388639450073242;84.9879150390625
137;1673285321.0464175;47.1306423;7.2406203;21.964000701904297;1673285321.2255623;-18.484617233276367;18.871381759643555;85.58673858642578
138;1673285321.2657206;47.1306423;7.2406203;22.363000869750977;1673285321.4269583;-18.375621795654297;19.664430618286133;85.44729614257812
139;1673285321.4641147;47.1306423;7.2406201999999995;22.76500129699707;1673285321.6528761;-18.14089012145996;21.766929626464844;84.94855499267578
140;1673285321.6900375;47.1306423;7.2406201;23.16400146484375;1673285321.861902;-18.289499282836914;19.56161880493164;85.38301849365234
141;1673285321.9068058;47.1306423;7.2406201;23.565000534057617;1673285322.1236703;-18.7445125579834;19.11968231201172;85.5674819946289
142;1673285322.15003;47.1306423;7.24062;23.968000411987305;1673285322.2891264;-18.075979232788086;21.702014923095703;84.92550659179688
143;1673285322.31743;47.1306423;7.24062;24.36400032043457;1673285322.4467564;-17.904258728027344;20.114221572875977;85.29238891601562
144;1673285322.4740777;47.1306423;7.24062;24.759000778198242;1673285322.6154852;-18.773658752441406;18.579986572265625;85.61940002441406
145;1673285322.6516397;47.1306422;7.24062;25.156002044677734;1673285322.8026557;-18.433496475219727;21.18443489074707;85.11231231689453
146;1673285322.8354142;47.1306422;7.24062;25.560001373291016;1673285323.0020068;-18.077730178833008;20.69620132446289;85.17733764648438
147;1673285323.040622;47.1306423;7.24062;25.964000701904297;1673285323.208074;-18.523040771484375;18.897289276123047;85.60380554199219
148;1673285323.2398558;47.1306423;7.24062;26.369001388549805;1673285323.407559;-18.443737030029297;20.822235107421875;85.1769790649414
149;1673285323.4441948;47.1306423;7.2406201;26.766000747680664;1673285323.6260664;-18.027259826660156;21.30540657043457;84.87236022949219
150;1673285323.665171;47.1306422;7.2406201;27.167001724243164;1673285323.8201451;-18.524675369262695;18.757884979248047;85.60934448242188
151;1673285323.8568087;47.1306422;7.2406201;27.571001052856445;1673285324.0183983;-18.591032028198242;19.62154197692871;85.5072250366211
152;1673285324.0551558;47.1306422;7.2406201;27.975000381469727;1673285324.2309673;-17.99626350402832;21.559986114501953;84.99431610107422
153;1673285324.2680943;47.1306423;7.2406201999999995;28.380001068115234;1673285324.418093;-18.220699310302734;19.416410446166992;85.4631576538086
154;1673285324.4567335;47.1306423;7.2406201999999995;28.783000946044922;1673285324.641557;-18.461441040039062;19.04147720336914;85.62753295898438
155;1673285324.685929;47.1306423;7.2406203;29.187002182006836;1673285324.86027;-18.044328689575195;21.857316970825195;84.91973876953125
156;1673285324.907273;47.1306423;7.2406203;29.584001541137695;1673285325.1045673;-17.97922134399414;20.00530242919922;85.27730560302734
157;1673285325.1354446;47.1306423;7.2406203;29.981000900268555;1673285325.2689593;-18.621135711669922;18.771039962768555;85.59215545654297
158;1673285325.299214;47.1306423;7.2406201999999995;30.382001876831055;1673285325.4477842;-18.27544593811035;21.52355194091797;85.02783203125
159;1673285325.4821098;47.1306424;7.2406201999999995;30.785001754760742;1673285325.6378872;-17.90936851501465;20.813703536987305;85.2804183959961
160;1673285325.6788945;47.130642599999995;7.2406203;31.189001083374023;1673285325.848239;-18.435302734375;19.056716918945312;85.69438171386719
161;1673285325.8866093;47.130642599999995;7.2406203;31.593002319335938;1673285326.0482292;-18.272857666015625;20.777870178222656;85.23291778564453
162;1673285326.086294;47.130642599999995;7.2406204;31.989002227783203;1673285326.2446644;-17.79625701904297;21.683475494384766;84.98915100097656
163;1673285326.277844;47.130642599999995;7.2406204;32.387001037597656;1673285326.4432042;-18.36167335510254;18.904260635375977;85.59929656982422
164;1673285326.4783306;47.130642599999995;7.2406204;32.78900146484375;1673285326.6269264;-18.340097427368164;20.501197814941406;85.14247131347656
165;1673285326.6621754;47.130642599999995;7.2406204;33.191001892089844;1673285326.8320696;-17.691986083984375;21.750932693481445;84.92925262451172
166;1673285326.876024;47.130642599999995;7.2406204;33.592002868652344;1673285327.0283036;-17.953420639038086;19.248193740844727;85.5687484741211
167;1673285327.0645294;47.130642699999996;7.2406204999999995;33.99400329589844;1673285327.2305274;-18.349124908447266;19.933940887451172;85.44548797607422
168;1673285327.263863;47.130642599999995;7.2406204;34.395999908447266;1673285327.4292557;-17.786773681640625;21.956270217895508;84.85430145263672
169;1673285327.461505;47.130642599999995;7.2406204;34.79300308227539;1673285327.6358337;-18.07777976989746;19.735485076904297;85.37191772460938
170;1673285327.6768248;47.1306425;7.2406203;35.19200134277344;1673285327.8310246;-18.509855270385742;18.94258689880371;85.57341766357422
171;1673285327.8634622;47.1306425;7.2406203;35.59400177001953;1673285328.0787156;-18.066030502319336;21.691591262817383;84.93427276611328
172;1673285328.1099427;47.1306425;7.2406201999999995;35.999000549316406;1673285328.2585607;-17.887094497680664;20.690128326416016;85.20637512207031
173;1673285328.3057358;47.130642599999995;7.2406201999999995;36.40299987792969;1673285328.4528701;-18.505077362060547;18.98830223083496;85.666259765625
174;1673285328.485078;47.130642599999995;7.2406201999999995;36.80600357055664;1673285328.6224508;-18.161357879638672;21.249216079711914;85.12615203857422
175;1673285328.655208;47.130642599999995;7.2406201999999995;37.207000732421875;1673285328.8161511;-17.76036834716797;21.501394271850586;84.87581634521484
176;1673285328.8606155;47.1306425;7.2406201999999995;37.60200119018555;1673285329.0068612;-18.257699966430664;18.879941940307617;85.62245178222656
177;1673285329.038628;47.1306425;7.2406201999999995;37.99800109863281;1673285329.201207;-18.495271682739258;20.076467514038086;85.33122253417969
178;1673285329.239862;47.1306425;7.2406201999999995;38.39800262451172;1673285329.4313536;-17.737863540649414;21.66969871520996;85.00045013427734
179;1673285329.469506;47.1306425;7.2406201999999995;38.802001953125;1673285329.6345134;-18.199783325195312;19.515527725219727;85.501220703125
180;1673285329.6765423;47.130642599999995;7.2406201;39.207000732421875;1673285329.8389187;-18.369693756103516;19.97574806213379;85.51429748535156
181;1673285329.8800628;47.130642599999995;7.2406201;39.61000061035156;1673285330.0414157;-17.913692474365234;22.078060150146484;85.00861358642578
182;1673285330.077526;47.130642599999995;7.2406201;40.00700378417969;1673285330.240681;-17.854145050048828;19.69888687133789;85.42920684814453
183;1673285330.2791028;47.1306425;7.2406201;40.40800094604492;1673285330.447556;-18.623674392700195;19.053752899169922;85.52411651611328
184;1673285330.4828358;47.1306425;7.2406201;40.81300354003906;1673285330.653063;-18.08706283569336;21.79710578918457;84.91558074951172
185;1673285330.6892552;47.130642599999995;7.24062;41.21500015258789;1673285330.8447895;-18.061168670654297;20.688751220703125;85.18865966796875
186;1673285330.8750455;47.130642599999995;7.2406198999999996;41.617000579833984;1673285331.041075;-18.641733169555664;19.029661178588867;85.6468276977539
187;1673285331.080269;47.130642599999995;7.240619799999999;42.0160026550293;1673285331.2424884;-18.403249740600586;21.544048309326172;85.07527923583984
188;1673285331.2793052;47.130642599999995;7.240619799999999;42.415000915527344;1673285331.4339314;-17.957138061523438;21.593645095825195;84.97636413574219
189;1673285331.4647245;47.130642599999995;7.240619799999999;42.80800247192383;1673285331.6126268;-18.4992618560791;18.972509384155273;85.59889221191406
190;1673285331.6512861;47.1306425;7.240619799999999;43.19900131225586;1673285331.8154988;-18.54313850402832;20.37398910522461;85.2928695678711
191;1673285331.8502824;47.1306425;7.240619799999999;43.59600067138672;1673285332.011817;-17.884750366210938;21.806100845336914;84.99838256835938
192;1673285332.0474937;47.130642599999995;7.2406198999999996;43.993003845214844;1673285332.2120118;-18.15285301208496;19.373384475708008;85.58918762207031
193;1673285332.2525983;47.130642599999995;7.2406198999999996;44.3900032043457;1673285332.4221368;-18.374324798583984;20.273189544677734;85.3620376586914
194;1673285332.4578192;47.130642599999995;7.2406198999999996;44.78600311279297;1673285332.6214392;-17.766857147216797;21.982664108276367;84.93099975585938
195;1673285332.6590767;47.130642599999995;7.2406198999999996;45.177001953125;1673285332.8159168;-18.142433166503906;19.46885871887207;85.47238159179688
196;1673285332.8585997;47.1306425;7.2406198999999996;45.570003509521484;1673285333.0234444;-18.483043670654297;19.54566764831543;85.52445983886719
197;1673285333.0626228;47.1306425;7.2406198999999996;45.967002868652344;1673285333.2183518;-18.038915634155273;22.048858642578125;84.90592956542969
198;1673285333.2580864;47.130642599999995;7.2406198999999996;46.3640022277832;1673285333.4198904;-17.840471267700195;20.408119201660156;85.33448791503906
199;1673285333.4673877;47.130642699999996;7.2406198999999996;46.76000213623047;1673285333.6309905;-18.478416442871094;19.42745590209961;85.55242919921875
200;1673285333.66673;47.130642699999996;7.2406198999999996;47.159000396728516;1673285333.8732412;-17.99001121520996;21.947105407714844;85.01312255859375
201;1673285333.9376566;47.130642699999996;7.240619799999999;47.55900192260742;1673285334.0792239;-17.934736251831055;20.9512939453125;85.21832275390625
202;1673285334.116427;47.130642699999996;7.240619799999999;47.952003479003906;1673285334.260036;-18.617712020874023;19.65097999572754;85.4662857055664
203;1673285334.2971172;47.130642699999996;7.240619799999999;48.314002990722656;1673285334.4787931;-18.45537757873535;22.459810256958008;84.85887145996094
204;1673285334.5091991;47.1306428;7.2406196;48.62300109863281;1673285334.6630237;-18.651809692382812;21.16483497619629;85.26180267333984
205;1673285334.7051504;47.1306429;7.2406194;48.88800048828125;1673285334.851293;-19.334318161010742;20.689586639404297;85.42729187011719
206;1673285334.894241;47.130643;7.2406191;49.11000061035156;1673285335.0535736;-19.364612579345703;22.858205795288086;84.99656677246094
207;1673285335.0848038;47.1306431;7.2406188;49.29500198364258;1673285335.2497036;-9.466843605041504;18.63081932067871;84.67256164550781
208;1673285335.2877686;47.130643299999996;7.2406184;49.44200134277344;1673285335.4405742;-15.661016464233398;24.670434951782227;75.07278442382812
209;1673285335.4797065;47.1306436;7.2406174;49.51700210571289;1673285335.6326578;-12.583270072937012;32.24313735961914;64.3289794921875
210;1673285335.673617;47.1306438;7.2406166;49.53400421142578;1673285335.8368232;12.702264785766602;29.16138458251953;54.603004455566406
211;1673285335.8726509;47.1306438;7.2406156;49.548004150390625;1673285336.0373611;4.060135841369629;30.98565673828125;41.833839416503906
212;1673285336.0795844;47.130643299999996;7.240614;49.59100341796875;1673285336.2727368;8.235576629638672;32.02705001831055;34.53772735595703
213;1673285336.3045323;47.1306425;7.2406125999999995;49.63800048828125;1673285336.4616823;15.185214042663574;29.3461856842041;25.189908981323242
214;1673285336.5016413;47.1306417;7.2406114;49.677001953125;1673285336.6777415;17.01552391052246;26.68175506591797;15.98178768157959
215;1673285336.7136729;47.1306407;7.2406102;49.704002380371094;1673285336.8607032;20.141401290893555;23.084535598754883;7.0890302658081055
216;1673285336.890612;47.130639699999996;7.2406093;49.72700119018555;1673285337.0437148;22.13497543334961;19.57135009765625;-1.6202162504196167
217;1673285337.0809395;47.1306388;7.240608699999999;49.75100326538086;1673285337.245096;23.74709701538086;16.1002197265625;-10.467317581176758
218;1673285337.2808356;47.130638;7.2406083;49.77400207519531;1673285337.447662;24.991863250732422;12.688570976257324;-19.109451293945312
219;1673285337.4783933;47.1306373;7.240608099999999;49.794002532958984;1673285337.6438048;25.770654678344727;9.641083717346191;-27.808462142944336
220;1673285337.6835408;47.1306368;7.240608099999999;49.81300354003906;1673285337.8354573;26.343446731567383;6.788841247558594;-36.32262420654297
221;1673285337.8704197;47.1306365;7.240608;49.82400131225586;1673285338.0282903;26.750890731811523;3.472027063369751;-44.869503021240234
222;1673285338.0693774;47.1306364;7.240608;49.832000732421875;1673285338.2236812;27.137266159057617;-1.5040156841278076;-50.957157135009766
223;1673285338.2825284;47.1306367;7.240608099999999;49.84300231933594;1673285338.447209;27.947818756103516;-3.0620720386505127;-48.8464241027832
224;1673285338.4803784;47.1306369;7.240608099999999;49.855003356933594;1673285338.6458855;28.70318603515625;-3.5670249462127686;-46.7063102722168
225;1673285338.686902;47.130637199999995;7.2406079;49.8650016784668;1673285338.8483963;29.07520866394043;-4.9562602043151855;-46.103904724121094
226;1673285338.8845193;47.1306373;7.2406076;49.88100051879883;1673285339.0866258;29.237470626831055;-3.6623971462249756;-45.55796813964844
227;1673285339.1643972;47.1306373;7.2406071;49.89800262451172;1673285339.3281496;29.140439987182617;-0.8292989134788513;-44.925662994384766
228;1673285339.351588;47.1306371;7.2406066;49.90200424194336;1673285339.498671;28.763479232788086;1.637765884399414;-44.635650634765625
229;1673285339.535386;47.1306368;7.2406061;49.90900421142578;1673285339.6913033;29.047935485839844;2.781093120574951;-44.53251647949219
230;1673285339.7232528;47.130636599999995;7.240605599999999;49.922000885009766;1673285339.8664277;29.57462501525879;2.36850905418396;-44.7284049987793
231;1673285339.9009104;47.1306364;7.2406052;49.93600082397461;1673285340.0550027;29.607757568359375;0.8374266624450684;-45.14418029785156
232;1673285340.088278;47.1306363;7.2406049999999995;49.948001861572266;1673285340.239551;29.4122314453125;-0.8391668200492859;-45.4752311706543
233;1673285340.2769244;47.1306362;7.240604899999999;49.961002349853516;1673285340.445922;14.584547996520996;-1.5630210638046265;-47.20022964477539
234;1673285340.483563;47.1306362;7.2406047;49.9530029296875;1673285340.642342;-22.65029525756836;2.733673095703125;-48.80366516113281
235;1673285340.6784928;47.1306371;7.2406030999999995;49.92900085449219;1673285340.8495307;-37.90584945678711;3.0753250122070312;-49.5553092956543
236;1673285340.8836422;47.13064;7.2405985;49.862003326416016;1673285341.039452;-46.863712310791016;0.19228844344615936;-47.356380462646484
237;1673285341.076417;47.130645699999995;7.2405896;49.83500289916992;1673285341.2453015;-57.05581283569336;0.11148227751255035;-47.242164611816406
238;1673285341.278413;47.1306547;7.240575199999999;49.85100173950195;1673285341.4474373;-56.451515197753906;0.15316087007522583;-46.72639465332031
239;1673285341.4814923;47.1306667;7.2405554;49.86900329589844;1673285341.6424108;-57.15290069580078;0.6567381024360657;-46.807437896728516
240;1673285341.6774137;47.1306814;7.2405311;49.88600158691406;1673285341.8553944;-58.16939926147461;2.0096280574798584;-46.83625793457031
241;1673285341.892391;47.130698599999995;7.2405029;49.90200424194336;1673285342.049573;-58.701969146728516;1.3838928937911987;-46.74814987182617
242;1673285342.0797231;47.130718099999996;7.2404712;49.91800308227539;1673285342.2372954;-58.81199645996094;1.9517505168914795;-46.68050003051758
243;1673285342.2774224;47.1307395;7.2404367;49.927001953125;1673285342.435235;-55.71106719970703;2.1000657081604004;-46.20575714111328
244;1673285342.469801;47.130762499999996;7.2404002;49.923004150390625;1673285342.6333256;-55.48642349243164;2.071282386779785;-46.29460144042969
245;1673285342.681295;47.130786699999994;7.2403621;49.90800094604492;1673285342.84447;-49.70687484741211;1.9111756086349487;-46.02954864501953
246;1673285342.8783755;47.130812;7.2403227999999995;49.8900032043457;1673285343.0276136;-13.175283432006836;1.8521324396133423;-45.852237701416016
247;1673285343.0646102;47.130837199999995;7.240284;49.87600326538086;1673285343.2415044;35.38738250732422;1.6447993516921997;-46.198490142822266
248;1673285343.285938;47.130860899999995;7.2402478;49.84400177001953;1673285343.4733624;27.429424285888672;1.2600862979888916;-44.49034881591797
249;1673285343.511489;47.1308826;7.2402146;49.618003845214844;1673285343.66089;17.2987060546875;-0.9971005320549011;-46.2655029296875
250;1673285343.6913886;47.130901699999995;7.2401854;49.3640022277832;1673285343.847317;15.334015846252441;-0.5914506316184998;-47.13967514038086
251;1673285343.882377;47.1309184;7.2401596999999995;49.237003326416016;1673285344.0393932;45.0168571472168;-0.6459431052207947;-48.04051971435547
252;1673285344.0724504;47.1309325;7.240138099999999;49.298004150390625;1673285344.224466;52.82514953613281;-1.7405996322631836;-48.90434265136719
253;1673285344.2652788;47.1309433;7.2401216999999995;49.41400146484375;1673285344.42045;60.3367805480957;-0.8435550332069397;-47.278236389160156
254;1673285344.457371;47.1309501;7.2401114;49.56700134277344;1673285344.6323159;62.616458892822266;0.007165133021771908;-46.75371170043945
255;1673285344.6733153;47.1309535;7.2401063;49.69900131225586;1673285344.819488;62.22346496582031;0.19221025705337524;-46.59953689575195
256;1673285344.8514633;47.1309541;7.2401059;49.80600357055664;1673285345.0212412;63.05056381225586;-0.12468532472848892;-46.74678039550781
257;1673285345.0564623;47.1309524;7.2401091;49.880001068115234;1673285345.220233;61.301116943359375;-0.0495651438832283;-46.47862243652344
258;1673285345.2593312;47.130948599999996;7.2401154;49.9160041809082;1673285345.4278977;57.476558685302734;-0.18804354965686798;-46.14404296875
259;1673285345.4670954;47.1309433;7.2401238999999995;49.92100143432617;1673285345.6515145;55.30248260498047;0.03454427793622017;-46.013919830322266
260;1673285345.6842592;47.130936899999995;7.240133999999999;49.91100311279297;1673285345.8636088;53.821346282958984;0.28574320673942566;-45.83798599243164
261;1673285345.9061403;47.130929599999995;7.2401450999999994;49.88600158691406;1673285346.0585573;51.049354553222656;0.49910974502563477;-45.96842575073242
262;1673285346.0917857;47.130921699999995;7.240157099999999;49.85200119018555;1673285346.245849;45.94742965698242;0.6530105471611023;-46.21601867675781
263;1673285346.2825115;47.1309135;7.2401694999999995;49.82200241088867;1673285346.451705;33.97490692138672;0.8063610196113586;-46.9027099609375
264;1673285346.4898148;47.130905399999996;7.2401819;49.82400131225586;1673285346.6486537;17.151498794555664;0.9330987930297852;-47.971641540527344
265;1673285346.6861486;47.1308979;7.2401933;49.82600402832031;1673285346.8492103;5.133199214935303;1.213616967201233;-47.66648483276367
266;1673285346.8879426;47.1308918;7.2402026;49.82500076293945;1673285347.052044;7.375102996826172;-1.8540735244750977;-47.288612365722656
267;1673285347.0901566;47.1308875;7.2402092;49.827003479003906;1673285347.2500267;15.216270446777344;-0.025949642062187195;-45.68632507324219
268;1673285347.2812617;47.1308843;7.240213799999999;49.833003997802734;1673285347.4634888;10.360295295715332;-4.775341987609863;-48.695064544677734
269;1673285347.4948766;47.130881699999996;7.2402174;49.630001068115234;1673285347.641013;-12.153096199035645;-8.093761444091797;-49.40587615966797
270;1673285347.6771274;47.1308794;7.2402207;49.05400085449219;1673285347.8448222;-48.08295440673828;-10.557464599609375;-46.0959587097168
271;1673285347.8809428;47.130877299999995;7.2402237;48.095001220703125;1673285348.046119;-85.03721618652344;-42.86143112182617;-9.675371170043945
272;1673285348.0862591;47.1308752;7.240226799999999;46.750003814697266;1673285348.2452185;-68.21697235107422;-174.40419006347656;128.0952911376953
273;1673285348.282346;47.130873199999996;7.2402296999999995;45.031002044677734;1673285348.4339032;-64.92863464355469;-171.70062255859375;131.85552978515625
274;1673285348.4778304;47.130871299999995;7.2402324;42.9630012512207;1673285348.6466787;-84.00049591064453;-130.7585906982422;96.45140075683594
275;1673285348.6889231;47.1308696;7.240234999999999;40.55500030517578;1673285348.8520627;-51.30235290527344;-2.4110350608825684;-28.476987838745117
276;1673285348.8908412;47.130867699999996;7.2402375;37.797000885009766;1673285349.0555627;-0.11280044913291931;-0.2483460158109665;-32.09761047363281
277;1673285349.0938478;47.1308657;7.24024;34.647003173828125;1673285349.255915;36.58844757080078;-5.331009864807129;-35.234718322753906
278;1673285349.293213;47.130863999999995;7.2402422;31.102001190185547;1673285349.4455268;41.82638931274414;-12.552762031555176;-38.291385650634766
279;1673285349.481638;47.1308626;7.240244;27.202001571655273;1673285349.6330793;12.838488578796387;-12.288819313049316;-32.736328125
280;1673285349.6762574;47.130861599999996;7.2402453;22.939001083374023;1673285349.850614;-35.825687408447266;-12.6714506149292;-22.5076961517334
281;1673285349.8841853;47.130860899999995;7.2402466;18.283000946044922;1673285350.0766463;-70.4482192993164;-21.12013816833496;-5.841708660125732
282;1673285350.108586;47.1308599;7.2402481;13.26400089263916;1673285350.2878802;-67.55271911621094;-12.365961074829102;-8.769637107849121
283;1673285350.3201613;47.1308588;7.240249599999999;7.930000305175781;1673285350.4677281;-28.203977584838867;-2.4066340923309326;-16.76020622253418
284;1673285350.5011501;47.130857299999995;7.240251199999999;2.264000177383423;1673285350.6477578;-3.4082212448120117;-11.073812484741211;-17.983781814575195
285;1673285350.6799827;47.1308562;7.240250499999999;0.28600001335144043;1673285350.8365557;-5.716192722320557;-4.202355861663818;-29.771522521972656
286;1673285350.885572;47.130855399999994;7.2402482;0.3370000123977661;1673285351.0482585;0.11587316542863846;-6.205516815185547;-28.858110427856445
287;1673285351.0858846;47.1308551;7.2402473999999994;0.33000001311302185;1673285351.2418795;0.36460328102111816;-6.709372043609619;-28.085355758666992
288;1673285351.2792065;47.130855499999996;7.2402473999999994;0.3320000171661377;1673285351.4310665;0.5625064373016357;-7.076411724090576;-27.706829071044922
289;1673285351.474988;47.1308559;7.2402478;0.328000009059906;1673285351.6324515;0.6560437679290771;-7.360670566558838;-27.396034240722656
290;1673285351.670514;47.1308562;7.2402484;0.32100000977516174;1673285351.828074;0.7715981602668762;-7.544024467468262;-27.122264862060547
291;1673285351.8642197;47.1308564;7.2402489999999995;0.3110000193119049;1673285352.0246496;0.8292819857597351;-7.4834065437316895;-26.895410537719727
292;1673285352.0607593;47.1308565;7.2402495;0.3020000159740448;1673285352.2274265;0.8727635145187378;-7.328575611114502;-26.7712345123291
293;1673285352.2597258;47.1308562;7.2402492;0.2939999997615814;1673285352.4072895;0.9255350828170776;-7.0104660987854;-26.69044303894043
294;1673285352.4435408;47.130856;7.2402489999999995;0.28600001335144043;1673285352.607643;0.9476673603057861;-6.725861549377441;-26.511377334594727
295;1673285352.6473827;47.130856;7.2402491;0.2760000228881836;1673285352.8113973;0.992572009563446;-6.359945297241211;-26.413087844848633
296;1673285352.8475375;47.130856;7.2402494;0.2670000195503235;1673285353.0050328;1.0154976844787598;-6.028231620788574;-26.308046340942383
297;1673285353.0401692;47.130856;7.2402497;0.2580000162124634;1673285353.2072575;0.9788568615913391;-5.7222981452941895;-26.217424392700195
298;1673285353.2493825;47.130856;7.240249899999999;0.24900001287460327;1673285353.4130416;1.0327519178390503;-5.392533779144287;-26.166889190673828
299;1673285353.4452672;47.1308557;7.2402494;0.242000013589859;1673285353.6074028;0.9823994040489197;-5.09124231338501;-26.06278419494629
300;1673285353.6447186;47.130855399999994;7.2402491;0.23500001430511475;1673285353.7977138;1.0212938785552979;-4.7664794921875;-26.010068893432617
301;1673285353.8338294;47.1308553;7.2402489999999995;0.2290000170469284;1673285354.0066102;1.0090384483337402;-4.396996021270752;-25.932619094848633
302;1673285354.0427318;47.1308553;7.2402492;0.22200001776218414;1673285354.2118967;0.9713926315307617;-4.04282808303833;-25.88365936279297
303;1673285354.2510478;47.130855399999994;7.2402495;0.21400001645088196;1673285354.415245;0.9449408054351807;-3.7445507049560547;-25.812517166137695
304;1673285354.4523332;47.130855399999994;7.2402497;0.20500001311302185;1673285354.618386;0.89744633436203;-3.4298095703125;-25.765064239501953
305;1673285354.6654098;47.130855399999994;7.240249899999999;0.19500000774860382;1673285354.835678;0.9392314553260803;-3.2039074897766113;-25.763423919677734
306;1673285354.8740208;47.1308551;7.2402495;0.18400001525878906;1673285355.0487838;0.911872148513794;-2.9247303009033203;-25.71686553955078
307;1673285355.0888076;47.130854899999996;7.2402492;0.17600001394748688;1673285355.2946706;0.8620959520339966;-2.627812147140503;-25.71811866760254
308;1673285355.3327339;47.130854899999996;7.240249299999999;0.16600000858306885;1673285355.514002;0.8009293675422668;-2.3581948280334473;-25.696300506591797
309;1673285355.541639;47.130855;7.2402495;0.15600000321865082;1673285355.6832194;0.7384681105613708;-2.059619665145874;-25.669992446899414
310;1673285355.7159867;47.1308551;7.2402498;0.1469999998807907;1673285355.8848019;0.6132616996765137;-1.858713984489441;-25.69504165649414
311;1673285355.918902;47.1308552;7.24025;0.1380000114440918;1673285356.0832238;0.6920680999755859;-1.5907257795333862;-25.679683685302734
312;1673285356.1234097;47.130855;7.2402498;0.12600000202655792;1673285356.2686982;0.7157757878303528;-1.3858906030654907;-25.678062438964844
313;1673285356.3131547;47.130854899999996;7.2402497;0.1120000034570694;1673285356.444398;0.676594614982605;-1.1499919891357422;-25.667970657348633
314;1673285356.4746532;47.130854899999996;7.2402498;0.0990000069141388;1673285356.631161;0.7150330543518066;-0.8902329206466675;-25.688220977783203
315;1673285356.6692636;47.130855;7.2402501;0.09100000560283661;1673285356.8343358;0.719488263130188;-0.6694054007530212;-25.672950744628906
316;1673285356.8704367;47.1308552;7.2402504;0.0820000022649765;1673285357.028249;0.645481526851654;-0.466826856136322;-25.659778594970703
317;1673285357.061592;47.1308553;7.2402507;0.07200000435113907;1673285357.2246542;0.6512893438339233;-0.2622199058532715;-25.658611297607422
318;1673285357.2707136;47.130855399999994;7.240251;0.06300000101327896;1673285357.4723487;0.8147937059402466;0.1931610256433487;-25.661849975585938
319;1673285357.5080695;47.1308553;7.2402511;0.05300000309944153;1673285357.665278;0.801649808883667;0.37543991208076477;-25.648963928222656
320;1673285357.6984801;47.1308553;7.2402511;-0.0010000000474974513;1673285357.843014;0.7683976292610168;0.6209874153137207;-25.6054744720459
321;1673285357.882704;47.130855399999994;7.2402513;-0.007000000216066837;1673285358.0412104;0.7024888396263123;0.7993173003196716;-25.598915100097656
322;1673285358.0797873;47.130855499999996;7.240251499999999;-0.014000000432133675;1673285358.230488;0.7167057991027832;0.993660032749176;-25.58076286315918
323;1673285358.2631724;47.1308556;7.240251799999999;-0.02200000174343586;1673285358.4328022;0.6489064693450928;1.1688166856765747;-25.556425094604492
324;1673285358.4717066;47.1308557;7.240252;-0.03400000184774399;;;;
