;pos_time;latitude;longitude;altitude;alt_time;pitch;roll;yaw
0;1673285462.2867613;47.1306424;7.2406204;-0.017000000923871994;1673285462.2906651;0.4675023555755615;0.0013030886184424162;90.28582000732422
1;1673285462.514823;47.1306424;7.2406204;-0.017000000923871994;1673285462.5167747;0.08910764008760452;-0.11453702300786972;90.101318359375
2;1673285462.6780174;47.1306424;7.2406204;-0.017000000923871994;1673285462.67997;-0.11973726749420166;-0.0697639212012291;90.2510986328125
3;1673285462.854333;47.1306424;7.2406204;-0.017000000923871994;1673285462.8582397;-0.12227470427751541;-0.055253878235816956;90.1366195678711
4;1673285463.0424197;47.1306424;7.2406204;-0.01600000075995922;1673285463.0463061;-0.12494489550590515;-0.15139003098011017;90.23676300048828
5;1673285463.2525854;47.1306424;7.2406204;-0.015000000596046448;1673285463.257466;-0.10800936073064804;-0.11138807237148285;90.2760238647461
6;1673285463.4567878;47.1306424;7.2406204;-0.017000000923871994;1673285463.4606915;-0.014382051303982735;-0.006709236651659012;90.12747955322266
7;1673285463.644543;47.1306424;7.2406204;-0.018000001087784767;1673285463.6484435;0.12920115888118744;-0.05793801695108414;90.06977844238281
8;1673285463.8513517;47.1306423;7.2406203;-0.018000001087784767;1673285463.85428;0.11300265789031982;-0.24960999190807343;90.28471374511719
9;1673285464.0609772;47.1306424;7.2406203;0.0;1673285464.0639153;0.072225421667099;-1.2198315858840942;90.25082397460938
10;1673285464.26096;47.1306424;7.2406203;-0.0010000000474974513;1673285464.2638874;-0.09317123144865036;-1.1312975883483887;90.11148834228516
11;1673285464.4637089;47.1306424;7.2406203;0.0;1673285464.4666378;-0.13858360052108765;-1.1158989667892456;90.17894744873047
12;1673285464.6623766;47.1306424;7.2406203;0.0010000000474974513;1673285464.6652904;-0.05524108186364174;-0.9930424094200134;90.07534790039062
13;1673285464.8539147;47.1306424;7.2406203;0.0010000000474974513;1673285464.8558671;-0.004713577218353748;-0.9410736560821533;90.03948974609375
14;1673285465.0699003;47.1306424;7.2406201999999995;0.0010000000474974513;1673285465.0728273;0.2247358113527298;-1.0273367166519165;89.97940826416016
15;1673285465.2819865;47.1306424;7.2406201999999995;0.0;1673285465.285892;0.03359941020607948;-1.415465235710144;89.93451690673828
16;1673285465.473841;47.1306424;7.2406201999999995;0.0;1673285465.476768;0.22840948402881622;-1.6805894374847412;89.67646789550781
17;1673285465.676761;47.1306424;7.2406201999999995;0.0;1673285465.6798098;0.2523879408836365;-1.2263342142105103;89.55482482910156
18;1673285465.8637164;47.1306424;7.2406201999999995;0.0010000000474974513;1673285465.8677292;0.3187713623046875;-2.209902286529541;89.5812759399414
19;1673285466.0610418;47.1306424;7.2406201999999995;0.0;1673285466.0639696;0.5472784042358398;-0.8093487024307251;89.43939971923828
20;1673285466.279982;47.1306425;7.2406201999999995;-0.003000000026077032;1673285466.2819352;0.6842285394668579;-0.7032909989356995;88.9541015625
21;1673285466.4539657;47.130642599999995;7.2406201999999995;-0.006000000052154064;1673285466.4569082;1.4200037717819214;-1.1864871978759766;87.99165344238281
22;1673285466.6451151;47.130642599999995;7.2406201999999995;-0.005000000353902578;1673285466.6480718;1.2127280235290527;-0.7220475077629089;86.96626281738281
23;1673285466.846757;47.1306428;7.2406201999999995;-0.003000000026077032;1673285466.8500068;2.373335599899292;-1.059187889099121;85.79584503173828
24;1673285467.0588565;47.130643;7.2406201;-0.0020000000949949026;1673285467.0637;2.1453309059143066;0.010143322870135307;81.98081970214844
25;1673285467.2579694;47.1306436;7.2406193;-0.010000000707805157;1673285467.2609012;0.22910209000110626;-0.4401676654815674;72.0888671875
26;1673285467.452411;47.1306447;7.2406179999999996;-0.014000000432133675;1673285467.4554281;0.03549934923648834;0.6706894040107727;77.15438842773438
27;1673285467.6461396;47.1306462;7.2406159;0.0;1673285467.6506467;-1.8613280057907104;3.500270366668701;80.79915618896484
28;1673285467.8519032;47.130648099999995;7.2406131;0.021000001579523087;1673285467.8558087;-5.344955921173096;6.374985218048096;84.4747314453125
29;1673285468.064772;47.1306503;7.2406098;0.039000000804662704;1673285468.0677319;-9.025498390197754;10.65720272064209;84.84247589111328
30;1673285468.2739313;47.1306527;7.240606;0.05900000408291817;1673285468.2788866;-11.852265357971191;14.488194465637207;83.57482147216797
31;1673285468.4919176;47.1306552;7.2406019;0.0820000022649765;1673285468.4967983;-12.41722297668457;15.75478458404541;82.58053588867188
32;1673285468.6767786;47.130657799999994;7.2405976999999995;0.10700000822544098;1673285468.6787767;-13.067139625549316;17.231836318969727;81.72914123535156
33;1673285468.868813;47.130660299999995;7.2405934;0.1380000114440918;1673285468.8707275;-13.980233192443848;18.638809204101562;81.0343017578125
34;1673285469.0829628;47.130662699999995;7.2405892;0.1730000078678131;1673285469.0849183;-15.195962905883789;19.674793243408203;80.65026092529297
35;1673285469.2836053;47.130665;7.2405852;0.20500001311302185;1673285469.2865334;-16.444141387939453;21.18073081970215;80.24605560302734
36;1673285469.475772;47.1306671;7.2405816;0.23200000822544098;1673285469.4787004;-17.767295837402344;22.667278289794922;79.95587921142578
37;1673285469.6595445;47.130669;7.240578299999999;0.25699999928474426;1673285469.6614969;-19.25157928466797;24.070161819458008;79.84197998046875
38;1673285469.8537714;47.1306705;7.2405756;0.28200000524520874;1673285469.8586516;-20.8310489654541;25.51104736328125;79.81253051757812
39;1673285470.0598404;47.1306717;7.2405734;0.3060000240802765;1673285470.0647192;-22.475934982299805;26.91583251953125;79.8969955444336
40;1673285470.2701778;47.130672499999996;7.240571999999999;0.328000009059906;1673285470.27408;-24.152822494506836;28.57938575744629;80.05944061279297
41;1673285470.4671428;47.1306728;7.240571399999999;0.3460000157356262;1673285470.4690793;-25.991622924804688;29.815675735473633;80.41227722167969
42;1673285470.6734157;47.1306726;7.240571699999999;0.36100003123283386;1673285470.6763387;-27.906248092651367;30.965351104736328;80.87797546386719
43;1673285470.8737342;47.130671799999995;7.2405729999999995;0.37700000405311584;1673285470.8776383;-29.982019424438477;32.265350341796875;81.32008361816406
44;1673285471.065108;47.1306705;7.240575199999999;0.39500001072883606;1673285471.0690105;-32.127098083496094;33.63465881347656;81.83106231689453
45;1673285471.2579625;47.1306685;7.2405785;0.4150000214576721;1673285471.2608926;-34.49559020996094;34.611717224121094;82.72462463378906
46;1673285471.4586146;47.130665799999996;7.2405829;0.43300002813339233;1673285471.4605527;-33.296241760253906;32.14115905761719;84.40589904785156
47;1673285471.6617546;47.1306626;7.2405881;0.445000022649765;1673285471.666634;-29.956836700439453;28.462373733520508;85.89848327636719
48;1673285471.868289;47.1306592;7.2405937;0.45000001788139343;1673285471.872181;-25.680259704589844;23.7745418548584;87.33837127685547
49;1673285472.0839014;47.1306558;7.2405991;0.49400001764297485;1673285472.086831;-22.33758544921875;21.24941635131836;88.47335815429688
50;1673285472.3243275;47.1306526;7.2406042;0.5470000505447388;1673285472.3283336;-18.909406661987305;17.086872100830078;88.96875
51;1673285472.4962618;47.1306498;7.240608699999999;0.597000002861023;1673285472.5001688;-15.105208396911621;15.287347793579102;88.33768463134766
52;1673285472.6778333;47.1306477;7.240612199999999;0.6480000019073486;1673285472.6807518;-13.39343547821045;15.354562759399414;87.56587219238281
53;1673285472.885821;47.1306461;7.2406147;0.7070000171661377;1673285472.888749;-12.925848007202148;13.1812162399292;87.67554473876953
54;1673285473.078683;47.130645099999995;7.2406162;0.7790000438690186;1673285473.0816348;-13.63704776763916;13.464310646057129;87.60865783691406
55;1673285473.2648318;47.1306447;7.2406169;0.8610000610351562;1673285473.2687204;-14.115992546081543;18.25309181213379;86.3359603881836
56;1673285473.4761755;47.130644499999995;7.2406171;0.9500000476837158;1673285473.4790962;-15.84559440612793;17.713191986083984;86.34735107421875
57;1673285473.67339;47.130644499999995;7.240616999999999;1.0460000038146973;1673285473.6802223;-18.26471519470215;17.901386260986328;86.21326446533203
58;1673285473.8739634;47.130644499999995;7.2406166999999995;1.15500009059906;1673285473.8778682;-18.98069953918457;22.132123947143555;85.15188598632812
59;1673285474.0469303;47.130644499999995;7.2406163999999995;1.2730000019073486;1673285474.0498655;-19.524805068969727;22.173728942871094;84.75003814697266
60;1673285474.2667706;47.130644499999995;7.2406163;1.402000069618225;1673285474.270676;-20.592758178710938;19.704431533813477;85.30784606933594
61;1673285474.4708438;47.130644499999995;7.2406163;1.5420000553131104;1673285474.4737668;-20.689908981323242;21.84339714050293;84.82562255859375
62;1673285474.671291;47.1306444;7.2406165;1.6940001249313354;1673285474.6742084;-20.045799255371094;22.65022850036621;87.21664428710938
63;1673285474.8657544;47.1306444;7.2406169;1.8570001125335693;1673285474.8696587;-20.27602767944336;19.91152572631836;87.7696533203125
64;1673285475.0708387;47.1306442;7.2406174;2.0310001373291016;1673285475.074744;-19.576234817504883;20.88271713256836;87.60372924804688
65;1673285475.265346;47.130644;7.2406178;2.2139999866485596;1673285475.268274;-18.661231994628906;22.5002498626709;87.05482482910156
66;1673285475.453846;47.1306438;7.2406182;2.4020001888275146;1673285475.458727;-18.23601531982422;19.730518341064453;87.572021484375
67;1673285475.6745892;47.1306436;7.2406185999999995;2.5910000801086426;1673285475.6775162;-18.739227294921875;19.434507369995117;87.7219467163086
68;1673285475.8696566;47.1306435;7.240618899999999;2.7810001373291016;1673285475.873561;-17.995656967163086;22.501035690307617;86.92701721191406
69;1673285476.0704467;47.1306434;7.240619199999999;2.9750001430511475;1673285476.0753286;-17.989728927612305;21.14358139038086;87.25747680664062
70;1673285476.2841547;47.130643299999996;7.240619499999999;3.1710002422332764;1673285476.2870815;-18.54019546508789;19.616235733032227;87.91753387451172
71;1673285476.46014;47.1306431;7.2406196;3.366000175476074;1673285476.462092;-18.386014938354492;21.918535232543945;87.25408935546875
72;1673285476.6642482;47.1306429;7.2406196;3.558000087738037;1673285476.6671805;-18.246580123901367;21.411869049072266;86.99654388427734
73;1673285476.8596246;47.130642699999996;7.2406197;3.749000072479248;1673285476.862555;-18.828475952148438;18.84113121032715;87.5760269165039
74;1673285477.0679414;47.130642599999995;7.2406197;3.937000274658203;1673285477.070869;-19.11379623413086;20.714275360107422;87.38385772705078
75;1673285477.2681382;47.130642599999995;7.240619799999999;4.129000186920166;1673285477.2720425;-18.458454132080078;21.83077621459961;87.06758880615234
76;1673285477.4644449;47.1306425;7.2406198999999996;4.324000358581543;1673285477.467385;-19.1102294921875;19.006567001342773;87.6941146850586
77;1673285477.6660485;47.1306424;7.24062;4.51800012588501;1673285477.6689615;-19.234580993652344;19.863439559936523;87.57278442382812
78;1673285477.8642015;47.1306423;7.24062;4.708000183105469;1673285477.868106;-18.43292999267578;21.975801467895508;86.91117095947266
79;1673285478.067297;47.1306423;7.2406201;4.895000457763672;1673285478.0721695;-18.623018264770508;19.34733009338379;87.60003662109375
80;1673285478.2685063;47.1306423;7.2406201999999995;5.083000183105469;1673285478.27142;-18.95135498046875;19.047731399536133;87.76116180419922
81;1673285478.449276;47.1306423;7.2406203;5.272000312805176;1673285478.4521985;-18.280933380126953;22.096036911010742;87.11688995361328
82;1673285478.6395652;47.1306424;7.2406204;5.463000297546387;1673285478.6421947;-18.45003318786621;20.402427673339844;87.46685791015625
83;1673285478.8393698;47.1306424;7.2406204;5.65500020980835;1673285478.8422995;-18.91608238220215;18.92167091369629;87.9417953491211
84;1673285479.0419195;47.1306424;7.2406204999999995;5.8480000495910645;1673285479.0453808;-18.569822311401367;21.991790771484375;87.1284408569336
85;1673285479.250524;47.1306424;7.2406204999999995;6.038000106811523;1673285479.2534618;-18.09270477294922;21.18988800048828;87.19522094726562
86;1673285479.4654434;47.1306424;7.2406204999999995;6.229000091552734;1673285479.4693391;-18.771560668945312;18.580339431762695;87.77738952636719
87;1673285479.6754396;47.1306424;7.2406206;6.422000408172607;1673285479.679343;-18.68992805480957;21.247573852539062;87.25086212158203
88;1673285479.8864956;47.1306425;7.2406206;6.615000247955322;1673285479.8903987;-18.069599151611328;22.189428329467773;86.96739196777344
89;1673285480.078169;47.130642599999995;7.2406206;6.809000492095947;1673285480.081113;-18.769790649414062;19.365556716918945;87.74453735351562
90;1673285480.2833438;47.130642599999995;7.2406206;7.003000259399414;1673285480.2882252;-18.865583419799805;20.64697265625;87.5331802368164
91;1673285480.4956124;47.1306425;7.2406206;7.193000316619873;1673285480.499517;-18.24332046508789;22.52229881286621;86.95513916015625
92;1673285480.6867852;47.1306425;7.2406206;7.383000373840332;1673285480.6897066;-18.35420799255371;19.72360610961914;87.4754409790039
93;1673285480.879387;47.1306424;7.2406206;7.574000358581543;1673285480.883301;-19.042346954345703;19.346569061279297;87.63562774658203
94;1673285481.0847578;47.1306424;7.2406206;7.766000270843506;1673285481.088681;-18.427867889404297;22.023771286010742;87.08163452148438
95;1673285481.361837;47.1306424;7.2406204999999995;7.962000370025635;1673285481.3628004;-18.438827514648438;21.146469116210938;87.26931762695312
96;1673285481.5359895;47.1306425;7.2406204999999995;8.159000396728516;1673285481.5398946;-19.110517501831055;18.919864654541016;87.89447021484375
97;1673285481.7081003;47.1306425;7.2406204999999995;8.355999946594238;1673285481.711029;-18.77403450012207;21.453617095947266;87.34183502197266
98;1673285481.9036064;47.1306424;7.2406204999999995;8.54900074005127;1673285481.9065363;-18.386564254760742;21.585094451904297;87.1231460571289
99;1673285482.1122587;47.1306423;7.2406206;8.746000289916992;1673285482.116161;-18.670543670654297;18.7497615814209;87.7779541015625
100;1673285482.3039284;47.1306423;7.2406206;8.943000793457031;1673285482.3078408;-18.98753547668457;20.506378173828125;87.36373901367188
101;1673285482.5109694;47.1306423;7.2406206;9.141000747680664;1673285482.5138981;-18.09109115600586;22.2186222076416;86.9415054321289
102;1673285482.6978934;47.1306424;7.2406206;9.342000007629395;1673285482.7008371;-18.775390625;19.353923797607422;87.71849822998047
103;1673285482.8943894;47.1306424;7.2406207;9.541000366210938;1673285482.8982933;-18.855304718017578;20.097379684448242;87.68095397949219
104;1673285483.084113;47.1306424;7.2406206;9.74000072479248;1673285483.0870223;-18.254470825195312;22.271442413330078;87.04387664794922
105;1673285483.2713242;47.1306423;7.2406206;9.940000534057617;1673285483.2752278;-18.481304168701172;20.243501663208008;87.36795806884766
106;1673285483.4633517;47.1306423;7.2406206;10.145000457763672;1673285483.4672449;-18.80522346496582;18.52330780029297;87.75765228271484
107;1673285483.6763582;47.1306422;7.2406206;10.406000137329102;1673285483.6802475;-18.931116104125977;21.107879638671875;87.25650024414062
108;1673285483.8775692;47.130641999999995;7.240621;10.771000862121582;1673285483.8814743;-22.005727767944336;23.617931365966797;87.2567138671875
109;1673285484.070427;47.1306416;7.240621699999999;11.163000106811523;1673285484.0743308;-19.68203353881836;20.402965545654297;87.92676544189453
110;1673285484.2824874;47.1306412;7.2406223999999995;11.564000129699707;1673285484.2854145;-18.00118064880371;20.878398895263672;87.29133605957031
111;1673285484.477746;47.1306407;7.2406231;11.967000961303711;1673285484.4806728;-16.456876754760742;19.408002853393555;87.30693054199219
112;1673285484.6613593;47.1306404;7.240623599999999;12.370000839233398;1673285484.6642873;-16.053220748901367;16.729869842529297;87.76241302490234
113;1673285484.8739545;47.1306404;7.2406238;12.77500057220459;1673285484.8778603;-15.83348274230957;18.145044326782227;87.43622589111328
114;1673285485.1232636;47.1306404;7.2406238;13.180000305175781;1673285485.1252153;-15.392223358154297;19.836257934570312;86.96586608886719
115;1673285485.2971408;47.1306406;7.2406235;13.588000297546387;1673285485.300071;-16.407690048217773;17.425594329833984;87.5051498413086
116;1673285485.485035;47.130640799999995;7.2406231;13.997000694274902;1673285485.486987;-17.08159637451172;18.68254280090332;87.46944427490234
117;1673285485.6902006;47.130641;7.240622699999999;14.410000801086426;1673285485.6931245;-17.316715240478516;21.299861907958984;87.0013198852539
118;1673285485.8858247;47.1306412;7.2406222;14.826001167297363;1673285485.8887615;-17.791683197021484;19.43695831298828;87.42597961425781
119;1673285486.0762398;47.130641399999995;7.2406217999999996;15.244000434875488;1673285486.0791557;-18.83991813659668;18.954206466674805;87.7071304321289
120;1673285486.2677073;47.130641499999996;7.240621399999999;15.655000686645508;1673285486.271613;-18.48706817626953;21.507600784301758;87.11548614501953
121;1673285486.4756129;47.1306417;7.240621099999999;16.071001052856445;1673285486.479519;-18.708126068115234;20.56715202331543;87.40019226074219
122;1673285486.679105;47.1306419;7.2406209;16.488000869750977;1673285486.6820319;-19.332536697387695;18.99018669128418;87.88606262207031
123;1673285486.8726513;47.1306419;7.240620799999999;16.902000427246094;1673285486.8755798;-18.791536331176758;21.37615966796875;87.33006286621094
124;1673285487.077735;47.1306419;7.240620799999999;17.312000274658203;1673285487.0806665;-18.276756286621094;21.126014709472656;87.26776123046875
125;1673285487.2761836;47.1306419;7.240620799999999;17.71700096130371;1673285487.2830157;-18.566577911376953;18.778799057006836;87.83843994140625
126;1673285487.4706047;47.130641999999995;7.2406209;18.12200164794922;1673285487.4744983;-18.229564666748047;20.383888244628906;87.4919662475586
127;1673285487.6564543;47.130641999999995;7.240621;18.522001266479492;1673285487.6589422;-17.531938552856445;21.61251449584961;87.16445922851562
128;1673285487.8601542;47.130641999999995;7.240621099999999;18.92300033569336;1673285487.8630834;-17.9277286529541;19.188100814819336;87.60533905029297
129;1673285488.0729089;47.130642099999996;7.240621099999999;19.325000762939453;1673285488.076811;-17.95620346069336;19.60708236694336;87.72714233398438
130;1673285488.2961664;47.130642099999996;7.240621099999999;19.731000900268555;1673285488.3000696;-17.424814224243164;21.70652198791504;87.1818618774414
131;1673285488.4945102;47.130642099999996;7.240621099999999;20.135000228881836;1673285488.4984133;-17.5748348236084;19.885211944580078;87.47277069091797
132;1673285488.6966546;47.130642099999996;7.240621;20.53900146484375;1673285488.6995833;-18.14547348022461;19.03837013244629;87.7160415649414
133;1673285488.9169087;47.130642099999996;7.2406209;20.941001892089844;1673285488.9207983;-17.75119972229004;21.75434684753418;87.05155181884766
134;1673285489.1432815;47.1306422;7.240620799999999;21.347000122070312;1673285489.149138;-17.84552001953125;20.3825626373291;87.33966827392578
135;1673285489.3565137;47.1306423;7.240620799999999;21.749000549316406;1673285489.3594334;-18.398780822753906;18.922693252563477;87.80531311035156
136;1673285489.5296874;47.1306423;7.2406207;22.1510009765625;1673285489.5316393;-18.106334686279297;21.534955978393555;87.16703796386719
137;1673285489.71918;47.1306422;7.2406206;22.552001953125;1673285489.7230837;-17.66582679748535;21.068082809448242;87.23941040039062
138;1673285489.916642;47.1306422;7.2406206;22.953001022338867;1673285489.920547;-18.416765213012695;18.75363540649414;87.75626373291016
139;1673285490.113159;47.1306422;7.2406204999999995;23.350000381469727;1673285490.1151009;-18.49409294128418;20.59726333618164;87.41241455078125
140;1673285490.289138;47.1306422;7.2406204;23.7450008392334;1673285490.292068;-17.909461975097656;21.859189987182617;87.0770034790039
141;1673285490.4932206;47.1306422;7.2406204999999995;24.143001556396484;1673285490.4961314;-18.47732162475586;19.072301864624023;87.73350524902344
142;1673285490.6890333;47.1306422;7.2406206;24.542001724243164;1673285490.6919546;-18.199691772460938;20.084754943847656;87.61617279052734
143;1673285490.885109;47.130642099999996;7.2406206;24.944000244140625;1673285490.8870623;-17.934593200683594;21.694740295410156;87.11554718017578
144;1673285491.091479;47.130641999999995;7.2406206;25.34600067138672;1673285491.0934305;-17.922061920166016;19.353029251098633;87.53607940673828
145;1673285491.2852142;47.130641999999995;7.2406207;25.74700164794922;1673285491.2881489;-18.279373168945312;19.043292999267578;87.69889068603516
146;1673285491.4939227;47.130641999999995;7.2406207;26.144001007080078;1673285491.4968514;-17.606407165527344;21.474756240844727;87.1131591796875
147;1673285491.691935;47.130642099999996;7.2406207;26.545001983642578;1673285491.6938708;-17.729337692260742;20.505550384521484;87.44200897216797
148;1673285491.8796225;47.130642099999996;7.2406207;26.94900131225586;1673285491.8825533;-18.374858856201172;18.926624298095703;87.72193145751953
149;1673285492.0890188;47.130642099999996;7.2406207;27.35500144958496;1673285492.0909584;-18.084897994995117;21.510847091674805;87.2380599975586
150;1673285492.2989936;47.130641999999995;7.2406206;27.76000213623047;1673285492.3038623;-17.58458137512207;20.723018646240234;87.27176666259766
151;1673285492.482165;47.130641999999995;7.2406206;28.165000915527344;1673285492.4860766;-18.24455451965332;18.67160415649414;87.66552734375
152;1673285492.6872883;47.130642099999996;7.2406206;28.567001342773438;1673285492.6912582;-18.12086296081543;20.826908111572266;87.29116821289062
153;1673285492.8940926;47.130642099999996;7.2406206;28.963001251220703;1673285492.8980098;-17.685333251953125;21.322357177734375;87.14269256591797
154;1673285493.083594;47.1306422;7.2406206;29.362001419067383;1673285493.0865247;-18.29643440246582;19.23615264892578;87.60274505615234
155;1673285493.2711222;47.1306423;7.2406206;29.76300048828125;1673285493.2750783;-18.312469482421875;20.352462768554688;87.55565643310547
156;1673285493.4692805;47.1306423;7.2406206;30.16600227355957;1673285493.4731858;-17.810745239257812;22.178499221801758;87.07426452636719
157;1673285493.6893287;47.1306423;7.2406206;30.57000160217285;1673285493.693232;-18.110069274902344;20.118057250976562;87.51378631591797
158;1673285493.8868773;47.1306423;7.2406206;30.968002319335938;1673285493.8907816;-18.34980583190918;19.427282333374023;87.76493072509766
159;1673285494.0794013;47.1306423;7.2406206;31.364002227783203;1673285494.082329;-17.985658645629883;21.820375442504883;87.07755279541016
160;1673285494.2679694;47.1306424;7.2406206;31.76500129699707;1673285494.2718763;-17.804454803466797;20.2065372467041;87.40984344482422
161;1673285494.4877095;47.1306424;7.2406206;32.169002532958984;1673285494.4906385;-18.538131713867188;19.09418487548828;87.78143310546875
162;1673285494.682077;47.1306424;7.2406207;32.57400131225586;1673285494.6889088;-17.878921508789062;21.48505973815918;87.24388885498047
163;1673285494.8851619;47.1306423;7.2406207;32.97600173950195;1673285494.8890707;-17.640836715698242;20.900840759277344;87.2144546508789
164;1673285495.1095128;47.1306424;7.2406207;33.37700271606445;1673285495.1143875;-18.149892807006836;18.961549758911133;87.66061401367188
165;1673285495.300127;47.1306424;7.2406207;33.777000427246094;1673285495.3050091;-17.846763610839844;21.368331909179688;87.27570343017578
166;1673285495.493546;47.1306424;7.2406207;34.17399978637695;1673285495.4974499;-17.533525466918945;21.404102325439453;87.27220916748047
167;1673285495.6909988;47.1306424;7.2406207;34.57600021362305;1673285495.693925;-18.250240325927734;19.210145950317383;87.74475860595703
168;1673285495.8863063;47.1306424;7.2406207;34.98100280761719;1673285495.889234;-18.18256950378418;20.788909912109375;87.46031951904297
169;1673285496.083638;47.1306424;7.2406207;35.384002685546875;1673285496.0865564;-17.708534240722656;21.81474494934082;87.14623260498047
170;1673285496.280138;47.1306423;7.2406206;35.78900146484375;1673285496.284026;-18.05655288696289;19.117382049560547;87.6653823852539
171;1673285496.5068944;47.1306423;7.2406206;36.191001892089844;1673285496.5107975;-18.204936981201172;19.943132400512695;87.61319732666016
172;1673285496.76474;47.1306423;7.2406206;36.5880012512207;1673285496.7676682;-17.75185775756836;21.778573989868164;87.10420227050781
173;1673285496.9524345;47.1306424;7.2406206;36.9890022277832;1673285496.954383;-17.80754280090332;19.95382308959961;87.47138214111328
174;1673285497.1605835;47.1306424;7.2406206;37.3900032043457;1673285497.162489;-18.285675048828125;19.286893844604492;87.82025909423828
175;1673285497.359499;47.1306423;7.2406206;37.79100036621094;1673285497.3614604;-17.86618423461914;21.838951110839844;87.14582824707031
176;1673285497.5249338;47.1306423;7.2406204999999995;38.191001892089844;1673285497.5278628;-17.740739822387695;20.636472702026367;87.28138732910156
177;1673285497.7067275;47.1306423;7.2406204999999995;38.59400177001953;1673285497.7106433;-18.304424285888672;18.924894332885742;87.75887298583984
178;1673285497.8934078;47.1306423;7.2406204999999995;38.99400329589844;1673285497.8963563;-18.166580200195312;21.260953903198242;87.21250915527344
179;1673285498.0758407;47.1306423;7.2406204;39.38900375366211;1673285498.0787692;-17.566835403442383;21.473352432250977;87.13739013671875
180;1673285498.2803125;47.1306424;7.2406204;39.790000915527344;1673285498.2832394;-18.363962173461914;19.297550201416016;87.74729919433594
181;1673285498.4836206;47.1306424;7.2406204;40.194000244140625;1673285498.4865603;-18.350305557250977;20.4274959564209;87.4769515991211
182;1673285498.677245;47.1306423;7.2406204;40.59800338745117;1673285498.6801734;-17.698284149169922;21.78856086730957;87.02597045898438
183;1673285498.881747;47.1306423;7.2406204;41.000003814697266;1673285498.8856554;-18.125999450683594;19.44808006286621;87.55009460449219
184;1673285499.0739088;47.1306423;7.2406203;41.397003173828125;1673285499.0773742;-18.42136001586914;19.897050857543945;87.5940170288086
185;1673285499.2785122;47.1306423;7.2406203;41.78900146484375;1673285499.282497;-17.836389541625977;21.82305145263672;87.09286499023438
186;1673285499.484467;47.1306424;7.2406203;42.18400192260742;1673285499.4873962;-18.030908584594727;20.025390625;87.54317474365234
187;1673285499.7056496;47.1306424;7.2406203;42.582000732421875;1673285499.714424;-18.353708267211914;19.447662353515625;87.7181167602539
188;1673285499.931205;47.1306424;7.2406203;42.98200225830078;1673285499.9351113;-17.854450225830078;22.174089431762695;87.08702087402344
189;1673285500.113936;47.1306424;7.2406203;43.38300323486328;1673285500.1158807;-17.74464225769043;20.402984619140625;87.52342987060547
190;1673285500.2878108;47.1306424;7.2406203;43.788002014160156;1673285500.2917163;-18.331195831298828;19.056306838989258;87.82418823242188
191;1673285500.5104713;47.1306424;7.2406203;44.18800354003906;1673285500.5134065;-17.913612365722656;21.695438385009766;87.22967529296875
192;1673285500.7166283;47.1306424;7.2406203;44.586002349853516;1673285500.7185783;-17.542734146118164;21.1278133392334;87.30902099609375
193;1673285500.9152331;47.1306425;7.2406203;44.987003326416016;1673285500.9181612;-18.27370262145996;19.13037109375;87.8275146484375
194;1673285501.1080248;47.1306424;7.2406203;45.38900375366211;1673285501.1119285;-17.99799919128418;21.318941116333008;87.25830841064453
195;1673285501.2839491;47.1306424;7.2406201999999995;45.790000915527344;1673285501.2878377;-17.598142623901367;21.63569450378418;87.04644012451172
196;1673285501.5107725;47.1306424;7.2406201999999995;46.19000244140625;1673285501.5127196;-18.11893081665039;19.273212432861328;87.7144546508789
197;1673285501.737492;47.1306424;7.2406201999999995;46.5880012512207;1673285501.739451;-18.333003997802734;20.26341438293457;87.53129577636719
198;1673285501.9171808;47.1306424;7.2406201999999995;46.98200225830078;1673285501.921096;-17.5924072265625;22.139551162719727;87.10023498535156
199;1673285502.1373935;47.1306425;7.2406201999999995;47.380001068115234;1673285502.1393473;-17.957717895507812;19.778629302978516;87.6415023803711
200;1673285502.3293433;47.1306425;7.2406201999999995;47.78000259399414;1673285502.3332472;-18.262577056884766;19.66093635559082;87.64118194580078
201;1673285502.5737083;47.1306424;7.2406201999999995;48.165000915527344;1673285502.5756783;-17.987762451171875;21.965007781982422;87.03226470947266
202;1673285502.7514255;47.1306425;7.24062;48.49800109863281;1673285502.7533772;-18.466346740722656;20.71210289001465;87.3821792602539
203;1673285502.9303954;47.130642599999995;7.2406197;48.78000259399414;1673285502.9333248;-18.757993698120117;21.00859832763672;87.4961166381836
204;1673285503.1100013;47.1306428;7.2406194;49.012001037597656;1673285503.1129293;-19.10877227783203;22.427684783935547;87.19766235351562
205;1673285503.2916524;47.130643;7.240619199999999;49.19900131225586;1673285503.293595;-19.60369110107422;21.64984703063965;87.48680877685547
206;1673285503.5039468;47.1306431;7.2406188;49.36000061035156;1673285503.5078473;-15.956096649169922;25.13988494873047;87.54884338378906
207;1673285503.689689;47.130643;7.2406181;49.48400115966797;1673285503.6926208;-2.3654284477233887;34.643341064453125;80.64734649658203
208;1673285503.9013958;47.130642599999995;7.2406166999999995;49.551002502441406;1673285503.9043262;-7.8975348472595215;30.526477813720703;66.20428466796875
209;1673285504.1074097;47.130641999999995;7.2406153;49.60200119018555;1673285504.1103952;-4.293947219848633;28.618358612060547;56.84883499145508
210;1673285504.3082485;47.130641399999995;7.240614;49.64600372314453;1673285504.310527;4.706476211547852;29.606019973754883;47.654747009277344
211;1673285504.5086203;47.1306406;7.2406125999999995;49.677001953125;1673285504.5115557;7.575377941131592;28.42853355407715;37.867977142333984
212;1673285504.726215;47.1306398;7.2406114;49.704002380371094;1673285504.7282355;11.629587173461914;28.31954002380371;29.029708862304688
213;1673285504.9043362;47.130638999999995;7.240610299999999;49.72700119018555;1673285504.9073124;14.60358715057373;27.5510196685791;20.14430046081543
214;1673285505.0972788;47.1306383;7.240609399999999;49.74400329589844;1673285505.1013916;17.603137969970703;25.81431770324707;11.587299346923828
215;1673285505.3095758;47.1306377;7.240608699999999;49.759002685546875;1673285505.3115277;20.651906967163086;23.115230560302734;2.8271358013153076
216;1673285505.5156147;47.1306371;7.2406082;49.77400207519531;1673285505.5203762;23.36326789855957;19.17392921447754;-6.026777267456055
217;1673285505.7203507;47.1306367;7.2406079;49.785003662109375;1673285505.7213345;25.652851104736328;14.137792587280273;-15.037459373474121
218;1673285505.8961685;47.1306364;7.240607799999999;49.790000915527344;1673285505.8981857;26.780630111694336;9.38772964477539;-23.964004516601562
219;1673285506.0803716;47.1306363;7.240608;49.794002532958984;1673285506.0833058;27.336275100708008;4.562297344207764;-32.721160888671875
220;1673285506.2818158;47.1306364;7.2406083;49.802001953125;1673285506.2857788;27.26055908203125;0.7776716351509094;-41.035221099853516
221;1673285506.4874494;47.130636599999995;7.2406085;49.81200408935547;1673285506.4903638;26.743131637573242;-2.0492708683013916;-48.829280853271484
222;1673285506.6811097;47.1306368;7.2406085;49.823001861572266;1673285506.6840315;26.98513412475586;-4.389394283294678;-49.87065505981445
223;1673285506.8859122;47.1306369;7.240608399999999;49.83100128173828;1673285506.8888412;28.094778060913086;-3.8612520694732666;-47.17814636230469
224;1673285507.0969553;47.1306368;7.2406079;49.83700180053711;1673285507.0998821;28.653175354003906;-3.0032472610473633;-45.668338775634766
225;1673285507.288634;47.1306368;7.2406074;49.855003356933594;1673285507.2915592;29.327072143554688;-3.786919593811035;-45.59191131591797
226;1673285507.4872026;47.1306367;7.240606799999999;49.875003814697266;1673285507.4891548;29.192913055419922;-3.4790003299713135;-45.591758728027344
227;1673285507.6803262;47.1306367;7.2406063;49.8910026550293;1673285507.6832542;28.972232818603516;-2.3238658905029297;-45.514808654785156
228;1673285507.8910818;47.130636599999995;7.240605899999999;49.90200424194336;1673285507.894008;28.614551544189453;-0.035741616040468216;-44.90536880493164
229;1673285508.0940545;47.1306365;7.240605599999999;49.90900421142578;1673285508.0969954;28.72623634338379;1.5961273908615112;-44.491607666015625
230;1673285508.3068602;47.1306364;7.2406054;49.90900421142578;1673285508.3097916;28.940637588500977;1.1621383428573608;-44.536827087402344
231;1673285508.5028472;47.1306362;7.2406052999999995;49.90400314331055;1673285508.5067525;29.197715759277344;-0.09744922816753387;-44.77730941772461
232;1673285508.7034924;47.1306361;7.2406049999999995;49.90200424194336;1673285508.7073965;9.912454605102539;-1.757879614830017;-46.87588119506836
233;1673285508.8918273;47.130637;7.2406033999999995;49.8900032043457;1673285508.894735;-25.512418746948242;0.18942151963710785;-48.74817657470703
234;1673285509.073489;47.130639699999996;7.240599199999999;49.82100296020508;1673285509.078097;-34.49709701538086;2.8885385990142822;-48.929359436035156
235;1673285509.2865508;47.1306455;7.2405902;49.827003479003906;1673285509.2906039;-53.36164093017578;-1.0541906356811523;-47.8174934387207
236;1673285509.485811;47.1306546;7.2405754;49.862003326416016;1673285509.4915211;-58.43784713745117;-0.8760871291160583;-47.31171417236328
237;1673285509.6874294;47.1306672;7.240554599999999;49.90500259399414;1673285509.6903615;-59.02711868286133;-1.4578548669815063;-47.3806037902832
238;1673285509.8805282;47.130682199999995;7.2405285;49.94300079345703;1673285509.8834546;-61.548648834228516;1.459001064300537;-47.86865997314453
239;1673285510.091452;47.130699799999995;7.2404978;49.96200180053711;1673285510.0953557;-62.79973220825195;3.568423271179199;-47.15492630004883
240;1673285510.3104281;47.1307198;7.2404638;49.957000732421875;1673285510.3143342;-58.77202606201172;3.5976991653442383;-46.48158264160156
241;1673285510.507321;47.130741699999994;7.240427599999999;49.935001373291016;1673285510.510438;-56.38854217529297;4.086391448974609;-46.44099426269531
242;1673285510.6973588;47.1307651;7.24039;49.90800094604492;1673285510.7012837;-55.117923736572266;4.7097625732421875;-46.14860153198242
243;1673285510.894343;47.130789799999995;7.2403514;49.88100051879883;1673285510.896298;-52.29515075683594;3.891042470932007;-45.57841491699219
244;1673285511.1045182;47.130815399999996;7.2403125;49.867000579833984;1673285511.1094859;-39.12300491333008;3.475193738937378;-45.02688217163086
245;1673285511.3013732;47.130840899999995;7.240274299999999;49.85900115966797;1673285511.3043017;4.930480003356934;2.8018758296966553;-45.11520767211914
246;1673285511.508439;47.1308645;7.2402391999999995;49.81500244140625;1673285511.5113838;43.80765151977539;2.09478497505188;-44.843929290771484
247;1673285511.7136989;47.1308861;7.240207099999999;49.56800079345703;1673285511.7171566;20.882598876953125;-0.521993100643158;-44.353851318359375
248;1673285511.9113617;47.1309049;7.2401789;49.34300231933594;1673285511.9142897;16.052894592285156;-1.0842450857162476;-46.34465789794922
249;1673285512.0973096;47.130921099999995;7.2401544;49.27700424194336;1673285512.0993419;23.784076690673828;-0.9605777859687805;-47.0874137878418
250;1673285512.280379;47.1309343;7.240134299999999;49.38200378417969;1673285512.2832954;52.57112121582031;-1.404038906097412;-48.09006118774414
251;1673285512.4882348;47.1309439;7.240119699999999;49.5150032043457;1673285512.492318;57.870018005371094;-1.7300289869308472;-47.9130744934082
252;1673285512.684272;47.1309501;7.2401105;49.650001525878906;1673285512.687222;62.23574447631836;-1.0314793586730957;-47.035709381103516
253;1673285512.882157;47.130952799999996;7.240106399999999;49.768001556396484;1673285512.885089;62.33953094482422;-0.17765483260154724;-46.07902145385742
254;1673285513.0934644;47.130952699999995;7.240106699999999;49.86000061035156;1673285513.0974045;62.115909576416016;-0.4221802353858948;-46.3885612487793
255;1673285513.316469;47.1309502;7.2401105999999995;49.91800308227539;1673285513.3198996;62.973567962646484;-0.42852783203125;-46.189231872558594
256;1673285513.513112;47.1309457;7.2401174;49.93800354003906;1673285513.51604;58.993980407714844;-0.48442068696022034;-46.19232940673828
257;1673285513.7095227;47.1309398;7.2401260999999995;49.935001373291016;1673285513.7114744;55.84719467163086;-0.06990760564804077;-45.62516403198242
258;1673285513.9116044;47.1309329;7.2401363;49.915000915527344;1673285513.9145195;54.333072662353516;0.0694853737950325;-45.7744140625
259;1673285514.111676;47.1309252;7.240147599999999;49.88200378417969;1673285514.1146169;52.027042388916016;0.1537264734506607;-46.01092529296875
260;1673285514.305938;47.1309171;7.2401596999999995;49.84800338745117;1673285514.3088884;48.920108795166016;0.17656780779361725;-46.33595657348633
261;1673285514.5130768;47.1309087;7.2401721;49.833003997802734;1673285514.5179608;39.67129898071289;-0.10980764031410217;-47.1038932800293
262;1673285514.7170343;47.1309007;7.2401841;49.8390007019043;1673285514.7199628;24.74976921081543;0.3668578863143921;-47.11592483520508
263;1673285514.9075985;47.130893699999994;7.2401944;49.84400177001953;1673285514.910526;10.351339340209961;1.2607753276824951;-46.92191696166992
264;1673285515.1024907;47.130888;7.2402028;49.8390007019043;1673285515.1063936;2.19016695022583;1.3175116777420044;-46.55244445800781
265;1673285515.2960532;47.130884099999996;7.2402088;49.83100128173828;1673285515.2989814;-1.670336127281189;1.0330125093460083;-46.12305450439453
266;1673285515.4993315;47.1308819;7.240212;49.83000183105469;1673285515.5032485;-6.874305248260498;-2.053440809249878;-46.88259506225586
267;1673285515.7514105;47.1308807;7.2402139;49.625003814697266;1673285515.7543406;-23.716148376464844;-24.452207565307617;-50.140602111816406
268;1673285515.9540496;47.130879799999995;7.240215399999999;49.04600143432617;1673285515.9579554;-49.05958557128906;-51.32772445678711;-37.246490478515625
269;1673285516.143736;47.1308791;7.2402166999999995;48.083003997802734;1673285516.1466768;-64.48110961914062;-101.97151184082031;13.445991516113281
270;1673285516.3296351;47.1308787;7.240217899999999;46.746002197265625;1673285516.332597;-59.56477355957031;-137.78236389160156;62.45409393310547
271;1673285516.510387;47.130878499999994;7.2402188999999995;45.06100082397461;1673285516.5133114;-59.02885437011719;-135.77444458007812;83.6533203125
272;1673285516.6935377;47.1308783;7.240219799999999;43.02400207519531;1673285516.6974392;-70.77515411376953;-90.2930908203125;65.35928344726562
273;1673285516.8830671;47.1308782;7.2402206;40.63300323486328;1673285516.886976;-53.10700225830078;-0.8412994146347046;-1.588913917541504
274;1673285517.0951145;47.130877899999994;7.2402212;37.8640022277832;1673285517.1000056;-8.13753890991211;15.918375015258789;-5.184150218963623
275;1673285517.3074665;47.1308776;7.2402212;34.698001861572266;1673285517.3103945;30.893388748168945;12.413824081420898;-1.7360265254974365
276;1673285517.513966;47.1308776;7.2402207;31.1510009765625;1673285517.5178685;47.04207229614258;-11.559516906738281;-9.688159942626953
277;1673285517.7190452;47.1308781;7.2402201999999996;27.257001876831055;1673285517.721968;31.77329444885254;-34.53036880493164;-8.77631664276123
278;1673285517.9342415;47.1308789;7.240219799999999;23.00200080871582;1673285517.9371712;-2.8271422386169434;-44.75342559814453;13.16176700592041
279;1673285518.1140857;47.1308797;7.240219799999999;18.378000259399414;1673285518.1170504;-36.9371337890625;-49.87738800048828;42.45298385620117
280;1673285518.3240921;47.1308803;7.2402199;13.41100025177002;1673285518.3270233;-53.73582077026367;-34.68165588378906;54.55497360229492
281;1673285518.5346463;47.130880499999996;7.2402196;8.112000465393066;1673285518.5375621;-37.45011901855469;2.252685070037842;41.62776565551758
282;1673285518.717208;47.1308807;7.2402185999999995;2.449000120162964;1673285518.7191508;7.818072319030762;14.347368240356445;42.925357818603516
283;1673285518.897022;47.130882899999996;7.240219499999999;0.27000001072883606;1673285518.8979976;-13.800453186035156;-6.322238922119141;37.48564147949219
284;1673285519.1048682;47.130883999999995;7.240220099999999;0.4970000088214874;1673285519.1107311;-13.626205444335938;6.459138870239258;19.43107795715332
285;1673285519.3111193;47.130883399999995;7.240220099999999;0.6580000519752502;1673285519.3140492;-6.813620567321777;2.661813259124756;20.35927391052246
286;1673285519.499886;47.1308832;7.240220099999999;0.7720000147819519;1673285519.5037985;-6.365093231201172;-0.4135313332080841;19.685657501220703
287;1673285519.6991253;47.1308833;7.2402203;0.8470000624656677;1673285519.7020686;-6.149816989898682;-1.911213994026184;19.440746307373047
288;1673285519.8964236;47.130883399999995;7.2402207;0.9100000262260437;1673285519.9013066;-5.985871315002441;-2.6057186126708984;19.18238639831543
289;1673285520.1230977;47.1308839;7.2402215;0.9810000658035278;1673285520.1250587;-5.871046543121338;-2.7782673835754395;18.912296295166016
290;1673285520.3296306;47.1308842;7.2402219;1.0230000019073486;1673285520.3325582;-5.665082931518555;-2.778686046600342;18.60088539123535
291;1673285520.5211215;47.1308843;7.240221999999999;1.0490000247955322;1673285520.5250256;-5.478859901428223;-2.7289650440216064;18.356199264526367
292;1673285520.730562;47.1308844;7.2402220999999995;1.0660001039505005;1673285520.7344663;-5.356973171234131;-2.570833921432495;18.16396713256836
293;1673285520.9529963;47.1308845;7.2402223;1.0789999961853027;1673285520.9549444;-5.2069993019104;-2.4571731090545654;18.033098220825195
294;1673285521.1438782;47.130884599999995;7.2402223999999995;1.0880000591278076;1673285521.1478326;-5.049720764160156;-2.3064301013946533;17.90342140197754
295;1673285521.330352;47.1308848;7.2402228;1.0980000495910645;1673285521.3332686;-4.929751396179199;-2.135498285293579;17.809541702270508
296;1673285521.5568943;47.1308854;7.2402238;1.125;1673285521.5598364;-4.8651347160339355;-1.9176924228668213;17.754274368286133
297;1673285521.752853;47.1308856;7.2402242999999995;1.1390000581741333;1673285521.7557833;-4.70693826675415;-1.8071744441986084;17.64668846130371
298;1673285521.9360433;47.1308857;7.2402244;1.1450001001358032;1673285521.9409204;-4.557840347290039;-1.6500567197799683;17.533634185791016
299;1673285522.1370373;47.130885799999994;7.2402245;1.1480000019073486;1673285522.1399615;-4.422591209411621;-1.4643173217773438;17.472126007080078
300;1673285522.3401852;47.130885799999994;7.2402244;1.1470000743865967;1673285522.3421307;-4.245937347412109;-1.349657416343689;17.394702911376953
301;1673285522.5461724;47.130885899999996;7.2402247;1.1460000276565552;1673285522.5520704;-4.193866729736328;-1.1295709609985352;17.340177536010742
302;1673285522.7713685;47.130886499999995;7.2402257;1.15500009059906;1673285522.7743087;-4.155013084411621;-0.966606616973877;17.32407569885254
303;1673285522.9460201;47.1308867;7.240226;1.15500009059906;1673285522.9489486;-3.9653160572052;-0.8879270553588867;17.27812957763672
304;1673285523.1220772;47.1308867;7.2402258999999995;1.1490000486373901;1673285523.1269574;-3.7424166202545166;-0.7699896097183228;17.216686248779297
305;1673285523.3350868;47.130886499999995;7.2402256;1.1390000581741333;1673285523.3380122;-3.617692232131958;-0.622016966342926;17.164430618286133
306;1673285523.5343604;47.1308864;7.2402254;1.127000093460083;1673285523.5372875;-3.471683979034424;-0.5303962230682373;17.10344123840332
307;1673285523.7338996;47.1308862;7.240225199999999;1.1100000143051147;1673285523.7368174;-3.309530735015869;-0.38464662432670593;17.068490982055664
308;1673285523.9336517;47.1308862;7.2402251;1.0920000076293945;1673285523.9356036;-3.1739747524261475;-0.2636468708515167;17.053871154785156
309;1673285524.1236224;47.1308866;7.2402257;1.0800000429153442;1673285524.1265612;-3.148259162902832;-0.1449456810951233;17.030672073364258
310;1673285524.3695295;47.1308867;7.2402257;1.061000108718872;1673285524.373453;-2.9360406398773193;-0.06411916762590408;17.015918731689453
311;1673285524.6268165;47.1308866;7.240225499999999;1.0360000133514404;1673285524.629745;-2.8107359409332275;0.05756894499063492;17.00787353515625
312;1673285524.7945545;47.1308864;7.2402251;1.0090000629425049;1673285524.797483;-2.695949077606201;0.13194608688354492;16.991764068603516
313;1673285524.9789243;47.1308862;7.2402248;0.9770000576972961;1673285524.9823937;-2.5333588123321533;0.23455595970153809;16.963726043701172
314;1673285525.1682916;47.1308861;7.2402245999999995;0.9470000267028809;1673285525.170243;-2.4056689739227295;0.34769073128700256;16.958139419555664
315;1673285525.3619986;47.1308863;7.240224899999999;0.9200000166893005;1673285525.364912;-2.3618104457855225;0.45550575852394104;16.954776763916016
316;1673285525.5433815;47.1308863;7.2402248;0.8860000371932983;1673285525.5453258;-2.157827615737915;1.0158764123916626;16.940980911254883
317;1673285525.7369804;47.1308861;7.2402244;0.8710000514984131;1673285525.740871;-2.0678365230560303;1.539526343345642;16.896657943725586
318;1673285525.9295502;47.130885799999994;7.2402239999999995;-0.010000000707805157;1673285525.932501;-2.0680770874023438;1.7878814935684204;16.86903190612793
