;pos_time;latitude;longitude;altitude;alt_time;pitch;roll;yaw
0;1673284538.8942347;47.1306425;7.2406201999999995;-0.004000000189989805;1673284538.950523;-0.20884838700294495;-0.15596601366996765;90.16602325439453
1;1673284539.086855;47.1306425;7.2406203;-0.006000000052154064;1673284539.1586409;-0.2476838082075119;-0.2798128128051758;90.2109375
2;1673284539.315965;47.1306425;7.2406204;-0.009000000543892384;1673284539.3775969;-0.19112208485603333;-0.2718741297721863;90.25170135498047
3;1673284539.5044405;47.1306425;7.2406204999999995;-0.005000000353902578;1673284539.5662682;-0.1284390687942505;-0.30528736114501953;90.3646240234375
4;1673284539.6972702;47.1306425;7.2406204999999995;-0.0020000000949949026;1673284539.755082;0.030892610549926758;-0.2587200403213501;90.3900375366211
5;1673284539.888544;47.1306425;7.2406204;-0.003000000026077032;1673284539.9556828;-0.16014783084392548;-0.30028077960014343;90.38701629638672
6;1673284540.09972;47.1306425;7.2406203;-0.004000000189989805;1673284540.163918;-0.11241510510444641;-0.20890502631664276;90.38106536865234
7;1673284540.327584;47.1306425;7.2406201999999995;-0.004000000189989805;1673284540.3901708;-0.0977252647280693;-0.2784603238105774;90.46165466308594
8;1673284540.5318563;47.1306425;7.2406201;-0.005000000353902578;1673284540.585535;-0.10473328083753586;-0.2986276149749756;90.4210205078125
9;1673284540.7408948;47.1306425;7.2406201;-0.0020000000949949026;1673284540.7958622;-0.0903995931148529;-0.7311046123504639;90.38971710205078
10;1673284540.9256732;47.1306425;7.24062;-0.0010000000474974513;1673284540.9832602;0.07112456113100052;-0.5464603304862976;90.41606140136719
11;1673284541.1142967;47.1306425;7.24062;0.0;1673284541.1842875;0.2494717687368393;-0.4711415767669678;90.16661834716797
12;1673284541.3235264;47.1306425;7.2406198999999996;0.0;1673284541.4030056;0.04699162393808365;-0.5235864520072937;90.27696228027344
13;1673284541.5220456;47.1306425;7.24062;0.0;1673284541.5900586;0.14209946990013123;-0.5553610920906067;90.40128326416016
14;1673284541.715105;47.1306425;7.24062;-0.0010000000474974513;1673284541.7695634;0.04245226830244064;-0.5803554058074951;90.23845672607422
15;1673284541.8830998;47.1306425;7.24062;-0.003000000026077032;1673284541.9481566;0.33855006098747253;-0.7853490710258484;90.09709930419922
16;1673284542.0754867;47.1306425;7.24062;0.0010000000474974513;1673284542.1390898;-0.05187934637069702;-0.5614588856697083;90.23548126220703
17;1673284542.264166;47.1306425;7.24062;0.0010000000474974513;1673284542.3302157;0.20184944570064545;-0.4782506227493286;90.11748504638672
18;1673284542.466641;47.1306425;7.2406201;0.004000000189989805;1673284542.528168;-0.01424121018499136;-0.9178022146224976;90.23332977294922
19;1673284542.6666355;47.1306425;7.2406201;0.004000000189989805;1673284542.7292047;0.049877725541591644;-0.770456850528717;90.25639343261719
20;1673284542.8751476;47.1306425;7.2406201;0.007000000216066837;1673284542.935952;0.08534788340330124;0.4367632567882538;90.21240997314453
21;1673284543.0750663;47.1306425;7.2406201999999995;0.007000000216066837;1673284543.1281185;0.3322579562664032;-0.42778143286705017;90.37476348876953
22;1673284543.2488675;47.1306425;7.2406201999999995;0.007000000216066837;1673284543.3090715;0.383382111787796;-0.4067840576171875;90.36589050292969
23;1673284543.4463415;47.130642599999995;7.2406201;0.010000000707805157;1673284543.5081418;0.42806482315063477;-0.22459018230438232;90.1297607421875
24;1673284543.646359;47.130642599999995;7.2406201;0.009000000543892384;1673284543.7080855;0.46587666869163513;-0.348849356174469;90.23239135742188
25;1673284543.8482306;47.130642599999995;7.2406201;0.00800000037997961;1673284543.9169734;0.5998417735099792;-0.3275306224822998;89.96952819824219
26;1673284544.0521247;47.130642699999996;7.24062;0.010000000707805157;1673284544.1190996;0.5983731746673584;0.3120037317276001;86.98688507080078
27;1673284544.2575786;47.1306428;7.240619799999999;0.012000000104308128;1673284544.3212707;-0.8216840028762817;2.9980833530426025;84.93474578857422
28;1673284544.4592276;47.130643;7.2406194;0.021000001579523087;1673284544.523123;-4.369266033172607;6.296449661254883;85.75884246826172
29;1673284544.6692038;47.130643199999994;7.240618899999999;0.05000000074505806;1673284544.7361372;-8.495973587036133;8.27949333190918;86.53303527832031
30;1673284544.85529;47.130643199999994;7.2406185999999995;0.08700000494718552;1673284544.9162588;-7.162275791168213;6.487826347351074;87.61007690429688
31;1673284545.057337;47.130643199999994;7.2406184;0.14400000870227814;1673284545.1231554;-7.72446870803833;10.45880126953125;87.47932434082031
32;1673284545.271984;47.130643;7.2406184;0.21800000965595245;1673284545.3361368;-7.9090352058410645;6.925113677978516;87.91300964355469
33;1673284545.4797966;47.1306428;7.2406185999999995;0.3060000240802765;1673284545.5390453;-7.9158244132995605;4.726526737213135;88.12081909179688
34;1673284545.6709504;47.130642699999996;7.2406188;0.40700000524520874;1673284545.7414575;-7.061953544616699;8.902050971984863;87.61261749267578
35;1673284545.8769822;47.1306425;7.240619199999999;0.5290000438690186;1673284545.9433768;-6.097470283508301;6.077000617980957;87.94937896728516
36;1673284546.0771995;47.1306425;7.240619499999999;0.6650000214576721;1673284546.137294;-5.879271030426025;3.3445987701416016;88.26050567626953
37;1673284546.2710452;47.130642599999995;7.2406198999999996;0.8050000667572021;1673284546.3358326;-5.523477554321289;8.51699161529541;87.6056137084961
38;1673284546.4730332;47.1306425;7.2406201;0.9570000171661377;1673284546.5384626;-5.688765048980713;6.864585876464844;87.80448913574219
39;1673284546.6892889;47.1306424;7.2406201999999995;1.1260000467300415;1673284546.7579577;-5.752463340759277;3.508577585220337;88.51948547363281
40;1673284546.9371822;47.1306424;7.2406203;1.3070000410079956;1673284546.993511;-5.659979343414307;8.019476890563965;88.09913635253906
41;1673284547.1223376;47.1306424;7.2406201999999995;1.4970000982284546;1673284547.179001;-5.676054000854492;7.864736080169678;87.81622314453125
42;1673284547.3109136;47.1306425;7.2406201999999995;1.693000078201294;1673284547.3697271;-5.95785665512085;3.5449111461639404;88.34908294677734
43;1673284547.4992087;47.130642599999995;7.2406201;1.8930001258850098;1673284547.557365;-6.477665901184082;7.363297939300537;87.92716979980469
44;1673284547.6948042;47.130642599999995;7.24062;2.0900001525878906;1673284547.7605321;-6.2979416847229;8.978387832641602;87.57776641845703
45;1673284547.8940656;47.130642599999995;7.2406198999999996;2.2910001277923584;1673284547.9606276;-6.846302509307861;4.551059246063232;88.00849914550781
46;1673284548.131616;47.130642699999996;7.240619799999999;2.492000102996826;1673284548.1893618;-6.77338171005249;6.214360237121582;87.92626190185547
47;1673284548.3111591;47.130642699999996;7.240619799999999;2.688000202178955;1673284548.3698812;-6.483942985534668;9.813246726989746;87.26020812988281
48;1673284548.4944172;47.1306428;7.240619799999999;2.8950002193450928;1673284548.5548215;-6.425703525543213;5.610991477966309;87.67009735107422
49;1673284548.6860871;47.1306429;7.2406198999999996;3.1000001430511475;1673284548.7469223;-6.324718952178955;6.5455169677734375;87.72921752929688
50;1673284548.873588;47.1306429;7.2406198999999996;3.305000066757202;1673284548.9407914;-6.44558048248291;10.127457618713379;87.23958587646484
51;1673284549.083431;47.130642699999996;7.2406198999999996;3.504000186920166;1673284549.1392245;-6.61647367477417;5.1106367111206055;87.70977020263672
52;1673284549.2893202;47.130642599999995;7.2406198999999996;3.707000255584717;1673284549.3542845;-6.722464561462402;4.551752090454102;87.80272674560547
53;1673284549.4939065;47.1306425;7.2406198999999996;3.9060001373291016;1673284549.5493991;-6.562880039215088;9.11737060546875;87.23348236083984
54;1673284549.6872082;47.1306424;7.24062;4.111000061035156;1673284549.7519252;-6.188900470733643;6.42311429977417;87.26847076416016
55;1673284549.877779;47.1306425;7.24062;4.319000244140625;1673284549.9419887;-6.303436756134033;4.222221851348877;87.50666809082031
56;1673284550.0869684;47.1306425;7.24062;4.527000427246094;1673284550.165096;-6.309349536895752;9.313441276550293;87.0725326538086
57;1673284550.337562;47.1306424;7.2406201;4.729000091552734;1673284550.402207;-6.067173480987549;7.520270824432373;87.32222747802734
58;1673284550.5473275;47.1306424;7.2406201999999995;4.933000087738037;1673284550.604286;-6.4764838218688965;4.1641974449157715;87.75594329833984
59;1673284550.728913;47.1306425;7.2406201999999995;5.134000301361084;1673284550.7915277;-6.341203212738037;8.952817916870117;87.28594207763672
60;1673284550.9351628;47.1306425;7.2406201999999995;5.329000473022461;1673284551.0086715;-6.441837787628174;8.570611953735352;87.40029907226562
61;1673284551.1698637;47.130642599999995;7.2406201999999995;5.527000427246094;1673284551.2169921;-6.686601638793945;4.44018030166626;87.92939758300781
62;1673284551.335645;47.130642599999995;7.2406201999999995;5.734000205993652;1673284551.3945615;-6.2980780601501465;8.559640884399414;87.351318359375
63;1673284551.5330062;47.1306425;7.2406201;5.938000202178955;1673284551.5829854;-6.411758899688721;8.61178970336914;87.33602142333984
64;1673284551.716764;47.1306423;7.2406201;6.147000312805176;1673284551.7812915;-6.60379695892334;3.9944989681243896;87.76921081542969
65;1673284551.9150825;47.1306423;7.2406201;6.3520002365112305;1673284551.9805543;-6.741994380950928;7.33388090133667;87.25161743164062
66;1673284552.1231108;47.1306424;7.24062;6.552000522613525;1673284552.1904628;-6.599987030029297;9.350647926330566;86.9242935180664
67;1673284552.3587043;47.1306424;7.24062;6.75700044631958;1673284552.41801;-6.654044151306152;4.611379623413086;87.64887237548828
68;1673284552.6033206;47.1306425;7.2406201;6.959000110626221;1673284552.671207;-6.46235466003418;7.011880397796631;87.5515365600586
69;1673284552.7845724;47.1306424;7.2406201;7.160000324249268;1673284552.8533163;-6.304712295532227;9.576505661010742;87.14251708984375
70;1673284552.9590926;47.1306422;7.2406201999999995;7.3560004234313965;1673284553.010823;-6.2764105796813965;4.691263198852539;87.58556365966797
71;1673284553.148851;47.1306422;7.2406201999999995;7.553000450134277;1673284553.2090566;-6.469327926635742;5.923762321472168;87.6334228515625
72;1673284553.3359218;47.1306422;7.2406203;7.749000549316406;1673284553.391626;-6.458924293518066;9.405616760253906;87.22975158691406
73;1673284553.512152;47.1306422;7.2406203;7.943000316619873;1673284553.5830748;-6.634343147277832;5.882195949554443;87.683837890625
74;1673284553.705057;47.1306423;7.2406201999999995;8.140000343322754;1673284553.7637157;-6.792304992675781;4.945560932159424;87.8012466430664
75;1673284553.9040282;47.1306423;7.2406201999999995;8.335000038146973;1673284553.9667222;-6.637365818023682;9.524024963378906;87.23052215576172
76;1673284554.1370173;47.130642099999996;7.2406201999999995;8.529000282287598;1673284554.1947486;-6.402850151062012;6.715972900390625;87.44290924072266
77;1673284554.3264005;47.130641999999995;7.2406201999999995;8.732000350952148;1673284554.3899643;-6.697312831878662;3.958695411682129;87.80327606201172
78;1673284554.5143282;47.130642099999996;7.2406203;8.932000160217285;1673284554.573579;-6.540101051330566;8.597572326660156;87.29862976074219
79;1673284554.7158437;47.1306422;7.2406201999999995;9.129000663757324;1673284554.777048;-6.447412014007568;8.980917930603027;87.31114959716797
80;1673284554.9086714;47.1306424;7.2406203;9.325000762939453;1673284554.970887;-6.579520225524902;4.317727088928223;87.8232650756836
81;1673284555.1521027;47.1306424;7.2406203;9.52500057220459;1673284555.2422638;-6.577312469482422;8.183177947998047;87.2841567993164
82;1673284555.352629;47.1306423;7.2406203;9.719000816345215;1673284555.430189;-6.272697448730469;8.821517944335938;86.99504852294922
83;1673284555.5535104;47.1306422;7.2406203;9.917000770568848;1673284555.631318;-6.293941497802734;4.074362277984619;87.53470611572266
84;1673284555.7559266;47.1306422;7.2406203;10.113000869750977;1673284555.8053823;-6.5345306396484375;6.850159645080566;87.39300537109375
85;1673284555.9679081;47.1306422;7.2406203;10.357000350952148;1673284556.0545533;-6.7332072257995605;9.639335632324219;87.18248748779297
86;1673284556.164432;47.1306422;7.2406204;10.705000877380371;1673284556.2232857;-7.820502281188965;6.921337127685547;87.77395629882812
87;1673284556.3781714;47.130642099999996;7.2406206;11.082000732421875;1673284556.4314365;-6.843780994415283;5.343749046325684;87.96121215820312
88;1673284556.5472927;47.1306419;7.2406209;11.471000671386719;1673284556.6031597;-6.092657089233398;8.975379943847656;87.29345703125
89;1673284556.7238653;47.1306416;7.2406212;11.867000579833984;1673284556.7865465;-5.481389999389648;4.975424766540527;87.39713287353516
90;1673284556.917716;47.130641499999996;7.2406213;12.262001037597656;1673284556.9762626;-5.409775257110596;3.352682590484619;87.68350982666016
91;1673284557.1070151;47.130641499999996;7.2406215;12.66100025177002;1673284557.160953;-5.302975654602051;7.790933609008789;87.31835174560547
92;1673284557.291319;47.1306416;7.240621399999999;13.059000968933105;1673284557.3529804;-5.432243824005127;6.983671188354492;87.42518615722656
93;1673284557.4776917;47.1306418;7.2406213;13.4660005569458;1673284557.536108;-5.923175811767578;3.9946129322052;87.84054565429688
94;1673284557.6685956;47.130641999999995;7.2406212;13.871000289916992;1673284557.729401;-6.055002212524414;8.559468269348145;87.23628234863281
95;1673284557.8633964;47.130641999999995;7.240621099999999;14.269001007080078;1673284557.9249408;-6.107790946960449;7.927945137023926;87.20177459716797
96;1673284558.06615;47.130641999999995;7.240621;14.67400074005127;1673284558.1389353;-6.4157609939575195;4.282952785491943;87.77941131591797
97;1673284558.2886639;47.130642099999996;7.240620799999999;15.081000328063965;1673284558.361971;-6.598661422729492;7.273319721221924;87.4573745727539
98;1673284558.5079532;47.130642099999996;7.240620799999999;15.484001159667969;1673284558.569011;-6.354245662689209;9.748729705810547;87.12548065185547
99;1673284558.712819;47.130642099999996;7.2406207;15.886000633239746;1673284558.7715695;-6.380845069885254;5.078958034515381;87.59211730957031
100;1673284558.9013274;47.1306422;7.2406207;16.28900146484375;1673284558.9555037;-6.364590167999268;5.926851272583008;87.65753936767578
101;1673284559.0730765;47.1306422;7.2406207;16.69300079345703;1673284559.1437602;-6.1933746337890625;9.403303146362305;87.30850982666016
102;1673284559.273924;47.130642099999996;7.2406207;17.101001739501953;1673284559.33214;-6.270267486572266;5.921722412109375;87.54867553710938
103;1673284559.4695365;47.130641999999995;7.240620799999999;17.519001007080078;1673284559.5326314;-6.356303691864014;4.827669143676758;87.6405258178711
104;1673284559.684676;47.130642099999996;7.240620799999999;17.937000274658203;1673284559.748356;-6.2005510330200195;8.789176940917969;87.00493621826172
105;1673284559.8827558;47.1306422;7.2406207;18.347000122070312;1673284559.943583;-6.02086877822876;6.762784004211426;87.40535736083984
106;1673284560.0758607;47.1306423;7.2406207;18.762001037597656;1673284560.1372495;-6.261370658874512;4.800385475158691;87.77086639404297
107;1673284560.3296845;47.1306423;7.2406206;19.178001403808594;1673284560.3914506;-6.15695333480835;9.134765625;87.34072875976562
108;1673284560.5435598;47.1306422;7.2406206;19.59200096130371;1673284560.687864;-5.904385566711426;7.400341510772705;87.37127685546875
109;1673284560.783587;47.130642099999996;7.2406207;20.012001037597656;1673284560.8481433;-6.385871887207031;4.081840515136719;87.6576156616211
110;1673284560.9637592;47.1306422;7.2406206;20.433000564575195;1673284561.0156493;-6.231438636779785;7.882788181304932;87.34269714355469
111;1673284561.148664;47.1306422;7.2406206;20.850000381469727;1673284561.2054625;-5.991748332977295;8.815339088439941;87.2771987915039
112;1673284561.3309796;47.1306422;7.2406206;21.25400161743164;1673284561.4105313;-6.301492691040039;3.8930747509002686;87.77696990966797
113;1673284561.5431726;47.1306423;7.2406204999999995;21.655000686645508;1673284561.600789;-6.543933868408203;6.717426776885986;87.31697082519531
114;1673284561.736636;47.1306422;7.2406204999999995;22.05500030517578;1673284561.8285449;-6.39240837097168;9.119492530822754;86.96483612060547
115;1673284561.9488695;47.1306422;7.2406204999999995;22.459001541137695;1673284562.0067582;-6.418898105621338;4.936091423034668;87.6052474975586
116;1673284562.1449482;47.1306423;7.2406204;22.86400032043457;1673284562.2067885;-6.4102678298950195;6.000227451324463;87.76345825195312
117;1673284562.328753;47.1306424;7.2406204;23.266000747680664;1673284562.382411;-6.112628936767578;9.961593627929688;87.31578826904297
118;1673284562.5080428;47.1306425;7.2406203;23.663002014160156;1673284562.5648303;-6.11884069442749;6.0481343269348145;87.48771667480469
119;1673284562.7133987;47.130642599999995;7.2406204;24.066001892089844;1673284562.7699907;-6.468720436096191;5.6411356925964355;87.65428161621094
120;1673284562.8932834;47.130642599999995;7.2406204;24.47100067138672;1673284562.955573;-6.379775047302246;9.719796180725098;87.18596649169922
121;1673284563.0953536;47.1306425;7.2406204;24.87200164794922;1673284563.1662521;-6.335259437561035;6.5355658531188965;87.37920379638672
122;1673284563.3037486;47.1306425;7.2406203;25.277000427246094;1673284563.3627136;-6.573756694793701;4.424673080444336;87.80667877197266
123;1673284563.497049;47.130642599999995;7.2406203;25.68600082397461;1673284563.5749984;-6.189026355743408;8.588400840759277;87.27213287353516
124;1673284563.718823;47.1306425;7.2406201999999995;26.091001510620117;1673284563.7810006;-6.212901592254639;8.30842399597168;87.18731689453125
125;1673284563.9075334;47.1306425;7.2406201;26.488000869750977;1673284563.9736884;-6.487906455993652;4.181886196136475;87.72451782226562
126;1673284564.1313832;47.1306425;7.2406201;26.89000129699707;1673284564.193821;-6.548604488372803;7.980001449584961;87.4291000366211
127;1673284564.323193;47.1306425;7.2406201;27.290000915527344;1673284564.3780127;-6.193415641784668;8.3865327835083;87.28677368164062
128;1673284564.505738;47.1306424;7.2406201;27.696001052856445;1673284564.5738657;-6.415666103363037;4.25390625;87.56419372558594
129;1673284564.7098181;47.1306425;7.2406201;28.102001190185547;1673284564.7670505;-6.438214302062988;7.092555999755859;87.36268615722656
130;1673284564.8997374;47.130642599999995;7.2406201;28.507001876831055;1673284564.958724;-6.210513591766357;9.767045021057129;87.20804595947266
131;1673284565.0953357;47.130642599999995;7.2406201;28.9010009765625;1673284565.1602302;-6.331588268280029;5.202162265777588;87.76219940185547
132;1673284565.3024285;47.130642699999996;7.2406201;29.298002243041992;1673284565.3626938;-6.52146577835083;6.211317539215088;87.65684509277344
133;1673284565.5070453;47.130642599999995;7.2406201;29.692001342773438;1673284565.5669227;-6.162323951721191;9.791142463684082;87.10331726074219
134;1673284565.746512;47.130642599999995;7.2406201;30.09400177001953;1673284565.8043802;-6.093013286590576;5.964520454406738;87.39158630371094
135;1673284565.9545217;47.130642599999995;7.24062;30.503002166748047;1673284566.041831;-6.409671783447266;5.5722761154174805;87.48736572265625
136;1673284566.1490872;47.130642699999996;7.24062;30.90900230407715;1673284566.206834;-6.362218856811523;9.72036361694336;87.21056365966797
137;1673284566.3336034;47.130642599999995;7.24062;31.308000564575195;1673284566.3926084;-6.232222557067871;6.742283821105957;87.59581756591797
138;1673284566.5258565;47.130642599999995;7.24062;31.700000762939453;1673284566.5845873;-6.51398229598999;4.6132307052612305;87.72964477539062
139;1673284566.7224028;47.1306425;7.24062;32.09400177001953;1673284566.7831469;-6.537182807922363;8.92423152923584;87.18659210205078
140;1673284566.9193418;47.1306424;7.24062;32.48800277709961;1673284567.0003612;-6.153789043426514;7.2999348640441895;87.26920318603516
141;1673284567.1408117;47.1306424;7.2406198999999996;32.8910026550293;1673284567.223488;-6.632033824920654;4.365891456604004;87.78414916992188
142;1673284567.3938322;47.1306425;7.2406198999999996;33.290000915527344;1673284567.4434438;-6.340059757232666;8.252265930175781;87.34346771240234
143;1673284567.556119;47.1306425;7.24062;33.691001892089844;1673284567.6088116;-6.231688499450684;8.881406784057617;87.18717193603516
144;1673284567.7419102;47.1306425;7.24062;34.08400344848633;1673284567.8056846;-6.228156089782715;5.004551410675049;87.64973449707031
145;1673284567.9290016;47.1306425;7.24062;34.48200225830078;1673284567.9877179;-6.539562702178955;6.8354716300964355;87.41179656982422
146;1673284568.1347435;47.1306425;7.2406201;34.87700271606445;1673284568.192299;-6.3318867683410645;9.364727973937988;87.2528305053711
147;1673284568.319809;47.1306424;7.2406201;35.277000427246094;1673284568.39206;-6.519817352294922;5.014705181121826;87.7253646850586
148;1673284568.5270884;47.1306425;7.2406201;35.678001403808594;1673284568.5857146;-6.659185409545898;6.108135223388672;87.67959594726562
149;1673284568.7154465;47.130642599999995;7.24062;36.082000732421875;1673284568.8087506;-6.406556129455566;9.769057273864746;87.05162048339844
150;1673284568.9452662;47.130642599999995;7.2406201;36.48200225830078;1673284568.9999874;-6.149407863616943;5.399232864379883;87.43820190429688
151;1673284569.1127386;47.1306425;7.2406201;36.87600326538086;1673284569.1759863;-6.199823379516602;5.039276599884033;87.69859313964844
152;1673284569.3001204;47.1306425;7.2406201;37.275001525878906;1673284569.371326;-6.229294776916504;9.236845016479492;87.2259750366211
153;1673284569.5076666;47.1306425;7.2406201;37.67500305175781;1673284569.5696993;-6.248318195343018;6.811807632446289;87.51931762695312
154;1673284569.7203426;47.130642599999995;7.2406201;38.08300018310547;1673284569.7836533;-6.52256441116333;4.564083576202393;87.77729797363281
155;1673284569.9260497;47.1306428;7.2406201;38.492000579833984;1673284569.986501;-6.516797065734863;9.090818405151367;87.08930206298828
156;1673284570.1342912;47.1306429;7.2406201;38.89900207519531;1673284570.1931868;-6.080390930175781;8.486882209777832;87.21068572998047
157;1673284570.317688;47.1306429;7.2406201;39.294002532958984;1673284570.371917;-6.299665451049805;4.724427700042725;87.74728393554688
158;1673284570.5083861;47.1306429;7.2406201;39.694000244140625;1673284570.574014;-6.431284427642822;8.44970989227295;87.38031768798828
159;1673284570.7196615;47.1306428;7.2406201999999995;40.08700180053711;1673284570.7859435;-5.949041366577148;9.010762214660645;87.16239929199219
160;1673284570.928329;47.1306428;7.2406201999999995;40.487003326416016;1673284570.986957;-6.1506242752075195;5.052477836608887;87.56666564941406
161;1673284571.1311655;47.1306429;7.2406201999999995;40.88900375366211;1673284571.1946683;-6.355849266052246;6.755290985107422;87.62702941894531
162;1673284571.3247964;47.130643;7.2406201999999995;41.28900146484375;1673284571.4019465;-6.276664733886719;9.91273021697998;87.36910247802734
163;1673284571.5395033;47.1306429;7.2406201999999995;41.6870002746582;1673284571.5933976;-6.431393623352051;4.9594573974609375;87.81007385253906
164;1673284571.7064013;47.1306428;7.2406201999999995;42.08000183105469;1673284571.762637;-6.596993446350098;5.552549839019775;87.57394409179688
165;1673284571.909671;47.130642699999996;7.2406201999999995;42.480003356933594;1673284571.9736524;-6.229464054107666;9.505505561828613;87.00508117675781
166;1673284572.1177287;47.130642699999996;7.2406201999999995;42.88100051879883;1673284572.182844;-5.996048450469971;6.368011474609375;87.3664321899414
167;1673284572.3063326;47.1306428;7.2406201999999995;43.281002044677734;1673284572.3651648;-6.22517728805542;5.0715012550354;87.76023864746094
168;1673284572.5155675;47.1306429;7.2406201999999995;43.68400192260742;1673284572.567104;-6.312602519989014;9.517376899719238;87.30003356933594
169;1673284572.7076278;47.1306429;7.2406201999999995;44.0880012512207;1673284572.7732298;-6.235096454620361;7.603924751281738;87.45450592041016
170;1673284572.9204824;47.1306428;7.2406201999999995;44.48400115966797;1673284572.9852028;-6.360591411590576;4.410991668701172;87.78045654296875
171;1673284573.1301138;47.1306428;7.2406201999999995;44.88500213623047;1673284573.1948097;-6.429939270019531;8.323532104492188;87.28975677490234
172;1673284573.3311045;47.1306428;7.2406201;45.288002014160156;1673284573.3867824;-6.316736698150635;8.439220428466797;87.1659164428711
173;1673284573.5203276;47.1306429;7.2406201;45.69300079345703;1673284573.5757773;-6.72587776184082;4.941992282867432;87.80928802490234
174;1673284573.737713;47.130643;7.24062;46.09700393676758;1673284573.7934275;-6.601611614227295;7.302280426025391;87.47188568115234
175;1673284573.9236739;47.130643;7.24062;46.499000549316406;1673284573.982101;-6.245475769042969;10.190329551696777;86.9888916015625
176;1673284574.1202483;47.130643;7.24062;46.89800262451172;1673284574.1834507;-6.207845211029053;5.6648125648498535;87.45478820800781
177;1673284574.317441;47.1306429;7.24062;47.28900146484375;1673284574.3723304;-6.505250453948975;5.517491817474365;87.52782440185547
178;1673284574.505594;47.1306429;7.24062;47.68300247192383;1673284574.569676;-6.289116382598877;9.7424898147583;87.19593048095703
179;1673284574.7056649;47.1306429;7.24062;48.073001861572266;1673284574.7708888;-6.528303623199463;7.233384132385254;87.65624237060547
180;1673284574.9245138;47.1306429;7.2406198999999996;48.42400360107422;1673284574.9916127;-6.831882476806641;5.956718921661377;87.82141876220703
181;1673284575.1307404;47.130643;7.2406198999999996;48.72300338745117;1673284575.187888;-6.5100555419921875;10.226381301879883;87.20441436767578
182;1673284575.3185692;47.1306431;7.240619799999999;48.97600173950195;1673284575.3901052;-6.764391899108887;6.541169166564941;87.64481353759766
183;1673284575.5204074;47.1306431;7.2406196;49.17500305175781;1673284575.587451;-7.154911994934082;5.115601539611816;87.6275405883789
184;1673284575.7157726;47.130643;7.240619499999999;49.342002868652344;1673284575.7799182;4.232947826385498;9.858155250549316;86.25163269042969
185;1673284575.9052086;47.1306431;7.2406188;49.47300338745117;1673284575.9650006;4.416791915893555;9.159391403198242;77.84101104736328
186;1673284576.093598;47.1306431;7.2406175;49.54900360107422;1673284576.1538827;-13.468070030212402;15.336395263671875;65.44220733642578
187;1673284576.2892814;47.130643199999994;7.2406163;49.57100296020508;1673284576.3564098;1.5463422536849976;17.50358009338379;57.39573669433594
188;1673284576.502561;47.1306431;7.2406155;49.586002349853516;1673284576.5605004;17.153385162353516;10.50637435913086;47.490379333496094
189;1673284576.7116604;47.1306425;7.240614;49.61000061035156;1673284576.7757921;0.4186464846134186;12.799799919128418;36.52135467529297
190;1673284576.923341;47.1306416;7.2406125999999995;49.63600158691406;1673284576.9838245;7.22590446472168;9.41590404510498;29.029836654663086
191;1673284577.114776;47.1306405;7.240611599999999;49.66400146484375;1673284577.1834908;7.496832370758057;8.746397972106934;19.863088607788086
192;1673284577.3215003;47.1306394;7.2406109;49.68700408935547;1673284577.3880472;6.007857322692871;9.44746208190918;10.720152854919434
193;1673284577.5215507;47.130638399999995;7.2406104;49.71000289916992;1673284577.5858808;5.562406063079834;9.322454452514648;1.9437977075576782
194;1673284577.723493;47.1306375;7.2406101;49.733001708984375;1673284577.7884278;5.573612689971924;9.207971572875977;-6.844257831573486
195;1673284577.9266407;47.1306368;7.2406099;49.75300216674805;1673284577.983486;6.279886245727539;7.322906017303467;-15.91285228729248
196;1673284578.1164606;47.1306362;7.240609699999999;49.76700210571289;1673284578.1766703;6.555430889129639;4.736396312713623;-24.43837547302246
197;1673284578.3206158;47.130635899999994;7.2406092;49.788002014160156;1673284578.3857436;8.424811363220215;3.963118553161621;-32.55039596557617
198;1673284578.5245745;47.130635899999994;7.2406085;49.810001373291016;1673284578.586584;9.291228294372559;0.4532111883163452;-41.27083206176758
199;1673284578.71891;47.130635999999996;7.2406077;49.832000732421875;1673284578.7817175;10.085782051086426;-1.4033833742141724;-50.02144241333008
200;1673284578.9112234;47.1306362;7.2406068999999995;49.85000228881836;1673284578.9749463;9.604836463928223;-4.242406845092773;-52.83659362792969
201;1673284579.1065805;47.1306365;7.2406063;49.86300277709961;1673284579.20615;10.421456336975098;-2.6108956336975098;-50.63853073120117
202;1673284579.3367712;47.130636599999995;7.2406057;49.87200164794922;1673284579.3941126;11.196761131286621;0.7019111514091492;-47.769935607910156
203;1673284579.5237694;47.130636599999995;7.2406052999999995;49.871002197265625;1673284579.5838895;11.623725891113281;1.76797616481781;-46.574058532714844
204;1673284579.7079675;47.1306364;7.2406051;49.874000549316406;1673284579.780267;12.652127265930176;2.0424487590789795;-46.60499572753906
205;1673284579.9108303;47.1306361;7.240604899999999;49.87600326538086;1673284579.9725118;12.7995023727417;1.2816039323806763;-46.59221649169922
206;1673284580.1203423;47.130635899999994;7.240604899999999;49.87700271606445;1673284580.1828709;11.682709693908691;-0.5530646443367004;-46.32720184326172
207;1673284580.3211102;47.1306356;7.240604899999999;49.87900161743164;1673284580.379539;9.878083229064941;-0.5111837387084961;-46.112815856933594
208;1673284580.5090554;47.1306355;7.240604899999999;49.88300323486328;1673284580.5701199;9.064584732055664;-0.40123745799064636;-45.86433410644531
209;1673284580.754396;47.1306355;7.240604899999999;49.87900161743164;1673284580.8254251;7.8245415687561035;0.900558590888977;-45.65053176879883
210;1673284580.9755409;47.1306355;7.2406051;49.880001068115234;1673284581.036263;-13.349374771118164;-0.2087707668542862;-46.327232360839844
211;1673284581.1667488;47.1306361;7.2406045;49.87600326538086;1673284581.2254708;-42.51088333129883;5.844292163848877;-47.998252868652344
212;1673284581.3509784;47.1306381;7.2406017;49.82400131225586;1673284581.4146833;-38.56563186645508;3.6456799507141113;-47.65778732299805
213;1673284581.5622554;47.1306418;7.240596099999999;49.73800277709961;1673284581.6163313;-26.079835891723633;0.5302492380142212;-47.08606719970703
214;1673284581.7378728;47.1306467;7.240588499999999;49.64900207519531;1673284581.8033154;-20.038894653320312;-0.6608724594116211;-47.770362854003906
215;1673284581.9339678;47.130652399999995;7.2405794;49.599002838134766;1673284581.9992664;-30.115549087524414;-1.2233384847640991;-48.226646423339844
216;1673284582.1311116;47.1306589;7.2405687;49.59100341796875;1673284582.1883264;-39.47972869873047;-1.2065681219100952;-48.046234130859375
217;1673284582.327265;47.1306667;7.240556199999999;49.60300064086914;1673284582.392298;-42.93592071533203;-0.060214169323444366;-47.79933166503906
218;1673284582.5202572;47.1306758;7.2405415;49.63100051879883;1673284582.580225;-46.648868560791016;2.9154226779937744;-48.27201461791992
219;1673284582.7275379;47.1306862;7.2405247;49.68300247192383;1673284582.782214;-51.95347213745117;3.232557773590088;-47.82202911376953
220;1673284582.9074552;47.1306984;7.240505199999999;49.75300216674805;1673284582.9692426;-58.025814056396484;1.4023945331573486;-47.74562454223633
221;1673284583.1044014;47.1307124;7.240482699999999;49.827003479003906;1673284583.1734314;-59.87862777709961;0.9538829326629639;-47.1944580078125
222;1673284583.313294;47.1307282;7.2404575;49.874000549316406;1673284583.3722115;-58.342681884765625;1.0044194459915161;-46.67748260498047
223;1673284583.5004134;47.1307453;7.2404299;49.89600372314453;1673284583.5572631;-55.52622985839844;1.7650753259658813;-47.072662353515625
224;1673284583.6914194;47.130763599999995;7.2404005;49.9010009765625;1673284583.7599878;-53.98528289794922;2.2629554271698;-47.35780715942383
225;1673284583.9046187;47.1307828;7.240369899999999;49.8900032043457;1673284583.9634852;-52.5129280090332;2.250978946685791;-47.26059341430664
226;1673284584.1063197;47.130802499999994;7.2403385;49.8650016784668;1673284584.1775138;-49.31300735473633;2.2500362396240234;-47.06333923339844
227;1673284584.334556;47.130822599999995;7.240306599999999;49.845001220703125;1673284584.3992975;-46.45030975341797;2.8839216232299805;-46.98186492919922
228;1673284584.5291843;47.130843;7.240274599999999;49.84300231933594;1673284584.5853841;-13.468648910522461;2.1393251419067383;-46.715248107910156
229;1673284584.717478;47.1308623;7.2402447;49.84100341796875;1673284584.7922325;32.94933319091797;-0.3029598891735077;-46.58760070800781
230;1673284584.9369147;47.1308797;7.2402177;49.69400405883789;1673284584.9972394;24.76491355895996;-0.855800449848175;-46.3183479309082
231;1673284585.1523423;47.1308946;7.240194499999999;49.4170036315918;1673284585.2313008;17.877422332763672;-1.2516815662384033;-47.76765060424805
232;1673284585.423539;47.1309069;7.2401754;49.18700408935547;1673284585.4731023;16.633148193359375;-1.1249756813049316;-48.33431625366211
233;1673284585.5802243;47.130916899999995;7.2401598;49.1150016784668;1673284585.6322322;32.38996505737305;-2.2199223041534424;-48.68297576904297
234;1673284585.7475572;47.130924199999995;7.2401484;49.22800064086914;1673284585.8031871;57.08492660522461;-3.5267326831817627;-48.65291976928711
235;1673284585.9393528;47.1309274;7.2401427;49.362003326416016;1673284586.0102687;57.15940475463867;-2.58927321434021;-47.27104949951172
236;1673284586.1511207;47.1309275;7.240142;49.50400161743164;1673284586.2140634;58.729610443115234;-2.587723731994629;-47.27071762084961
237;1673284586.323329;47.1309247;7.2401456;49.621002197265625;1673284586.3799822;55.66087341308594;-2.709897994995117;-46.8725700378418
238;1673284586.507088;47.1309195;7.2401526;49.711002349853516;1673284586.575142;49.0822868347168;-2.5753254890441895;-47.30721664428711
239;1673284586.7171075;47.130912599999995;7.2401617;49.75300216674805;1673284586.7795699;39.030296325683594;-2.4479949474334717;-47.637977600097656
240;1673284586.9224002;47.1309049;7.2401719;49.77900314331055;1673284586.9868672;21.478933334350586;-0.15458370745182037;-47.77434539794922
241;1673284587.125648;47.1308972;7.240182;49.772003173828125;1673284587.1923087;5.536028861999512;1.1564961671829224;-48.10625076293945
242;1673284587.3358684;47.1308905;7.240190699999999;49.759002685546875;1673284587.411142;-7.2336273193359375;4.7540602684021;-47.79438781738281
243;1673284587.5392833;47.1308849;7.2401979999999995;49.72800064086914;1673284587.599126;-17.628446578979492;6.235323429107666;-48.07331085205078
244;1673284587.7297266;47.1308808;7.240203299999999;49.67900085449219;1673284587.7971072;-21.67184829711914;0.6422889828681946;-48.496421813964844
245;1673284587.9389246;47.130877999999996;7.2402069;49.49800109863281;1673284587.9906359;-10.38535213470459;10.36175537109375;-43.8643913269043
246;1673284588.1266136;47.130875499999995;7.2402101;48.967002868652344;1673284588.1871343;-6.61871337890625;19.409862518310547;-39.30645751953125
247;1673284588.3173342;47.1308733;7.2402128999999995;48.066001892089844;1673284588.377037;-9.11003303527832;24.674108505249023;-36.93500900268555
248;1673284588.5115485;47.1308711;7.2402153;46.7650032043457;1673284588.5737352;-16.245193481445312;23.764501571655273;-36.9859504699707
249;1673284588.7318494;47.130869;7.240217599999999;45.092002868652344;1673284588.7993746;-25.45938491821289;15.376161575317383;-37.63691711425781
250;1673284588.9437773;47.130866999999995;7.240219799999999;43.035003662109375;1673284589.0074542;-32.89059829711914;0.48042887449264526;-36.43682861328125
251;1673284589.1422303;47.1308648;7.240221999999999;40.592002868652344;1673284589.1933002;-34.04894256591797;-15.440092086791992;-34.253719329833984
252;1673284589.3125978;47.1308626;7.2402242999999995;37.76700210571289;1673284589.3727653;-27.304956436157227;-23.030303955078125;-35.00899124145508
253;1673284589.5003233;47.1308605;7.2402269;34.560001373291016;1673284589.5728617;-14.819048881530762;-18.44748306274414;-38.37095642089844
254;1673284589.7161987;47.1308584;7.2402296999999995;30.966001510620117;1673284589.7873309;-1.4105733633041382;-4.488724708557129;-40.08000183105469
255;1673284589.9306176;47.1308564;7.2402324;26.966001510620117;1673284589.992391;5.641881942749023;11.460097312927246;-39.0693473815918
256;1673284590.1335547;47.1308544;7.240234999999999;22.588001251220703;1673284590.1961722;2.2063825130462646;18.277097702026367;-39.39344024658203
257;1673284590.33662;47.130852499999996;7.2402372999999995;17.82900047302246;1673284590.3974092;-8.928704261779785;11.393381118774414;-41.675540924072266
258;1673284590.5213573;47.1308505;7.2402394;12.684000968933105;1673284590.585122;-19.490739822387695;-4.330774784088135;-41.98699188232422
259;1673284590.71397;47.1308484;7.2402416;7.15000057220459;1673284590.7698052;-20.560880661010742;-15.367257118225098;-41.7507209777832
260;1673284590.9153292;47.130846399999996;7.240244199999999;1.2300000190734863;1673284590.977511;-7.925874710083008;-16.268871307373047;-45.41533660888672
261;1673284591.123754;47.1308465;7.2402345;0.25699999928474426;1673284591.1681356;-6.88559627532959;-11.856304168701172;-47.86943435668945
262;1673284591.3016038;47.1308479;7.240221699999999;0.31800001859664917;1673284591.3681955;-6.057315826416016;-14.40247631072998;-47.951168060302734
263;1673284591.505018;47.1308492;7.240208699999999;0.33800002932548523;1673284591.5729475;-5.951050281524658;-16.386751174926758;-47.989864349365234
264;1673284591.716841;47.1308499;7.240195699999999;0.3370000123977661;1673284591.7799244;-5.815833568572998;-15.866567611694336;-48.02799606323242
265;1673284591.9127245;47.130850099999996;7.2401832;0.3230000138282776;1673284591.9765534;-5.649080276489258;-15.674422264099121;-48.04316711425781
266;1673284592.1363153;47.1308499;7.240171699999999;0.30400002002716064;1673284592.2029893;-5.40475606918335;-15.544474601745605;-48.066734313964844
267;1673284592.339239;47.1308492;7.240162;0.28700000047683716;1673284592.397071;-5.122700214385986;-15.478683471679688;-48.00576400756836
268;1673284592.5347497;47.1308483;7.2401488;0.27400001883506775;1673284592.5923762;-5.0799336433410645;-15.562552452087402;-48.08482360839844
269;1673284592.747722;47.130846999999996;7.2401326;0.24800001084804535;1673284592.8034663;-5.012555122375488;-15.540088653564453;-48.19020462036133
270;1673284592.9275272;47.1308453;7.2401142;0.21700000762939453;1673284592.9812064;-4.94133186340332;-15.590996742248535;-48.29491424560547
271;1673284593.1208253;47.1308432;7.240094099999999;0.18200001120567322;1673284593.184448;-4.887876987457275;-15.5122709274292;-48.367984771728516
272;1673284593.3114629;47.1308407;7.2400728;0.14400000870227814;1673284593.3692155;-4.8098015785217285;-15.374068260192871;-48.47477722167969
273;1673284593.5125773;47.130837899999996;7.240050399999999;0.10500000417232513;1673284593.5836241;-4.746748924255371;-15.255313873291016;-48.57304763793945
274;1673284593.7307088;47.1308346;7.2400268;0.049000002443790436;1673284593.7945886;-4.6957316398620605;-15.111319541931152;-48.68281555175781
275;1673284593.931524;47.130831;7.240002499999999;0.0010000000474974513;1673284593.9956183;-4.645654201507568;-14.879773139953613;-48.75889587402344
276;1673284594.1355693;47.1308271;7.2399774;-0.0430000014603138;1673284594.1990638;-4.563748359680176;-14.638426780700684;-48.83485794067383
277;1673284594.327721;47.1308229;7.2399515;-0.08900000154972076;1673284594.395383;-4.521383762359619;-14.390192031860352;-48.890281677246094
278;1673284594.5237274;47.130818399999995;7.2399249;-0.1290000081062317;1673284594.5846715;-4.475802421569824;-14.132691383361816;-48.97910690307617
279;1673284594.7297788;47.130813599999996;7.239897699999999;-0.16900001466274261;1673284594.7895713;-4.402524948120117;-13.87053394317627;-49.080074310302734
280;1673284594.955581;47.130808599999995;7.239869799999999;-0.20800000429153442;1673284595.0185373;-4.360351085662842;-13.609601974487305;-49.11994934082031
281;1673284595.1790223;47.1308031;7.2398406;-0.2750000059604645;1673284595.2341201;-4.326650619506836;-13.387198448181152;-49.221641540527344
282;1673284595.3736565;47.1307974;7.2398111;-0.32600000500679016;1673284595.4326942;-4.2699055671691895;-13.137417793273926;-49.28483581542969
283;1673284595.5650444;47.130791599999995;7.2397813;-0.3630000054836273;1673284595.6175823;-4.210513591766357;-12.880181312561035;-49.32561111450195
284;1673284595.7505121;47.1307857;7.239751;-0.39500001072883606;1673284595.8180387;-4.194700717926025;-12.644898414611816;-49.35974884033203
285;1673284595.9626427;47.1307796;7.2397202;-0.4230000078678131;1673284596.0186903;-4.1258463859558105;-12.439224243164062;-49.36955261230469
286;1673284596.1347516;47.1307733;7.239688699999999;-0.45000001788139343;1673284596.1959534;-4.090398788452148;-12.25154972076416;-49.41777801513672
287;1673284596.3346558;47.1307662;7.2396555;-0.5130000114440918;1673284596.3979225;-4.088836193084717;-12.085041046142578;-49.42621612548828
288;1673284596.5294814;47.1307593;7.239622499999999;-0.5490000247955322;1673284596.591641;-4.014676094055176;-11.908016204833984;-49.45463943481445
289;1673284596.7225983;47.1307524;7.239589199999999;-0.5740000009536743;1673284596.785609;-3.9649481773376465;-11.725775718688965;-49.493492126464844
290;1673284596.91379;47.1307453;7.2395555;-0.5910000205039978;1673284596.9855726;-3.9372901916503906;-11.5219144821167;-49.530242919921875
291;1673284597.1141572;47.130738099999995;7.2395211999999995;-0.6020000576972961;1673284597.1757689;-3.936234474182129;-11.347322463989258;-49.56081008911133
292;1673284597.3345058;47.1307366;7.2395141999999995;-0.6060000061988831;1673284597.3993542;-3.9350244998931885;-11.180994033813477;-49.61140441894531
293;;;;;1673284597.5886214;-3.844686269760132;-11.00925064086914;-49.652374267578125
294;;;;;1673284597.7884128;-3.858109951019287;-10.869487762451172;-49.729248046875
295;;;;;1673284597.9892318;-3.811922311782837;-10.744523048400879;-49.73431396484375
296;;;;;1673284598.2014966;-3.854086399078369;-10.625648498535156;-49.773895263671875
297;;;;;1673284598.4052994;-3.7717182636260986;-10.52794361114502;-49.833648681640625
