;pos_time;latitude;longitude;altitude;alt_time;pitch;roll;yaw
0;1673284375.17704;47.1306425;7.2406201;-0.012000000104308128;1673284375.315524;0.014168373309075832;-0.49629297852516174;90.37029266357422
1;1673284375.3846948;47.1306425;7.2406201;-0.013000000268220901;1673284375.5263424;-0.02834242954850197;-0.7046000957489014;90.1956787109375
2;1673284375.597205;47.1306425;7.2406201;-0.014000000432133675;1673284375.7419753;-0.012021367438137531;0.011573280207812786;90.16593933105469
3;1673284375.8018622;47.1306425;7.2406201;-0.015000000596046448;1673284375.941115;0.12639589607715607;0.0963565856218338;90.24129486083984
4;1673284375.9977577;47.1306425;7.2406201;-0.01600000075995922;1673284376.1376295;-0.014125874266028404;-0.10010853409767151;90.31395721435547
5;1673284376.1972103;47.1306424;7.2406201;-0.01600000075995922;1673284376.323663;-0.1518450230360031;0.1405225396156311;90.24308776855469
6;1673284376.3800395;47.1306424;7.2406201999999995;-0.015000000596046448;1673284376.5181766;-0.1356969028711319;0.01051884051412344;90.20128631591797
7;1673284376.5788257;47.1306424;7.2406201999999995;-0.017000000923871994;1673284376.7203982;-0.19448503851890564;-0.0284205824136734;90.34468078613281
8;1673284376.7801964;47.1306424;7.2406201999999995;-0.01900000125169754;1673284376.9198031;-0.016761409118771553;0.04871947318315506;90.12552642822266
9;1673284376.9789486;47.1306424;7.2406203;-0.018000001087784767;1673284377.2252083;-0.04588403180241585;-0.1698542684316635;90.24307250976562
10;1673284377.2796357;47.1306424;7.2406203;0.003000000026077032;1673284377.4162266;0.04416476562619209;-0.4641430377960205;90.33251190185547
11;1673284377.475323;47.1306425;7.2406203;0.005000000353902578;1673284377.6077394;0.01889248937368393;-0.2745889127254486;90.230224609375
12;1673284377.6762993;47.1306425;7.2406201999999995;0.0020000000949949026;1673284377.8273795;-0.22591543197631836;-0.3322781026363373;90.24382781982422
13;1673284377.8923323;47.1306425;7.2406201999999995;0.0;1673284378.041904;0.16696284711360931;-0.5289080142974854;90.18824005126953
14;1673284378.0971081;47.1306425;7.2406201999999995;0.0;1673284378.2279818;0.030184859409928322;-0.22797609865665436;90.25911712646484
15;1673284378.2801602;47.1306424;7.2406201999999995;0.0010000000474974513;1673284378.4190502;0.1428685486316681;-0.296948105096817;90.1436538696289
16;1673284378.4739547;47.1306424;7.2406201999999995;0.0;1673284378.604349;0.1786983162164688;-0.5668247938156128;90.10819244384766
17;1673284378.6771672;47.1306424;7.2406201999999995;0.0;1673284378.8222108;0.2204059213399887;-0.5393303036689758;89.92029571533203
18;1673284378.8923254;47.1306424;7.2406201999999995;0.0;1673284379.0362222;0.04153454303741455;-0.6147788763046265;90.06295776367188
19;1673284379.0989497;47.1306425;7.2406201999999995;0.0010000000474974513;1673284379.2348664;0.26640239357948303;-0.6916542649269104;90.4445571899414
20;1673284379.2986143;47.1306425;7.2406201999999995;0.0010000000474974513;1673284379.4291565;0.19322699308395386;-0.6453416347503662;90.12535095214844
21;1673284379.488149;47.1306425;7.2406201999999995;0.0020000000949949026;1673284379.6210709;0.0463065505027771;-0.2791859209537506;90.12834167480469
22;1673284379.6793954;47.1306425;7.2406201999999995;0.0010000000474974513;1673284379.8184743;0.22697843611240387;0.0733862966299057;90.38282012939453
23;1673284379.8823614;47.1306425;7.2406201999999995;0.006000000052154064;1673284380.0190742;0.3273274004459381;-0.30034139752388;90.37898254394531
24;1673284380.080044;47.1306425;7.2406201999999995;0.012000000104308128;1673284380.219098;0.3740121126174927;-0.2602407932281494;90.09378051757812
25;1673284380.278209;47.1306425;7.2406201;0.012000000104308128;1673284380.4142041;0.3772426247596741;-0.24669978022575378;90.21111297607422
26;1673284380.4772403;47.130642599999995;7.2406201;0.01100000087171793;1673284380.6164334;0.4562879204750061;-0.42931994795799255;90.2136459350586
27;1673284380.677067;47.130642599999995;7.24062;0.01100000087171793;1673284380.8182955;0.3406524360179901;-0.1751948893070221;88.68515014648438
28;1673284380.878943;47.130642699999996;7.2406198999999996;0.012000000104308128;1673284381.0183024;-0.5863056182861328;2.0011813640594482;87.1587905883789
29;1673284381.087092;47.1306428;7.2406197;0.02200000174343586;1673284381.2263203;-3.667759656906128;5.054124355316162;88.32271575927734
30;1673284381.2921584;47.1306429;7.2406193;0.046000003814697266;1673284381.4302309;-8.781411170959473;8.147096633911133;88.58306884765625
31;1673284381.489072;47.130643;7.2406191;0.08100000023841858;1673284381.631171;-8.347626686096191;5.877211093902588;88.9689712524414
32;1673284381.690055;47.130643;7.240619;0.13600000739097595;1673284381.8259501;-7.706202983856201;9.150914192199707;88.15755462646484
33;1673284381.8853557;47.130643;7.240619;0.21000000834465027;1673284382.0351288;-7.49626350402832;7.267043590545654;88.33338928222656
34;1673284382.1033607;47.130643;7.2406191;0.29600000381469727;1673284382.247648;-7.314608097076416;4.916621685028076;88.67428588867188
35;1673284382.3136175;47.1306429;7.240619199999999;0.39500001072883606;1673284382.4501994;-6.419416904449463;9.600386619567871;88.13119506835938
36;1673284382.5101042;47.1306428;7.2406194;0.5080000162124634;1673284382.6446729;-6.464884281158447;6.652512073516846;88.37144470214844
37;1673284382.710454;47.1306425;7.2406196;0.6340000033378601;1673284382.8377094;-6.397842884063721;3.326132297515869;88.69419860839844
38;1673284382.901668;47.1306424;7.240619799999999;0.7720000147819519;1673284383.03681;-5.98141622543335;6.669424533843994;88.15316772460938
39;1673284383.0973413;47.1306423;7.24062;0.9230000376701355;1673284383.2345092;-5.914316177368164;7.462113380432129;87.90962219238281
40;1673284383.3033144;47.1306423;7.2406201999999995;1.0850000381469727;1673284383.438531;-5.8133745193481445;3.6762843132019043;88.40515899658203
41;1673284383.5030768;47.1306424;7.2406204;1.2620000839233398;1673284383.6383224;-5.694375514984131;7.2072858810424805;87.94619750976562
42;1673284383.6988225;47.1306424;7.2406204999999995;1.4500000476837158;1673284383.8373601;-5.598823547363281;8.337142944335938;87.16554260253906
43;1673284383.89319;47.1306423;7.2406204999999995;1.6400001049041748;1673284384.0274463;-5.7700419425964355;3.646853446960449;87.7868423461914
44;1673284384.092026;47.1306423;7.2406204999999995;1.8330000638961792;1673284384.2427077;-6.314189434051514;6.439507007598877;87.75788879394531
45;1673284384.30444;47.1306424;7.2406204;2.0240001678466797;1673284384.4491632;-6.121715545654297;9.183485984802246;87.35751342773438
46;1673284384.5142896;47.1306425;7.2406201999999995;2.2190001010894775;1673284384.6635253;-6.661580562591553;6.02960729598999;87.75004577636719
47;1673284384.7311292;47.130642599999995;7.2406201;2.4190001487731934;1673284384.8618844;-6.668148517608643;5.897021293640137;87.89201354980469
48;1673284384.9186509;47.130642699999996;7.24062;2.621000051498413;1673284385.048397;-6.7542805671691895;9.813617706298828;87.06050109863281
49;1673284385.1083884;47.130642599999995;7.24062;2.819000244140625;1673284385.2510471;-6.451868057250977;5.306197643280029;87.25798034667969
50;1673284385.318919;47.1306425;7.24062;3.0180001258850098;1673284385.4456234;-6.69556999206543;4.7305006980896;87.55752563476562
51;1673284385.4984581;47.1306425;7.24062;3.2160000801086426;1673284385.6363056;-6.486141681671143;9.26784896850586;87.09236907958984
52;1673284385.7017848;47.1306425;7.2406201;3.4140002727508545;1673284385.848888;-6.258615016937256;6.601219654083252;87.36341857910156
53;1673284385.9038653;47.1306425;7.2406201;3.6150002479553223;1673284386.0296512;-6.542469024658203;4.507072448730469;87.81355285644531
54;1673284386.0852385;47.1306425;7.2406201999999995;3.820000171661377;1673284386.2183256;-6.550217151641846;8.990426063537598;87.34678649902344
55;1673284386.2778614;47.1306424;7.2406201999999995;4.02400016784668;1673284386.4168358;-6.458800792694092;7.228056907653809;87.2489242553711
56;1673284386.4776044;47.1306423;7.2406201999999995;4.2270002365112305;1673284386.6230345;-6.4078850746154785;3.466118097305298;87.77324676513672
57;1673284386.6933277;47.1306423;7.2406203;4.433000087738037;1673284386.8251078;-6.219215393066406;8.034564018249512;87.39095306396484
58;1673284386.882151;47.1306423;7.2406203;4.636000156402588;1673284387.015529;-6.230510234832764;8.869515419006348;87.2623062133789
59;1673284387.0744984;47.1306424;7.2406203;4.837000370025635;1673284387.210232;-6.329588890075684;4.536770820617676;87.65076446533203
60;1673284387.2683601;47.1306425;7.2406203;5.0400004386901855;1673284387.409239;-6.423267841339111;7.088789939880371;87.27086639404297
61;1673284387.4723861;47.1306424;7.2406203;5.243000030517578;1673284387.6241038;-6.2827887535095215;9.071432113647461;86.93251037597656
62;1673284387.701097;47.1306423;7.2406203;5.446000099182129;1673284387.8507113;-6.435204982757568;4.403193950653076;87.50010681152344
63;1673284387.9143035;47.1306423;7.2406203;5.652000427246094;1673284388.0658343;-6.657098770141602;6.303307056427002;87.44446563720703
64;1673284388.1283817;47.1306423;7.2406203;5.857000350952148;1673284388.2720559;-6.505661964416504;9.733246803283691;87.05473327636719
65;1673284388.3386698;47.1306424;7.2406201999999995;6.067000389099121;1673284388.459516;-6.449454307556152;5.281980514526367;87.57523345947266
66;1673284388.5197587;47.1306425;7.2406201;6.276000499725342;1673284388.6394584;-6.556271076202393;5.764119625091553;87.6285400390625
67;1673284388.6952527;47.1306424;7.2406201;6.484000205993652;1673284388.841187;-6.363504409790039;9.830241203308105;87.1432876586914
68;1673284388.9066541;47.1306423;7.2406201;6.693000316619873;1673284389.0387447;-6.492776870727539;5.836026191711426;87.50517272949219
69;1673284389.1033387;47.1306422;7.2406201;6.902000427246094;1673284389.2525744;-6.612011432647705;4.334323406219482;87.78824615478516
70;1673284389.3236;47.1306422;7.2406201999999995;7.110000133514404;1673284389.474963;-6.580544471740723;8.655974388122559;87.20465087890625
71;1673284389.5338368;47.1306422;7.2406201999999995;7.313000202178955;1673284389.6652145;-6.396905422210693;7.8285112380981445;87.33798217773438
72;1673284389.7302248;47.1306423;7.2406201999999995;7.51300048828125;1673284389.8462799;-6.7262115478515625;4.42034912109375;87.68605041503906
73;1673284389.9048731;47.1306424;7.2406201999999995;7.716000556945801;1673284390.03787;-6.8472371101379395;8.77402400970459;87.21035766601562
74;1673284390.0974636;47.1306423;7.2406201999999995;7.919000148773193;1673284390.2325006;-6.49638557434082;8.075966835021973;87.04762268066406
75;1673284390.302816;47.1306422;7.2406201999999995;8.122000694274902;1673284390.4395182;-6.739325523376465;3.798116445541382;87.53582000732422
76;1673284390.4982333;47.1306422;7.2406201999999995;8.325000762939453;1673284390.665012;-6.607831954956055;7.591589450836182;87.15736389160156
77;1673284390.7179685;47.1306422;7.2406201999999995;8.526000022888184;1673284390.8489957;-6.411941051483154;9.087627410888672;87.12599182128906
78;1673284390.9051578;47.1306423;7.2406201999999995;8.730000495910645;1673284391.0422478;-6.430725574493408;4.862276077270508;87.76988220214844
79;1673284391.1049316;47.1306424;7.2406203;8.932000160217285;1673284391.2541444;-6.57816743850708;6.567404747009277;87.52259826660156
80;1673284391.3139594;47.1306423;7.2406203;9.134000778198242;1673284391.441756;-6.443188667297363;9.37378978729248;87.05754852294922
81;1673284391.502723;47.1306422;7.2406204;9.334000587463379;1673284391.651262;-6.280110836029053;5.1833391189575195;87.59066772460938
82;1673284391.7099233;47.1306422;7.2406204;9.53600025177002;1673284391.8554604;-6.5981292724609375;5.417670249938965;87.6846694946289
83;1673284391.9131715;47.1306422;7.2406204;9.74000072479248;1673284392.0430937;-6.4774088859558105;9.667091369628906;87.08995819091797
84;1673284392.099701;47.1306423;7.2406204;9.942000389099121;1673284392.2258945;-6.4746270179748535;6.335049152374268;87.44768524169922
85;1673284392.289835;47.1306423;7.2406204;10.142000198364258;1673284392.443032;-6.5525383949279785;4.538209915161133;87.70738983154297
86;1673284392.5056312;47.1306422;7.2406204;10.39900016784668;1673284392.6489432;-7.382626533508301;9.068530082702637;87.28583526611328
87;1673284392.7129292;47.130642099999996;7.2406206;10.75200080871582;1673284392.8520014;-6.909135818481445;9.146440505981445;87.29165649414062
88;1673284392.913873;47.1306419;7.240620799999999;11.134000778198242;1673284393.0533051;-6.353385925292969;4.470976829528809;87.63701629638672
89;1673284393.112111;47.1306417;7.240621099999999;11.529000282287598;1673284393.2585793;-5.888255596160889;5.188412189483643;87.49705505371094
90;1673284393.3243632;47.1306417;7.240621399999999;11.930000305175781;1673284393.464349;-5.369716644287109;8.456143379211426;87.03267669677734
91;1673284393.5315125;47.1306417;7.2406215;12.327000617980957;1673284393.6525674;-5.2750067710876465;4.580273628234863;87.56236267089844
92;1673284393.7161636;47.1306418;7.2406216;12.724000930786133;1673284393.8625748;-5.448000431060791;4.763553142547607;87.64798736572266
93;1673284393.9264452;47.1306419;7.2406215;13.124000549316406;1673284394.0635223;-5.427018165588379;9.067855834960938;87.06537628173828
94;1673284394.1285279;47.1306419;7.2406215;13.529000282287598;1673284394.2582355;-5.556794166564941;6.223593235015869;87.19254302978516
95;1673284394.3207092;47.130641999999995;7.2406213;13.937000274658203;1673284394.4585357;-6.190884590148926;4.674899578094482;87.68206024169922
96;1673284394.5209954;47.130642099999996;7.240621099999999;14.343000411987305;1673284394.6547432;-6.316967010498047;8.886566162109375;87.37117767333984
97;1673284394.7147615;47.1306422;7.240621;14.747000694274902;1673284394.851904;-6.493324279785156;7.645678520202637;87.48197174072266
98;1673284394.913602;47.1306424;7.240620799999999;15.15000057220459;1673284395.0502915;-6.737125873565674;4.692331790924072;87.66805267333984
99;1673284395.1147585;47.1306424;7.2406207;15.551000595092773;1673284395.2622952;-6.951343536376953;8.059191703796387;87.1748046875
100;1673284395.3198936;47.1306423;7.2406207;15.955000877380371;1673284395.4549043;-6.471807479858398;7.825711727142334;87.09028625488281
101;1673284395.5141823;47.130642099999996;7.2406206;16.361000061035156;1673284395.6592414;-6.743082046508789;4.1992316246032715;87.70181274414062
102;1673284395.7219126;47.130642099999996;7.2406206;16.770000457763672;1673284395.8558977;-6.679019927978516;5.758585453033447;87.57689666748047
103;1673284395.9224722;47.130642099999996;7.2406206;17.178001403808594;1673284396.0565689;-6.213791370391846;8.906900405883789;86.93061065673828
104;1673284396.1146991;47.130642099999996;7.2406207;17.591001510620117;1673284396.2490027;-6.116213798522949;4.878327369689941;87.50177001953125
105;1673284396.3069286;47.1306422;7.2406207;18.00400161743164;1673284396.4363632;-6.250857353210449;5.792835712432861;87.62764739990234
106;1673284396.496875;47.130642099999996;7.2406207;18.415000915527344;1673284396.6412933;-6.32703971862793;9.155370712280273;87.20647430419922
107;1673284396.7115638;47.130642099999996;7.2406207;18.825000762939453;1673284396.8493273;-6.050181865692139;5.265811920166016;87.41494750976562
108;1673284396.9147222;47.130641999999995;7.240620799999999;19.238000869750977;1673284397.0535262;-6.3435564041137695;4.717789649963379;87.43365478515625
109;1673284397.119097;47.130642099999996;7.240620799999999;19.6510009765625;1673284397.2530959;-6.170332431793213;8.902775764465332;87.10121154785156
110;1673284397.3154018;47.130642099999996;7.240620799999999;20.058000564575195;1673284397.463493;-6.357157230377197;6.483619689941406;87.40974426269531
111;1673284397.5279553;47.1306422;7.2406207;20.46900177001953;1673284397.6718047;-6.450407028198242;4.735762596130371;87.85690307617188
112;1673284397.729586;47.1306422;7.2406207;20.88300132751465;1673284397.8561587;-6.181210994720459;8.724345207214355;87.31208038330078
113;1673284397.914758;47.1306422;7.240620799999999;21.296001434326172;1673284398.0509586;-5.848208904266357;7.423537731170654;87.12712097167969
114;1673284398.113762;47.130642099999996;7.240620799999999;21.70600128173828;1673284398.265533;-6.202910423278809;4.168613433837891;87.55245208740234
115;1673284398.3291945;47.1306422;7.240620799999999;22.115001678466797;1673284398.4638803;-6.178958892822266;7.26378870010376;87.31790161132812
116;1673284398.5258465;47.1306423;7.2406207;22.518001556396484;1673284398.6564093;-6.211032390594482;9.161470413208008;87.16383361816406
117;1673284398.7191195;47.1306424;7.2406207;22.921001434326172;1673284398.862078;-6.318464279174805;4.94685697555542;87.69718933105469
118;1673284398.922592;47.1306425;7.2406207;23.321001052856445;1673284399.0567389;-6.475028991699219;6.93895149230957;87.42832946777344
119;1673284399.1136558;47.1306425;7.2406206;23.71700096130371;1673284399.260704;-6.141290187835693;9.470210075378418;87.10272216796875
120;1673284399.319851;47.1306425;7.2406206;24.11600112915039;1673284399.4456563;-6.341020584106445;5.388424396514893;87.580078125
121;1673284399.5131433;47.1306425;7.2406206;24.518001556396484;1673284399.6760194;-6.471858501434326;5.5019049644470215;87.69588470458984
122;1673284399.7355886;47.1306425;7.2406204999999995;24.920001983642578;1673284399.8737438;-6.320224285125732;9.404906272888184;87.09021759033203
123;1673284399.946183;47.1306425;7.2406204999999995;25.32000160217285;1673284400.0818048;-6.211104869842529;6.2298150062561035;87.3035888671875
124;1673284400.1370735;47.1306425;7.2406204;25.724000930786133;1673284400.2681863;-6.368943214416504;4.574849605560303;87.52454376220703
125;1673284400.3442357;47.1306425;7.2406204;26.12900161743164;1673284400.481296;-6.592529296875;9.078343391418457;87.14641571044922
126;1673284400.5453722;47.1306424;7.2406203;26.533000946044922;1673284400.6718473;-6.442880630493164;6.950023174285889;87.42644500732422
127;1673284400.7288475;47.1306423;7.2406203;26.935001373291016;1673284400.853004;-6.561070442199707;4.029992580413818;87.73748016357422
128;1673284400.9087987;47.1306424;7.2406203;27.334001541137695;1673284401.052086;-6.350305080413818;8.220053672790527;87.07476806640625
129;1673284401.1340895;47.1306424;7.2406203;27.729001998901367;1673284401.2714143;-6.162210464477539;8.901208877563477;87.09407043457031
130;1673284401.3271651;47.1306425;7.2406203;28.130001068115234;1673284401.4651349;-6.2635908126831055;4.854555130004883;87.70541381835938
131;1673284401.5235515;47.130642599999995;7.2406203;28.53400230407715;1673284401.644304;-6.348743915557861;7.090712070465088;87.56690979003906
132;1673284401.706032;47.130642599999995;7.2406203;28.937002182006836;1673284401.855528;-6.0299763679504395;9.548614501953125;87.19020080566406
133;1673284401.921103;47.130642599999995;7.2406203;29.33700180053711;1673284402.0794294;-5.959428310394287;5.798743724822998;87.42692565917969
134;1673284402.1415937;47.1306425;7.2406203;29.740001678466797;1673284402.277062;-6.301455497741699;5.25540018081665;87.4304428100586
135;1673284402.3372734;47.1306425;7.2406201999999995;30.148000717163086;1673284402.4657884;-6.417823791503906;9.658858299255371;86.91807556152344
136;1673284402.523826;47.130642599999995;7.2406201999999995;30.548002243041992;1673284402.661163;-6.302247047424316;6.944426536560059;87.39897155761719
137;1673284402.7246552;47.130642599999995;7.2406201999999995;30.94900131225586;1673284402.860011;-6.568376064300537;4.627943992614746;87.87212371826172
138;1673284402.9159942;47.1306425;7.2406201999999995;31.34600067138672;1673284403.0528865;-6.26915979385376;8.325798034667969;87.34229278564453
139;1673284403.1126564;47.1306423;7.2406201999999995;31.739002227783203;1673284403.25248;-6.111535549163818;8.174799919128418;87.16056823730469
140;1673284403.3122678;47.1306422;7.2406201999999995;32.13300323486328;1673284403.4507406;-6.388187885284424;4.038970470428467;87.53197479248047
141;1673284403.5124667;47.1306422;7.2406201;32.52900314331055;1673284403.6477292;-6.431274890899658;6.456223011016846;87.2750015258789
142;1673284403.7072644;47.1306422;7.2406201;32.92100143432617;1673284403.8422437;-6.351616382598877;9.311762809753418;87.04586791992188
143;1673284403.9067922;47.1306424;7.2406201999999995;33.3129997253418;1673284404.0592873;-6.327877998352051;5.144588470458984;87.66738891601562
144;1673284404.1280355;47.1306424;7.2406201999999995;33.711002349853516;1673284404.2788649;-6.668293476104736;6.254430294036865;87.7121810913086
145;1673284404.335641;47.1306425;7.2406201999999995;34.11000061035156;1673284404.4531994;-6.290236949920654;9.712371826171875;86.99739074707031
146;1673284404.5252082;47.1306424;7.2406201999999995;34.509002685546875;1673284404.6748352;-6.292759895324707;5.694302558898926;87.243896484375
147;1673284404.738312;47.1306424;7.2406201999999995;34.90999984741211;1673284404.869941;-6.40524959564209;5.195128440856934;87.53260803222656
148;1673284404.9338975;47.1306424;7.2406201999999995;35.31100082397461;1673284405.0823045;-6.261812686920166;9.343162536621094;87.16211700439453
149;1673284405.14102;47.1306425;7.2406201999999995;35.70600128173828;1673284405.2793622;-6.132294178009033;7.263861179351807;87.45360565185547
150;1673284405.3402512;47.1306425;7.2406203;36.09800338745117;1673284405.4934459;-6.499780178070068;4.634366989135742;87.64839172363281
151;1673284405.5542982;47.1306425;7.2406203;36.49100112915039;1673284405.6797762;-6.393649578094482;8.799478530883789;86.99012756347656
152;1673284405.7364256;47.1306424;7.2406203;36.88800048828125;1673284405.870234;-6.132179260253906;7.543246746063232;87.16630554199219
153;1673284405.9386866;47.1306424;7.2406204;37.29300308227539;1673284406.0756767;-6.3564653396606445;4.022824764251709;87.76365661621094
154;1673284406.1383803;47.1306424;7.2406203;37.69900131225586;1673284406.2717412;-6.3057169914245605;7.736706733703613;87.37645721435547
155;1673284406.329628;47.1306424;7.2406203;38.099002838134766;1673284406.4632869;-6.147898197174072;8.70917797088623;87.1362075805664
156;1673284406.5218542;47.1306425;7.2406203;38.50100326538086;1673284406.654484;-6.406282424926758;4.65706205368042;87.6742172241211
157;1673284406.7141728;47.130642599999995;7.2406203;38.906002044677734;1673284406.850074;-6.654554843902588;7.327795505523682;87.26469421386719
158;1673284406.9102237;47.1306425;7.2406203;39.31100082397461;1673284407.046626;-6.447146415710449;9.122776985168457;86.94102478027344
159;1673284407.1110606;47.1306425;7.2406203;39.7130012512207;1673284407.2558506;-6.459271430969238;5.07495641708374;87.72586822509766
160;1673284407.3182986;47.1306425;7.2406203;40.1150016784668;1673284407.4550314;-6.651297092437744;6.11609411239624;87.63094329833984
161;1673284407.5143123;47.1306425;7.2406203;40.5160026550293;1673284407.6489794;-6.1698455810546875;9.72442626953125;87.05513763427734
162;1673284407.710653;47.130642599999995;7.2406203;40.910003662109375;1673284407.8520334;-6.335415363311768;5.692749977111816;87.48823547363281
163;1673284407.9116013;47.130642599999995;7.2406203;41.303001403808594;1673284408.048567;-6.397105693817139;5.425588607788086;87.59292602539062
164;1673284408.1016223;47.130642599999995;7.2406203;41.695003509521484;1673284408.2508175;-6.307016372680664;9.48998737335205;87.22001647949219
165;1673284408.31938;47.130642599999995;7.2406203;42.09100341796875;1673284408.4633396;-6.309700012207031;6.9287285804748535;87.34830474853516
166;1673284408.5252721;47.130642599999995;7.2406203;42.48500061035156;1673284408.674439;-6.334163188934326;4.890972137451172;87.59074401855469
167;1673284408.7427995;47.130642599999995;7.2406203;42.880001068115234;1673284408.9028716;-6.2964935302734375;9.159729957580566;87.0299072265625
168;1673284408.9623754;47.130642599999995;7.2406204;43.27300262451172;1673284409.0838704;-6.1783881187438965;7.9244065284729;87.26828002929688
169;1673284409.1365776;47.130642699999996;7.2406204;43.66800308227539;1673284409.264615;-6.445541858673096;4.763723373413086;87.76363372802734
170;1673284409.3225641;47.130642699999996;7.2406203;44.06500244140625;1673284409.4605634;-6.393896102905273;8.504412651062012;87.34615325927734
171;1673284409.522282;47.130642599999995;7.2406203;44.4630012512207;1673284409.6636362;-6.074141502380371;8.074152946472168;87.14601135253906
172;1673284409.728224;47.1306425;7.2406203;44.86300277709961;1673284409.851801;-6.141481399536133;4.768840789794922;87.47557067871094
173;1673284409.918564;47.1306425;7.2406203;45.2650032043457;1673284410.0458686;-6.370463848114014;6.23425817489624;87.43222045898438
174;1673284410.1047273;47.1306425;7.2406203;45.6670036315918;1673284410.251667;-6.2941412925720215;9.540644645690918;87.16024780273438
175;1673284410.3161983;47.1306425;7.2406203;46.06100082397461;1673284410.4549744;-6.180336952209473;5.321201324462891;87.59194946289062
176;1673284410.5154948;47.1306425;7.2406203;46.45600128173828;1673284410.6576061;-6.613914489746094;5.765040397644043;87.56478118896484
177;1673284410.7135918;47.1306425;7.2406203;46.85100173950195;1673284410.8484702;-6.309182643890381;9.397924423217773;86.94731903076172
178;1673284410.9033966;47.1306424;7.2406201999999995;47.246002197265625;1673284411.0535011;-6.405399799346924;5.85713005065918;87.3527603149414
179;1673284411.1201315;47.1306424;7.2406201999999995;47.64200210571289;1673284411.2682056;-6.570278644561768;4.8000617027282715;87.7293472290039
180;1673284411.326931;47.1306424;7.2406201999999995;48.034000396728516;1673284411.4715981;-6.547495365142822;10.701452255249023;87.25699615478516
181;1673284411.5369344;47.1306425;7.2406201;48.37600326538086;1673284411.6765673;-6.5437846183776855;5.763697147369385;87.72207641601562
182;1673284411.7383559;47.130642599999995;7.2406201;48.672000885009766;1673284411.872858;-6.8406853675842285;5.69105863571167;87.63009643554688
183;1673284411.9278271;47.130642699999996;7.24062;48.923004150390625;1673284412.0574932;-6.711070537567139;9.706985473632812;87.2218246459961
184;1673284412.119103;47.130642699999996;7.2406198999999996;49.137001037597656;1673284412.2518637;-6.906274318695068;6.477025508880615;87.45287322998047
185;1673284412.306723;47.130642699999996;7.240619799999999;49.31500244140625;1673284412.4489887;-0.11398312449455261;8.276204109191895;86.48638153076172
186;1673284412.5064058;47.1306428;7.240619499999999;49.454002380371094;1673284412.6427019;9.49778938293457;20.583234786987305;77.04383087158203
187;1673284412.699346;47.130642599999995;7.2406185999999995;49.5260009765625;1673284412.839474;-1.0337706804275513;11.091218948364258;63.36347579956055
188;1673284412.9004498;47.1306418;7.240617299999999;49.57200241088867;1673284413.0386693;2.380354881286621;12.651032447814941;54.16653823852539
189;1673284413.1007729;47.130641;7.2406158;49.608001708984375;1673284413.2445717;3.9669125080108643;13.722518920898438;45.62131881713867
190;1673284413.310732;47.130640199999995;7.2406143;49.6400032043457;1673284413.4458182;2.1825504302978516;12.000221252441406;36.77472686767578
191;1673284413.505714;47.1306394;7.2406128;49.67100143432617;1673284413.648763;2.211089849472046;9.101055145263672;28.02519989013672
192;1673284413.7260096;47.130638499999996;7.2406114;49.70000076293945;1673284413.877902;3.122382640838623;7.251165866851807;19.90186309814453
193;1673284413.944048;47.1306377;7.2406102;49.724002838134766;1673284414.0832717;4.6655378341674805;7.815633296966553;11.249655723571777
194;1673284414.1469004;47.1306371;7.2406092;49.74100112915039;1673284414.2870045;6.385498046875;8.885717391967773;3.054598331451416
195;1673284414.3498242;47.130636599999995;7.2406086;49.759002685546875;1673284414.4867775;6.833236217498779;9.550637245178223;-4.919802665710449
196;1673284414.5456367;47.1306363;7.240608099999999;49.7760009765625;1673284414.6827812;6.301028251647949;8.33566951751709;-14.176371574401855
197;1673284414.7447152;47.1306362;7.2406077;49.78900146484375;1673284414.8817952;6.540724277496338;5.276205062866211;-24.102575302124023
198;1673284414.9447036;47.130635999999996;7.240607499999999;49.801002502441406;1673284415.0770628;9.162816047668457;0.45693323016166687;-33.45933532714844
199;1673284415.1338584;47.130635899999994;7.2406073;49.81200408935547;1673284415.2658172;11.092451095581055;-0.639686644077301;-42.0273551940918
200;1673284415.3219016;47.130635899999994;7.2406073;49.82100296020508;1673284415.452826;10.719164848327637;-0.5295971035957336;-48.95537185668945
201;1673284415.5189354;47.1306358;7.2406073;49.827003479003906;1673284415.6553595;7.20088005065918;0.9936327338218689;-51.6146125793457
202;1673284415.7274075;47.1306358;7.2406071;49.83700180053711;1673284415.8659327;7.158083915710449;-1.0675413608551025;-51.29352569580078
203;1673284415.9275992;47.1306358;7.2406067;49.84700393676758;1673284416.0647285;8.039641380310059;-2.5342249870300293;-49.551692962646484
204;1673284416.1269195;47.1306357;7.2406063;49.85300064086914;1673284416.2784789;10.000785827636719;-2.4656436443328857;-47.32904052734375
205;1673284416.340647;47.1306357;7.240606;49.855003356933594;1673284416.4792259;12.410443305969238;-1.413185477256775;-45.544891357421875
206;1673284416.5401225;47.1306357;7.2406057;49.85900115966797;1673284416.6951053;12.148364067077637;0.6712160706520081;-45.02146530151367
207;1673284416.7743835;47.1306357;7.240605599999999;49.85900115966797;1673284416.8868713;9.530472755432129;2.7739615440368652;-45.67251205444336
208;1673284416.9421055;47.1306356;7.2406052999999995;49.85900115966797;1673284417.0698252;8.683844566345215;1.3612205982208252;-46.338130950927734
209;1673284417.1250393;47.1306355;7.2406049999999995;49.862003326416016;1673284417.2632906;9.197572708129883;-0.17725004255771637;-46.29228591918945
210;1673284417.3172905;47.130635399999996;7.2406048;49.8650016784668;1673284417.4555764;8.80220890045166;-2.327179431915283;-45.61558151245117
211;1673284417.5174017;47.130635399999996;7.2406047;49.86600112915039;1673284417.6556346;-17.67937660217285;-0.41244447231292725;-46.384552001953125
212;1673284417.7137697;47.130635899999994;7.2406041;49.86100387573242;1673284417.8451216;-45.14217758178711;6.6914825439453125;-48.593788146972656
213;1673284417.9056442;47.1306377;7.2406014999999995;49.814002990722656;1673284418.049421;-37.610313415527344;3.5582873821258545;-47.459163665771484
214;1673284418.1090922;47.130641399999995;7.240596099999999;49.72500228881836;1673284418.257012;-29.75706672668457;-0.6287063956260681;-46.1663932800293
215;1673284418.3203008;47.130646399999996;7.2405884;49.6400032043457;1673284418.4561179;-27.643301010131836;-3.966646671295166;-45.5204963684082
216;1673284418.5161498;47.1306521;7.2405791;49.58400344848633;1673284418.6511195;-30.268238067626953;-5.3749871253967285;-45.462703704833984
217;1673284418.7079046;47.1306586;7.2405681;49.55900192260742;1673284418.863103;-35.455955505371094;-4.237725734710693;-45.38216781616211
218;1673284418.9279454;47.130666;7.2405554;49.564002990722656;1673284419.0710182;-41.240936279296875;-2.1077020168304443;-45.404781341552734
219;1673284419.1261244;47.1306745;7.2405408;49.59400177001953;1673284419.270025;-48.5491943359375;0.6381038427352905;-46.273902893066406
220;1673284419.334006;47.1306844;7.2405238;49.643001556396484;1673284419.4591386;-56.42621994018555;1.2285726070404053;-46.92254638671875
221;1673284419.5200958;47.130696;7.240504199999999;49.71800231933594;1673284419.67499;-61.2869987487793;2.645089864730835;-47.343597412109375
222;1673284419.735124;47.130709599999996;7.2404815;49.79900360107422;1673284419.8741415;-59.448543548583984;2.334683656692505;-47.050785064697266
223;1673284419.935982;47.1307252;7.240456;49.85400390625;1673284420.0822134;-57.02067184448242;2.1505088806152344;-46.66615676879883
224;1673284420.1411295;47.130742399999995;7.2404284;49.87700271606445;1673284420.2834933;-56.445106506347656;2.4251208305358887;-46.74567413330078
225;1673284420.3520887;47.130760699999996;7.240399399999999;49.87300109863281;1673284420.4858944;-52.9536247253418;1.8287535905838013;-46.23884963989258
226;1673284420.5513513;47.130779999999994;7.2403692;49.85200119018555;1673284420.685506;-51.13249206542969;1.511154055595398;-46.06619644165039
227;1673284420.748157;47.1307998;7.2403384;49.832000732421875;1673284420.8931959;-49.935523986816406;1.7820732593536377;-46.055458068847656
228;1673284420.9579003;47.130820199999995;7.240307;49.81100082397461;1673284421.087127;-41.62525939941406;2.307300329208374;-45.98405456542969
229;1673284421.1429925;47.130840899999995;7.2402754;49.80600357055664;1673284421.2731044;-3.5638954639434814;9.166114807128906;-45.46454620361328
230;1673284421.3290975;47.1308611;7.2402453;49.79500198364258;1673284421.4669464;33.18682861328125;8.413553237915039;-43.9741096496582
231;1673284421.5279348;47.1308794;7.2402185;49.691001892089844;1673284421.6650007;20.235559463500977;2.2084929943084717;-45.751190185546875
232;1673284421.725304;47.1308954;7.2401953;49.43700408935547;1673284421.8648558;16.575117111206055;0.4659612476825714;-46.791263580322266
233;1673284421.9342222;47.1309086;7.2401765;49.23500061035156;1673284422.072075;14.696508407592773;0.7689869403839111;-46.977813720703125
234;1673284422.1369596;47.1309192;7.2401614;49.18600082397461;1673284422.2800412;50.47940444946289;2.468038320541382;-47.5932731628418
235;1673284422.3439348;47.130927299999996;7.2401506;49.285003662109375;1673284422.4959211;51.762672424316406;1.4068809747695923;-48.283634185791016
236;1673284422.5590112;47.130932;7.2401453;49.39900207519531;1673284422.7070014;59.15409469604492;0.980501115322113;-48.06386947631836
237;1673284422.762123;47.130933399999996;7.2401455;49.52900314331055;1673284422.920248;57.35688018798828;0.33795034885406494;-47.853755950927734
238;1673284422.9783196;47.1309318;7.2401503;49.63300323486328;1673284423.1100786;53.91503143310547;1.0462182760238647;-47.02301025390625
239;1673284423.1686404;47.130928;7.2401585;49.70500183105469;1673284423.2987263;44.6518669128418;-0.14467081427574158;-46.73604202270508
240;1673284423.3578327;47.1309226;7.2401689;49.75100326538086;1673284423.4770534;33.45368576049805;-0.15776783227920532;-46.63838577270508
241;1673284423.5380862;47.130916299999996;7.240180199999999;49.76100158691406;1673284423.6750853;15.057735443115234;-1.1472047567367554;-47.16454315185547
242;1673284423.737087;47.1309098;7.2401915;49.74400329589844;1673284423.8762171;-0.7587106823921204;-0.9375957250595093;-46.96221160888672
243;1673284423.9444435;47.1309038;7.2402016;49.720001220703125;1673284424.0841286;-13.417675018310547;-0.8491660356521606;-46.58266067504883
244;1673284424.1443985;47.130899;7.2402096;49.691001892089844;1673284424.2846365;-23.510087966918945;4.891326427459717;-46.65614700317383
245;1673284424.3472183;47.130895699999996;7.2402153;49.63600158691406;1673284424.4821284;-35.0637321472168;9.390850067138672;-48.07074737548828
246;1673284424.545363;47.130893799999996;7.2402188;49.4530029296875;1673284424.6994061;-61.84577560424805;25.71017074584961;-58.512699127197266
247;1673284424.7628508;47.1308922;7.2402219;48.910003662109375;1673284424.8947053;-78.82577514648438;89.92337036132812;-120.4218978881836
248;1673284424.9458897;47.1308905;7.240224899999999;48.00200271606445;1673284425.0789683;-71.81646728515625;149.47860717773438;178.857666015625
249;1673284425.1397393;47.130888899999995;7.2402277999999995;46.73200225830078;1673284425.2857313;-70.34749603271484;153.42367553710938;170.54010009765625
250;1673284425.343902;47.1308873;7.2402305;45.10000228881836;1673284425.4857113;-80.24381256103516;107.52281951904297;-150.80975341796875
251;1673284425.55019;47.130885899999996;7.240233099999999;43.10700225830078;1673284425.6938145;-59.85765838623047;11.818617820739746;-64.91577911376953
252;1673284425.7505846;47.1308843;7.2402358;40.75700378417969;1673284425.8866913;-14.124972343444824;-7.0153608322143555;-60.23331832885742
253;1673284425.9509773;47.1308827;7.2402386;38.018001556396484;1673284426.084833;28.924503326416016;-18.52499771118164;-65.06855773925781
254;1673284426.1415267;47.1308813;7.2402413;34.87900161743164;1673284426.2868013;53.67568588256836;-23.937360763549805;-71.62539672851562
255;1673284426.3494904;47.1308801;7.2402438;31.375001907348633;1673284426.4838881;50.07582092285156;-8.952454566955566;-64.35064697265625
256;1673284426.5444791;47.1308791;7.240246;27.52800178527832;1673284426.6818125;16.085351943969727;8.629939079284668;-58.7387580871582
257;1673284426.7479465;47.1308783;7.240247699999999;23.321001052856445;1673284426.8764496;-31.6799259185791;19.584861755371094;-65.28511810302734
258;1673284426.9277408;47.1308775;7.2402492;18.720001220703125;1673284427.0592797;-62.222015380859375;26.702999114990234;-76.70087432861328
259;1673284427.1203158;47.1308764;7.240251;13.759000778198242;1673284427.2617955;-58.36712646484375;6.062205791473389;-65.41429901123047
260;1673284427.3254664;47.1308751;7.240253;8.475000381469727;1673284427.4686432;-17.813003540039062;-9.799629211425781;-59.77626037597656
261;1673284427.5462976;47.1308736;7.240255599999999;2.8400001525878906;1673284427.6845694;-9.580587387084961;-0.5126454830169678;-58.85028076171875
262;1673284427.7392619;47.1308734;7.2402568;0.31300002336502075;1673284427.8734574;-20.93864631652832;0.38520875573158264;-58.88328170776367
263;1673284427.939203;47.1308728;7.240258;0.5230000019073486;1673284428.0789206;-13.232572555541992;0.148441344499588;-59.57487487792969
264;1673284428.1422832;47.130872;7.2402596;0.6360000371932983;1673284428.2808375;-6.881434440612793;-1.4866610765457153;-59.506351470947266
265;1673284428.342881;47.130871899999995;7.2402596;0.7010000348091125;1673284428.481947;-5.775732517242432;-1.3334780931472778;-59.39644241333008
266;1673284428.5500126;47.130872;7.2402596;0.7570000290870667;1673284428.704959;-5.656891345977783;-1.57008957862854;-59.540157318115234
267;1673284428.7713418;47.1308722;7.2402592;0.8050000667572021;1673284428.9153314;-5.679426670074463;-1.4760822057724;-59.63737869262695
268;1673284428.9778934;47.130872499999995;7.2402586;0.8320000171661377;1673284429.1098578;-5.59802770614624;-1.4054368734359741;-59.721900939941406
269;1673284429.1757116;47.1308729;7.2402579;0.8440000414848328;1673284429.3142767;-5.484171390533447;-1.2553555965423584;-59.816978454589844
270;1673284429.381147;47.130873199999996;7.2402574;0.8440000414848328;1673284429.5126579;-5.425554275512695;-1.0584079027175903;-59.892677307128906
271;1673284429.5715358;47.1308735;7.2402568;0.8390000462532043;1673284429.7216756;-5.378124713897705;-0.9271837472915649;-59.94780731201172
272;1673284429.7792416;47.130873799999996;7.240255899999999;0.8490000367164612;1673284429.9168997;-5.286375045776367;-0.7347114086151123;-60.04201889038086
273;1673284429.9876537;47.1308741;7.240255299999999;0.8530000448226929;1673284430.1139252;-5.139863014221191;-0.6151877641677856;-60.0640983581543
274;1673284430.1793387;47.130874299999995;7.2402549;0.8470000624656677;1673284430.303416;-5.003394603729248;-0.5214618444442749;-60.1040153503418
275;1673284430.3580718;47.130874399999996;7.2402546999999995;0.8330000638961792;1673284430.4817507;-4.833311080932617;-0.40958869457244873;-60.1263313293457
276;1673284430.5398817;47.1308745;7.2402546;0.8200000524520874;1673284430.678491;-4.761172294616699;-0.2878851592540741;-60.13643264770508
277;1673284430.7358415;47.1308745;7.2402545;0.8060000538825989;1673284430.8797317;-4.593484878540039;-0.19688373804092407;-60.155574798583984
278;1673284430.942517;47.1308745;7.2402545;0.7920000553131104;1673284431.0730104;-4.444695949554443;-0.09926416724920273;-60.17754364013672
279;1673284431.1301632;47.1308748;7.240253699999999;0.7900000214576721;1673284431.2731044;-4.407310485839844;-0.006045304238796234;-60.22047805786133
280;1673284431.333295;47.130874999999996;7.240253099999999;0.7870000600814819;1673284431.4704895;-4.21282434463501;0.09221652150154114;-60.23612594604492
281;1673284431.5305817;47.1308751;7.240253;0.7780000567436218;1673284431.6688373;-4.100864410400391;0.1977124959230423;-60.233821868896484
282;1673284431.7398982;47.130874999999996;7.2402532;0.7680000066757202;1673284431.8970416;-3.9290835857391357;0.282717227935791;-60.23352813720703
283;1673284431.9676518;47.130874899999995;7.240253399999999;0.7560000419616699;1673284432.1240134;-3.8243818283081055;0.4013075530529022;-60.23317337036133
284;1673284432.1845202;47.1308748;7.2402538;0.7420000433921814;1673284432.3403027;-3.805196762084961;0.5128264427185059;-60.24771499633789
285;1673284432.3998582;47.130874999999996;7.2402535;0.7330000400543213;1673284432.5334165;-3.7211833000183105;0.6375191807746887;-60.25145721435547
286;1673284432.5901487;47.1308751;7.2402533;0.7220000624656677;1673284432.740297;-3.6977157592773438;0.7097380757331848;-60.27681350708008
287;1673284432.7892053;47.1308751;7.2402535;0.7080000042915344;1673284432.933987;-3.564908742904663;0.7567280530929565;-60.2829475402832
288;1673284433.0103056;47.130874899999995;7.2402539;0.6930000185966492;1673284433.1472366;-3.472050905227661;0.8170287609100342;-60.312767028808594
289;1673284433.2010345;47.1308748;7.2402543999999995;0.675000011920929;1673284433.316993;-3.387860059738159;0.8770828247070312;-60.3510627746582
290;1673284433.371701;47.1308746;7.2402549;0.656000018119812;1673284433.4864588;-3.2649638652801514;0.9173250794410706;-60.38602828979492
291;1673284433.5439367;47.1308745;7.2402552;0.6330000162124634;1673284433.6765916;-3.243558168411255;0.9781099557876587;-60.429527282714844
292;1673284433.7334697;47.1308746;7.2402552;0.6130000352859497;1673284433.8835886;-3.225539445877075;0.986676812171936;-60.47488784790039
293;1673284433.9533362;47.1308746;7.2402551;0.5950000286102295;1673284434.0874114;-3.114318609237671;1.035920262336731;-60.50017166137695
294;1673284434.152984;47.1308746;7.2402552;0.5750000476837158;1673284434.2876778;-3.0735650062561035;1.0701769590377808;-60.52577209472656
295;1673284434.3471403;47.1308745;7.2402555;0.5530000329017639;1673284434.482922;-3.016115665435791;1.0356842279434204;-60.58555221557617
296;1673284434.5460806;47.130874299999995;7.2402557;0.5380000472068787;1673284434.6873665;-2.9608938694000244;1.0289969444274902;-60.607269287109375
297;1673284434.7419076;47.1308742;7.240256;0.0;1673284434.9066;-2.9571590423583984;1.0160305500030518;-60.6408805847168
298;1673284434.9603176;47.130874299999995;7.240255899999999;-0.01100000087171793;1673284435.0869002;-2.9834582805633545;0.9876117706298828;-60.69502639770508
299;1673284435.15625;47.130874299999995;7.2402558;-0.03200000151991844;;;;
