;pos_time;latitude;longitude;altitude;alt_time;pitch;roll;yaw
0;1673293265.827369;47.130642599999995;7.2406198999999996;-0.024000000208616257;1673293266.0492294;-0.06432788074016571;0.1037965789437294;90.41341400146484
1;1673293266.0619304;47.130642599999995;7.2406198999999996;-0.024000000208616257;1673293266.2099044;0.020140979439020157;0.1293574720621109;90.29737854003906
2;1673293266.2260675;47.130642599999995;7.2406198999999996;-0.026000000536441803;1673293266.4078286;0.010163354687392712;0.03066193498671055;90.52386474609375
3;1673293266.4206238;47.130642599999995;7.240619799999999;-0.026000000536441803;1673293266.6084158;0.22421708703041077;0.19706973433494568;90.35485076904297
4;1673293266.6255946;47.130642599999995;7.240619799999999;-0.026000000536441803;1673293266.7929316;0.07260233908891678;0.18723222613334656;90.34486389160156
5;1673293266.808557;47.1306425;7.240619799999999;-0.029000001028180122;1673293267.0618489;-0.13261480629444122;-0.024877529591321945;90.42113494873047
6;1673293267.073597;47.1306425;7.240619799999999;-0.029000001028180122;1673293267.2100513;-0.12216907739639282;0.030891019850969315;90.45186614990234
7;1673293267.2223713;47.1306425;7.2406198999999996;-0.030000001192092896;1673293267.4143548;-0.2222217470407486;0.07331541180610657;90.30561065673828
8;1673293267.4260187;47.1306425;7.2406198999999996;-0.0010000000474974513;1673293267.588512;-0.12210638076066971;-0.1721169799566269;90.46268463134766
9;1673293267.6068814;47.1306425;7.24062;0.0;1673293267.805735;-0.08309732377529144;0.07202082872390747;90.36932373046875
10;1673293267.820705;47.1306425;7.2406201;0.0010000000474974513;1673293268.01685;0.09890221804380417;-0.023190736770629883;90.4203109741211
11;1673293268.03063;47.1306424;7.2406201;0.0;1673293268.209776;-0.12287291884422302;0.0027613905258476734;90.58592987060547
12;1673293268.2248566;47.1306424;7.2406201;0.0;1673293268.3948123;-0.24589493870735168;0.06222560629248619;90.38993835449219
13;1673293268.4109013;47.1306424;7.2406201;-0.003000000026077032;1673293268.5899074;-0.19413016736507416;-0.26004672050476074;90.54255676269531
14;1673293268.6055956;47.1306424;7.2406201;-0.005000000353902578;1673293268.7788253;-0.07232550531625748;-0.4694446325302124;90.41976928710938
15;1673293268.7998807;47.1306424;7.2406201;0.0;1673293268.988872;-0.22506152093410492;0.11250345408916473;90.47969818115234
16;1673293269.0056698;47.1306424;7.2406201;0.0;1673293269.2108812;-0.0459015816450119;-0.026725782081484795;90.35798645019531
17;1673293269.2240965;47.1306424;7.2406201;0.0;1673293269.419792;-0.004192615393549204;-0.3581479489803314;90.4688720703125
18;1673293269.4345636;47.1306423;7.2406201;-0.0020000000949949026;1673293269.6129103;-0.0369398333132267;-0.11774557083845139;90.54203796386719
19;1673293269.6277587;47.1306423;7.2406201;-0.006000000052154064;1673293269.809877;-0.30756857991218567;-0.2251482605934143;90.44280242919922
20;1673293269.8258646;47.1306423;7.2406201;-0.007000000216066837;1673293269.9918847;-0.3332762122154236;-0.23506857454776764;90.46800994873047
21;1673293270.0089922;47.1306423;7.24062;-0.006000000052154064;1673293270.20589;-0.11399257928133011;-0.33020374178886414;90.41883087158203
22;1673293270.217681;47.1306423;7.24062;-0.005000000353902578;1673293270.3849697;-0.25125783681869507;-0.32874009013175964;90.4039077758789
23;1673293270.4008274;47.1306423;7.2406198999999996;-0.0020000000949949026;1673293270.5856955;-0.34129855036735535;-0.34541720151901245;90.34579467773438
24;1673293270.608129;47.1306423;7.2406198999999996;0.0010000000474974513;1673293270.7997203;-0.5203080177307129;-0.2082843780517578;90.43008422851562
25;1673293270.8189745;47.1306424;7.2406198999999996;0.005000000353902578;1673293270.9938912;0.44220975041389465;-0.3233718276023865;92.05093383789062
26;1673293271.008935;47.1306424;7.24062;0.009000000543892384;1673293271.2137387;4.724527835845947;-0.4076588749885559;91.91917419433594
27;1673293271.228102;47.1306424;7.2406204999999995;0.021000001579523087;1673293271.410795;11.44176959991455;-0.23082110285758972;92.63628387451172
28;1673293271.4253497;47.1306424;7.240621;0.04000000283122063;1673293271.6019504;11.405695915222168;-1.0066291093826294;91.93468475341797
29;1673293271.6347685;47.1306425;7.240621399999999;0.08500000089406967;1673293271.8286448;9.943785667419434;2.4148001670837402;91.20626831054688
30;1673293271.8496768;47.1306424;7.2406216;0.1469999998807907;1673293272.051929;11.275277137756348;1.662852168083191;90.18470001220703
31;1673293272.0838249;47.1306424;7.2406217999999996;0.21800000965595245;1673293272.2107599;12.265203475952148;-3.3366458415985107;89.08845520019531
32;1673293272.2257488;47.1306423;7.2406217999999996;0.30000001192092896;1673293272.404067;12.842018127441406;-1.7089216709136963;88.91163635253906
33;1673293272.420952;47.1306422;7.2406216;0.4000000059604645;1673293272.6098495;11.306329727172852;1.3535538911819458;89.26716613769531
34;1673293272.6248302;47.1306422;7.2406212;0.5130000114440918;1673293272.808387;9.811723709106445;-1.7644798755645752;89.81050109863281
35;1673293272.8257647;47.1306422;7.240620799999999;0.6340000033378601;1673293272.9799163;9.633402824401855;-1.4806352853775024;90.29194641113281
36;1673293273.0119674;47.1306422;7.2406204;0.7680000066757202;1673293273.2008762;8.702108383178711;2.855133533477783;90.4404067993164
37;1673293273.217008;47.1306423;7.2406198999999996;0.9140000343322754;1673293273.4088411;9.147970199584961;0.7440997362136841;90.07865905761719
38;1673293273.4210627;47.1306424;7.2406196;1.0730000734329224;1673293273.6227171;9.67271614074707;-2.943661689758301;89.50244140625
39;1673293273.6341405;47.1306423;7.2406194;1.2470000982284546;1673293273.8108191;9.648638725280762;1.1524897813796997;89.49031829833984
40;1673293273.8221896;47.1306423;7.240619199999999;1.4270000457763672;1673293273.994065;8.76651382446289;1.0056278705596924;89.47100830078125
41;1673293274.0068922;47.1306423;7.240619199999999;1.6100001335144043;1673293274.2259636;8.677348136901855;-2.2982254028320312;91.28015899658203
42;1673293274.2377968;47.1306424;7.240619199999999;1.7970000505447388;1673293274.409799;9.125818252563477;0.11774840950965881;90.94783782958984
43;1673293274.4430127;47.1306424;7.240619199999999;1.9880000352859497;1673293274.616002;9.158994674682617;2.7240917682647705;90.79790496826172
44;1673293274.6276324;47.1306425;7.2406193;2.1780002117156982;1673293274.765943;9.925642967224121;-1.6958500146865845;90.45486450195312
45;1673293274.7808363;47.1306425;7.2406193;2.367000102996826;1673293274.949993;10.32437801361084;-1.5439962148666382;90.22956085205078
46;1673293274.9657848;47.1306424;7.2406194;2.557000160217285;1673293275.133863;10.36634349822998;2.0205025672912598;90.39866638183594
47;1673293275.1500611;47.1306423;7.2406194;2.746000051498413;1673293275.3217127;9.676850318908691;-1.556403398513794;90.19659423828125
48;1673293275.3375297;47.1306422;7.2406194;2.933000087738037;1673293275.517955;9.195222854614258;-2.6695163249969482;90.3281021118164
49;1673293275.5321314;47.1306422;7.2406194;3.123000144958496;1673293275.713796;9.1582612991333;2.2771551609039307;90.30841064453125
50;1673293275.7320523;47.1306424;7.2406194;3.317000150680542;1673293275.9130776;9.368218421936035;0.9097192287445068;90.25597381591797
51;1673293275.9288986;47.1306425;7.240619499999999;3.514000177383423;1673293276.1059234;9.914533615112305;-2.64823317527771;90.22317504882812
52;1673293276.1219223;47.1306425;7.2406196;3.7100002765655518;1673293276.2986484;10.243365287780762;1.179420828819275;90.26408386230469
53;1673293276.3169184;47.1306425;7.2406197;3.9060001373291016;1673293276.5008714;10.446748733520508;1.5535517930984497;90.47804260253906
54;1673293276.5178633;47.1306424;7.240619799999999;4.1010003089904785;1673293276.6976771;10.07258415222168;-2.3496127128601074;90.35159301757812
55;1673293276.7158825;47.1306425;7.2406198999999996;4.298000335693359;1673293276.901086;9.180849075317383;0.7083951234817505;90.370849609375
56;1673293276.9188344;47.1306425;7.2406198999999996;4.499000072479248;1673293277.1062315;9.244251251220703;2.4668221473693848;89.81769561767578
57;1673293277.1218252;47.1306425;7.2406198999999996;4.699000358581543;1673293277.358765;9.749284744262695;-1.6997439861297607;89.89319610595703
58;1673293277.3747842;47.1306425;7.2406198999999996;4.897000312805176;1673293277.5587049;10.076693534851074;-1.415928840637207;90.09355926513672
59;1673293277.5738318;47.1306424;7.2406198999999996;5.0980000495910645;1673293277.7607925;10.350847244262695;2.1815223693847656;90.30998229980469
60;1673293277.777866;47.1306423;7.2406198999999996;5.2960004806518555;1673293277.9830835;10.262338638305664;-1.3910620212554932;90.4017562866211
61;1673293277.9978302;47.1306423;7.240619799999999;5.499000072479248;1673293278.1729212;9.609467506408691;-2.2034029960632324;90.18251037597656
62;1673293278.1930032;47.1306423;7.2406197;5.705000400543213;1673293278.3688552;8.77783489227295;2.793102979660034;90.26815032958984
63;1673293278.391974;47.1306424;7.2406197;5.909000396728516;1673293278.5611136;9.328372955322266;0.048590946942567825;90.0113525390625
64;1673293278.5739112;47.1306424;7.2406196;6.113000392913818;1673293278.7652287;9.443711280822754;-2.5609443187713623;90.18848419189453
65;1673293278.782411;47.1306424;7.2406196;6.317000389099121;1673293278.9572694;9.672277450561523;1.5296425819396973;90.5111312866211
66;1673293278.9805083;47.1306424;7.2406197;6.51900053024292;1673293279.1651802;10.217320442199707;1.4552069902420044;90.55170440673828
67;1673293279.1822028;47.1306424;7.2406197;6.717000484466553;1673293279.3688054;10.052000045776367;-2.4869942665100098;90.47712707519531
68;1673293279.384254;47.1306424;7.240619799999999;6.9170002937316895;1673293279.5920463;9.658446311950684;0.8386598825454712;90.35269165039062
69;1673293279.607762;47.1306425;7.240619799999999;7.119000434875488;1673293279.7953753;9.198502540588379;2.294259786605835;90.36659240722656
70;1673293279.8148556;47.1306425;7.240619799999999;7.317000389099121;1673293280.0101058;9.134927749633789;-2.4042246341705322;90.09741973876953
71;1673293280.025873;47.1306424;7.240619799999999;7.516000270843506;1673293280.214606;9.61335277557373;-0.92771315574646;90.41405487060547
72;1673293280.2489097;47.1306424;7.2406198999999996;7.716000556945801;1673293280.4568994;10.189075469970703;2.850414752960205;90.51882934570312
73;1673293280.4656808;47.1306423;7.24062;7.913000583648682;1673293280.618559;10.26658821105957;-1.1689512729644775;90.1015396118164
74;1673293280.6390586;47.1306423;7.24062;8.112000465393066;1673293280.8248327;10.328514099121094;-2.696134328842163;90.19209289550781
75;1673293280.8365285;47.1306422;7.24062;8.312000274658203;1673293280.9987235;9.5424165725708;2.2453866004943848;90.4488296508789
76;1673293281.0143292;47.1306423;7.2406198999999996;8.510000228881836;1673293281.191597;9.118571281433105;0.2860677242279053;90.31852722167969
77;1673293281.2111495;47.1306423;7.2406198999999996;8.712000846862793;1673293281.4310415;8.824414253234863;-2.7511508464813232;90.24258422851562
78;1673293281.4447458;47.1306423;7.2406198999999996;8.913000106811523;1673293281.6150053;9.763175964355469;1.1666455268859863;90.72314453125
79;1673293281.6277013;47.1306423;7.24062;9.11400032043457;1673293281.8212388;10.428133964538574;2.189929723739624;90.69723510742188
80;1673293281.8359153;47.1306423;7.2406201;9.315000534057617;1673293282.0212157;10.237823486328125;-2.3151447772979736;90.23448944091797
81;1673293282.0397704;47.1306423;7.2406201;9.516000747680664;1673293282.2167861;10.023468971252441;0.49850374460220337;90.17008209228516
82;1673293282.2392282;47.1306424;7.2406201;9.713000297546387;1673293282.4015124;9.244755744934082;2.1993319988250732;90.29515838623047
83;1673293282.4151769;47.1306424;7.2406201999999995;9.91200065612793;1673293282.5900736;9.274703025817871;-2.4523768424987793;90.07188415527344
84;1673293282.6047204;47.1306423;7.2406201999999995;10.116000175476074;1673293282.7995467;9.948882102966309;-1.5574928522109985;90.7691421508789
85;1673293282.8386767;47.1306423;7.2406203;10.361000061035156;1673293283.0131772;12.00881576538086;3.199458122253418;90.9402847290039
86;1673293283.0287924;47.1306422;7.2406201999999995;10.707000732421875;1673293283.2067487;10.953279495239258;-0.44372767210006714;90.15082550048828
87;1673293283.2215497;47.130642099999996;7.240619799999999;11.0910005569458;1673293283.430623;9.900476455688477;-2.822115182876587;89.8868179321289
88;1673293283.448176;47.130642099999996;7.2406194;11.482000350952148;1673293283.6259117;8.819576263427734;1.3298828601837158;90.19538116455078
89;1673293283.6386;47.130642099999996;7.2406191;11.878000259399414;1673293283.8370488;8.076787948608398;1.0217841863632202;90.25121307373047
90;1673293283.847951;47.1306422;7.240618899999999;12.277000427246094;1673293284.0090683;7.886476516723633;-2.766914129257202;90.20012664794922
91;1673293284.037969;47.1306422;7.240618899999999;12.681000709533691;1673293284.2238088;8.235547065734863;0.46426504850387573;90.37467956542969
92;1673293284.239577;47.1306422;7.240618899999999;13.086000442504883;1673293284.4013789;8.798624038696289;2.154534339904785;90.32291412353516
93;1673293284.4180963;47.1306423;7.240619;13.487000465393066;1673293284.5969555;9.274820327758789;-2.2043728828430176;90.23580932617188
94;1673293284.611596;47.1306423;7.240619199999999;13.891000747680664;1673293284.8018043;9.70435905456543;0.07607598602771759;90.16707611083984
95;1673293284.8144922;47.1306424;7.2406194;14.297000885009766;1673293284.9792686;9.824395179748535;2.6700994968414307;90.31622314453125
96;1673293284.9941025;47.1306425;7.2406196;14.701001167297363;1673293285.215754;9.540403366088867;-1.3701786994934082;90.31233215332031
97;1673293285.232348;47.1306425;7.2406197;15.106000900268555;1673293285.397104;9.840700149536133;-1.0216028690338135;90.28158569335938
98;1673293285.4206133;47.1306424;7.240619799999999;15.51400089263916;1673293285.6211777;9.8005952835083;2.4081549644470215;90.33782196044922
99;1673293285.6348488;47.1306423;7.2406198999999996;15.919000625610352;1673293285.8393786;9.86426067352295;-0.944776713848114;90.23301696777344
100;1673293285.852067;47.1306423;7.240619799999999;16.328001022338867;1673293286.0896056;9.896468162536621;-2.050954580307007;90.15994262695312
101;1673293286.1229467;47.1306423;7.240619799999999;16.743000030517578;1673293286.2885075;9.931072235107422;2.0543668270111084;90.31193542480469
102;1673293286.3179128;47.1306424;7.240619799999999;17.158000946044922;1673293286.4506502;9.968182563781738;0.9876179695129395;90.31230926513672
103;1673293286.4633396;47.1306424;7.240619799999999;17.57400131225586;1673293286.6496205;9.656693458557129;-2.5159876346588135;90.2881851196289
104;1673293286.6584046;47.1306424;7.240619799999999;17.98900032043457;1673293286.8353143;9.528186798095703;1.4429227113723755;90.3980484008789
105;1673293286.849955;47.1306424;7.240619799999999;18.404001235961914;1673293287.0462432;9.40274715423584;1.2150801420211792;90.47846221923828
106;1673293287.0589325;47.1306424;7.240619799999999;18.810001373291016;1673293287.2436392;9.508909225463867;-2.160888433456421;90.27283477783203
107;1673293287.2573256;47.1306424;7.240619799999999;19.21900177001953;1673293287.4506822;9.476907730102539;0.7164226770401001;90.21953582763672
108;1673293287.462393;47.1306425;7.240619799999999;19.630001068115234;1673293287.6848364;9.745864868164062;2.3664119243621826;90.3989486694336
109;1673293287.6961806;47.1306425;7.240619799999999;20.041000366210938;1673293287.8499355;9.827476501464844;-1.6368968486785889;90.23623657226562
110;1673293287.864579;47.1306425;7.240619799999999;20.450000762939453;1673293288.0171628;9.978490829467773;-0.9774696230888367;90.25965118408203
111;1673293288.0308316;47.1306424;7.2406198999999996;20.854000091552734;1673293288.2293582;9.665962219238281;2.1037628650665283;90.29827117919922
112;1673293288.24497;47.1306424;7.2406198999999996;21.251001358032227;1673293288.463328;9.733284950256348;-0.5509206652641296;90.23143768310547
113;1673293288.4760163;47.1306423;7.2406198999999996;21.64900016784668;1673293288.6495585;9.577838897705078;-1.959232211112976;90.1905288696289
114;1673293288.6856728;47.1306424;7.240619799999999;22.04800033569336;1673293288.8522327;9.514349937438965;2.1348910331726074;90.34265899658203
115;1673293288.871756;47.1306425;7.240619799999999;22.446001052856445;1673293289.0381815;9.47945785522461;1.0473408699035645;90.40771484375
116;1673293289.053787;47.130642599999995;7.240619799999999;22.843000411987305;1673293289.232595;9.731361389160156;-2.1921021938323975;90.2800064086914
117;1673293289.2472327;47.130642599999995;7.240619799999999;23.244001388549805;1673293289.4330335;9.673376083374023;1.4295117855072021;90.3733901977539
118;1673293289.458512;47.130642599999995;7.240619799999999;23.649002075195312;1673293289.6368752;9.831928253173828;1.6614618301391602;90.41287231445312
119;1673293289.6515093;47.130642599999995;7.2406197;24.049001693725586;1673293289.8141901;9.579303741455078;-1.8506251573562622;90.20291137695312
120;1673293289.8278499;47.130642599999995;7.2406197;24.44900131225586;1673293290.0028698;9.525843620300293;0.1248135194182396;90.2110595703125
121;1673293290.0165336;47.130642699999996;7.2406196;24.856000900268555;1673293290.1973958;9.339244842529297;2.776521921157837;90.34630584716797
122;1673293290.214147;47.130642699999996;7.240619499999999;25.26300048828125;1673293290.3929033;9.191252708435059;-1.2021416425704956;90.19768524169922
123;1673293290.4100459;47.130642699999996;7.2406194;25.668001174926758;1673293290.5861657;9.147947311401367;-0.9362902641296387;90.2182846069336
124;1673293290.6042814;47.130642699999996;7.2406193;26.07000160217285;1673293290.7906003;9.426420211791992;2.5754542350769043;90.39629364013672
125;1673293290.8082216;47.130642599999995;7.2406193;26.465002059936523;1673293290.9912553;9.695003509521484;-0.7234480381011963;90.3058090209961
126;1673293291.0064414;47.1306425;7.2406194;26.86100196838379;1673293291.181582;9.616905212402344;-2.119168281555176;90.33417510986328
127;1673293291.1977785;47.1306425;7.2406193;27.26300048828125;1673293291.3821173;9.655147552490234;2.3127782344818115;90.4797134399414
128;1673293291.4002416;47.130642699999996;7.2406193;27.671001434326172;1673293291.5865352;9.544532775878906;1.1693460941314697;90.44151306152344
129;1673293291.6026833;47.1306428;7.2406193;28.078001022338867;1673293291.78798;9.290887832641602;-1.9784271717071533;90.15137481689453
130;1673293291.8051076;47.1306428;7.2406193;28.481000900268555;1673293291.980376;9.440290451049805;1.5468378067016602;90.33610534667969
131;1673293291.9951367;47.130642699999996;7.2406194;28.884000778198242;1673293292.2401867;9.523812294006348;1.8416051864624023;90.44989776611328
132;1673293292.2538998;47.130642699999996;7.2406194;29.283000946044922;1673293292.4139187;9.630232810974121;-1.768633246421814;90.23220825195312
133;1673293292.4286282;47.130642699999996;7.2406194;29.68600082397461;1673293292.621566;9.680793762207031;0.23097580671310425;90.30695343017578
134;1673293292.637179;47.130642699999996;7.240619499999999;30.09200096130371;1673293292.8577096;9.647453308105469;2.509962797164917;90.29959869384766
135;1673293292.876286;47.130642699999996;7.240619499999999;30.4950008392334;1673293293.095369;9.857850074768066;-0.5862236022949219;90.31550598144531
136;1673293293.1085935;47.130642599999995;7.2406196;30.8960018157959;1673293293.259491;9.515363693237305;-1.5935051441192627;90.09351348876953
137;1673293293.2712028;47.1306425;7.2406196;31.295001983642578;1673293293.467502;9.40127182006836;2.0864808559417725;90.23448944091797
138;1673293293.4792123;47.1306424;7.2406196;31.689001083374023;1673293293.6416786;9.70132827758789;-0.977447509765625;90.22290802001953
139;1673293293.6543517;47.1306424;7.2406197;32.08100128173828;1673293293.8520002;9.63539981842041;-2.0291483402252197;90.19161224365234
140;1673293293.8627388;47.1306424;7.2406197;32.48100280761719;1673293294.0139308;9.906121253967285;2.050049304962158;90.35057067871094
141;1673293294.0315003;47.1306425;7.2406197;32.884002685546875;1673293294.258814;9.722128868103027;0.9859312176704407;90.4602279663086
142;1673293294.2695506;47.1306425;7.2406197;33.28600311279297;1673293294.4763412;9.753427505493164;-1.8939074277877808;90.36864471435547
143;1673293294.4899995;47.130642599999995;7.2406197;33.689002990722656;1673293294.6553168;9.527749061584473;1.5497316122055054;90.3616714477539
144;1673293294.6710906;47.1306425;7.2406197;34.092002868652344;1673293294.8440058;9.520671844482422;1.7813493013381958;90.39957427978516
145;1673293294.8605998;47.1306425;7.2406197;34.487003326416016;1673293295.0304759;9.387465476989746;-1.9365503787994385;90.25605773925781
146;1673293295.0461035;47.130642599999995;7.2406197;34.88300323486328;1673293295.217188;9.462902069091797;0.44226977229118347;90.31507110595703
147;1673293295.2337763;47.130642599999995;7.240619799999999;35.28300094604492;1673293295.4067378;9.686750411987305;3.114751100540161;90.24627685546875
148;1673293295.4223444;47.130642699999996;7.240619799999999;35.685001373291016;1673293295.6254392;10.03501033782959;-1.3774464130401611;90.17686462402344
149;1673293295.6420276;47.130642599999995;7.2406198999999996;36.086002349853516;1673293295.8514397;9.94166088104248;-1.1792919635772705;90.24047088623047
150;1673293295.8773723;47.130642599999995;7.2406198999999996;36.48800277709961;1673293296.0603383;9.919145584106445;2.5001955032348633;90.31005096435547
151;1673293296.0739818;47.130642599999995;7.2406198999999996;36.88600158691406;1673293296.247221;9.517184257507324;-0.7488846182823181;90.41182708740234
152;1673293296.260889;47.1306425;7.2406198999999996;37.28700256347656;1673293296.4142308;9.288536071777344;-1.8157232999801636;90.26432800292969
153;1673293296.4295557;47.130642599999995;7.2406198999999996;37.69200134277344;1673293296.5926912;9.438482284545898;2.5971903800964355;90.46575927734375
154;1673293296.6134906;47.130642699999996;7.2406198999999996;38.099002838134766;1673293296.7865815;9.464077949523926;1.2877990007400513;90.47237396240234
155;1673293296.8031754;47.130642699999996;7.24062;38.50400161743164;1673293296.9802253;9.643257141113281;-1.815132975578308;90.23590850830078
156;1673293296.9968207;47.130642699999996;7.24062;38.90500259399414;1673293297.1729615;10.021056175231934;1.1221340894699097;90.38439178466797
157;1673293297.1905298;47.130642699999996;7.2406201;39.30500030517578;1673293297.368307;9.87144947052002;2.0094552040100098;90.38233947753906
158;1673293297.3868704;47.130642599999995;7.2406201;39.70100021362305;1673293297.5737193;9.70506763458252;-1.972023367881775;90.2551498413086
159;1673293297.5883574;47.130642599999995;7.24062;40.09700012207031;1673293297.77019;9.418968200683594;0.12174779176712036;90.25495147705078
160;1673293297.7858005;47.130642699999996;7.24062;40.496002197265625;1673293297.961539;9.217971801757812;2.651296854019165;90.413818359375
161;1673293297.9782157;47.130642699999996;7.24062;40.89500045776367;1673293298.1635847;9.354570388793945;-1.2610676288604736;90.26168823242188
162;1673293298.1792052;47.1306428;7.2406198999999996;41.29500198364258;1673293298.3813508;9.349080085754395;-0.541685163974762;90.16162872314453
163;1673293298.3989308;47.130642699999996;7.2406198999999996;41.69300079345703;1673293298.581761;9.745213508605957;2.683690309524536;90.41555786132812
164;1673293298.603302;47.130642699999996;7.2406198999999996;42.08500289916992;1673293298.791667;9.676152229309082;-0.6747032403945923;90.28893280029297
165;1673293298.808797;47.130642599999995;7.2406198999999996;42.480003356933594;1673293298.9878094;9.83310604095459;-1.8789548873901367;90.23356628417969
166;1673293299.0053852;47.130642599999995;7.2406198999999996;42.88100051879883;1673293299.1853337;9.700912475585938;2.422985076904297;90.50526428222656
167;1673293299.2019274;47.130642699999996;7.240619799999999;43.284000396728516;1673293299.389818;9.562750816345215;0.6263090968132019;90.42041015625
168;1673293299.4083657;47.1306428;7.240619799999999;43.68800354003906;1673293299.591316;9.499590873718262;-2.508986711502075;90.28821563720703
169;1673293299.608905;47.1306428;7.2406197;44.09100341796875;1673293299.7935796;9.3717679977417;1.7581433057785034;90.25758361816406
170;1673293299.8114789;47.130642699999996;7.2406197;44.492000579833984;1673293299.9882615;9.454198837280273;1.496826410293579;90.35755157470703
171;1673293300.0038843;47.130642699999996;7.2406197;44.8910026550293;1673293300.1783168;9.50482177734375;-2.220290422439575;90.27272033691406
172;1673293300.192011;47.1306428;7.2406196;45.2920036315918;1673293300.3747187;9.612422943115234;1.0406075716018677;90.25183868408203
173;1673293300.3942213;47.1306428;7.2406196;45.695003509521484;1673293300.5683565;9.63360595703125;2.6106157302856445;90.43807220458984
174;1673293300.5859203;47.1306429;7.240619499999999;46.099002838134766;1673293300.7758584;9.700385093688965;-1.5078461170196533;90.1765365600586
175;1673293300.7975836;47.1306429;7.240619499999999;46.50100326538086;1673293300.9711316;9.645622253417969;-0.3652302324771881;90.3035888671875
176;1673293300.989751;47.1306428;7.240619499999999;46.90400314331055;1673293301.1889796;9.465899467468262;2.6349306106567383;90.4602279663086
177;1673293301.200694;47.130642699999996;7.240619499999999;47.301002502441406;1673293301.3781555;9.378199577331543;-0.8011838793754578;90.2051010131836
178;1673293301.3947637;47.130642699999996;7.240619499999999;47.70000076293945;1673293301.5941882;9.136303901672363;-1.3850513696670532;90.00454711914062
179;1673293301.6091695;47.130642699999996;7.240619499999999;48.09400177001953;1673293301.8129885;9.402565002441406;2.435823678970337;90.2507095336914
180;1673293301.8301225;47.1306428;7.2406196;48.44900131225586;1673293301.9918587;9.371971130371094;0.768071174621582;90.33979797363281
181;1673293302.0065799;47.1306428;7.2406197;48.75200271606445;1673293302.1855726;9.45838737487793;-1.8759864568710327;90.40465545654297
182;1673293302.202463;47.1306428;7.240619799999999;49.005001068115234;1673293302.445004;9.734001159667969;1.9606093168258667;90.45671844482422
183;1673293302.457692;47.1306428;7.24062;49.2130012512207;1673293302.6336577;15.450531005859375;5.08279275894165;90.02376556396484
184;1673293302.6513155;47.1306428;7.2406201999999995;49.380001068115234;1673293302.8371482;15.838857650756836;0.2596154510974884;86.0767822265625
185;1673293302.8517866;47.130642699999996;7.24062;49.48500061035156;1673293303.0521185;3.5639333724975586;1.936432957649231;74.89006805419922
186;1673293303.06674;47.130642599999995;7.2406198999999996;49.50300216674805;1673293303.2305934;23.061599731445312;1.0873725414276123;64.5030288696289
187;1673293303.2451358;47.1306422;7.2406198999999996;49.51900100708008;1673293303.4606476;21.436824798583984;-6.482437610626221;54.45714569091797
188;1673293303.4788089;47.1306413;7.2406193;49.54600143432617;1673293303.6656828;7.413631916046143;-7.236492156982422;44.904136657714844
189;1673293303.6798563;47.1306401;7.2406181;49.60000228881836;1673293303.8568149;10.85789966583252;-8.90295696258545;35.96528625488281
190;1673293303.8708575;47.1306389;7.240616999999999;49.64600372314453;1673293304.0977929;5.345769882202148;-6.893082141876221;27.350513458251953
191;1673293304.1098893;47.1306376;7.2406159;49.695003509521484;1673293304.2767663;0.6093341112136841;-7.461973667144775;18.175233840942383
192;1673293304.2887032;47.1306365;7.2406149;49.74100112915039;1673293304.471938;-2.7206435203552246;-9.347854614257812;8.842947006225586
193;1673293304.4869125;47.1306356;7.2406142;49.78200149536133;1673293304.689287;-4.587203025817871;-11.635586738586426;-0.31977662444114685
194;1673293304.6998315;47.130635;7.2406136;49.814002990722656;1673293304.8736367;-4.0992045402526855;-11.130416870117188;-9.375160217285156
195;1673293304.8847334;47.130634799999996;7.2406131;49.842002868652344;1673293305.0461986;-2.7582004070281982;-9.449962615966797;-18.234067916870117
196;1673293305.0614803;47.130634799999996;7.2406127;49.8640022277832;1673293305.2648964;-1.9986724853515625;-8.879764556884766;-26.900171279907227
197;1673293305.2827375;47.1306349;7.2406123;49.87700271606445;1673293305.4849443;-4.093088150024414;-7.430501937866211;-34.87964630126953
198;1673293305.5007172;47.130635;7.240612199999999;49.8910026550293;1673293305.6549103;-7.429622173309326;-7.694309234619141;-43.84735107421875
199;1673293305.6673257;47.1306349;7.240612199999999;49.90500259399414;1673293305.8359017;-9.333731651306152;-8.555830001831055;-51.44129943847656
200;1673293305.857905;47.1306349;7.2406121;49.9160041809082;1673293306.020841;-8.719475746154785;-10.101859092712402;-53.063358306884766
201;1673293306.0354912;47.130634799999996;7.240611899999999;49.92400360107422;1673293306.220459;-6.947413921356201;-10.333696365356445;-49.94462585449219
202;1673293306.2380373;47.130634699999995;7.2406115;49.92900085449219;1673293306.4102063;-5.595249176025391;-5.579504013061523;-46.684139251708984
203;1673293306.4258235;47.1306345;7.2406109999999995;49.927001953125;1673293306.6069195;-6.064733505249023;-5.849306106567383;-45.63990783691406
204;1673293306.6199703;47.1306344;7.240610599999999;49.92900085449219;1673293306.793736;-7.750056266784668;-6.010673999786377;-46.19279479980469
205;1673293306.8113413;47.1306343;7.240610299999999;49.93600082397461;1673293306.9940853;-8.53254508972168;-6.080761909484863;-46.284854888916016
206;1673293307.0087252;47.130634199999996;7.2406101;49.94300079345703;1673293307.1981864;-7.807349681854248;-7.764659404754639;-46.0004768371582
207;1673293307.214763;47.130634;7.2406099;49.94900131225586;1673293307.4056177;-5.659590721130371;-8.263605117797852;-45.6135368347168
208;1673293307.4223347;47.1306338;7.240609699999999;49.9530029296875;1673293307.618855;-4.057110786437988;-7.595224380493164;-45.63410568237305
209;1673293307.63545;47.130633599999996;7.2406095;49.957000732421875;1673293307.8095193;-11.65475845336914;-7.136089324951172;-45.91913604736328
210;1673293307.8438556;47.130633499999995;7.2406093;49.952003479003906;1673293308.0243394;-35.023521423339844;-1.5345814228057861;-46.39900207519531
211;1673293308.0449262;47.1306338;7.240608699999999;49.958003997802734;1673293308.2199395;-51.29067611694336;-0.4142718017101288;-47.721946716308594
212;1673293308.2375572;47.130635399999996;7.240606499999999;49.965003967285156;1673293308.4267058;-56.11781311035156;-0.5105185508728027;-48.79832458496094
213;1673293308.4446201;47.130638999999995;7.2406014999999995;49.95600128173828;1673293308.6214943;-52.59123611450195;-3.9066405296325684;-48.05671310424805
214;1673293308.6384175;47.1306447;7.2405935999999995;49.93600082397461;1673293308.8113122;-53.01747512817383;-4.217920303344727;-48.108055114746094
215;1673293308.8286445;47.1306521;7.240583099999999;49.92900085449219;1673293309.0125954;-57.29602813720703;-2.1649622917175293;-48.969730377197266
216;1673293309.0376778;47.1306612;7.240569799999999;49.939002990722656;1673293309.2256265;-58.48947525024414;-1.6383647918701172;-49.866065979003906
217;1673293309.2385294;47.130671899999996;7.2405538;49.95000076293945;1673293309.4257197;-54.70070266723633;-1.4839046001434326;-49.232276916503906
218;1673293309.439532;47.130683999999995;7.240535599999999;49.95100402832031;1673293309.617604;-53.39439392089844;-1.5176178216934204;-48.460201263427734
219;1673293309.6346488;47.1306971;7.2405159;49.94900131225586;1673293309.813815;-53.72811508178711;-3.36542010307312;-48.25041961669922
220;1673293309.828037;47.130711;7.2404950999999995;49.94400405883789;1673293310.0117414;-51.76459884643555;-2.287416458129883;-49.26459503173828
221;1673293310.0278435;47.1307257;7.240473199999999;49.935001373291016;1673293310.2147224;-49.58025360107422;-2.2062432765960693;-49.25623321533203
222;1673293310.233642;47.1307408;7.2404506;49.919002532958984;1673293310.4152162;-48.653202056884766;-2.9151313304901123;-48.89956283569336
223;1673293310.4346123;47.1307561;7.2404277;49.897003173828125;1673293310.6214113;-47.66183090209961;-3.0820119380950928;-48.91118240356445
224;1673293310.6396642;47.130771599999996;7.2404043;49.880001068115234;1673293310.8254895;-47.98637771606445;-3.1477835178375244;-48.99480056762695
225;1673293310.8415613;47.1307872;7.240380699999999;49.875003814697266;1673293311.0285208;-48.970909118652344;-3.425767660140991;-48.969459533691406
226;1673293311.0424175;47.130803;7.2403568;49.87800216674805;1673293311.220305;-48.49397277832031;-4.582272052764893;-48.854251861572266
227;1673293311.2392864;47.1308189;7.2403325999999995;49.887001037597656;1673293311.413497;-49.165042877197266;-6.608325481414795;-48.588829040527344
228;1673293311.4285145;47.130834799999995;7.2403081;49.89800262451172;1673293311.6012175;-48.61650085449219;-10.576077461242676;-47.99502182006836
229;1673293311.6184216;47.1308504;7.2402833;49.900001525878906;1673293311.7984338;-34.17616653442383;-9.879171371459961;-50.941261291503906
230;1673293311.8138945;47.1308657;7.240258099999999;49.919002532958984;1673293311.9937453;8.160272598266602;-15.705974578857422;-51.529083251953125
231;1673293312.0106091;47.1308797;7.2402342;49.94600296020508;1673293312.1924555;35.90056610107422;-5.490035533905029;-55.379425048828125
232;1673293312.2086174;47.1308918;7.2402133;49.840003967285156;1673293312.4015036;19.198963165283203;-4.701953887939453;-49.78070068359375
233;1673293312.4227436;47.1309021;7.2401962;49.52700424194336;1673293312.613712;15.235156059265137;-4.226085186004639;-47.9993896484375
234;1673293312.6313233;47.13091;7.2401836;49.21000289916992;1673293312.8346095;13.662162780761719;-3.8311569690704346;-47.91412353515625
235;1673293312.8521695;47.1309159;7.2401748999999995;48.987003326416016;1673293313.0261164;15.940740585327148;-6.023962497711182;-48.16086959838867
236;1673293313.044668;47.1309197;7.240169799999999;48.95500183105469;1673293313.230223;41.84846115112305;-13.560133934020996;-48.444278717041016
237;1673293313.246792;47.1309213;7.240168199999999;49.07500076293945;1673293313.4325175;44.35733413696289;-10.20076847076416;-44.537925720214844
238;1673293313.4510486;47.1309202;7.24017;49.19600296020508;1673293313.6360583;44.352821350097656;-14.23832893371582;-44.301673889160156
239;1673293313.649706;47.1309165;7.240174799999999;49.31300354003906;1673293313.820875;34.03728485107422;-15.590293884277344;-44.27738952636719
240;1673293313.8394186;47.130910199999995;7.240181799999999;49.426002502441406;1673293314.0223906;13.469147682189941;-13.518304824829102;-43.73271560668945
241;1673293314.0420783;47.1309025;7.240189699999999;49.522003173828125;1673293314.2246687;-9.602080345153809;-8.79956340789795;-45.21107864379883
242;1673293314.2415068;47.1308946;7.240197299999999;49.605003356933594;1673293314.4130642;-24.369401931762695;-6.880936145782471;-48.50381088256836
243;1673293314.429667;47.1308874;7.2402038;49.665000915527344;1673293314.6200674;-33.36857223510742;-2.910717010498047;-49.55508041381836
244;1673293314.6356835;47.1308815;7.2402088;49.68800354003906;1673293314.8242962;-34.15782165527344;14.455312728881836;-47.98326873779297
245;1673293314.8428404;47.130876799999996;7.240212499999999;49.57100296020508;1673293315.0184896;-26.30973243713379;35.57896041870117;-42.05800247192383
246;1673293315.034108;47.1308724;7.2402162;49.092002868652344;1673293315.213205;-20.001440048217773;55.303985595703125;-33.150333404541016
247;1673293315.2297912;47.130868199999995;7.240219799999999;48.246002197265625;1673293315.416494;-15.847184181213379;68.1802978515625;-21.950632095336914
248;1673293315.4399152;47.130863999999995;7.240223299999999;47.02800369262695;1673293315.6217468;-12.056761741638184;69.77490997314453;-9.700065612792969
249;1673293315.650262;47.1308599;7.2402264999999995;45.428001403808594;1673293315.827778;-6.600069046020508;56.88498306274414;0.006358786020427942
250;1673293315.8541305;47.1308559;7.240229599999999;43.465003967285156;1673293316.0223355;-1.302613377571106;29.147174835205078;7.45883846282959
251;1673293316.0380874;47.130851899999996;7.240232499999999;41.13800048828125;1673293316.229237;4.59079122543335;-7.083037376403809;10.05772590637207
252;1673293316.2438765;47.130848099999994;7.2402352;38.42100143432617;1673293316.4179955;5.194876670837402;-37.173458099365234;11.388915061950684
253;1673293316.4336164;47.1308443;7.2402381;35.314002990722656;1673293316.6224244;1.129786491394043;-46.177757263183594;16.511531829833984
254;1673293316.6429489;47.1308406;7.2402413999999995;31.839000701904297;1673293316.833471;-6.949288845062256;-29.36598014831543;23.716915130615234
255;1673293316.8511925;47.1308369;7.2402451;27.99100112915039;1673293317.0362158;-16.060985565185547;5.884699821472168;26.911073684692383
256;1673293317.0539482;47.1308331;7.2402492;23.762001037597656;1673293317.2314258;-18.636526107788086;35.02459716796875;27.76335906982422
257;1673293317.2462187;47.1308291;7.2402532;19.14900016784668;1673293317.410801;-13.741739273071289;37.181373596191406;33.751705169677734
258;1673293317.4289029;47.1308253;7.2402565999999995;14.17500114440918;1673293317.625275;-2.57906436920166;10.501974105834961;41.380313873291016
259;1673293317.644851;47.1308217;7.2402595;8.8410005569458;1673293317.8303542;8.698843955993652;-23.638731002807617;43.369754791259766
260;1673293317.8470075;47.1308182;7.2402622999999995;3.116000175476074;1673293318.0355844;6.63412618637085;-22.962196350097656;36.1811637878418
261;1673293318.050207;47.1308161;7.2402522;0.009000000543892384;1673293318.2381382;9.818512916564941;-23.242273330688477;35.702369689941406
262;1673293318.25569;47.1308167;7.2402234;-0.3140000104904175;1673293318.4330726;12.060029029846191;-24.6365909576416;33.17587661743164
263;1673293318.449671;47.130817799999996;7.2401928;-0.6080000400543213;1673293318.619839;12.108567237854004;-22.620988845825195;32.857357025146484
264;1673293318.6364315;47.1308194;7.2401605;-0.8060000538825989;1673293318.8141348;11.924389839172363;-23.104963302612305;32.754234313964844
265;1673293318.83561;47.1308212;7.2401262;-0.9640000462532043;1673293319.0214076;11.761482238769531;-23.47627067565918;32.61866760253906
266;1673293319.039993;47.1308234;7.2400904;-1.1019999980926514;1673293319.222903;11.599526405334473;-23.609046936035156;32.48823165893555
267;1673293319.2424204;47.130826;7.240053199999999;-1.2320001125335693;1673293319.4215646;11.472891807556152;-23.75821876525879;32.32566833496094
268;1673293319.4463198;47.1308284;7.2400136999999996;-1.4530000686645508;1673293319.6262658;11.331269264221191;-23.813844680786133;32.1910400390625
269;1673293319.6437218;47.1308315;7.2399729;-1.6500000953674316;1673293319.824445;11.263595581054688;-23.87093734741211;32.007957458496094
270;1673293319.8513954;47.1308346;7.2399296;-1.9260001182556152;1673293320.0344262;11.200716018676758;-23.96743392944336;31.777057647705078
271;1673293320.0496404;47.130837899999996;7.2398834999999995;-2.3000001907348633;1673293320.2282798;11.11655330657959;-23.997074127197266;31.573179244995117
272;1673293320.2433944;47.1308413;7.2398348;-2.7330000400543213;1673293320.4245694;11.052608489990234;-24.011240005493164;31.397985458374023
273;1673293320.4417017;47.1308449;7.2397839;-3.200000047683716;1673293320.6215322;11.028450965881348;-23.965435028076172;31.223180770874023
274;1673293320.6343424;47.1308487;7.239730799999999;-3.686000108718872;1673293320.8225222;10.886401176452637;-23.877429962158203;31.045669555664062
275;1673293320.8383949;47.1308532;7.2396758;-4.181000232696533;1673293321.0245855;10.72138786315918;-23.620161056518555;31.033031463623047
276;1673293321.041601;47.1308584;7.2396229;-4.469000339508057;1673293321.2217002;10.486719131469727;-23.26500701904297;31.0235538482666
277;1673293321.243424;47.1308645;7.239571199999999;-4.522000312805176;1673293321.431455;10.382731437683105;-23.076215744018555;31.017967224121094
278;1673293321.4497285;47.1308704;7.239516;-0.33100003004074097;1673293321.6345487;10.426076889038086;-23.004898071289062;30.86568832397461
279;1673293321.6518328;47.130876;7.2394561;-0.08900000154972076;1673293321.8327117;10.356725692749023;-22.91063117980957;30.804821014404297
280;1673293321.8496087;47.1308815;7.2393927;0.015000000596046448;1673293322.024405;10.339265823364258;-22.834543228149414;30.761615753173828
281;1673293322.040541;47.130887;7.2393265;0.024000000208616257;1673293322.2254772;10.267410278320312;-22.698017120361328;30.718029022216797
282;1673293322.2464929;47.1308927;7.239257899999999;-0.0010000000474974513;1673293322.4296918;10.305694580078125;-22.772777557373047;30.727792739868164
283;1673293322.4473913;47.1308985;7.239186999999999;-0.027000000700354576;1673293322.6304028;10.334700584411621;-22.8748722076416;30.7437686920166
284;1673293322.649602;47.1309045;7.2391141;-0.04800000041723251;1673293322.8375602;10.34969711303711;-22.772661209106445;30.738540649414062
285;1673293322.853769;47.1309107;7.239039;-0.06800000369548798;1673293323.0284417;10.381808280944824;-22.657880783081055;30.731922149658203
286;1673293323.0447073;47.1309171;7.2389619;-0.09100000560283661;1673293323.2335255;10.454934120178223;-22.55786895751953;30.690200805664062
287;1673293323.250421;47.130923599999996;7.2388827;-0.11400000751018524;1673293323.4285767;10.497235298156738;-22.45343017578125;30.68033790588379
288;1673293323.4416459;47.1309258;7.2388569;-0.164000004529953;1673293323.622354;10.507481575012207;-22.335468292236328;30.655799865722656
289;;;;;1673293323.8345408;10.487140655517578;-22.24783706665039;30.642518997192383
290;;;;;1673293324.040953;10.487778663635254;-22.141788482666016;30.604467391967773
291;;;;;1673293324.2546115;10.555929183959961;-22.0389461517334;30.59254264831543
292;;;;;1673293324.454501;10.51731014251709;-21.94174575805664;30.595598220825195
293;;;;;1673293324.6505113;10.507772445678711;-21.887075424194336;30.5928897857666
294;;;;;1673293324.8785207;10.581737518310547;-22.07781410217285;30.540821075439453
295;;;;;1673293325.0916288;10.539530754089355;-22.063091278076172;30.514175415039062
296;;;;;1673293325.2732875;10.532556533813477;-22.0521297454834;30.25518798828125
