;pos_time;latitude;longitude;altitude;alt_time;pitch;roll;yaw
0;1673293965.826646;47.1306425;7.240619799999999;0.021000001579523087;1673293965.891613;0.07767397165298462;-0.38978928327560425;90.28448486328125
1;1673293966.0458972;47.1306425;7.2406197;0.024000000208616257;1673293966.0983565;0.179641455411911;-0.1312607079744339;90.23976135253906
2;1673293966.2327085;47.1306425;7.2406197;0.021000001579523087;1673293966.3004935;0.05064201354980469;-0.40999022126197815;90.52745819091797
3;1673293966.4302506;47.1306425;7.2406197;0.015000000596046448;1673293966.4924922;-0.08144838362932205;-0.17236119508743286;90.27250671386719
4;1673293966.6425211;47.1306425;7.2406198999999996;0.012000000104308128;1673293966.7068377;0.0697677806019783;-0.3437143564224243;90.46015167236328
5;1673293966.8334992;47.1306425;7.2406198999999996;0.007000000216066837;1673293966.8932343;0.29420989751815796;-0.15810492634773254;90.34860229492188
6;1673293967.0283253;47.1306425;7.2406198999999996;0.0010000000474974513;1673293967.0959256;0.12346456199884415;-0.29321831464767456;90.49832916259766
7;1673293967.241499;47.1306425;7.240619799999999;-0.0020000000949949026;1673293967.300706;0.2595392167568207;-0.2559449076652527;90.4894790649414
8;1673293967.422665;47.1306425;7.240619799999999;-0.0010000000474974513;1673293967.4808002;0.18892298638820648;-0.3803105354309082;90.44131469726562
9;1673293967.5986478;47.1306425;7.240619799999999;0.0;1673293967.6574323;-0.11829022318124771;-0.2618391513824463;90.3255386352539
10;1673293967.7987838;47.1306425;7.2406198999999996;0.0;1673293967.861627;-0.1010395959019661;-0.34755411744117737;90.33580017089844
11;1673293967.9900951;47.1306425;7.24062;0.0;1673293968.0486495;-0.07030665129423141;-0.34909123182296753;90.56253051757812
12;1673293968.1933131;47.130642599999995;7.24062;-0.0020000000949949026;1673293968.2559512;-0.21182364225387573;-0.2581462264060974;90.52534484863281
13;1673293968.3891711;47.130642599999995;7.2406201;-0.005000000353902578;1673293968.4553478;-0.23696017265319824;-0.23754000663757324;90.36239624023438
14;1673293968.602183;47.130642599999995;7.2406201999999995;-0.006000000052154064;1673293968.660697;-0.24765488505363464;-0.3767082691192627;90.53929901123047
15;1673293968.8152337;47.1306425;7.2406203;0.0;1673293968.8874137;-0.35846957564353943;-0.10781457275152206;90.42975616455078
16;1673293969.0473466;47.1306425;7.2406203;0.005000000353902578;1673293969.1183114;-0.6820729374885559;-0.27749404311180115;90.42002868652344
17;1673293969.2977927;47.1306425;7.2406203;0.0;1673293969.3603292;-0.7087635397911072;-0.38719916343688965;90.5208511352539
18;1673293969.4822924;47.1306425;7.2406203;0.003000000026077032;1673293969.5392725;-0.6868634223937988;-0.12483992427587509;90.6264877319336
19;1673293969.6463373;47.1306425;7.2406203;0.0010000000474974513;1673293969.704119;-0.5961243510246277;0.019113024696707726;90.52584838867188
20;1673293969.830522;47.1306425;7.2406203;0.0;1673293969.8922153;-0.840708315372467;-0.24020829796791077;90.70594787597656
21;1673293970.0192974;47.1306425;7.2406203;0.0;1673293970.0807137;-0.795584499835968;-0.2402893453836441;90.44427490234375
22;1673293970.210219;47.1306425;7.2406203;-0.0010000000474974513;1673293970.266388;-0.8639014363288879;-0.24562476575374603;90.57087707519531
23;1673293970.3992615;47.1306425;7.2406201999999995;0.0010000000474974513;1673293970.4683776;-1.3702300786972046;-0.2281998097896576;90.51387023925781
24;1673293970.6141412;47.1306425;7.2406203;0.004000000189989805;1673293970.6902382;-2.3196208477020264;-0.19897998869419098;91.01701354980469
25;1673293970.856392;47.130642599999995;7.2406206;0.004000000189989805;1673293970.9120193;1.4173957109451294;-0.21193644404411316;93.2742691040039
26;1673293971.0292447;47.130642599999995;7.2406222;0.005000000353902578;1673293971.0932338;3.2338647842407227;-0.27800408005714417;92.76210021972656
27;1673293971.235155;47.130642699999996;7.240624899999999;0.00800000037997961;1673293971.306342;10.452665328979492;-0.18684762716293335;93.55211639404297
28;1673293971.4422398;47.130642699999996;7.2406285;0.014000000432133675;1673293971.5092413;14.78325080871582;1.027248501777649;93.822021484375
29;1673293971.6532552;47.1306428;7.2406329;0.030000001192092896;1673293971.7174287;16.20880889892578;2.6470117568969727;93.53067016601562
30;1673293971.8512402;47.1306429;7.240637899999999;0.06300000101327896;1673293971.9143817;17.27971076965332;0.6566109657287598;92.53776550292969
31;1673293972.0473037;47.1306431;7.2406435;0.0950000062584877;1673293972.112107;18.82271385192871;0.8011741638183594;92.09953308105469
32;1673293972.239163;47.130643199999994;7.2406494;0.13100001215934753;1673293972.2950625;20.577777862548828;2.464754104614258;92.10118103027344
33;1673293972.4221454;47.130643199999994;7.240655299999999;0.1680000126361847;1673293972.4799666;22.457496643066406;1.2479991912841797;91.62305450439453
34;1673293972.624494;47.130643299999996;7.240661299999999;0.20800000429153442;1673293972.6948934;24.521583557128906;0.10242980718612671;91.11799621582031
35;1673293972.8384;47.130643299999996;7.240666999999999;0.2540000081062317;1673293972.8980277;26.584789276123047;1.8149818181991577;91.3144302368164
36;1673293973.0325358;47.130643299999996;7.2406723;0.2930000126361847;1673293973.0819144;28.661163330078125;1.6709699630737305;91.20817565917969
37;1673293973.2216356;47.130643299999996;7.2406771;0.3270000219345093;1673293973.2893362;30.79180335998535;-0.0761369913816452;90.71997833251953
38;1673293973.4169867;47.130643299999996;7.2406812;0.35500001907348633;1673293973.4741433;32.9820556640625;0.8514425158500671;90.74357604980469
39;1673293973.6409206;47.130643299999996;7.240684399999999;0.37800002098083496;1673293973.6990802;35.17665100097656;1.665639877319336;90.9863052368164
40;1673293973.8823516;47.130643299999996;7.2406866999999995;0.3970000147819519;1673293973.9392796;37.306114196777344;0.38976341485977173;90.53460693359375
41;1673293974.0629897;47.130643299999996;7.240687899999999;0.4190000295639038;1673293974.124537;39.532562255859375;0.7041773796081543;90.49966430664062
42;1673293974.2413464;47.130643299999996;7.2406878;0.43400001525878906;1673293974.298701;41.72853088378906;1.3466601371765137;90.68046569824219
43;1673293974.4223013;47.130643299999996;7.2406865;0.4540000259876251;1673293974.4878922;43.9385871887207;0.7195618748664856;90.41995239257812
44;1673293974.637097;47.130643299999996;7.240683799999999;0.48000001907348633;1673293974.6975129;46.09855651855469;0.6300903558731079;90.2308349609375
45;1673293974.8307798;47.130643199999994;7.2406795;0.5010000467300415;1673293974.8866582;48.21657180786133;1.0668301582336426;90.44197845458984
46;1673293975.016049;47.130643199999994;7.2406736;0.51500004529953;1673293975.0812187;45.02757263183594;0.6823620200157166;90.33380889892578
47;1673293975.2254708;47.1306431;7.240666699999999;0.5180000066757202;1673293975.2919507;40.57723617553711;0.6790534853935242;90.34649658203125
48;1673293975.4321783;47.130643;7.240659099999999;0.5190000534057617;1673293975.4938831;35.40420913696289;0.48682379722595215;90.1151351928711
49;1673293975.6187987;47.1306429;7.240651499999999;0.5440000295639038;1673293975.681814;30.05894660949707;0.5151798129081726;90.26039123535156
50;1673293975.81388;47.1306428;7.2406443;0.5840000510215759;1673293975.8861806;25.787445068359375;0.03335487097501755;90.14961242675781
51;1673293976.011399;47.130642699999996;7.240638;0.6330000162124634;1673293976.0765495;21.707782745361328;0.16830921173095703;90.2190933227539
52;1673293976.214914;47.130642599999995;7.240633099999999;0.6810000538825989;1673293976.277072;20.55049705505371;0.43720385432243347;90.29993438720703
53;1673293976.4136424;47.130642599999995;7.240629299999999;0.7390000224113464;1673293976.4747348;20.116058349609375;0.110582634806633;90.13660430908203
54;1673293976.6314392;47.130642599999995;7.240626799999999;0.8010000586509705;1673293976.6945636;21.294132232666016;-0.44201505184173584;89.88858032226562
55;1673293976.8307772;47.130642599999995;7.240625199999999;0.878000020980835;1673293976.8896432;22.890378952026367;0.9640485048294067;90.3989028930664
56;1673293977.0305572;47.130642599999995;7.2406244;0.9650000333786011;1673293977.096986;24.516149520874023;1.5904513597488403;90.74685668945312
57;1673293977.238549;47.130642599999995;7.2406242;1.0570000410079956;1673293977.3026981;26.259387969970703;-1.4300369024276733;89.79986572265625
58;1673293977.4347985;47.130642699999996;7.2406242;1.158000111579895;1673293977.5202565;27.685556411743164;1.4627599716186523;90.45663452148438
59;1673293977.662561;47.130642699999996;7.2406242999999995;1.2730000019073486;1673293977.7246697;28.729677200317383;2.0131587982177734;90.68033599853516
60;1673293977.8703985;47.1306428;7.2406244;1.3930000066757202;1673293977.927161;29.27586555480957;-0.5861238241195679;89.87638854980469
61;1673293978.0601141;47.1306428;7.2406242999999995;1.527000069618225;1673293978.120402;29.358945846557617;0.5353880524635315;90.19451141357422
62;1673293978.270538;47.130642699999996;7.2406239999999995;1.6750000715255737;1673293978.3244057;29.167966842651367;1.3759177923202515;88.2276840209961
63;1673293978.4585848;47.130642599999995;7.2406235;1.8360000848770142;1673293978.5204034;28.69748306274414;-1.0965402126312256;87.5848617553711
64;1673293978.6525974;47.130642699999996;7.240622999999999;2.014000177383423;1673293978.710759;28.211463928222656;0.2574984133243561;87.74333953857422
65;1673293978.8429961;47.130642699999996;7.2406223999999995;2.200000047683716;1673293978.898313;27.66328239440918;2.5318455696105957;88.61412048339844
66;1673293979.0380518;47.1306428;7.2406219;2.38700008392334;1673293979.1016612;27.166658401489258;0.005406605079770088;87.86703491210938
67;1673293979.2403092;47.1306428;7.2406215;2.579000234603882;1673293979.3091943;27.151641845703125;0.0996384248137474;87.6976547241211
68;1673293979.4388216;47.130642599999995;7.240621099999999;2.7740001678466797;1673293979.4976141;27.2655086517334;2.110112190246582;88.31258392333984
69;1673293979.6366158;47.1306425;7.240620799999999;2.9660000801086426;1673293979.6958146;27.093021392822266;-0.501185417175293;87.60199737548828
70;1673293979.8267133;47.1306425;7.2406207;3.1540000438690186;1673293979.8885796;27.33714485168457;-0.6487876176834106;87.40599060058594
71;1673293980.0220633;47.1306424;7.2406206;3.3430001735687256;1673293980.0852728;27.418724060058594;1.8473542928695679;88.24243927001953
72;1673293980.2255287;47.1306424;7.2406204999999995;3.5300002098083496;1673293980.2914722;27.481138229370117;-0.0239676795899868;87.75028991699219
73;1673293980.4348123;47.1306424;7.2406204999999995;3.7200002670288086;1673293980.4968536;27.52301597595215;-1.0035417079925537;87.3950424194336
74;1673293980.6381335;47.1306424;7.2406204999999995;3.9110002517700195;1673293980.69644;27.679340362548828;1.597991704940796;88.2808837890625
75;1673293980.834824;47.1306423;7.2406204;4.0960001945495605;1673293980.906895;27.5866756439209;0.41354435682296753;88.07124328613281
76;1673293981.0375276;47.1306423;7.2406204;4.2829999923706055;1673293981.09532;27.73357582092285;-1.507814884185791;87.39651489257812
77;1673293981.2225165;47.1306424;7.2406204;4.4710001945495605;1673293981.2852368;27.63022232055664;1.4564844369888306;88.00199890136719
78;1673293981.4296246;47.1306425;7.2406203;4.660000324249268;1673293981.4971688;27.721784591674805;1.4347574710845947;88.0870361328125
79;1673293981.6392648;47.130642599999995;7.2406203;4.8520002365112305;1673293981.705404;27.608123779296875;-1.080059289932251;87.25553131103516
80;1673293981.8604646;47.130642599999995;7.2406203;5.044000148773193;1673293981.925025;27.558874130249023;1.1904772520065308;87.866455078125
81;1673293982.1005204;47.130642599999995;7.2406203;5.232000350952148;1673293982.1574035;27.667205810546875;1.807772159576416;88.19429016113281
82;1673293982.3203576;47.130642599999995;7.2406201999999995;5.423000335693359;1673293982.3702018;27.548688888549805;-1.157493233680725;87.3431396484375
83;1673293982.4703827;47.130642599999995;7.2406201999999995;5.613000392913818;1673293982.5324113;27.532543182373047;0.6212158203125;87.73530578613281
84;1673293982.6856022;47.130642699999996;7.2406201999999995;5.804000377655029;1673293982.7472343;27.56235694885254;2.075911045074463;88.21250915527344
85;1673293982.8732057;47.130642699999996;7.2406201999999995;5.996000289916992;1673293982.933792;27.53929901123047;-0.7896704077720642;87.39348602294922
86;1673293983.07483;47.130642699999996;7.2406203;6.190000057220459;1673293983.1325033;27.618030548095703;0.16248221695423126;87.68846893310547
87;1673293983.2533185;47.130642599999995;7.2406203;6.38200044631958;1673293983.3100452;27.653400421142578;2.028940200805664;88.52749633789062
88;1673293983.4366446;47.130642599999995;7.2406203;6.577000141143799;1673293983.5011544;27.78267478942871;-0.8242908120155334;87.60739135742188
89;1673293983.6554983;47.130642599999995;7.2406204;6.778000354766846;1673293983.7189639;27.783567428588867;-0.17516909539699554;87.5317611694336
90;1673293983.8458903;47.130642599999995;7.2406204;6.978000164031982;1673293983.9204307;27.854053497314453;2.097543954849243;88.33613586425781
91;1673293984.0616794;47.130642599999995;7.2406204;7.175000190734863;1673293984.1251712;27.823068618774414;0.13631534576416016;87.919921875
92;1673293984.2655056;47.130642599999995;7.2406204;7.373000144958496;1673293984.3251126;27.737756729125977;-0.9251542091369629;87.50916290283203
93;1673293984.4419866;47.130642599999995;7.2406204;7.570000171661377;1673293984.4932718;27.732093811035156;2.0859265327453613;88.35731506347656
94;1673293984.637898;47.130642599999995;7.2406204;7.772000312805176;1673293984.696656;27.75248908996582;0.4208216071128845;87.88323211669922
95;1673293984.827959;47.130642599999995;7.2406204;7.966000556945801;1673293984.888161;27.731977462768555;-1.046713948249817;87.32042694091797
96;1673293985.0382948;47.130642599999995;7.2406204;8.166000366210938;1673293985.1103842;27.781282424926758;1.8050793409347534;88.13482666015625
97;1673293985.253537;47.130642599999995;7.2406203;8.36400032043457;1673293985.3231373;27.771562576293945;1.3982313871383667;88.08670806884766
98;1673293985.4551644;47.130642599999995;7.2406203;8.567000389099121;1673293985.5191638;27.56715202331543;-1.085554838180542;87.25531005859375
99;1673293985.6505;47.130642599999995;7.2406203;8.768000602722168;1673293985.713511;27.705427169799805;1.4834423065185547;88.07565307617188
100;1673293985.8456972;47.130642599999995;7.2406201999999995;8.973999977111816;1673293985.9062612;27.721385955810547;1.4758319854736328;88.13823699951172
101;1673293986.0493193;47.130642599999995;7.2406201999999995;9.179000854492188;1673293986.1178415;27.546710968017578;-1.196357250213623;87.29977416992188
102;1673293986.2575407;47.130642599999995;7.2406201;9.38700008392334;1673293986.3191369;27.55448341369629;1.1978347301483154;87.90481567382812
103;1673293986.4815571;47.130642599999995;7.2406201;9.593000411987305;1673293986.538199;27.709312438964844;2.0054335594177246;88.29769897460938
104;1673293986.6569867;47.130642599999995;7.2406201;9.792000770568848;1673293986.7226315;27.594266891479492;-0.9904749393463135;87.41312408447266
105;1673293986.890904;47.1306425;7.2406201;9.994000434875488;1673293986.9533772;27.603849411010742;0.3570935130119324;87.81536102294922
106;1673293987.070287;47.1306424;7.2406201;10.208000183105469;1673293987.1304033;27.236618041992188;1.6487044095993042;88.24580383300781
107;1673293987.2582216;47.1306424;7.240619799999999;10.52400016784668;1673293987.3247018;27.811626434326172;-0.008994444273412228;87.73401641845703
108;1673293987.4730823;47.1306424;7.2406193;10.910000801086426;1673293987.5347564;28.370479583740234;-0.4509904384613037;87.3311996459961
109;1673293987.6744142;47.1306424;7.2406187;11.316000938415527;1673293987.7341318;26.32179832458496;1.7834210395812988;88.25997924804688
110;1673293987.8714676;47.1306424;7.2406181;11.721000671386719;1673293987.9208157;25.6719913482666;0.1027459129691124;87.83627319335938
111;1673293988.0450056;47.1306424;7.2406177;12.134000778198242;1673293988.1007533;25.156923294067383;-0.7817633748054504;87.4314193725586
112;1673293988.2274685;47.1306424;7.2406174;12.54900074005127;1673293988.2894986;25.07551383972168;1.9980881214141846;88.29778289794922
113;1673293988.4499898;47.1306424;7.2406174;12.96500015258789;1673293988.5141318;25.133079528808594;0.16082380712032318;87.84481811523438
114;1673293988.6493242;47.1306425;7.2406175;13.382000923156738;1673293988.7123392;25.550874710083008;-0.5842480659484863;87.43743133544922
115;1673293988.8596003;47.130642599999995;7.2406178;13.79900074005127;1673293988.920551;25.945249557495117;2.146000385284424;88.18445587158203
116;1673293989.0549605;47.130642599999995;7.2406181;14.213000297546387;1673293989.117987;26.601716995239258;0.5851788520812988;87.9216537475586
117;1673293989.2454932;47.1306425;7.2406184;14.61500072479248;1673293989.306789;26.817487716674805;-0.8387942910194397;87.39175415039062
118;1673293989.4440045;47.1306425;7.2406187;15.021000862121582;1673293989.5050707;27.112472534179688;1.8484296798706055;88.14616394042969
119;1673293989.6483147;47.1306425;7.240618899999999;15.429000854492188;1673293989.7177377;27.329744338989258;0.9323467016220093;88.06964111328125
120;1673293989.8545234;47.1306425;7.2406191;15.834000587463379;1673293989.919089;27.292495727539062;-0.9257420301437378;87.41868591308594
121;1673293990.0452561;47.130642599999995;7.240619199999999;16.238000869750977;1673293990.1048949;27.222244262695312;1.2359809875488281;87.9281997680664
122;1673293990.236267;47.130642599999995;7.240619199999999;16.644001007080078;1673293990.2965043;27.122631072998047;1.4113459587097168;88.09062194824219
123;1673293990.4343894;47.1306425;7.240619199999999;17.041000366210938;1673293990.4990838;26.969324111938477;-0.9243088364601135;87.55389404296875
124;1673293990.643362;47.1306425;7.240619199999999;17.44300079345703;1673293990.7034178;26.74843406677246;0.6891764402389526;87.91361999511719
125;1673293990.8386607;47.1306425;7.2406191;17.847000122070312;1673293990.8997064;26.773887634277344;1.7050777673721313;88.13713836669922
126;1673293991.053541;47.1306425;7.2406191;18.256999969482422;1673293991.1254;26.7276668548584;-0.9955320358276367;87.34860229492188
127;1673293991.2626681;47.130642599999995;7.2406191;18.66400146484375;1673293991.3218253;26.69475746154785;0.3215670883655548;87.6749038696289
128;1673293991.4561026;47.130642599999995;7.2406191;19.069000244140625;1673293991.5220385;26.718212127685547;2.2195796966552734;88.31973266601562
129;1673293991.6566885;47.130642599999995;7.240619199999999;19.472000122070312;1673293991.7172513;26.695392608642578;-0.38871994614601135;87.62773895263672
130;1673293991.8584971;47.130642599999995;7.240619199999999;19.86600112915039;1673293991.9255202;26.85074234008789;0.10036737471818924;87.64045715332031
131;1673293992.054887;47.130642699999996;7.240619199999999;20.26300048828125;1673293992.1208935;26.787500381469727;2.327678918838501;88.32485961914062
132;1673293992.2630906;47.130642699999996;7.2406193;20.66400146484375;1673293992.3300307;26.903886795043945;0.3546100854873657;87.7511215209961
133;1673293992.4575067;47.1306428;7.2406193;21.069000244140625;1673293992.52255;26.927261352539062;0.004900007974356413;87.52722930908203
134;1673293992.6666021;47.1306428;7.2406194;21.470001220703125;1673293992.7221584;26.869417190551758;2.5875561237335205;88.30108642578125
135;1673293992.855473;47.130642699999996;7.2406194;21.86800193786621;1673293992.9146006;26.894235610961914;0.40134748816490173;87.7324447631836
136;1673293993.0420442;47.130642699999996;7.2406194;22.259000778198242;1673293993.1022477;26.753063201904297;-0.5184526443481445;87.50074005126953
137;1673293993.249141;47.130642599999995;7.2406193;22.657001495361328;1673293993.310198;26.752832412719727;2.012310743331909;88.22606658935547
138;1673293993.4542766;47.130642699999996;7.2406193;23.059001922607422;1673293993.5221748;26.801780700683594;0.6363480091094971;87.91216278076172
139;1673293993.67398;47.130642699999996;7.2406193;23.457000732421875;1673293993.7291818;26.673797607421875;-0.6670277714729309;87.36406707763672
140;1673293993.854681;47.130642699999996;7.2406194;23.85900115966797;1673293993.91389;26.853059768676758;1.9466971158981323;88.07231903076172
141;1673293994.0481532;47.130642699999996;7.2406194;24.260000228881836;1673293994.118974;26.78420639038086;1.0627326965332031;88.0021743774414
142;1673293994.2516544;47.130642599999995;7.240619499999999;24.66200065612793;1673293994.310254;26.96196937561035;-0.8027475476264954;87.4129409790039
143;1673293994.4465363;47.130642599999995;7.240619499999999;25.0570011138916;1673293994.5135207;26.831470489501953;1.6704626083374023;88.03954315185547
144;1673293994.6555765;47.130642699999996;7.240619499999999;25.4580020904541;1673293994.7127392;26.785207748413086;1.5554832220077515;88.15592193603516
145;1673293994.8421445;47.130642699999996;7.240619499999999;25.86400032043457;1673293994.9012852;26.85586166381836;-0.7748841047286987;87.40221405029297
146;1673293995.0356174;47.130642699999996;7.2406196;26.269001007080078;1673293995.0996113;26.89413833618164;1.243815541267395;87.93376159667969
147;1673293995.24962;47.130642599999995;7.2406196;26.672000885009766;1673293995.3165371;26.90009117126465;1.845537543296814;88.1461181640625
148;1673293995.4619346;47.130642599999995;7.2406196;27.07900047302246;1673293995.5268574;26.91787338256836;-0.8692905902862549;87.46949005126953
149;1673293995.666961;47.130642599999995;7.2406196;27.477001190185547;1673293995.7334888;26.770177841186523;0.6009418368339539;87.82312774658203
150;1673293995.8755293;47.130642599999995;7.2406196;27.880001068115234;1673293995.9423492;26.866764068603516;1.9255003929138184;88.2184829711914
151;1673293996.084766;47.130642599999995;7.2406196;28.285001754760742;1673293996.1386294;26.89069366455078;-0.3026992976665497;87.5506820678711
152;1673293996.2740211;47.130642599999995;7.2406196;28.68800163269043;1673293996.3331237;26.793893814086914;-0.2765803039073944;87.56124114990234
153;1673293996.4459941;47.130642599999995;7.2406196;29.09200096130371;1673293996.4967637;26.839828491210938;2.33796763420105;88.25796508789062
154;1673293996.6426065;47.130642599999995;7.2406196;29.498001098632812;1673293996.7072525;26.81993865966797;0.09180451929569244;87.75041961669922
155;1673293996.8492393;47.130642699999996;7.2406196;29.90300178527832;1673293996.9164603;26.78050994873047;-0.11091118305921555;87.51729583740234
156;1673293997.0349717;47.130642699999996;7.2406196;30.297000885009766;1673293997.1097202;26.766408920288086;2.3131091594696045;88.24098205566406
157;1673293997.2570803;47.1306428;7.2406196;30.69500160217285;1673293997.3198752;26.846759796142578;0.736213743686676;87.76727294921875
158;1673293997.4688175;47.1306429;7.2406196;31.09800148010254;1673293997.5295818;26.784866333007812;-0.11672073602676392;87.45822143554688
159;1673293997.6696656;47.1306429;7.2406196;31.50200080871582;1673293997.7308745;26.80719757080078;2.2657017707824707;88.19198608398438
160;1673293997.8561306;47.1306428;7.2406196;31.906002044677734;1673293997.922267;26.748291015625;1.1900802850723267;87.92964172363281
161;1673293998.0489507;47.1306428;7.2406196;32.310001373291016;1673293998.1029038;26.75422477722168;-0.6907022595405579;87.32769775390625
162;1673293998.2334569;47.130642699999996;7.2406196;32.7030029296875;1673293998.2942352;26.789335250854492;1.8279880285263062;88.03800201416016
163;1673293998.4261503;47.130642699999996;7.2406196;33.104000091552734;1673293998.490581;26.786195755004883;1.5166356563568115;88.16682434082031
164;1673293998.6205165;47.130642699999996;7.2406196;33.505001068115234;1673293998.6898339;26.80862045288086;-0.5999917387962341;87.42742156982422
165;1673293998.8415723;47.130642699999996;7.2406196;33.90700149536133;1673293998.9091082;26.863590240478516;1.1315299272537231;87.85872650146484
166;1673293999.0817032;47.130642699999996;7.2406196;34.31100082397461;1673293999.1390712;26.865203857421875;1.8779053688049316;88.20980834960938
167;1673293999.2738154;47.130642599999995;7.2406196;34.7130012512207;1673293999.3422332;26.8824462890625;-0.4955510199069977;87.453125
168;1673293999.4971104;47.130642699999996;7.2406196;35.11900329589844;1673293999.5767105;26.778348922729492;0.6757693886756897;87.65664672851562
169;1673293999.7262528;47.130642699999996;7.2406196;35.513999938964844;1673293999.7723866;26.72785758972168;2.426426649093628;88.34600067138672
170;1673293999.885835;47.130642699999996;7.2406196;35.915000915527344;1673293999.9454925;26.776378631591797;-0.18563123047351837;87.60245513916016
171;1673294000.0754848;47.130642699999996;7.2406196;36.31800079345703;1673294000.1366353;26.755477905273438;0.48133525252342224;87.68514251708984
172;1673294000.2671876;47.130642699999996;7.2406196;36.72200012207031;1673294000.3259938;26.75082015991211;2.328387975692749;88.2615737915039
173;1673294000.4533896;47.130642599999995;7.2406196;37.12600326538086;1673294000.5068386;26.721580505371094;-0.17780500650405884;87.5721664428711
174;1673294000.63648;47.130642599999995;7.2406196;37.53200149536133;1673294000.6967733;26.891250610351562;0.1484248787164688;87.58470153808594
175;1673294000.8388727;47.130642599999995;7.2406196;37.92400360107422;1673294000.9095173;26.75621223449707;2.3977224826812744;88.26179504394531
176;1673294001.0555332;47.130642599999995;7.2406196;38.323001861572266;1673294001.1165464;26.902067184448242;0.09814012795686722;87.64795684814453
177;1673294001.2510278;47.130642599999995;7.2406196;38.72300338745117;1673294001.318646;26.68771743774414;-0.2955418825149536;87.47435760498047
178;1673294001.4570382;47.1306425;7.2406196;39.12700271606445;1673294001.5178406;26.877120971679688;2.112950325012207;88.23190307617188
179;1673294001.6364543;47.1306425;7.2406196;39.531002044677734;1673294001.7010596;26.78390121459961;0.455874502658844;87.93955993652344
180;1673294001.8379688;47.1306425;7.2406197;39.93600082397461;1673294001.8976464;26.88976287841797;-0.5003198385238647;87.49981689453125
181;1673294002.0523345;47.1306425;7.2406197;40.34000015258789;1673294002.115392;26.672761917114258;2.116564989089966;88.20337677001953
182;1673294002.2537138;47.130642599999995;7.2406197;40.733001708984375;1673294002.3148932;26.827899932861328;1.4695205688476562;88.07447814941406
183;1673294002.458077;47.130642599999995;7.2406196;41.13100051879883;1673294002.5191467;26.650150299072266;-0.5384125709533691;87.38442993164062
184;1673294002.694929;47.130642599999995;7.2406196;41.53200149536133;1673294002.7550519;26.759443283081055;2.0539653301239014;88.17678833007812
185;1673294002.8873231;47.130642599999995;7.2406196;41.93400192260742;1673294002.9424407;26.692277908325195;1.3904218673706055;88.0972671508789
186;1673294003.0660887;47.130642599999995;7.2406196;42.336002349853516;1673294003.1209068;26.738569259643555;-0.722310483455658;87.34333038330078
187;1673294003.2616408;47.130642599999995;7.2406196;42.737003326416016;1673294003.3220582;26.660507202148438;1.2939451932907104;87.88640594482422
188;1673294003.453249;47.130642599999995;7.2406196;43.12900161743164;1673294003.521116;26.7489070892334;1.9431878328323364;88.08842468261719
189;1673294003.682642;47.130642699999996;7.2406196;43.527000427246094;1673294003.7460923;26.813173294067383;-0.5382060408592224;87.3945541381836
190;1673294003.8746495;47.130642699999996;7.2406196;43.927001953125;1673294003.931227;26.752988815307617;1.2746729850769043;87.81967163085938
191;1673294004.0481718;47.130642599999995;7.2406196;44.33100128173828;1673294004.1049066;26.790590286254883;2.1445674896240234;88.2626953125
192;1673294004.2456446;47.130642599999995;7.2406196;44.73600387573242;1673294004.3071153;26.750667572021484;-0.46579012274742126;87.59514617919922
193;1673294004.435576;47.130642599999995;7.2406196;45.143001556396484;1673294004.4970744;26.712947845458984;0.5474368333816528;87.7575912475586
194;1673294004.6279864;47.130642599999995;7.2406196;45.54900360107422;1673294004.6963055;26.73473358154297;2.2652745246887207;88.27900695800781
195;1673294004.8382733;47.1306425;7.2406196;45.94000244140625;1673294004.8980956;26.608810424804688;-0.3480421006679535;87.61672973632812
196;1673294005.0341012;47.1306425;7.2406196;46.33500289916992;1673294005.1018827;26.676753997802734;-0.017975466325879097;87.6025161743164
197;1673294005.286539;47.1306425;7.2406196;46.733001708984375;1673294005.359335;26.619739532470703;2.3319013118743896;88.26656341552734
198;1673294005.4872484;47.1306425;7.2406196;47.13500213623047;1673294005.544416;26.854263305664062;0.031194526702165604;87.65988159179688
199;1673294005.6669524;47.130642599999995;7.2406196;47.544002532958984;1673294005.7241116;26.736974716186523;0.1082349494099617;87.5274887084961
200;1673294005.853602;47.130642599999995;7.2406196;47.95000076293945;1673294005.9170806;26.699928283691406;2.796962022781372;88.34761047363281
201;1673294006.0409596;47.130642699999996;7.2406197;48.316001892089844;1673294006.0985472;26.939001083374023;0.4757579267024994;87.48945617675781
202;1673294006.2286868;47.130642699999996;7.2406198999999996;48.63500213623047;1673294006.2893586;26.91866111755371;0.014673049561679363;87.57687377929688
203;1673294006.4241364;47.130642599999995;7.2406201999999995;48.90400314331055;1673294006.4895287;27.27722930908203;2.589637517929077;88.36213684082031
204;1673294006.6244743;47.130642699999996;7.2406206;49.13300323486328;1673294006.6889274;27.64344596862793;0.7318569421768188;87.89430236816406
205;1673294006.828736;47.130642699999996;7.240621;49.323001861572266;1673294006.8853178;33.28227615356445;2.9107019901275635;87.11564636230469
206;1673294007.0299997;47.130642599999995;7.2406213;49.474002838134766;1673294007.0975332;34.08846664428711;0.20717047154903412;82.37007904052734
207;1673294007.2424915;47.1306424;7.240621399999999;49.52100372314453;1673294007.304958;24.296939849853516;-2.478064775466919;71.046630859375
208;1673294007.4432986;47.130641999999995;7.2406217999999996;49.525001525878906;1673294007.5331566;38.05235290527344;-6.955445289611816;58.765357971191406
209;1673294007.6742408;47.1306411;7.2406216;49.548004150390625;1673294007.7344515;34.81620407104492;-15.933815956115723;50.05580520629883
210;1673294007.919891;47.1306398;7.2406207;49.59100341796875;1673294007.972181;19.113855361938477;-21.326786041259766;41.58470153808594
211;1673294008.0942156;47.1306386;7.240619499999999;49.64800262451172;1673294008.1522331;21.830387115478516;-25.438865661621094;31.695573806762695
212;1673294008.281188;47.1306375;7.2406182999999995;49.69600296020508;1673294008.3381655;14.15168285369873;-26.60553550720215;22.909469604492188
213;1673294008.4611924;47.1306364;7.240616999999999;49.73400115966797;1673294008.5181367;8.011314392089844;-27.708948135375977;13.000247955322266
214;1673294008.6802995;47.1306356;7.2406158;49.75700378417969;1673294008.7394228;2.1477549076080322;-27.905494689941406;3.6819756031036377
215;1673294008.8612146;47.130635;7.2406147999999995;49.785003662109375;1673294008.9255095;-3.104600191116333;-28.11492347717285;-5.613570690155029
216;1673294009.0584462;47.1306346;7.2406139;49.81100082397461;1673294009.1250641;-7.543655872344971;-27.739648818969727;-14.796844482421875
217;1673294009.274123;47.1306343;7.2406131;49.836002349853516;1673294009.3421957;-11.331171035766602;-26.628578186035156;-23.821880340576172
218;1673294009.4731455;47.130634199999996;7.2406125999999995;49.85900115966797;1673294009.5412955;-14.430033683776855;-25.35740089416504;-32.27095413208008
219;1673294009.6662557;47.130634199999996;7.2406123;49.887001037597656;1673294009.7246108;-17.4766902923584;-23.042177200317383;-41.137351989746094
220;1673294009.8556418;47.130634099999995;7.240612;49.90700149536133;1673294009.9228063;-20.488536834716797;-19.418312072753906;-49.58460235595703
221;1673294010.0584412;47.130634099999995;7.2406118;49.9160041809082;1673294010.1240904;-21.7786922454834;-15.731514930725098;-52.03446578979492
222;1673294010.2515903;47.130634;7.240611599999999;49.93000411987305;1673294010.315036;-21.105613708496094;-17.241552352905273;-48.1635627746582
223;1673294010.4519598;47.1306339;7.240611599999999;49.94400405883789;1673294010.5134892;-20.080524444580078;-19.89883804321289;-45.529388427734375
224;1673294010.6502593;47.1306338;7.240611599999999;49.95900344848633;1673294010.7148218;-19.39765167236328;-22.597497940063477;-44.9677619934082
225;1673294010.8506205;47.1306338;7.240611599999999;49.974002838134766;1673294010.9150982;-19.211929321289062;-23.233444213867188;-44.758758544921875
226;1673294011.058424;47.1306339;7.2406117;49.9890022277832;1673294011.1297321;-19.502614974975586;-22.889684677124023;-44.7360954284668
227;1673294011.2677422;47.1306339;7.240611599999999;49.98600387573242;1673294011.3378198;-19.540576934814453;-20.629880905151367;-45.26984786987305
228;1673294011.4777102;47.1306338;7.2406115;49.98600387573242;1673294011.5817347;-20.066524505615234;-19.30066680908203;-45.218257904052734
229;1673294011.701956;47.1306337;7.2406114;49.9890022277832;1673294011.7654793;-19.993017196655273;-19.042510986328125;-45.15910720825195
230;1673294011.9121625;47.130633599999996;7.240611299999999;49.992000579833984;1673294011.9662297;-20.3828067779541;-20.80133819580078;-44.77332305908203
231;1673294012.1053789;47.130633499999995;7.2406111;49.999000549316406;1673294012.1666973;-37.65300369262695;-19.534839630126953;-44.682899475097656
232;1673294012.2826002;47.130634199999996;7.2406101;50.01700210571289;1673294012.33637;-51.38339614868164;-15.023323059082031;-46.17427444458008
233;1673294012.4665244;47.1306363;7.2406074;50.040000915527344;1673294012.5255315;-59.83914566040039;-10.441855430603027;-47.94546127319336
234;1673294012.6656353;47.1306406;7.240602099999999;50.03300094604492;1673294012.7777317;-57.863182067871094;-6.837378025054932;-50.65068435668945
235;1673294012.9430966;47.1306467;7.2405949;50.01400375366211;1673294012.9940245;-52.46360778808594;-7.024832725524902;-50.75624084472656
236;1673294013.111104;47.130654299999996;7.2405862999999995;49.98400115966797;1673294013.1655588;-53.166664123535156;-7.491357803344727;-50.5716552734375
237;1673294013.2856956;47.1306631;7.2405766;49.96200180053711;1673294013.3437178;-51.88776779174805;-9.094386100769043;-49.68222427368164
238;1673294013.462823;47.130672999999994;7.240565999999999;49.94200134277344;1673294013.5195704;-52.44063949584961;-10.223966598510742;-49.27409362792969
239;1673294013.668797;47.130683499999996;7.2405545;49.91100311279297;1673294013.7487428;-49.6287841796875;-10.650480270385742;-49.18712615966797
240;1673294013.8935406;47.130694399999996;7.240542199999999;49.874000549316406;1673294013.9439142;-48.44786834716797;-10.53064250946045;-49.571224212646484
241;1673294014.0596669;47.1307058;7.2405294;49.84600067138672;1673294014.1128721;-48.27043533325195;-9.771245002746582;-51.553855895996094
242;1673294014.2488642;47.1307173;7.2405162999999995;49.8280029296875;1673294014.3079379;-47.84777069091797;-9.3093900680542;-51.90031814575195
243;1673294014.4478571;47.130729099999996;7.2405026999999995;49.81500244140625;1673294014.5137663;-48.27521896362305;-9.634342193603516;-51.350433349609375
244;1673294014.6695862;47.1307409;7.240488999999999;49.802001953125;1673294014.728848;-47.80773162841797;-9.532102584838867;-51.19120788574219
245;1673294014.8656046;47.130752799999996;7.2404749;49.794002532958984;1673294014.9235816;-47.60316467285156;-9.924823760986328;-51.053165435791016
246;1673294015.0696685;47.130764899999996;7.2404607;49.78900146484375;1673294015.136576;-47.5814094543457;-10.44332504272461;-51.03371810913086
247;1673294015.2908363;47.1307769;7.2404462;49.77800369262695;1673294015.3517938;-46.85578155517578;-10.965766906738281;-51.07136535644531
248;1673294015.4777734;47.1307888;7.2404316;49.77000045776367;1673294015.5376198;-46.95166015625;-11.419917106628418;-51.16020584106445
249;1673294015.672729;47.130800799999996;7.240416799999999;49.7650032043457;1673294015.7677372;-46.83001708984375;-11.700420379638672;-51.2444953918457
250;1673294015.9048977;47.1308127;7.240401899999999;49.76700210571289;1673294015.955756;-46.81472396850586;-12.018524169921875;-51.25960922241211
251;1673294016.0810747;47.130824499999996;7.2403868;49.77000045776367;1673294016.1419027;-46.958412170410156;-12.993574142456055;-51.195438385009766
252;1673294016.2869997;47.130836099999996;7.240371499999999;49.77100372314453;1673294016.3439028;-46.46198272705078;-13.662711143493652;-51.40605545043945
253;1673294016.4617567;47.130847499999994;7.240355999999999;49.772003173828125;1673294016.5227268;-46.18818283081055;-12.927827835083008;-51.71039962768555
254;1673294016.6496809;47.1308587;7.2403404;49.77300262451172;1673294016.7098796;-45.66319274902344;-12.4015531539917;-51.5765266418457
255;1673294016.8678248;47.1308699;7.2403246999999995;49.772003173828125;1673294016.9300685;-45.43290328979492;-12.02771282196045;-51.45175552368164
256;1673294017.0670784;47.130880999999995;7.240309099999999;49.77400207519531;1673294017.131146;-45.306175231933594;-12.038338661193848;-51.17353057861328
257;1673294017.261155;47.130891899999995;7.2402935;49.77900314331055;1673294017.3172524;-45.69902038574219;-12.113058090209961;-51.18240737915039
258;1673294017.4409263;47.130902899999995;7.2402779;49.785003662109375;1673294017.5035677;-46.281951904296875;-9.882559776306152;-51.69384765625
259;1673294017.6461525;47.130913899999996;7.2402625;49.78600311279297;1673294017.7217214;-40.812503814697266;-0.9794797301292419;-51.963714599609375
260;1673294017.870013;47.1309252;7.2402481;49.80400085449219;1673294017.9310997;-4.622773170471191;11.392632484436035;-47.25080490112305
261;1673294018.073161;47.1309361;7.2402371;49.820003509521484;1673294018.131342;31.51732635498047;24.15656852722168;-46.41444396972656
262;1673294018.2682738;47.1309459;7.2402302999999995;49.64600372314453;1673294018.3231165;18.116161346435547;8.996642112731934;-52.2049446105957
263;1673294018.4526987;47.1309544;7.2402283999999995;49.362003326416016;1673294018.5168343;13.516862869262695;6.448835849761963;-50.0756950378418
264;1673294018.649563;47.1309614;7.240231;49.095001220703125;1673294018.713983;12.4017333984375;5.894710063934326;-49.29739761352539
265;1673294018.8579361;47.1309671;7.2402375;48.90700149536133;1673294018.9206119;11.491897583007812;4.270226955413818;-48.997459411621094
266;1673294019.052317;47.1309718;7.240246699999999;48.69700241088867;1673294019.1140113;8.2577543258667;14.83463191986084;-52.7510986328125
267;1673294019.2501595;47.1309763;7.2402565;48.137001037597656;1673294019.3173814;12.233491897583008;25.04737091064453;-54.609676361083984
268;1673294019.457197;47.130980699999995;7.240266399999999;47.19700241088867;1673294019.5207868;20.97248649597168;31.7316837310791;-53.03055953979492
269;1673294019.6668136;47.130984999999995;7.240276499999999;45.87000274658203;1673294019.7290123;31.49610137939453;32.45779037475586;-48.995452880859375
270;1673294019.8746068;47.1309891;7.2402866999999995;44.159000396728516;1673294019.9317813;40.344417572021484;24.46071434020996;-46.08022689819336
271;1673294020.0555127;47.1309932;7.2402967;42.06700134277344;1673294020.11701;43.31009292602539;7.601710796356201;-47.3441276550293
272;1673294020.2479863;47.1309973;7.2403067;39.59100341796875;1673294020.3104627;36.684852600097656;-10.298663139343262;-49.0885124206543
273;1673294020.459115;47.1310016;7.2403165;36.71800231933594;1673294020.5269983;21.7572021484375;-19.003625869750977;-46.377376556396484
274;1673294020.6752322;47.131006;7.2403264;33.4640007019043;1673294020.7378845;3.842259645462036;-15.912273406982422;-42.241390228271484
275;1673294020.8723166;47.131010599999996;7.240336699999999;29.825000762939453;1673294020.9343479;-9.426614761352539;-1.6918429136276245;-41.712059020996094
276;1673294021.0631196;47.131015;7.2403471999999995;25.79400062561035;1673294021.1220126;-9.849125862121582;14.891307830810547;-43.103328704833984
277;1673294021.250387;47.1310192;7.240358;21.380001068115234;1673294021.3115022;1.9017802476882935;22.54128074645996;-40.25945281982422
278;1673294021.4613044;47.1310232;7.2403686;16.58500099182129;1673294021.5342267;18.014997482299805;15.75938892364502;-35.399688720703125
279;1673294021.6887867;47.1310271;7.2403789;11.393000602722168;1673294021.7447047;26.959592819213867;-1.166184425354004;-34.53813934326172
280;1673294021.863963;47.1310311;7.2403889999999995;5.828000068664551;1673294021.9200838;20.593456268310547;-13.40816593170166;-33.89306640625
281;1673294022.0585802;47.131034899999996;7.240398099999999;0.2800000011920929;1673294022.125044;7.549139499664307;-8.958346366882324;-30.108285903930664
282;1673294022.255654;47.1310236;7.2403865;0.3330000042915344;1673294022.3233895;11.245201110839844;1.5673288106918335;-38.619422912597656
283;1673294022.4794915;47.131012299999995;7.2403754;0.27400001883506775;1673294022.5536227;9.794022560119629;0.06252425909042358;-38.28922653198242
284;1673294022.6740294;47.1310012;7.240365499999999;0.22100001573562622;1673294022.731946;9.693161964416504;-0.03728295490145683;-37.99774932861328
285;1673294022.876182;47.1309907;7.2403571;0.1770000010728836;1673294022.945192;9.640020370483398;-0.1519952416419983;-37.70903778076172
286;1673294023.101262;47.130978999999996;7.2403482;0.12300000339746475;1673294023.2235756;9.615192413330078;-0.3505011796951294;-37.41409683227539
287;1673294023.3702748;47.1309665;7.240339;0.08000000566244125;1673294023.422287;9.593404769897461;-0.4038335382938385;-37.13241958618164
288;1673294023.5380583;47.130953399999996;7.2403299;0.046000003814697266;1673294023.5937212;9.604215621948242;-0.5064927339553833;-36.861080169677734
289;1673294023.7762961;47.1309397;7.240321;0.015000000596046448;1673294023.8282526;9.568290710449219;-0.5457476377487183;-36.65701675415039
290;1673294023.946783;47.1309255;7.240312299999999;-0.013000000268220901;1673294024.0053842;9.514425277709961;-0.5718021392822266;-36.441932678222656
291;1673294024.1217105;47.130910899999996;7.2403037999999995;-0.03800000250339508;1673294024.1803484;9.51229190826416;-0.5843852758407593;-36.24641036987305
292;1673294024.3202147;47.130895699999996;7.240295499999999;-0.08300000429153442;1673294024.3899732;9.4573974609375;-0.557879626750946;-36.07822799682617
293;1673294024.5115712;47.1308802;7.2402874;-0.11800000816583633;1673294024.566361;9.410150527954102;-0.5021923780441284;-35.9073486328125
294;1673294024.6986773;47.1308643;7.240279699999999;-0.14400000870227814;1673294024.7604723;9.374499320983887;-0.4749956727027893;-35.785926818847656
295;1673294024.903;47.130848099999994;7.2402722;-0.16600000858306885;1673294024.9635806;9.318686485290527;-0.43122678995132446;-35.60683059692383
296;1673294025.102433;47.1308315;7.240265;-0.1860000044107437;1673294025.1612713;9.255207061767578;-0.4061277508735657;-35.47571563720703
297;1673294025.301392;47.1308145;7.240258099999999;-0.20900000631809235;1673294025.3634124;9.195667266845703;-0.40022170543670654;-35.3546028137207
298;1673294025.5018568;47.130797099999995;7.2402514;-0.22700001299381256;1673294025.576342;9.152624130249023;-0.37987422943115234;-35.20170211791992
299;1673294025.7151322;47.1307792;7.2402448999999995;-0.26500001549720764;1673294025.7660925;9.074968338012695;-0.39430510997772217;-35.120391845703125
300;1673294025.8795571;47.130761;7.2402387;-0.2900000214576721;1673294025.9387753;9.015237808227539;-0.4243916869163513;-34.99388122558594
301;1673294026.0862844;47.1307425;7.2402327;-0.31200000643730164;1673294026.1506786;8.918416976928711;-0.47976309061050415;-34.92538070678711
302;1673294026.2983794;47.1307237;7.240227;-0.328000009059906;1673294026.3603852;8.840239524841309;-0.3783862590789795;-34.88677215576172
303;1673294026.484408;47.1307046;7.2402215;-0.3440000116825104;1673294026.5505219;8.819365501403809;-0.37542030215263367;-34.842777252197266
304;1673294026.6743498;47.130685199999995;7.240216299999999;-0.35500001907348633;1673294026.730976;8.72382926940918;-0.4204503893852234;-34.81113815307617
305;1673294026.8804507;47.130665199999996;7.2402112;-0.38600000739097595;1673294026.9495127;8.64571475982666;-0.5019524097442627;-34.798336029052734
306;1673294027.1044443;47.1306449;7.2402063;-0.4050000309944153;1673294027.1664643;8.531952857971191;-0.5332202911376953;-34.76875686645508
307;1673294027.3134282;47.130624499999996;7.2402016;-0.41700002551078796;1673294027.371684;8.420913696289062;-0.6028620004653931;-34.75714874267578
308;1673294027.5014422;47.130603699999995;7.2401972;-0.4230000078678131;1673294027.562634;8.415109634399414;-0.6877588033676147;-34.719234466552734
309;1673294027.6915615;47.1305826;7.240192899999999;-0.4270000159740448;1673294027.7485425;8.298349380493164;-0.7588898539543152;-34.65582275390625
310;1673294027.8937156;47.1305809;7.240192599999999;-0.4310000240802765;1673294027.9685047;8.279620170593262;-0.8273540139198303;-34.63799285888672
311;;;;;1673294028.1604288;8.212648391723633;-0.8829555511474609;-34.58064651489258
312;;;;;1673294028.3527517;8.135954856872559;-0.9469075202941895;-34.543514251708984
313;;;;;1673294028.5574646;8.060588836669922;-0.9390537142753601;-34.516502380371094
314;;;;;1673294028.753402;7.9559807777404785;-0.9183177351951599;-34.49899673461914
315;;;;;1673294028.9482975;7.812270164489746;-1.099271535873413;-34.489620208740234
316;;;;;1673294029.1425016;7.8498616218566895;-1.7665051221847534;-34.47175979614258
317;;;;;1673294029.3455155;7.750726699829102;-1.988818883895874;-34.450538635253906
