;pos_time;latitude;longitude;altitude;alt_time;pitch;roll;yaw
0;1673293878.5791028;47.1306424;7.2406201999999995;-0.021000001579523087;1673293878.5947163;-0.004443207755684853;0.0964873880147934;89.93151092529297
1;1673293878.7824962;47.1306424;7.2406201999999995;-0.020000001415610313;1673293878.7961588;0.06823637336492538;0.08047047257423401;89.96995544433594
2;1673293878.9788463;47.1306424;7.2406201999999995;-0.01900000125169754;1673293878.9925096;-0.08400475233793259;0.4400200843811035;89.82730865478516
3;1673293879.1908708;47.1306424;7.2406201999999995;-0.020000001415610313;1673293879.206488;-0.1342775821685791;0.08431471884250641;89.93675231933594
4;1673293879.3940506;47.1306424;7.2406201999999995;-0.020000001415610313;1673293879.408671;-0.11760535091161728;0.1238270029425621;89.98435974121094
5;1673293879.592503;47.1306424;7.2406201;-0.01900000125169754;1673293879.6090944;0.24654023349285126;-0.40834397077560425;90.01703643798828
6;1673293879.78496;47.1306424;7.2406201;-0.021000001579523087;1673293879.7996008;0.19802041351795197;-0.2394658923149109;89.85252380371094
7;1673293879.9822533;47.1306424;7.2406201;-0.023000001907348633;1673293879.995089;0.21509051322937012;-0.2728261947631836;89.86640930175781
8;1673293880.1827426;47.1306424;7.2406201;-0.024000000208616257;1673293880.2003443;0.045673348009586334;-0.2094985693693161;89.91361236572266
9;1673293880.3854923;47.1306424;7.2406201999999995;-0.023000001907348633;1673293880.4001338;-0.24107936024665833;-0.27755045890808105;89.88368225097656
10;1673293880.5967977;47.1306424;7.2406201999999995;-0.01900000125169754;1673293880.6104622;-0.16073943674564362;-0.2837126851081848;89.8493881225586
11;1673293880.7900975;47.1306424;7.2406203;-0.012000000104308128;1673293880.805833;-0.1531057059764862;-0.360496461391449;90.08550262451172
12;1673293880.9943554;47.1306424;7.2406201999999995;-0.009000000543892384;1673293881.0099926;0.013913188129663467;-0.2861003577709198;90.1247787475586
13;1673293881.194633;47.1306423;7.2406201999999995;-0.00800000037997961;1673293881.211225;-0.023701008409261703;-0.26644834876060486;89.97128295898438
14;1673293881.3910103;47.1306423;7.2406203;0.0;1673293881.4047017;-0.3249993920326233;-0.23439249396324158;89.902587890625
15;1673293881.5854423;47.1306423;7.2406203;0.005000000353902578;1673293881.6000838;-0.2712654173374176;-0.36843717098236084;89.95773315429688
16;1673293881.7673078;47.1306423;7.2406201999999995;0.0020000000949949026;1673293881.781962;-0.20736972987651825;-0.17777590453624725;89.77655792236328
17;1673293881.967682;47.1306423;7.2406201;0.0020000000949949026;1673293881.9853191;-0.03650393337011337;-0.13854528963565826;89.8924331665039
18;1673293882.1827605;47.1306423;7.2406201;0.005000000353902578;1673293882.1964395;-0.1602080911397934;-0.3851373791694641;90.02684783935547
19;1673293882.380891;47.1306423;7.2406201;0.005000000353902578;1673293882.3940673;-0.3203730285167694;-0.1660386025905609;90.10234069824219
20;1673293882.5808065;47.1306422;7.2406201;0.003000000026077032;1673293882.5927951;-0.4533839225769043;-0.16216130554676056;90.00692749023438
21;1673293882.7798226;47.1306422;7.2406201;-0.0010000000474974513;1673293882.7939808;-0.732683539390564;-0.21263501048088074;90.0378189086914
22;1673293882.9679065;47.1306422;7.2406201;-0.005000000353902578;1673293882.9811256;-0.49765828251838684;-0.19132773578166962;90.18890380859375
23;1673293883.1647477;47.1306422;7.2406201;0.0;1673293883.1788938;-0.7605547904968262;-0.6904473304748535;90.06678009033203
24;1673293883.385107;47.1306422;7.24062;0.004000000189989805;1673293883.398108;-0.6453720331192017;-0.2105039805173874;89.78919982910156
25;1673293883.5777228;47.1306423;7.24062;0.0010000000474974513;1673293883.5939317;-0.5507410168647766;0.025731472298502922;90.19905853271484
26;1673293883.7910063;47.1306423;7.2406201;-0.003000000026077032;1673293883.8069797;-0.7682530879974365;-0.1651521474123001;89.96588897705078
27;1673293883.9987743;47.1306423;7.2406201;-0.003000000026077032;1673293884.012769;-1.0234301090240479;-0.08837612718343735;90.29802703857422
28;1673293884.200871;47.1306423;7.2406201999999995;-0.003000000026077032;1673293884.212683;-1.4250805377960205;-0.23901106417179108;90.22943115234375
29;1673293884.3878193;47.1306423;7.2406203;-0.004000000189989805;1673293884.4047837;-2.3785347938537598;-0.12722700834274292;89.4422836303711
30;1673293884.5816965;47.1306423;7.2406207;-0.007000000216066837;1673293884.5956156;-1.4061239957809448;-0.08224324136972427;87.42518615722656
31;1673293884.781965;47.1306423;7.2406222;-0.00800000037997961;1673293884.7979457;2.1580073833465576;-0.32963457703590393;89.38937377929688
32;1673293884.9849453;47.1306424;7.240624899999999;-0.0020000000949949026;1673293885.002097;6.779909133911133;-0.2665034830570221;88.57087707519531
33;1673293885.1899247;47.1306425;7.240628399999999;0.009000000543892384;1673293885.20275;12.903022766113281;-0.9092622399330139;87.86947631835938
34;1673293885.3990638;47.130642599999995;7.2406327;0.023000001907348633;1673293885.4129677;15.99960994720459;-0.5652894973754883;87.81233215332031
35;1673293885.610044;47.130642699999996;7.2406377;0.04500000178813934;1673293885.622581;16.55705451965332;0.7080174684524536;88.4600830078125
36;1673293885.7859995;47.1306429;7.2406432;0.07200000435113907;1673293885.800855;17.821643829345703;-0.17267076671123505;88.55250549316406
37;1673293885.9759932;47.130643;7.2406491;0.1080000028014183;1673293885.9906483;19.466211318969727;-0.9001168608665466;88.66201782226562
38;1673293886.168882;47.1306431;7.240655299999999;0.1420000046491623;1673293886.1835802;21.301504135131836;0.5452061295509338;89.15536499023438
39;1673293886.373497;47.130643199999994;7.240661299999999;0.17800000309944153;1673293886.3891287;23.263927459716797;0.8069124221801758;89.39279174804688
40;1673293886.5813973;47.130643299999996;7.240667299999999;0.21300001442432404;1673293886.5989685;25.327051162719727;-0.7155677676200867;89.18463134765625
41;1673293886.793567;47.1306434;7.2406729;0.2510000169277191;1673293886.8082983;27.422475814819336;0.4636784791946411;89.4994888305664
42;1673293886.9864402;47.1306435;7.2406779;0.2850000262260437;1673293887.0020564;29.52587890625;1.329102873802185;89.83528900146484
43;1673293887.16203;47.1306436;7.2406823;0.3140000104904175;1673293887.1766677;31.700504302978516;-0.149124413728714;89.60060119628906
44;1673293887.3760698;47.1306436;7.2406859;0.33900001645088196;1673293887.394599;33.815948486328125;0.40197986364364624;89.7243881225586
45;1673293887.5818565;47.1306436;7.2406885999999995;0.36100003123283386;1673293887.5966053;36.01947784423828;1.27268385887146;89.93489074707031
46;1673293887.784265;47.1306436;7.2406901999999995;0.38100001215934753;1673293887.8008568;38.17837905883789;0.36153513193130493;89.71422576904297
47;1673293887.9935448;47.1306436;7.2406907;0.4050000309944153;1673293888.0081763;40.459903717041016;0.46405619382858276;89.61043548583984
48;1673293888.1956694;47.1306436;7.2406899;0.42600002884864807;1673293888.2084749;42.625877380371094;0.9544764161109924;89.76023864746094
49;1673293888.3865962;47.1306436;7.2406877;0.45000001788139343;1673293888.40514;44.86795425415039;0.5685079097747803;89.73507690429688
50;1673293888.6067798;47.1306435;7.240684099999999;0.4660000205039978;1673293888.6194694;47.01234436035156;0.7276896834373474;89.75682067871094
51;1673293888.847561;47.1306434;7.2406789;0.48000001907348633;1673293888.8622177;48.2845458984375;0.8695733547210693;89.81592559814453
52;1673293889.03328;47.130643299999996;7.2406722;0.48600003123283386;1673293889.0488956;44.38730239868164;0.5795331597328186;89.70642852783203
53;1673293889.226707;47.1306431;7.240664499999999;0.48900002241134644;1673293889.2374425;39.43130111694336;0.5323851108551025;89.63526153564453
54;1673293889.415635;47.130643;7.240656599999999;0.49500003457069397;1673293889.4310987;32.93427276611328;0.40237289667129517;89.61295318603516
55;1673293889.6075265;47.1306429;7.2406488;0.5410000085830688;1673293889.621353;29.761198043823242;0.7496234178543091;89.7508544921875
56;1673293889.860708;47.130642699999996;7.2406418;0.5890000462532043;1673293889.8989153;24.191387176513672;0.0255351010710001;89.6585464477539
57;1673293890.048118;47.130642599999995;7.240635999999999;0.6380000114440918;1673293890.0598295;20.990625381469727;-0.12166048586368561;89.56932830810547
58;1673293890.2125194;47.1306425;7.2406315999999995;0.6860000491142273;1673293890.2232459;20.131040573120117;0.5285369753837585;89.72611236572266
59;1673293890.392285;47.1306424;7.240628399999999;0.7400000095367432;1673293890.405947;20.223812103271484;0.3977963328361511;89.75468444824219
60;1673293890.5772471;47.1306423;7.2406263;0.800000011920929;1673293890.591887;21.316326141357422;-1.5865966081619263;89.19767761230469
61;1673293890.7858324;47.1306423;7.2406251;0.8660000562667847;1673293890.802415;22.919584274291992;0.11521124839782715;89.68698120117188
62;1673293890.991466;47.1306423;7.2406245;0.9450000524520874;1673293891.0070968;24.855329513549805;1.9271490573883057;90.1161880493164
63;1673293891.1908011;47.1306424;7.2406244;1.0320000648498535;1673293891.2064483;26.65530776977539;-1.434155821800232;89.14412689208984
64;1673293891.38833;47.1306424;7.2406245;1.1330000162124634;1673293891.4060085;28.01374626159668;0.6036384701728821;89.7477798461914
65;1673293891.5910423;47.1306424;7.2406245;1.252000093460083;1673293891.6056821;28.955717086791992;2.1543185710906982;90.30110168457031
66;1673293891.7873354;47.1306423;7.2406244;1.3860000371932983;1673293891.8019743;29.464481353759766;-0.7203443050384521;89.50282287597656
67;1673293892.0023303;47.1306422;7.2406242;1.5380001068115234;1673293892.0172412;29.297849655151367;-0.2591019868850708;89.5274658203125
68;1673293892.2548945;47.1306422;7.2406238;1.7030000686645508;1673293892.2666;28.88983726501465;1.0481581687927246;86.95954895019531
69;1673293892.4664013;47.1306423;7.240623299999999;1.880000114440918;1673293892.4771671;28.552501678466797;0.0004393381823319942;86.79434967041016
70;1673293892.6391213;47.1306423;7.240622699999999;2.067000150680542;1673293892.6527848;27.99874496459961;-1.3344459533691406;86.18566131591797
71;1673293892.8298445;47.1306423;7.2406220999999995;2.255000114440918;1673293892.8427587;27.35320281982422;1.7298226356506348;87.01766967773438
72;1673293893.0236926;47.1306423;7.240621699999999;2.445000171661377;1673293893.0383708;27.015949249267578;0.26925474405288696;86.6390380859375
73;1673293893.2144208;47.1306422;7.2406213;2.634000062942505;1673293893.2290633;26.896728515625;-1.544687032699585;85.83161163330078
74;1673293893.401539;47.1306422;7.240621;2.827000141143799;1673293893.4142277;27.178974151611328;1.2403510808944702;86.18959045410156
75;1673293893.609251;47.1306423;7.240620799999999;3.017000198364258;1673293893.624873;27.255308151245117;1.0197113752365112;86.1534194946289
76;1673293893.803255;47.1306423;7.2406207;3.2090001106262207;1673293893.8188689;27.343870162963867;-1.8994535207748413;85.43585205078125
77;1673293893.9926186;47.1306422;7.2406207;3.4040000438690186;1673293894.0082338;27.469205856323242;0.4726106524467468;86.43545532226562
78;1673293894.2244852;47.1306422;7.2406206;3.5980002880096436;1673293894.2357566;27.479822158813477;0.7794843912124634;86.4712142944336
79;1673293894.408485;47.130642099999996;7.2406206;3.7890002727508545;1673293894.4260623;27.703781127929688;-2.338153123855591;85.44807434082031
80;1673293894.6068301;47.1306422;7.2406206;3.9850001335144043;1673293894.6195166;27.736669540405273;-0.15296921133995056;85.93205261230469
81;1673293894.798402;47.1306423;7.2406206;4.177999973297119;1673293894.8120668;27.795412063598633;1.5451563596725464;86.44123077392578
82;1673293894.995679;47.1306424;7.2406206;4.374000072479248;1673293895.0084074;27.83625602722168;-1.191767692565918;85.64290618896484
83;1673293895.1880934;47.1306424;7.2406204999999995;4.571000099182129;1673293895.2037082;27.711658477783203;-0.36960795521736145;85.79017639160156
84;1673293895.4020562;47.1306424;7.2406204999999995;4.764000415802002;1673293895.4177089;27.63869285583496;1.64882230758667;86.4814224243164
85;1673293895.6045578;47.1306423;7.2406204999999995;4.956000328063965;1673293895.622158;27.678070068359375;-1.4951237440109253;85.69987487792969
86;1673293895.8126035;47.1306423;7.2406204;5.151000022888184;1673293895.827285;27.587003707885742;-1.1011416912078857;85.69027709960938
87;1673293896.0039206;47.1306424;7.2406204;5.3470001220703125;1673293896.0175772;27.747562408447266;1.8321853876113892;86.48895263671875
88;1673293896.1856709;47.1306425;7.2406204;5.5410003662109375;1673293896.2022645;27.733034133911133;-0.6681280136108398;85.84469604492188
89;1673293896.4029903;47.130642599999995;7.2406204;5.734000205993652;1673293896.418718;27.670743942260742;-1.5174351930618286;85.57295227050781
90;1673293896.6016934;47.130642599999995;7.2406203;5.929000377655029;1673293896.6163192;27.71019172668457;1.9059375524520874;86.41151428222656
91;1673293896.79901;47.130642599999995;7.2406203;6.121000289916992;1673293896.8126748;27.72955894470215;-0.21674516797065735;85.92436218261719
92;1673293896.998297;47.130642599999995;7.2406203;6.317000389099121;1673293897.0119596;27.62251091003418;-1.5628777742385864;85.51486206054688
93;1673293897.2026358;47.130642599999995;7.2406203;6.517000198364258;1673293897.2163172;27.657806396484375;1.5468285083770752;86.46661376953125
94;1673293897.4050546;47.130642599999995;7.2406203;6.715000152587891;1673293897.4177434;27.790050506591797;0.49495843052864075;86.06547546386719
95;1673293897.5982087;47.130642599999995;7.2406203;6.9110002517700195;1673293897.6139758;27.745594024658203;-1.708154320716858;85.37797546386719
96;1673293897.8021288;47.1306425;7.2406203;7.107000350952148;1673293897.8187501;27.75520896911621;1.1480112075805664;86.21914672851562
97;1673293898.0106783;47.1306425;7.2406201999999995;7.302000522613525;1673293898.023463;27.77580451965332;0.7311850786209106;86.30978393554688
98;1673293898.2030363;47.1306424;7.2406201999999995;7.497000217437744;1673293898.220604;27.6263370513916;-1.9391025304794312;85.58390808105469
99;1673293898.3979516;47.1306423;7.2406201;7.689000129699707;1673293898.4126265;27.509593963623047;0.6054331660270691;86.17494201660156
100;1673293898.6134791;47.1306424;7.2406201;7.884000301361084;1673293898.625191;27.646224975585938;0.9836103916168213;86.31590270996094
101;1673293898.8157947;47.1306423;7.24062;8.081000328063965;1673293898.8294685;27.644351959228516;-1.8903921842575073;85.49562072753906
102;1673293899.008298;47.1306422;7.24062;8.279000282287598;1673293899.0190613;27.557025909423828;0.03126086667180061;86.0157241821289
103;1673293899.1880941;47.1306423;7.24062;8.483000755310059;1673293899.2007792;27.616968154907227;1.2986412048339844;86.42909240722656
104;1673293899.397252;47.1306423;7.24062;8.682000160217285;1673293899.4118924;27.59726333618164;-1.5365004539489746;85.59986877441406
105;1673293899.594343;47.1306423;7.24062;8.883000373840332;1673293899.6110947;27.62383460998535;-0.18111951649188995;85.87458038330078
106;1673293899.791501;47.1306423;7.24062;9.085000038146973;1673293899.8061452;27.651893615722656;1.7799745798110962;86.445068359375
107;1673293899.986877;47.1306423;7.24062;9.290000915527344;1673293900.0015068;27.60681915283203;-0.9674763083457947;85.73165893554688
108;1673293900.1832054;47.1306423;7.2406201;9.497000694274902;1673293900.197985;27.679927825927734;-0.7290331721305847;85.70367431640625
109;1673293900.3904433;47.1306423;7.2406201;9.70300006866455;1673293900.4052358;27.72734832763672;1.742917776107788;86.40203857421875
110;1673293900.5971928;47.1306422;7.2406201;9.904000282287598;1673293900.6157365;27.69182014465332;-0.9296730160713196;85.7904052734375
111;1673293900.8168697;47.1306422;7.2406201;10.117000579833984;1673293900.8324878;27.74106788635254;-1.3304592370986938;85.75558471679688
112;1673293900.9982545;47.1306422;7.2406198999999996;10.394000053405762;1673293901.0128956;26.66742706298828;0.7856391668319702;86.1249771118164
113;1673293901.201626;47.1306423;7.240619499999999;10.771000862121582;1673293901.2175565;28.766416549682617;0.5644700527191162;86.225830078125
114;1673293901.402092;47.1306423;7.240619;11.171000480651855;1673293901.416731;27.411104202270508;-1.397403597831726;85.65090942382812
115;1673293901.590549;47.1306422;7.2406185;11.583000183105469;1673293901.60621;26.169626235961914;0.5577279925346375;86.09668731689453
116;1673293901.7987626;47.1306422;7.2406179999999996;11.996000289916992;1673293901.8134904;25.654617309570312;0.9601994752883911;86.30393981933594
117;1673293902.012678;47.1306423;7.2406177;12.395000457763672;1673293902.0284247;25.14257049560547;-1.63327157497406;85.45095825195312
118;1673293902.2042766;47.1306423;7.240617599999999;12.78700065612793;1673293902.216007;25.240924835205078;0.4886108338832855;85.9541244506836
119;1673293902.4113433;47.1306423;7.2406178;13.175000190734863;1673293902.4255629;25.561067581176758;1.3538885116577148;86.28408813476562
120;1673293902.6022675;47.1306423;7.2406179999999996;13.563000679016113;1673293902.619833;25.963359832763672;-1.6734105348587036;85.5354995727539
121;1673293902.8179266;47.1306423;7.2406182999999995;13.950000762939453;1673293902.8355634;26.440303802490234;0.2310308963060379;86.02687072753906
122;1673293903.029606;47.1306423;7.2406185999999995;14.334000587463379;1673293903.044249;26.842477798461914;1.130487084388733;86.3429183959961
123;1673293903.2076564;47.1306423;7.240618899999999;14.709000587463379;1673293903.2213237;26.98444366455078;-1.4135000705718994;85.66870880126953
124;1673293903.392729;47.1306423;7.2406191;15.085000991821289;1673293903.4073799;27.352306365966797;-0.04116808995604515;85.94009399414062
125;1673293903.6039116;47.1306424;7.2406193;15.470000267028809;1673293903.6175919;27.335784912109375;1.5421618223190308;86.43789672851562
126;1673293903.8044891;47.1306424;7.2406194;15.85400104522705;1673293903.8201036;27.41457748413086;-1.2157355546951294;85.66619873046875
127;1673293904.0099258;47.1306423;7.240619499999999;16.23900032043457;1673293904.024714;27.272523880004883;-0.5300810933113098;85.79882049560547
128;1673293904.2240262;47.1306423;7.240619499999999;16.625;1673293904.2387645;27.32809829711914;1.5426921844482422;86.39830017089844
129;1673293904.4106438;47.1306423;7.2406194;17.013999938964844;1673293904.4233532;27.011215209960938;-0.8832117319107056;85.81841278076172
130;1673293904.6056232;47.1306423;7.2406193;17.395999908447266;1673293904.6192865;26.79253387451172;-0.937375545501709;85.6580810546875
131;1673293904.8076782;47.1306424;7.240619199999999;17.785001754760742;1673293904.8213434;26.78692054748535;1.8329803943634033;86.31620025634766
132;1673293905.01284;47.1306424;7.240619199999999;18.17500114440918;1673293905.025513;26.735937118530273;-0.22476433217525482;85.82352447509766
133;1673293905.2143874;47.1306424;7.240619199999999;18.565000534057617;1673293905.23003;26.693344116210938;-1.0962244272232056;85.5859603881836
134;1673293905.3872066;47.1306424;7.2406193;18.959001541137695;1673293905.4008715;26.818038940429688;1.6247475147247314;86.32577514648438
135;1673293905.579873;47.1306424;7.2406193;19.350000381469727;1673293905.595054;26.77937126159668;0.6444655656814575;86.15760040283203
136;1673293905.7852402;47.1306424;7.2406194;19.73400115966797;1673293905.801825;26.835376739501953;-1.187597632408142;85.51982879638672
137;1673293905.9797266;47.1306424;7.2406194;20.125001907348633;1673293905.9954867;26.77672004699707;1.6904324293136597;86.36015319824219
138;1673293906.187617;47.1306424;7.2406194;20.516000747680664;1673293906.2022967;26.92137908935547;0.32271796464920044;86.072021484375
139;1673293906.4268458;47.1306422;7.240619499999999;20.904001235961914;1673293906.4414904;26.931108474731445;-1.7647883892059326;85.52407836914062
140;1673293906.6184125;47.1306422;7.2406196;21.293001174926758;1673293906.6369555;26.871797561645508;0.9951984286308289;86.19409942626953
141;1673293906.820826;47.1306422;7.2406196;21.684001922607422;1673293906.8345041;26.9951229095459;0.3420508801937103;86.14192199707031
142;1673293907.078707;47.1306422;7.2406196;22.073001861572266;1673293907.0934231;26.824094772338867;-1.6492395401000977;85.51123046875
143;1673293907.2663834;47.130642099999996;7.2406196;22.455001831054688;1673293907.2800467;26.961402893066406;0.8625122308731079;86.15271759033203
144;1673293907.4890203;47.1306422;7.2406196;22.845001220703125;1673293907.4997556;26.9031925201416;0.8962605595588684;86.26454162597656
145;1673293907.6687942;47.1306422;7.2406196;23.238000869750977;1673293907.6865165;26.882131576538086;-1.6720526218414307;85.54035186767578
146;1673293907.9310615;47.130642099999996;7.2406197;23.631000518798828;1673293907.9699528;26.87838363647461;0.4767363965511322;86.01990509033203
147;1673293908.1123831;47.1306422;7.2406197;24.0260009765625;1673293908.1281805;26.934555053710938;1.1995716094970703;86.30049133300781
148;1673293908.295372;47.1306422;7.2406197;24.420001983642578;1673293908.3100123;26.95841407775879;-1.4679245948791504;85.63724517822266
149;1673293908.4843876;47.1306422;7.2406197;24.80500030517578;1673293908.4952712;26.844072341918945;0.1752038151025772;85.99281311035156
150;1673293908.6498358;47.1306422;7.2406197;25.19500160217285;1673293908.6640298;26.89032554626465;1.4662467241287231;86.30599212646484
151;1673293908.8296769;47.1306422;7.240619799999999;25.588001251220703;1673293908.8443408;26.940576553344727;-1.5100189447402954;85.5762939453125
152;1673293909.0254211;47.1306422;7.240619799999999;25.98400115966797;1673293909.0401332;26.95386505126953;-0.6168957948684692;85.78362274169922
153;1673293909.2189484;47.1306422;7.2406198999999996;26.38300132751465;1673293909.237496;27.045812606811523;1.6905975341796875;86.40370178222656
154;1673293909.4459162;47.1306423;7.2406198999999996;26.782001495361328;1673293909.457779;26.973894119262695;-0.8762723207473755;85.7782211303711
155;1673293909.6619093;47.1306423;7.2406198999999996;27.178001403808594;1673293909.6775272;26.953317642211914;-0.7522072792053223;85.74730682373047
156;1673293909.8887672;47.1306423;7.240619799999999;27.565000534057617;1673293909.9014478;26.76141929626465;1.7303234338760376;86.50679016113281
157;1673293910.0900135;47.1306424;7.240619799999999;27.96200180053711;1673293910.1017356;26.935585021972656;-0.2732064723968506;85.96917724609375
158;1673293910.2908895;47.1306424;7.2406198999999996;28.35900115966797;1673293910.3006494;26.817157745361328;-1.1520256996154785;85.57366943359375
159;1673293910.4628048;47.1306424;7.2406198999999996;28.756000518798828;1673293910.4774446;26.90450668334961;1.7110222578048706;86.29338836669922
160;1673293910.6530488;47.1306425;7.2406198999999996;29.155000686645508;1673293910.6670008;26.917707443237305;0.3471139371395111;86.01769256591797
161;1673293910.8532178;47.1306425;7.2406198999999996;29.556001663208008;1673293910.8661394;26.746644973754883;-1.079655647277832;85.51653289794922
162;1673293911.0341582;47.1306425;7.240619799999999;29.94500160217285;1673293911.0498042;26.755739212036133;1.546042561531067;86.2480697631836
163;1673293911.241264;47.1306425;7.2406198999999996;30.339000701904297;1673293911.2560053;26.936752319335938;0.5660321712493896;86.09855651855469
164;1673293911.434779;47.1306425;7.2406198999999996;30.735000610351562;1673293911.4474845;26.87694549560547;-1.5385383367538452;85.49555969238281
165;1673293911.6375458;47.1306425;7.2406198999999996;31.13300132751465;1673293911.6524527;26.948850631713867;1.2355345487594604;86.21957397460938
166;1673293911.8490143;47.1306425;7.2406198999999996;31.532001495361328;1673293911.863223;27.001766204833984;0.9693950414657593;86.21843719482422
167;1673293912.0546832;47.1306425;7.24062;31.931001663208008;1673293912.075338;26.96786880493164;-1.3490195274353027;85.52435302734375
168;1673293912.2541707;47.1306425;7.24062;32.3280029296875;1673293912.2673988;26.97866439819336;0.7120603322982788;86.13542175292969
169;1673293912.453574;47.1306425;7.24062;32.71500015258789;1673293912.4682617;26.83636474609375;1.3702290058135986;86.35279846191406
170;1673293912.6422129;47.1306424;7.24062;33.10900115966797;1673293912.6569052;26.906278610229492;-1.4462171792984009;85.65731048583984
171;1673293912.8326826;47.1306424;7.24062;33.51100158691406;1673293912.8473232;26.89350128173828;0.33565497398376465;86.01072692871094
172;1673293913.0311575;47.1306425;7.2406198999999996;33.91200256347656;1673293913.0487354;26.931482315063477;1.8594130277633667;86.45803833007812
173;1673293913.2531705;47.130642599999995;7.2406198999999996;34.314002990722656;1673293913.26833;26.744749069213867;-1.0238425731658936;85.61859130859375
174;1673293913.465479;47.1306425;7.2406198999999996;34.7130012512207;1673293913.4823446;26.797622680664062;0.10661600530147552;85.89631652832031
175;1673293913.6767185;47.1306425;7.2406198999999996;35.10000228881836;1673293913.6923342;26.85434913635254;1.7592538595199585;86.39216613769531
176;1673293913.8712397;47.1306424;7.240619799999999;35.49100112915039;1673293913.886862;26.786865234375;-0.8464102745056152;85.7699203491211
177;1673293914.0540774;47.1306424;7.240619799999999;35.887001037597656;1673293914.0682833;26.74323081970215;-0.7578933835029602;85.73331451416016
178;1673293914.256894;47.1306424;7.240619799999999;36.28200149536133;1673293914.2735217;26.7847957611084;1.8404861688613892;86.40511322021484
179;1673293914.45867;47.1306425;7.240619799999999;36.67500305175781;1673293914.4728665;26.87523651123047;-0.4418797194957733;85.81967163085938
180;1673293914.664929;47.1306425;7.2406198999999996;37.07100296020508;1673293914.683226;26.77866554260254;-0.7863950133323669;85.63920593261719
181;1673293914.8473465;47.1306425;7.2406198999999996;37.46600341796875;1673293914.8590794;26.914012908935547;1.8097244501113892;86.3517074584961
182;1673293915.0428438;47.1306425;7.2406198999999996;37.85100173950195;1673293915.0574784;26.760587692260742;-0.17566773295402527;86.02239990234375
183;1673293915.2465785;47.1306425;7.240619799999999;38.24700164794922;1673293915.2612417;26.720705032348633;-1.1531041860580444;85.68545532226562
184;1673293915.449555;47.1306425;7.240619799999999;38.64400100708008;1673293915.464198;26.729476928710938;1.7498748302459717;86.31904602050781
185;1673293915.6587293;47.130642599999995;7.240619799999999;39.0420036315918;1673293915.6733212;26.791488647460938;0.5206740498542786;86.07891082763672
186;1673293915.8720052;47.130642599999995;7.2406198999999996;39.439002990722656;1673293915.885768;26.783597946166992;-1.2720673084259033;85.5567626953125
187;1673293916.053905;47.130642599999995;7.2406198999999996;39.832000732421875;1673293916.0665834;26.808347702026367;1.1992360353469849;86.22100067138672
188;1673293916.2504275;47.130642599999995;7.2406198999999996;40.21500015258789;1673293916.26611;26.831066131591797;0.8576363921165466;86.13660430908203
189;1673293916.4465582;47.1306425;7.2406198999999996;40.60100173950195;1673293916.4631567;26.75264549255371;-1.4240285158157349;85.52950286865234
190;1673293916.6448386;47.1306425;7.24062;40.99500274658203;1673293916.6634405;26.882980346679688;0.7875800728797913;86.1314697265625
191;1673293916.8508503;47.130642599999995;7.24062;41.39400100708008;1673293916.8656447;26.8731689453125;1.4140956401824951;86.30709838867188
192;1673293917.0547047;47.130642599999995;7.24062;41.79600143432617;1673293917.069934;26.88066864013672;-1.2105014324188232;85.65750885009766
193;1673293917.267072;47.130642599999995;7.24062;42.19700241088867;1673293917.2807803;26.742238998413086;0.4840250015258789;86.01939392089844
194;1673293917.482858;47.130642599999995;7.24062;42.595001220703125;1673293917.4965458;26.804649353027344;1.8326133489608765;86.36953735351562
195;1673293917.6732032;47.130642599999995;7.24062;42.980003356933594;1673293917.6878424;26.796594619750977;-1.1037200689315796;85.69534301757812
196;1673293917.842177;47.130642599999995;7.24062;43.37000274658203;1673293917.8568704;26.711912155151367;0.2036428451538086;85.95166015625
197;1673293918.0512338;47.130642699999996;7.24062;43.76100158691406;1673293918.0649002;26.795696258544922;2.0562095642089844;86.41936492919922
198;1673293918.254798;47.130642699999996;7.24062;44.159000396728516;1673293918.26847;26.846471786499023;-0.7758122086524963;85.68407440185547
199;1673293918.4528055;47.130642699999996;7.2406201;44.55500030517578;1673293918.4694629;26.815929412841797;-0.16873252391815186;85.76358795166016
200;1673293918.659713;47.130642599999995;7.2406201;44.9530029296875;1673293918.6729436;26.873279571533203;2.00626802444458;86.30406188964844
201;1673293918.8555875;47.130642599999995;7.2406201;45.34100341796875;1673293918.8682785;26.883005142211914;-0.7086642384529114;85.67292022705078
202;1673293919.0655656;47.130642599999995;7.2406201;45.73800277709961;1673293919.0860913;26.827064514160156;-0.5024040341377258;85.66482543945312
203;1673293919.305664;47.130642599999995;7.2406201;46.13800048828125;1673293919.3232687;26.732362747192383;2.1508493423461914;86.4380111694336
204;1673293919.5100765;47.130642599999995;7.24062;46.53900146484375;1673293919.5247068;26.793670654296875;0.1917235106229782;86.04136657714844
205;1673293919.6942558;47.1306425;7.2406201;46.939002990722656;1673293919.7060204;26.824832916259766;-1.002482533454895;85.70166015625
206;1673293919.885703;47.1306425;7.2406201;47.34400177001953;1673293919.9033065;26.797773361206055;1.5223370790481567;86.31149291992188
207;1673293920.095985;47.1306424;7.2406201;47.74400329589844;1673293920.1116877;26.84673500061035;0.4312851130962372;86.0951919555664
208;1673293920.2937145;47.1306424;7.2406201;48.12900161743164;1673293920.3083613;26.661407470703125;-0.8002551794052124;85.49766540527344
209;1673293920.5089648;47.1306424;7.2406201999999995;48.474002838134766;1673293920.5216513;27.13156509399414;1.308565616607666;86.16324615478516
210;1673293920.6923492;47.1306424;7.2406204;48.77300262451172;1673293920.7040617;26.9028377532959;1.165891170501709;86.40982055664062
211;1673293920.8917124;47.1306423;7.240620799999999;49.0260009765625;1673293920.9044476;27.259143829345703;-1.4484230279922485;85.5616683959961
212;1673293921.08909;47.1306422;7.2406212;49.24100112915039;1673293921.1056824;27.61113739013672;0.63206547498703;86.21337127685547
213;1673293921.2981615;47.1306422;7.2406216;49.413002014160156;1673293921.3332922;33.10237503051758;6.657339096069336;85.42920684814453
214;1673293921.530167;47.1306418;7.2406216;49.518001556396484;1673293921.5424812;40.610450744628906;3.8427577018737793;73.93685150146484
215;1673293921.7070055;47.130640799999995;7.240621099999999;49.592002868652344;1673293921.7220287;26.92340660095215;-10.355133056640625;62.52627944946289
216;1673293921.9133563;47.130639699999996;7.2406204;49.65900421142578;1673293921.9272022;30.855592727661133;-13.327868461608887;53.45344161987305
217;1673293922.1055496;47.1306386;7.240619499999999;49.71000289916992;1673293922.120115;26.42768669128418;-17.397417068481445;44.38235855102539
218;1673293922.2880125;47.1306374;7.2406182999999995;49.75600051879883;1673293922.3024437;21.1076602935791;-21.833274841308594;35.0892448425293
219;1673293922.4790382;47.1306363;7.2406172;49.79600143432617;1673293922.4960575;15.263289451599121;-25.76984214782715;25.645143508911133
220;1673293922.6859457;47.130635299999994;7.240615999999999;49.83000183105469;1673293922.697247;9.039351463317871;-28.275663375854492;15.920977592468262
221;1673293922.8872275;47.1306346;7.240615;49.84700393676758;1673293922.9002075;3.4923014640808105;-29.268882751464844;6.3841447830200195
222;1673293923.0679739;47.130634099999995;7.240614099999999;49.87000274658203;1673293923.0829809;-1.6670684814453125;-28.98459243774414;-3.011518955230713
223;1673293923.2618878;47.1306338;7.2406133;49.89200210571289;1673293923.2751093;-6.195520877838135;-27.569929122924805;-12.114482879638672
224;1673293923.4601603;47.130633599999996;7.2406125999999995;49.90700149536133;1673293923.4783123;-10.502283096313477;-24.823713302612305;-21.117521286010742
225;1673293923.6781535;47.130633599999996;7.240612199999999;49.923004150390625;1673293923.692633;-14.110965728759766;-22.400514602661133;-29.80544090270996
226;1673293923.866261;47.130633599999996;7.240611899999999;49.94200134277344;1673293923.8828735;-16.381921768188477;-21.14988136291504;-38.56303405761719
227;1673293924.062264;47.1306337;7.2406117;49.94900131225586;1673293924.0749545;-18.501134872436523;-20.93601417541504;-46.92728042602539
228;1673293924.2493615;47.130633599999996;7.2406117;49.96200180053711;1673293924.2655132;-20.642642974853516;-19.816631317138672;-51.99285888671875
229;1673293924.4467032;47.130633499999995;7.2406117;49.980003356933594;1673293924.4614983;-20.75824737548828;-21.506759643554688;-48.755401611328125
230;1673293924.6505194;47.1306334;7.2406117;49.996002197265625;1673293924.6652062;-20.313915252685547;-21.629674911499023;-45.81354904174805
231;1673293924.8597143;47.1306333;7.2406117;50.009002685546875;1673293924.8821638;-20.576316833496094;-19.792640686035156;-45.58779525756836
232;1673293925.073287;47.1306333;7.2406117;50.0160026550293;1673293925.0900724;-20.623775482177734;-18.396934509277344;-45.65483093261719
233;1673293925.2700367;47.1306333;7.2406117;50.02300262451172;1673293925.2839582;-20.015962600708008;-19.016504287719727;-45.268524169921875
234;1673293925.4727876;47.1306334;7.240611599999999;50.01700210571289;1673293925.4875674;-19.08479118347168;-21.080102920532227;-44.968448638916016
235;1673293925.660802;47.130633499999995;7.240611599999999;50.01900100708008;1673293925.6744735;-18.84158706665039;-23.140159606933594;-44.44418716430664
236;1673293925.8515656;47.130633499999995;7.240611599999999;50.02400207519531;1673293925.8662868;-18.92810821533203;-23.893857955932617;-44.376888275146484
237;1673293926.0583522;47.130633499999995;7.240611599999999;50.02700424194336;1673293926.0740602;-19.3675537109375;-23.255962371826172;-44.5135383605957
238;1673293926.2619886;47.130633499999995;7.2406115;50.02800369262695;1673293926.276614;-21.643695831298828;-20.433353424072266;-45.067710876464844
239;1673293926.4459827;47.1306337;7.2406112;50.03200149536133;1673293926.4615479;-39.24147033691406;-16.11979103088379;-45.78546905517578
240;1673293926.6902995;47.130634799999996;7.2406095;50.03400421142578;1673293926.704854;-51.647274017333984;-11.698537826538086;-46.89136505126953
241;1673293926.8900685;47.1306376;7.240606;50.0410041809082;1673293926.9060428;-59.513893127441406;-9.368223190307617;-48.312923431396484
242;1673293927.0950558;47.1306425;7.240600199999999;50.03700256347656;1673293927.1112077;-58.44215393066406;-7.3332390785217285;-50.69770431518555
243;1673293927.316295;47.130649299999995;7.240592599999999;50.0260009765625;1673293927.3290725;-53.061073303222656;-6.729795455932617;-51.26894760131836
244;1673293927.5141792;47.1306574;7.2405839;50.00300216674805;1673293927.5290413;-51.84300994873047;-8.816587448120117;-50.16246795654297
245;1673293927.7112758;47.1306667;7.240574;49.98200225830078;1673293927.726138;-54.33232116699219;-10.3373384475708;-49.40639877319336
246;1673293927.892042;47.130676799999996;7.240563;49.95900344848633;1673293927.9101365;-52.254974365234375;-10.818851470947266;-49.1118049621582
247;1673293928.0939515;47.130687599999995;7.2405509;49.91800308227539;1673293928.1053545;-49.950439453125;-11.05628490447998;-49.318485260009766
248;1673293928.2894685;47.1306988;7.2405383;49.884002685546875;1673293928.3053658;-48.117164611816406;-11.092348098754883;-49.634273529052734
249;1673293928.4910452;47.1307103;7.2405254;49.85600280761719;1673293928.505082;-48.011314392089844;-9.865547180175781;-51.849266052246094
250;1673293928.6970923;47.130722;7.240512;49.827003479003906;1673293928.713082;-47.56703186035156;-9.786296844482422;-51.76353073120117
251;1673293928.903958;47.130733799999994;7.2404984;49.80800247192383;1673293928.9172578;-47.7583122253418;-10.18310832977295;-51.232479095458984
252;1673293929.1020489;47.1307457;7.240484599999999;49.797000885009766;1673293929.1168287;-47.81760025024414;-10.361775398254395;-51.16628646850586
253;1673293929.3034682;47.1307575;7.2404703999999995;49.78400421142578;1673293929.3181858;-47.44770050048828;-10.637460708618164;-51.114349365234375
254;1673293929.4850528;47.1307694;7.240456099999999;49.77700424194336;1673293929.4990597;-47.12959289550781;-11.102370262145996;-51.04884338378906
255;1673293929.6799233;47.1307814;7.240441499999999;49.76700210571289;1673293929.6932805;-46.8084602355957;-11.74520492553711;-51.101261138916016
256;1673293929.8865614;47.1307933;7.2404268;49.7650032043457;1673293929.9050894;-46.704551696777344;-12.24057388305664;-51.21065139770508
257;1673293930.090079;47.130805099999996;7.2404119;49.76100158691406;1673293930.104104;-46.64247131347656;-12.690560340881348;-51.25703811645508
258;1673293930.2939718;47.1308168;7.2403968;49.759002685546875;1673293930.306116;-46.26604080200195;-13.312994956970215;-51.28643798828125
259;1673293930.5011132;47.130828199999996;7.2403816;49.762001037597656;1673293930.518092;-46.06965637207031;-14.601906776428223;-51.187538146972656
260;1673293930.7101936;47.1308393;7.2403661999999995;49.76700210571289;1673293930.7240472;-46.204959869384766;-15.716991424560547;-51.46962356567383
261;1673293930.9371011;47.1308503;7.2403505;49.772003173828125;1673293930.9478786;-46.310813903808594;-15.04489803314209;-51.97820281982422
262;1673293931.117422;47.130860999999996;7.2403346;49.7760009765625;1673293931.1296792;-45.34678268432617;-14.617874145507812;-51.869606018066406
263;1673293931.2871943;47.1308715;7.2403186999999996;49.77800369262695;1673293931.299907;-44.87950897216797;-14.689878463745117;-51.734336853027344
264;1673293931.4785166;47.130881699999996;7.2403026;49.77800369262695;1673293931.4951134;-44.64643478393555;-15.595547676086426;-51.456058502197266
265;1673293931.680932;47.1308917;7.2402865;49.78300094604492;1673293931.6936188;-44.863773345947266;-16.633440017700195;-51.61440658569336
266;1673293931.8771145;47.1309014;7.2402703;49.7910041809082;1673293931.891311;-45.29346466064453;-17.236839294433594;-51.91800308227539
267;1673293932.0739574;47.130910799999995;7.2402541;49.814002990722656;1673293932.0896213;-23.805606842041016;-10.824056625366211;-53.4985466003418
268;1673293932.274062;47.1309195;7.24024;49.84600067138672;1673293932.289997;20.81570053100586;2.2860817909240723;-50.19957733154297
269;1673293932.4916499;47.1309271;7.2402299;49.72200393676758;1673293932.5053222;32.004051208496094;19.237178802490234;-59.83806228637695
270;1673293932.68222;47.1309337;7.2402241;49.39500045776367;1673293932.6978364;17.12435531616211;3.442847490310669;-52.358978271484375
271;1673293932.8754902;47.1309391;7.2402231;49.02900314331055;1673293932.8887353;14.663238525390625;1.7129415273666382;-48.037349700927734
272;1673293933.0643902;47.1309433;7.2402264;48.7140007019043;1673293933.0811508;14.636990547180176;-0.3121359646320343;-47.65560531616211
273;1673293933.270427;47.1309463;7.2402334999999995;48.493003845214844;1673293933.2856238;12.781877517700195;2.905585765838623;-49.3883171081543
274;1673293933.4665334;47.1309489;7.2402418;47.993003845214844;1673293933.4812143;16.297168731689453;18.15232276916504;-52.597835540771484
275;1673293933.6698294;47.1309514;7.240250499999999;47.13100051879883;1673293933.6850066;24.49233055114746;33.789608001708984;-52.694679260253906
276;1673293933.8812213;47.1309538;7.240259399999999;45.89800262451172;1673293933.8973823;33.509521484375;45.89744567871094;-49.24592208862305
277;1673293934.0902188;47.130956;7.2402684;44.28900146484375;1673293934.109041;40.45893096923828;48.869686126708984;-45.524478912353516
278;1673293934.2811604;47.130958199999995;7.2402773;42.30900192260742;1673293934.2934325;43.175628662109375;37.34160232543945;-47.371116638183594
279;1673293934.481147;47.1309604;7.240285999999999;39.94000244140625;1673293934.4965045;37.81107711791992;13.237994194030762;-54.466827392578125
280;1673293934.6788185;47.130962499999995;7.2402947;37.19300079345703;1673293934.6930287;22.55618667602539;-10.438480377197266;-57.995357513427734
281;1673293934.9040797;47.130964899999995;7.240303399999999;34.06100082397461;1673293934.9238865;4.179130554199219;-23.510915756225586;-55.430747985839844
282;1673293935.109262;47.130967299999995;7.2403125;30.551000595092773;1673293935.1261053;-8.711647987365723;-21.114994049072266;-53.336116790771484
283;1673293935.3251972;47.130969799999995;7.2403219;26.656002044677734;1673293935.3359435;-10.829928398132324;-3.347663164138794;-56.04667663574219
284;1673293935.5075295;47.130972199999995;7.2403317;22.369001388549805;1673293935.5309563;0.9140247106552124;18.28307342529297;-57.72180938720703
285;1673293935.734314;47.1309745;7.2403414999999995;17.694000244140625;1673293935.780728;16.96910285949707;27.584989547729492;-54.05678176879883
286;1673293936.0185313;47.1309766;7.2403509999999995;12.631000518798828;1673293936.0312188;27.088577270507812;17.80734634399414;-52.40555191040039
287;1673293936.2013445;47.1309786;7.240360099999999;7.199000358581543;1673293936.2111044;22.498533248901367;-4.983852386474609;-55.42060089111328
288;1673293936.3482852;47.130980799999996;7.2403691;1.3890000581741333;1673293936.3599977;5.938694477081299;-18.588050842285156;-54.331809997558594
289;1673293936.5106695;47.1309766;7.240371;0.4970000088214874;1673293936.5233576;12.907319068908691;-1.5121761560440063;-53.449520111083984
290;1673293936.6964881;47.1309699;7.2403695;0.49900001287460327;1673293936.7093813;8.073123931884766;0.32350388169288635;-53.341949462890625
291;1673293936.8810132;47.1309629;7.2403682;0.47700002789497375;1673293936.894755;9.044855117797852;0.6050536036491394;-53.6141242980957
292;1673293937.07778;47.1309555;7.240367399999999;0.4570000171661377;1673293937.0933912;9.104494094848633;0.8342075943946838;-53.62650680541992
293;1673293937.2690005;47.130949099999995;7.2403676;0.43400001525878906;1673293937.2856019;9.027321815490723;0.7994211912155151;-53.63764572143555
294;1673293937.4867637;47.1309438;7.240368699999999;0.4140000343322754;1673293937.5001051;8.91844367980957;0.7977089881896973;-53.65330505371094
295;1673293937.6896415;47.130939399999995;7.240370599999999;0.39900001883506775;1673293937.73483;8.81758975982666;0.8674489855766296;-53.60027313232422
296;1673293937.9392133;47.1309362;7.240373099999999;0.39000001549720764;1673293937.9528732;8.64234733581543;0.9923703074455261;-53.56169509887695
297;1673293938.1188846;47.130933899999995;7.2403759999999995;0.38600000739097595;1673293938.1331322;8.516261100769043;1.121731162071228;-53.4669075012207
298;1673293938.3072703;47.1309328;7.2403792;0.38600000739097595;1673293938.3209567;8.297481536865234;1.297303557395935;-53.35671615600586
299;1673293938.5033507;47.1309294;7.240383;0.38100001215934753;1673293938.5179904;8.278375625610352;1.2653145790100098;-53.338130950927734
300;1673293938.6979651;47.130929099999996;7.2403865;0.39000001549720764;1673293938.71359;7.9907145500183105;1.5117005109786987;-53.183326721191406
301;1673293938.897281;47.1309305;7.240389899999999;0.406000018119812;1673293938.9139063;7.711740016937256;1.7425774335861206;-53.05583572387695
302;1673293939.0855098;47.1309328;7.2403932;0.4240000247955322;1673293939.1001945;7.425272464752197;1.9214247465133667;-52.908935546875
303;1673293939.3053691;47.1309356;7.240396199999999;0.44200003147125244;1673293939.317081;7.148721694946289;2.101581335067749;-52.79511260986328
304;1673293939.5395617;47.1309386;7.240399099999999;0.45600003004074097;1673293939.5542045;6.850583076477051;2.2535717487335205;-52.71245193481445
305;1673293939.7308033;47.1309383;7.2404037;0.4580000340938568;1673293939.7416503;6.793984413146973;2.2430403232574463;-52.7243537902832
306;1673293939.9149063;47.1309404;7.2404066;0.4700000286102295;1673293939.9295402;6.5064544677734375;2.358920097351074;-52.64180374145508
307;1673293940.111951;47.1309435;7.2404088;0.4820000231266022;1673293940.1256118;6.188958168029785;2.523132085800171;-52.558231353759766
308;1673293940.3104355;47.1309468;7.240410499999999;0.4960000216960907;1673293940.3221483;5.886788368225098;2.620609998703003;-52.50528335571289
309;1673293940.5126092;47.13095;7.240412;0.5049999952316284;1673293940.5252979;5.605987071990967;2.677074909210205;-52.45868682861328
310;1673293940.6928587;47.130953;7.240413299999999;0.5120000243186951;1673293940.709052;5.340170383453369;2.749089479446411;-52.4124641418457
311;1673293940.8944829;47.130955799999995;7.240414599999999;0.5139999985694885;1673293940.907174;5.119340896606445;2.8024792671203613;-52.399627685546875
312;1673293941.102811;47.130956;7.2404188;0.5080000162124634;1673293941.116461;4.982116222381592;2.868074417114258;-52.396217346191406
313;1673293941.3149078;47.130957699999996;7.2404207;0.5020000338554382;1673293941.330535;4.700654029846191;2.739600658416748;-52.36870193481445
314;1673293941.557068;47.1309599;7.2404215;0.49900001287460327;1673293941.5737116;4.478796482086182;2.7633488178253174;-52.20326232910156
315;1673293941.7347698;47.1309622;7.2404218;0.49500003457069397;1673293941.74942;4.2031755447387695;2.479088068008423;-52.07939529418945
316;1673293941.9225914;47.130964399999996;7.240421899999999;0.492000013589859;1673293941.9372478;3.905719757080078;2.427546739578247;-51.905006408691406
317;1673293942.1218545;47.1309664;7.2404218;0.48500001430511475;1673293942.134191;3.6942949295043945;2.3546457290649414;-51.776580810546875
318;1673293942.3390036;47.130967;7.2404250999999995;0.47300001978874207;1673293942.3528235;3.63446044921875;2.333306074142456;-51.624691009521484
319;1673293942.5350106;47.1309684;7.240425999999999;0.46400001645088196;1673293942.5486813;3.3919718265533447;2.3523244857788086;-51.5239372253418
320;1673293942.7284298;47.1309701;7.2404256;0.45900002121925354;1673293942.7422495;3.169922113418579;2.3461148738861084;-51.41866683959961
321;1673293942.917808;47.1309719;7.2404246;0.45600003004074097;1673293942.9415355;2.948146343231201;2.376173973083496;-51.3452033996582
322;1673293943.1101515;47.1309737;7.2404234;0.45000001788139343;1673293943.1208932;2.7270097732543945;2.3819947242736816;-51.27883529663086
323;1673293943.2975338;47.130975299999996;7.240422199999999;0.4410000145435333;1673293943.314131;2.4508140087127686;1.953539252281189;-51.21597671508789
324;1673293943.534143;47.1309768;7.2404211;0.4280000329017639;1673293943.5644188;2.2529287338256836;1.8457754850387573;-51.18335723876953
325;1673293943.7301605;47.1309776;7.2404234999999995;-0.017000000923871994;1673293943.7434185;2.2034525871276855;1.8325902223587036;-51.08663558959961
326;1673293943.920235;47.1309788;7.2404231999999995;-0.03200000151991844;1673293943.9332292;2.050302267074585;1.7577970027923584;-51.0510368347168
327;1673293944.106354;47.13098;7.2404218;-0.04800000041723251;1673293944.123245;1.848004937171936;1.7035411596298218;-51.08496856689453
328;1673293944.2984989;47.130981299999995;7.240419999999999;-0.06300000101327896;1673293944.313277;1.6706655025482178;1.664637804031372;-51.07474899291992
