;pos_time;latitude;longitude;altitude;alt_time;pitch;roll;yaw
0;1673292095.46868;47.1306424;7.2406201;-0.010000000707805157;1673292095.5087276;0.4045666456222534;-0.29638293385505676;90.3986587524414
1;1673292095.6706333;47.1306424;7.2406201;-0.010000000707805157;1673292095.7115242;0.17768605053424835;-0.2991989552974701;90.34471893310547
2;1673292095.8664482;47.1306425;7.2406201;-0.012000000104308128;1673292095.906689;0.32195308804512024;-0.5690051913261414;90.51368713378906
3;1673292096.058746;47.1306425;7.2406201;-0.014000000432133675;1673292096.097547;0.264481782913208;-0.19641342759132385;90.42066192626953
4;1673292096.2458794;47.1306425;7.2406201999999995;-0.014000000432133675;1673292096.2847428;-0.07890477031469345;-0.2427409142255783;90.41194915771484
5;1673292096.4218612;47.1306425;7.2406201999999995;-0.013000000268220901;1673292096.460549;-0.29792433977127075;-0.2347232848405838;90.40141296386719
6;1673292096.6148403;47.1306425;7.2406201;-0.012000000104308128;1673292096.6556892;-0.02713029831647873;-0.2521797716617584;90.35325622558594
7;1673292096.8146815;47.1306425;7.24062;-0.013000000268220901;1673292096.8575323;0.003903679782524705;-0.26474058628082275;90.3410873413086
8;1673292097.0235922;47.1306425;7.2406198999999996;-0.014000000432133675;1673292097.0775852;0.29599252343177795;-0.22937719523906708;90.43154907226562
9;1673292097.248558;47.1306425;7.240619799999999;-0.018000001087784767;1673292097.2936628;0.127360001206398;-0.2071360945701599;90.49217224121094
10;1673292097.4547799;47.1306425;7.240619799999999;-0.02200000174343586;1673292097.4957364;0.07091020792722702;-0.2453681230545044;90.24374389648438
11;1673292097.6815913;47.130642599999995;7.2406197;-0.021000001579523087;1673292097.7225666;-0.03965752199292183;-0.22453786432743073;90.33356475830078
12;1673292097.883827;47.130642599999995;7.2406197;-0.023000001907348633;1673292097.9235327;0.24576519429683685;-0.32176488637924194;90.31473541259766
13;1673292098.0580614;47.130642599999995;7.2406197;0.0;1673292098.095594;0.3015967309474945;-0.3592759072780609;90.39447784423828
14;1673292098.2316713;47.130642599999995;7.2406197;-0.0020000000949949026;1673292098.2718241;-0.031243497505784035;-0.056828804314136505;90.28347778320312
15;1673292098.4247017;47.130642599999995;7.240619799999999;-0.006000000052154064;1673292098.4759207;0.10352130234241486;-0.44654613733291626;90.47398376464844
16;1673292098.6478055;47.130642599999995;7.240619799999999;-0.010000000707805157;1673292098.6815886;0.10951701551675797;-0.08257890492677689;90.27607727050781
17;1673292098.8238108;47.130642599999995;7.2406198999999996;-0.01100000087171793;1673292098.8689194;-0.1058354303240776;-0.21681182086467743;90.26146697998047
18;1673292099.0269623;47.1306425;7.2406198999999996;-0.010000000707805157;1673292099.073954;0.20804636180400848;-0.11973898857831955;90.46473693847656
19;1673292099.2416186;47.1306425;7.2406198999999996;-0.00800000037997961;1673292099.2850587;0.2603854238986969;0.22603009641170502;90.25718688964844
20;1673292099.455578;47.1306424;7.2406198999999996;-0.005000000353902578;1673292099.4977236;0.02014736272394657;-0.2227495163679123;90.38202667236328
21;1673292099.6577106;47.1306424;7.2406198999999996;0.004000000189989805;1673292099.7138145;0.22805167734622955;-0.2793504297733307;90.42884063720703
22;1673292099.871712;47.1306424;7.24062;0.005000000353902578;1673292099.906768;0.2615487277507782;-0.43259280920028687;90.58916473388672
23;1673292100.0557323;47.1306424;7.24062;0.006000000052154064;1673292100.0976174;0.14154882729053497;-0.1318497210741043;90.6402816772461
24;1673292100.2679524;47.1306424;7.24062;0.009000000543892384;1673292100.309518;0.24792739748954773;-0.08718325942754745;90.69613647460938
25;1673292100.4715073;47.1306424;7.24062;0.007000000216066837;1673292100.5135777;0.3442573547363281;-0.15158510208129883;90.75701141357422
26;1673292100.6686373;47.1306424;7.24062;0.01100000087171793;1673292100.7066443;0.21159230172634125;-0.4544772505760193;90.49893951416016
27;1673292100.8589463;47.1306424;7.24062;0.015000000596046448;1673292100.8958702;0.06519850343465805;-0.48980361223220825;90.79252624511719
28;1673292101.081692;47.1306424;7.240619799999999;0.02200000174343586;1673292101.1218426;2.5859391689300537;-0.13812874257564545;90.85856628417969
29;1673292101.295761;47.1306424;7.2406197;0.02800000086426735;1673292101.337806;4.9486894607543945;-0.15212614834308624;91.17471313476562
30;1673292101.4869707;47.1306424;7.2406193;0.020000001415610313;1673292101.5269132;-1.706335425376892;0.22154104709625244;92.57549285888672
31;1673292101.6886945;47.1306424;7.2406179999999996;0.03100000135600567;1673292101.7367747;-6.530278205871582;0.595771074295044;94.28094482421875
32;1673292101.903538;47.1306423;7.2406162;0.049000002443790436;1673292101.9567995;-12.843609809875488;-1.8038678169250488;94.94278717041016
33;1673292102.1147451;47.1306422;7.2406139;0.07600000500679016;1673292102.1525984;-13.700644493103027;-4.25477933883667;94.48418426513672
34;1673292102.2869709;47.1306422;7.2406114;0.12400000542402267;1673292102.3279183;-15.259580612182617;0.07688044756650925;93.00397491455078
35;1673292102.4715369;47.1306422;7.2406087999999995;0.1860000044107437;1673292102.514773;-17.110454559326172;-0.5651917457580566;92.75801086425781
36;1673292102.6699362;47.1306423;7.2406064;0.26100000739097595;1673292102.7197177;-18.96253776550293;-4.3798651695251465;93.19251251220703
37;1673292102.8806536;47.1306424;7.240604299999999;0.34800001978874207;1673292102.9215467;-21.171730041503906;-0.8252526521682739;92.2417984008789
38;1673292103.0735738;47.130642599999995;7.2406026;0.4490000307559967;1673292103.1116223;-23.113176345825195;1.427900791168213;91.45003509521484
39;1673292103.2497077;47.130642599999995;7.2406016;0.5690000057220459;1673292103.2895;-25.29119110107422;-2.8159987926483154;92.13048553466797
40;1673292103.4504826;47.1306425;7.2406011999999995;0.7050000429153442;1673292103.4907978;-27.139738082885742;-2.600348949432373;91.92859649658203
41;1673292103.6591952;47.1306424;7.2406017;0.8560000658035278;1673292103.7026548;-29.333194732666016;0.9948909282684326;90.85528564453125
42;1673292103.8437905;47.1306424;7.2406033999999995;1.0170000791549683;1673292103.8826559;-27.133882522583008;-2.166440963745117;91.3306884765625
43;1673292104.0496237;47.1306425;7.2406057;1.190000057220459;1673292104.0978386;-24.45574951171875;-3.4649386405944824;91.8561782836914
44;1673292104.2685852;47.130642699999996;7.240608399999999;1.3820000886917114;1673292104.3079004;-21.255189895629883;1.8856467008590698;90.33828735351562
45;1673292104.4669724;47.1306428;7.2406112;1.5780000686645508;1673292104.5067117;-17.900768280029297;-0.03168845921754837;87.19743347167969
46;1673292104.661553;47.130642699999996;7.2406137;1.7810001373291016;1673292104.708732;-15.348299980163574;-3.034945249557495;88.10199737548828
47;1673292104.8617225;47.130642699999996;7.2406158;1.9890000820159912;1673292104.900735;-13.962562561035156;0.3757377862930298;87.06121063232422
48;1673292105.055246;47.130642699999996;7.240617299999999;2.194000005722046;1673292105.0936093;-13.436893463134766;0.7217410206794739;87.09707641601562
49;1673292105.2498512;47.130642699999996;7.2406182;2.3940000534057617;1673292105.2937748;-13.806355476379395;-3.3442542552948;88.2452621459961
50;1673292105.4557126;47.1306428;7.2406185999999995;2.5960001945495605;1673292105.5004473;-14.623719215393066;0.35505643486976624;87.56009674072266
51;1673292105.6675415;47.1306429;7.2406185999999995;2.806000232696533;1673292105.7146983;-15.922232627868652;2.501535415649414;86.94036102294922
52;1673292105.8725338;47.1306428;7.2406184;3.0160000324249268;1673292105.9137669;-17.183855056762695;-3.677244186401367;87.9296646118164
53;1673292106.068867;47.130642599999995;7.2406181;3.2290000915527344;1673292106.1141183;-18.489511489868164;-1.2250127792358398;87.48736572265625
54;1673292106.260521;47.1306425;7.2406178;3.438000202178955;1673292106.2977703;-19.466875076293945;1.9734355211257935;86.91021728515625
55;1673292106.4657514;47.1306425;7.240617599999999;3.639000177383423;1673292106.5058448;-19.704830169677734;-2.7889389991760254;88.03074645996094
56;1673292106.6567023;47.1306425;7.240617599999999;3.8510000705718994;1673292106.6957784;-19.950397491455078;-1.023597240447998;87.62818145751953
57;1673292106.844773;47.1306425;7.2406177;4.065000057220459;1673292106.8877285;-19.92313575744629;2.367096185684204;86.8800048828125
58;1673292107.067151;47.1306423;7.2406179999999996;4.276000022888184;1673292107.1067393;-19.4283390045166;-2.758190631866455;88.0032730102539
59;1673292107.2548044;47.130641999999995;7.2406184;4.485000133514404;1673292107.29683;-18.89822006225586;-3.718311309814453;88.00169372558594
60;1673292107.461661;47.1306419;7.2406188;4.692000389099121;1673292107.4976988;-18.686485290527344;0.9708563685417175;86.81097412109375
61;1673292107.651653;47.1306419;7.2406191;4.897000312805176;1673292107.6880834;-18.019906997680664;-2.198967218399048;87.65593719482422
62;1673292107.8440087;47.130641999999995;7.240619499999999;5.0960001945495605;1673292107.8820884;-18.045408248901367;-3.0497641563415527;88.09903717041016
63;1673292108.0436833;47.130642099999996;7.2406197;5.293000221252441;1673292108.094067;-17.668231964111328;2.246669054031372;86.83710479736328
64;1673292108.264619;47.130642099999996;7.24062;5.494000434875488;1673292108.3058379;-17.750614166259766;-1.1000555753707886;87.45185089111328
65;1673292108.4640808;47.130641999999995;7.2406201;5.698000431060791;1673292108.5052326;-17.593305587768555;-3.6098504066467285;88.02886962890625
66;1673292108.6975493;47.1306419;7.2406201999999995;5.903000354766846;1673292108.7580657;-17.970539093017578;1.4539380073547363;86.78759002685547
67;1673292108.9679093;47.130641999999995;7.2406201999999995;6.112000465393066;1673292109.021823;-17.922142028808594;0.13935768604278564;87.20113372802734
68;1673292109.1415198;47.130642099999996;7.2406201;6.316000461578369;1673292109.1730185;-18.35948371887207;-3.7072904109954834;88.10357666015625
69;1673292109.3143814;47.130642099999996;7.2406201;6.51800012588501;1673292109.3465674;-18.414953231811523;1.3007160425186157;86.93199920654297
70;1673292109.4848535;47.1306422;7.2406201;6.7270002365112305;1673292109.5216541;-18.67485809326172;1.1968785524368286;86.96336364746094
71;1673292109.681519;47.130641999999995;7.2406201;6.938000202178955;1673292109.7182817;-18.34639549255371;-4.158398151397705;88.1798324584961
72;1673292109.867626;47.1306419;7.2406201999999995;7.146000385284424;1673292109.9224827;-18.443592071533203;-0.6209899187088013;87.2643051147461
73;1673292110.0673835;47.1306419;7.2406201999999995;7.3470001220703125;1673292110.1061723;-18.472883224487305;1.1942944526672363;86.8392562866211
74;1673292110.270001;47.1306419;7.2406203;7.547000408172607;1673292110.310582;-18.403644561767578;-3.825291633605957;88.19288635253906
75;1673292110.4617705;47.130641999999995;7.2406203;7.74500036239624;1673292110.5020971;-18.415435791015625;-1.172750473022461;87.65180969238281
76;1673292110.663034;47.130642099999996;7.2406203;7.945000171661377;1673292110.7086632;-18.34847640991211;1.8415586948394775;86.93057250976562
77;1673292110.8826652;47.130641999999995;7.2406203;8.142000198364258;1673292110.9271173;-18.40983772277832;-2.9805243015289307;87.97225189208984
78;1673292111.0867653;47.130641999999995;7.2406203;8.338000297546387;1673292111.132187;-18.393613815307617;-2.2012925148010254;87.84912872314453
79;1673292111.282208;47.130641999999995;7.2406204;8.532999992370605;1673292111.3238041;-18.47968864440918;1.8524340391159058;86.93399047851562
80;1673292111.486563;47.130642099999996;7.2406204;8.72800064086914;1673292111.529545;-18.31989097595215;-1.9104714393615723;87.76365661621094
81;1673292111.6797032;47.1306422;7.2406203;8.92300033569336;1673292111.7187808;-18.691844940185547;-2.0940988063812256;87.88428497314453
82;1673292111.878307;47.1306423;7.2406203;9.121000289916992;1673292111.919836;-18.439672470092773;2.199647903442383;86.7615966796875
83;1673292112.0629523;47.1306422;7.2406204;9.319000244140625;1673292112.1054704;-18.45615577697754;-1.6687297821044922;87.58843994140625
84;1673292112.26137;47.130642099999996;7.2406204999999995;9.51400089263916;1673292112.3058925;-18.394968032836914;-3.735506772994995;88.03327941894531
85;1673292112.4563894;47.1306422;7.2406204999999995;9.707000732421875;1673292112.4979055;-18.48387336730957;1.4556100368499756;86.8299560546875
86;1673292112.6488404;47.1306423;7.2406204999999995;9.901000022888184;1673292112.6931698;-18.343976974487305;-0.3537791073322296;87.26469421386719
87;1673292112.854034;47.1306423;7.2406206;10.093000411987305;1673292112.8985028;-18.438173294067383;-3.5679752826690674;88.03456115722656
88;1673292113.0564077;47.1306423;7.2406206;10.317000389099121;1673292113.1019354;-19.43204116821289;-0.35030457377433777;87.42803955078125
89;1673292113.2541487;47.1306423;7.240621;10.622000694274902;1673292113.2976553;-23.147201538085938;1.1410398483276367;86.79569244384766
90;1673292113.486127;47.1306423;7.2406217999999996;10.985000610351562;1673292113.5235956;-19.78151512145996;-3.3607985973358154;87.78419494628906
91;1673292113.6737194;47.1306423;7.2406229;11.366000175476074;1673292113.7152612;-17.52570343017578;-2.1457486152648926;87.70188903808594
92;1673292113.882561;47.1306425;7.2406239;11.758000373840332;1673292113.9240916;-15.638328552246094;1.6487197875976562;86.89476013183594
93;1673292114.0800385;47.130642699999996;7.240624599999999;12.156000137329102;1673292114.1236823;-14.445542335510254;-1.0839042663574219;87.49541473388672
94;1673292114.2766123;47.1306428;7.240624899999999;12.551000595092773;1673292114.3142512;-14.240900993347168;-2.490837812423706;87.96019744873047
95;1673292114.4646974;47.130643;7.240624899999999;12.938000679016113;1673292114.5088882;-14.331977844238281;2.521737813949585;86.87921905517578
96;1673292114.6817262;47.130643;7.2406245;13.315000534057617;1673292114.7258012;-15.031181335449219;-0.6105019450187683;87.45899200439453
97;1673292114.8854356;47.1306429;7.2406239999999995;13.6850004196167;1673292114.9340293;-16.0727481842041;-3.021334171295166;87.9083480834961
98;1673292115.0820022;47.1306429;7.240623299999999;14.041000366210938;1673292115.1206508;-17.166522979736328;2.013657808303833;86.8863296508789
99;1673292115.2695904;47.130643;7.240622699999999;14.396000862121582;1673292115.3091948;-18.05735206604004;0.48831671476364136;87.26238250732422
100;1673292115.4710445;47.1306429;7.2406220999999995;14.749000549316406;1673292115.5140758;-18.726655960083008;-3.3196427822113037;88.11164093017578
101;1673292115.6969244;47.1306428;7.2406215;15.101000785827637;1673292115.7342021;-19.2449893951416;0.7657458186149597;87.17831420898438
102;1673292115.8882978;47.1306428;7.2406212;15.458001136779785;1673292115.9278846;-19.554468154907227;0.6665958166122437;86.9026870727539
103;1673292116.1077435;47.130642699999996;7.240621;15.821001052856445;1673292116.1500149;-19.228303909301758;-3.656785726547241;87.79077911376953
104;1673292116.30608;47.130642699999996;7.240621;16.190000534057617;1673292116.3413603;-19.026813507080078;-0.24166053533554077;87.22940826416016
105;1673292116.4763474;47.1306428;7.240621099999999;16.562000274658203;1673292116.5121808;-18.53642463684082;1.7968709468841553;86.8497543334961
106;1673292116.655992;47.1306428;7.240621399999999;16.937000274658203;1673292116.7102072;-18.060155868530273;-2.913048028945923;88.00872802734375
107;1673292116.8670664;47.1306428;7.2406215;17.3070011138916;1673292116.9096224;-17.732088088989258;-0.8620588183403015;87.67178344726562
108;1673292117.086702;47.1306428;7.240621699999999;17.678001403808594;1673292117.1292953;-17.406579971313477;1.9994536638259888;86.8978271484375
109;1673292117.3019016;47.130642699999996;7.2406217999999996;18.054000854492188;1673292117.3370645;-17.441898345947266;-2.688917398452759;87.92901611328125
110;1673292117.4946573;47.130642599999995;7.2406219;18.431001663208008;1673292117.534444;-17.21230125427246;-2.0403213500976562;87.71363067626953
111;1673292117.7153115;47.130642599999995;7.2406219;18.8070011138916;1673292117.7543623;-17.317668914794922;2.039578676223755;86.77076721191406
112;1673292117.8889055;47.130642699999996;7.2406219;19.18600082397461;1673292117.92702;-17.361194610595703;-1.7216076850891113;87.75432586669922
113;1673292118.0816748;47.130642599999995;7.2406219;19.56300163269043;1673292118.1223266;-17.343643188476562;-2.8732223510742188;87.94508361816406
114;1673292118.2662337;47.130642599999995;7.240621699999999;19.9320011138916;1673292118.30598;-17.745925903320312;1.5048792362213135;86.95157623291016
115;1673292118.4695985;47.1306425;7.2406215;20.3070011138916;1673292118.5150778;-17.880996704101562;-1.6680619716644287;87.5760269165039
116;1673292118.6828234;47.1306425;7.240621399999999;20.681001663208008;1673292118.720008;-17.944087982177734;-3.3380300998687744;88.04421997070312
117;1673292118.867118;47.130642599999995;7.2406213;21.0570011138916;1673292118.9088924;-18.247453689575195;1.4211679697036743;86.94193267822266
118;1673292119.0666833;47.130642699999996;7.2406213;21.433000564575195;1673292119.1033466;-17.801694869995117;0.5007861852645874;87.14293670654297
119;1673292119.2662516;47.130642699999996;7.2406212;21.8070011138916;1673292119.3172407;-18.202632904052734;-3.3746585845947266;88.0654525756836
120;1673292119.4774323;47.130642699999996;7.240621099999999;22.176000595092773;1673292119.5268044;-18.103017807006836;0.5638279318809509;87.18164825439453
121;1673292119.7533557;47.130642699999996;7.240621099999999;22.551000595092773;1673292119.7896323;-17.9582462310791;1.0930829048156738;86.95381927490234
122;1673292119.942245;47.130642599999995;7.240621099999999;22.934001922607422;1673292119.9803112;-18.120635986328125;-3.2363321781158447;87.90604400634766
123;1673292120.125037;47.130642599999995;7.240621;23.317001342773438;1673292120.173098;-18.014305114746094;-0.7033359408378601;87.46852111816406
124;1673292120.3346405;47.130642699999996;7.240621;23.700000762939453;1673292120.379638;-17.922574996948242;1.3804924488067627;87.04248046875
125;1673292120.548903;47.1306428;7.240621;24.08500099182129;1673292120.5821037;-18.016931533813477;-2.8911750316619873;88.15025329589844
126;1673292120.7508705;47.1306428;7.240621;24.46700096130371;1673292120.7905877;-17.79578971862793;-1.5754187107086182;87.63347625732422
127;1673292120.9409459;47.1306428;7.2406209;24.841001510620117;1673292120.9951122;-18.1291561126709;2.2159063816070557;86.84159851074219
128;1673292121.1436038;47.130642699999996;7.240620799999999;25.22100067138672;1673292121.1809916;-17.979141235351562;-2.531576633453369;87.79414367675781
129;1673292121.3266056;47.130642699999996;7.240620799999999;25.608001708984375;1673292121.3735971;-18.143863677978516;-2.473533868789673;87.90445709228516
130;1673292121.570384;47.1306428;7.2406207;25.994001388549805;1673292121.6051311;-18.079011917114258;2.349966049194336;86.92127990722656
131;1673292121.7557204;47.1306429;7.2406207;26.37900161743164;1673292121.7918758;-17.937620162963867;-0.5387277603149414;87.53965759277344
132;1673292121.9391835;47.130643;7.2406207;26.766000747680664;1673292121.9862669;-18.019018173217773;-2.118671178817749;87.88259887695312
133;1673292122.1277554;47.130643;7.2406206;27.145000457763672;1673292122.1780715;-18.033737182617188;2.1341543197631836;86.73978424072266
134;1673292122.3024366;47.1306429;7.2406206;27.527000427246094;1673292122.338615;-17.930994033813477;-0.7930404543876648;87.31490325927734
135;1673292122.4900646;47.1306429;7.2406206;27.910001754760742;1673292122.5288723;-18.047664642333984;-3.082274913787842;87.97427368164062
136;1673292122.673481;47.1306429;7.2406204999999995;28.29100227355957;1673292122.7220032;-18.081069946289062;1.8106608390808105;86.88256072998047
137;1673292122.8868363;47.130643;7.2406204999999995;28.67500114440918;1673292122.926139;-18.048282623291016;0.5680460333824158;87.1798095703125
138;1673292123.0792642;47.130643;7.2406204;29.064001083374023;1673292123.1228342;-18.14983558654785;-2.9182729721069336;88.21759796142578
139;1673292123.2716475;47.130643;7.2406204;29.4580020904541;1673292123.3149624;-18.057174682617188;0.827211856842041;87.25640106201172
140;1673292123.4694161;47.1306429;7.2406203;29.841001510620117;1673292123.5143552;-18.204538345336914;0.6685371994972229;86.98580169677734
141;1673292123.6743073;47.1306428;7.2406201999999995;30.227001190185547;1673292123.7178178;-18.155990600585938;-3.419743776321411;87.93866729736328
142;1673292123.872677;47.1306428;7.2406201999999995;30.614002227783203;1673292123.9152188;-18.32993507385254;-0.19545622169971466;87.3521499633789
143;1673292124.077933;47.1306429;7.2406201;31.001001358032227;1673292124.1275115;-18.311691284179688;1.9984641075134277;86.9056396484375
144;1673292124.287338;47.1306429;7.2406201;31.393001556396484;1673292124.32556;-18.40461540222168;-2.3417439460754395;87.90726470947266
145;1673292124.4721324;47.1306429;7.2406201;31.783000946044922;1673292124.5128634;-18.073877334594727;-0.8094868659973145;87.59404754638672
146;1673292124.6680694;47.1306428;7.2406201999999995;32.16600036621094;1673292124.7061357;-18.220531463623047;1.9733984470367432;86.89420318603516
147;1673292124.8775535;47.130642699999996;7.2406201999999995;32.55400085449219;1673292124.9199436;-18.384597778320312;-2.768773078918457;87.9124755859375
148;1673292125.0912695;47.130642599999995;7.2406201999999995;32.95000076293945;1673292125.134887;-18.220470428466797;-1.7570163011550903;87.85808563232422
149;1673292125.3084939;47.130642699999996;7.2406201999999995;33.34600067138672;1673292125.3502889;-18.2235050201416;1.6791574954986572;86.9898910522461
150;1673292125.4960384;47.1306428;7.2406201999999995;33.74100112915039;1673292125.5351944;-18.21709442138672;-1.291570782661438;87.50497436523438
151;1673292125.6831567;47.1306428;7.2406201999999995;34.13500213623047;1673292125.7227461;-18.247638702392578;-2.2234795093536377;87.90979766845703
152;1673292125.8718011;47.1306428;7.2406203;34.525001525878906;1673292125.9149337;-18.052507400512695;1.839131474494934;86.80419158935547
153;1673292126.076454;47.1306428;7.2406203;34.909000396728516;1673292126.1176512;-18.28325653076172;-0.41732195019721985;87.16490936279297
154;1673292126.275627;47.130642699999996;7.2406203;35.301002502441406;1673292126.3182995;-18.067230224609375;-3.064676523208618;87.92283630371094
155;1673292126.4777348;47.1306428;7.2406203;35.698001861572266;1673292126.5156093;-18.196334838867188;1.195926308631897;87.11572265625
156;1673292126.6564221;47.1306428;7.2406203;36.09600067138672;1673292126.6993873;-18.05449676513672;0.795130729675293;86.98442840576172
157;1673292126.8673131;47.1306428;7.2406203;36.49400329589844;1673292126.9181893;-18.23552131652832;-3.5761795043945312;88.0660171508789
158;1673292127.0721393;47.1306428;7.2406203;36.89200210571289;1673292127.1196992;-18.210344314575195;0.46192947030067444;87.13677978515625
159;1673292127.2903855;47.1306428;7.2406203;37.27900314331055;1673292127.329717;-18.21782684326172;1.6084176301956177;86.8593978881836
160;1673292127.4949567;47.130642699999996;7.2406203;37.669002532958984;1673292127.5375288;-18.264652252197266;-3.248539686203003;87.95074462890625
161;1673292127.6828597;47.1306428;7.2406203;38.064002990722656;1673292127.723039;-18.373727798461914;-0.21311718225479126;87.47686767578125
162;1673292127.895653;47.130643;7.2406203;38.46000289916992;1673292127.9368267;-18.059925079345703;2.20456862449646;86.88786315917969
163;1673292128.1015465;47.1306431;7.2406203;38.855003356933594;1673292128.1451714;-18.183563232421875;-2.245635509490967;87.85909271240234
164;1673292128.2907522;47.1306431;7.2406204;39.249000549316406;1673292128.3278816;-18.033126831054688;-0.906028687953949;87.58836364746094
165;1673292128.4831722;47.1306431;7.2406204;39.63900375366211;1673292128.5223217;-18.144107818603516;2.612135171890259;86.79933166503906
166;1673292128.6822605;47.130643;7.2406203;40.01900100708008;1673292128.7302008;-18.06451416015625;-1.353567123413086;87.6639633178711
167;1673292128.8841527;47.130643;7.2406203;40.40700149536133;1673292128.9266868;-18.311113357543945;-2.0766327381134033;87.67837524414062
168;1673292129.086583;47.1306431;7.2406203;40.79800033569336;1673292129.1293054;-18.218233108520508;2.413780927658081;86.88105010986328
169;1673292129.2863903;47.1306431;7.2406201999999995;41.19000244140625;1673292129.326487;-18.17013168334961;-0.7305908799171448;87.50984191894531
170;1673292129.5210838;47.130643;7.2406201999999995;41.58100128173828;1673292129.5643275;-18.21474266052246;-2.4472055435180664;87.83861541748047
171;1673292129.7159429;47.130643;7.2406201999999995;41.97200012207031;1673292129.760415;-18.200834274291992;1.834513783454895;86.87499237060547
172;1673292129.9122124;47.1306429;7.2406201;42.35400390625;1673292129.9488695;-18.452722549438477;0.19222843647003174;87.04535675048828
173;1673292130.1276164;47.1306428;7.24062;42.74100112915039;1673292130.1647263;-18.57741355895996;-2.9680590629577637;87.8451156616211
174;1673292130.3349264;47.1306429;7.2406198999999996;43.13300323486328;1673292130.3750062;-18.501953125;0.9580227732658386;86.99857330322266
175;1673292130.5362716;47.130643;7.2406198999999996;43.527000427246094;1673292130.583275;-18.406702041625977;1.5066395998001099;86.8689193725586
176;1673292130.7570007;47.130643;7.2406198999999996;43.922000885009766;1673292130.8039732;-18.651391983032227;-2.648941993713379;88.09513854980469
177;1673292130.9378514;47.1306429;7.2406198999999996;44.31800079345703;1673292130.981757;-18.213985443115234;-0.43386217951774597;87.6111831665039
178;1673292131.1328516;47.1306429;7.2406198999999996;44.7140007019043;1673292131.1768472;-18.404001235961914;1.9719732999801636;86.89066314697266
179;1673292131.3301392;47.1306429;7.2406198999999996;45.10000228881836;1673292131.3653693;-18.2844181060791;-2.3137381076812744;87.95458984375
180;1673292131.5431745;47.1306429;7.2406198999999996;45.4900016784668;1673292131.5812368;-18.41609764099121;-1.3495820760726929;87.91913604736328
181;1673292131.737205;47.130643;7.2406198999999996;45.88500213623047;1673292131.8086996;-18.200740814208984;2.9906833171844482;86.9842529296875
182;1673292131.9553602;47.130643;7.2406198999999996;46.28200149536133;1673292131.9895618;-18.274206161499023;-1.1581820249557495;87.72032928466797
183;1673292132.1439586;47.1306429;7.2406198999999996;46.67500305175781;1673292132.1820216;-18.196840286254883;-2.2475712299346924;87.84703826904297
184;1673292132.325945;47.1306429;7.2406198999999996;47.070003509521484;1673292132.3690429;-18.481475830078125;2.1528773307800293;86.9514389038086
185;1673292132.5237563;47.1306428;7.2406198999999996;47.45600128173828;1673292132.5640268;-18.29791831970215;-0.5221332311630249;87.46981048583984
186;1673292132.7123902;47.1306428;7.2406198999999996;47.845001220703125;1673292132.753504;-18.42976188659668;-2.8015637397766113;87.98475646972656
187;1673292132.895655;47.1306428;7.2406198999999996;48.22900390625;1673292132.9427984;-19.14264488220215;1.8641153573989868;87.11322784423828
188;1673292133.1017027;47.1306429;7.2406198999999996;48.56800079345703;1673292133.1462014;-18.395641326904297;0.5563822984695435;87.13170623779297
189;1673292133.3100626;47.1306429;7.2406197;48.85700225830078;1673292133.361867;-18.21563720703125;-2.2918760776519775;87.94912719726562
190;1673292133.5093768;47.1306428;7.240619499999999;49.099002838134766;1673292133.547641;-18.49444007873535;1.889905333518982;86.77159881591797
191;1673292133.694467;47.1306429;7.240619199999999;49.301002502441406;1673292133.7361958;-18.42518424987793;1.6384531259536743;86.81200408935547
192;1673292133.9175396;47.1306428;7.2406185999999995;49.44900131225586;1673292133.9535446;-9.914514541625977;2.9921107292175293;86.14476776123047
193;1673292134.1085548;47.130642599999995;7.2406175;49.52900314331055;1673292134.1495988;-5.976353645324707;15.90978717803955;75.79594421386719
194;1673292134.3066056;47.1306418;7.2406158;49.595001220703125;1673292134.348662;-18.701005935668945;6.800463676452637;62.64616394042969
195;1673292134.4966567;47.130640799999995;7.240614;49.65900421142578;1673292134.5455818;-13.450250625610352;13.843157768249512;52.080223083496094
196;1673292134.6955943;47.1306399;7.2406123;49.717002868652344;1673292134.7378232;-12.899394035339355;16.69410514831543;43.74870300292969
197;1673292134.8935294;47.130638999999995;7.240610599999999;49.768001556396484;1673292134.9387546;-13.260628700256348;16.12511444091797;35.081459045410156
198;1673292135.1098301;47.1306381;7.2406090999999995;49.801002502441406;1673292135.156735;-11.174559593200684;16.216598510742188;25.836009979248047
199;1673292135.301522;47.1306374;7.2406076;49.83000183105469;1673292135.3416245;-8.131793022155762;17.57449722290039;16.72161102294922
200;1673292135.5025852;47.130637;7.2406063;49.86000061035156;1673292135.5433412;-3.9285268783569336;20.18669891357422;7.828479766845703
201;1673292135.6945388;47.130636599999995;7.2406052;49.8910026550293;1673292135.733996;0.2015833705663681;23.61385726928711;-1.4741737842559814
202;1673292135.9115841;47.1306363;7.240604299999999;49.92000198364258;1673292135.966605;3.230178117752075;24.801774978637695;-10.633813858032227
203;1673292136.2317147;47.130635999999996;7.2406039;49.94200134277344;1673292136.2807052;5.854493618011475;23.370309829711914;-19.9129581451416
204;1673292136.467708;47.1306357;7.2406038;49.958003997802734;1673292136.498911;9.330937385559082;19.82488250732422;-28.84088897705078
205;1673292136.6515405;47.130635299999994;7.2406039;49.961002349853516;1673292136.6944888;12.6555814743042;16.35270118713379;-37.96659851074219
206;1673292136.842031;47.1306351;7.2406041;49.96900177001953;1673292136.8817933;14.610477447509766;14.71689510345459;-46.4672737121582
207;1673292137.0295393;47.1306349;7.240604299999999;49.980003356933594;1673292137.070519;15.233561515808105;12.819506645202637;-52.331417083740234
208;1673292137.216447;47.130634699999995;7.2406045;49.987003326416016;1673292137.2540793;13.4035062789917;13.313833236694336;-50.45603942871094
209;1673292137.3971386;47.1306346;7.2406047;49.992000579833984;1673292137.4436865;11.68519401550293;15.082013130187988;-47.31382369995117
210;1673292137.60054;47.1306345;7.2406047;49.99700164794922;1673292137.6459706;11.445439338684082;15.546817779541016;-45.88260269165039
211;1673292137.8115122;47.1306344;7.2406047;49.992000579833984;1673292137.8621047;12.934276580810547;13.347620964050293;-45.45378112792969
212;1673292138.0427308;47.1306344;7.2406047;49.99400329589844;1673292138.0813918;13.919438362121582;12.479981422424316;-45.37530517578125
213;1673292138.230463;47.1306344;7.2406045;50.005001068115234;1673292138.2695847;13.86991024017334;13.96348762512207;-45.64504623413086
214;1673292138.4161468;47.1306344;7.2406042;50.018001556396484;1673292138.4529278;11.392289161682129;16.64616584777832;-45.8408088684082
215;1673292138.6159823;47.1306345;7.240603999999999;50.02700424194336;1673292138.6570537;10.798925399780273;14.334081649780273;-45.74220275878906
216;1673292138.801243;47.130634699999995;7.2406036;50.035003662109375;1673292138.8429768;12.710052490234375;11.093951225280762;-45.6307373046875
217;1673292138.9926395;47.1306349;7.2406030999999995;50.03900146484375;1673292139.0325406;-3.175548553466797;11.239139556884766;-48.59211730957031
218;1673292139.18915;47.1306355;7.2406016;50.03000259399414;1673292139.2296484;-32.73378372192383;13.395791053771973;-51.25983810424805
219;1673292139.3923988;47.1306374;7.2405976999999995;50.012001037597656;1673292139.4406343;-48.933650970458984;11.49914836883545;-48.28495788574219
220;1673292139.6027322;47.1306412;7.240590399999999;49.9630012512207;1673292139.651637;-43.83077621459961;5.109311580657959;-45.20173263549805
221;1673292139.8073947;47.1306468;7.2405795;49.90900421142578;1673292139.850432;-43.04074478149414;0.16904279589653015;-43.93230438232422
222;1673292139.9986405;47.1306538;7.2405653999999995;49.868003845214844;1673292140.0415316;-41.47859573364258;0.4466930329799652;-44.27018737792969
223;1673292140.2007208;47.130662099999995;7.2405484;49.84700393676758;1673292140.241635;-45.33296585083008;4.75725793838501;-44.152645111083984
224;1673292140.391905;47.130671799999995;7.2405287;49.849002838134766;1673292140.4345112;-51.5444221496582;7.779099464416504;-44.34878921508789
225;1673292140.6106236;47.1306832;7.2405063;49.87700271606445;1673292140.6545448;-58.20613098144531;10.823772430419922;-44.077980041503906
226;1673292140.8262763;47.130696799999996;7.2404813;49.90900421142578;1673292140.869685;-60.32901382446289;9.101855278015137;-41.79176712036133
227;1673292141.0378587;47.1307125;7.240454;49.926002502441406;1673292141.0815158;-56.03864669799805;7.755636692047119;-39.14896011352539
228;1673292141.2540095;47.13073;7.2404250999999995;49.93700408935547;1673292141.294496;-56.264163970947266;6.673635959625244;-39.34016418457031
229;1673292141.437449;47.1307486;7.2403949999999995;49.94000244140625;1673292141.477654;-54.86845016479492;8.396169662475586;-40.690284729003906
230;1673292141.632651;47.1307683;7.240364;49.92900085449219;1673292141.668614;-52.62533950805664;9.00426197052002;-40.874755859375
231;1673292141.819672;47.1307887;7.2403325999999995;49.90900421142578;1673292141.860671;-50.21611785888672;11.064939498901367;-41.365814208984375
232;1673292142.0085878;47.130809899999996;7.2403008;49.887001037597656;1673292142.0526428;-46.84759521484375;17.09946060180664;-41.95331954956055
233;1673292142.1995423;47.1308316;7.2402694;49.87200164794922;1673292142.2377048;-33.67039108276367;27.236919403076172;-39.67509841918945
234;1673292142.3845255;47.1308535;7.24024;49.87000274658203;1673292142.4266517;4.114844799041748;35.467010498046875;-35.258888244628906
235;1673292142.583447;47.1308741;7.240214099999999;49.816001892089844;1673292142.6303258;18.79331398010254;16.49299430847168;-38.88742446899414
236;1673292142.8106253;47.1308922;7.2401914;49.691001892089844;1673292142.8606827;13.887929916381836;5.711258888244629;-45.798213958740234
237;1673292143.014527;47.1309068;7.2401722;49.643001556396484;1673292143.0624247;32.99209213256836;9.5919828414917;-46.402122497558594
238;1673292143.1996207;47.1309185;7.2401561;49.63100051879883;1673292143.2417095;38.44987869262695;9.869625091552734;-46.90104675292969
239;1673292143.3863852;47.130927;7.240144099999999;49.66800308227539;1673292143.4318697;47.22386169433594;10.312947273254395;-48.22981643676758
240;1673292143.584657;47.130932699999995;7.2401361;49.70100402832031;1673292143.6276617;46.644203186035156;9.686509132385254;-48.4967041015625
241;1673292143.792539;47.130935799999996;7.240132;49.74100112915039;1673292143.8354807;50.117679595947266;13.186019897460938;-46.90764617919922
242;1673292143.9958422;47.1309365;7.2401317999999995;49.78200149536133;1673292144.0387883;51.08538055419922;15.361349105834961;-46.629249572753906
243;1673292144.2102766;47.1309354;7.2401352;49.81800079345703;1673292144.2532208;52.42001724243164;19.178178787231445;-46.00483703613281
244;1673292144.420741;47.130932699999995;7.240142199999999;49.858001708984375;1673292144.4598515;52.96678924560547;22.398042678833008;-46.06056213378906
245;1673292144.6159537;47.1309289;7.2401523999999995;49.89500427246094;1673292144.6608837;50.453792572021484;25.388944625854492;-46.3447265625
246;1673292144.8326848;47.1309243;7.240165299999999;49.926002502441406;1673292144.8739955;43.18012619018555;24.73610496520996;-46.24884033203125
247;1673292145.0494864;47.1309195;7.240179899999999;49.93800354003906;1673292145.0851827;27.36084747314453;23.431962966918945;-46.78579330444336
248;1673292145.2375343;47.1309149;7.2401947;49.939002990722656;1673292145.2787395;9.707927703857422;19.98603057861328;-45.24885559082031
249;1673292145.4341638;47.130911;7.240208399999999;49.932003021240234;1673292145.4771426;4.153173446655273;16.76329231262207;-42.798431396484375
250;1673292145.6291196;47.1309081;7.24022;49.926002502441406;1673292145.6716418;6.223227024078369;14.564614295959473;-42.03020477294922
251;1673292145.8296316;47.1309056;7.2402301;49.919002532958984;1673292145.8696795;17.60215950012207;18.60811424255371;-41.33692169189453
252;1673292146.0369275;47.1309033;7.2402394;49.7400016784668;1673292146.0726504;20.838844299316406;19.73479461669922;-41.74332809448242
253;1673292146.2138016;47.130901099999996;7.2402481;49.2140007019043;1673292146.2777085;12.303984642028809;9.726927757263184;-45.287994384765625
254;1673292146.43245;47.130899;7.2402565;48.323001861572266;1673292146.4819212;-9.088273048400879;-9.908778190612793;-46.507869720458984
255;1673292146.6397278;47.130896899999996;7.240264499999999;47.040000915527344;1673292146.6852264;-36.74415588378906;-40.32090759277344;-35.048744201660156
256;1673292146.8470407;47.1308949;7.240272399999999;45.368003845214844;1673292146.8896387;-52.57986831665039;-85.91786193847656;-2.2183241844177246
257;1673292147.0339935;47.1308929;7.2402804;43.31500244140625;1673292147.0720708;-53.81645965576172;-114.76427459716797;23.17356300354004
258;1673292147.2292318;47.1308909;7.240288199999999;40.922000885009766;1673292147.269291;-58.445411682128906;-103.02760314941406;17.3497257232666
259;1673292147.4126592;47.130888899999995;7.2402959;38.189002990722656;1673292147.453272;-52.45718002319336;-45.22886276245117;-24.791975021362305
260;1673292147.6075487;47.1308869;7.2403039;35.09600067138672;1673292147.648579;-19.37444305419922;1.576014757156372;-49.5366325378418
261;1673292147.8057976;47.1308848;7.2403118;31.61100196838379;1673292147.8487241;18.762310028076172;22.3384952545166;-49.707401275634766
262;1673292147.9942849;47.1308827;7.2403192;27.744001388549805;1673292148.0344748;34.94011688232422;22.465482711791992;-50.32237243652344
263;1673292148.197096;47.130880499999996;7.2403258;23.509000778198242;1673292148.240048;21.2904109954834;1.6252596378326416;-61.23504638671875
264;1673292148.4063466;47.1308784;7.2403317;18.908000946044922;1673292148.4498467;-17.222164154052734;-19.384414672851562;-61.53809356689453
265;1673292148.6179316;47.1308766;7.2403378;13.915000915527344;1673292148.6618977;-52.637203216552734;-36.16984558105469;-48.46173858642578
266;1673292148.821785;47.1308748;7.2403442;8.571000099182129;1673292148.8577242;-62.066226959228516;-23.171327590942383;-53.335548400878906
267;1673292149.0129132;47.130873;7.2403512;2.9060001373291016;1673292149.0738244;-33.465476989746094;6.376923561096191;-69.11397552490234
268;1673292149.2487323;47.130877399999996;7.2403531999999995;0.17400000989437103;1673292149.2926974;-16.220529556274414;5.812812328338623;-58.80440139770508
269;1673292149.4387188;47.1308892;7.240346799999999;0.2580000162124634;1673292149.4740381;-16.104557037353516;4.012393951416016;-54.51329040527344
270;1673292149.624249;47.1309016;7.240339;0.33000001311302185;1673292149.6625555;-15.702716827392578;2.7710907459259033;-54.940711975097656
271;1673292149.8055017;47.130913799999995;7.2403305;0.37800002098083496;1673292149.8455179;-15.41569709777832;3.0752832889556885;-55.46983337402344
272;1673292150.0028026;47.130924099999994;7.2403227999999995;0.38700002431869507;1673292150.0545356;-15.086336135864258;3.0869665145874023;-56.12017059326172
273;1673292150.2141545;47.1309336;7.240314799999999;0.3830000162124634;1673292150.2650607;-14.699804306030273;2.92478346824646;-56.84756088256836
274;1673292150.423215;47.1309446;7.2403054;0.37400001287460327;1673292150.466209;-14.57680606842041;2.6381888389587402;-57.22080612182617
275;1673292150.642959;47.130957099999996;7.2402945999999995;0.3570000231266022;1673292150.6849737;-14.436602592468262;2.220325231552124;-57.49138641357422
276;1673292150.8456292;47.1309707;7.2402827;0.33500000834465027;1673292150.8852208;-14.3182954788208;1.7650675773620605;-57.77708053588867
277;1673292151.0187402;47.130984999999995;7.2402698;0.3070000112056732;1673292151.057778;-14.196460723876953;1.3815157413482666;-58.029808044433594
278;1673292151.2174706;47.1309999;7.2402561;0.27300000190734863;1673292151.2625284;-14.007139205932617;1.0908573865890503;-58.25370407104492
279;1673292151.4234705;47.1310153;7.2402416;0.23600001633167267;1673292151.468564;-13.845836639404297;0.8692530393600464;-58.47490692138672
280;1673292151.6192966;47.1310311;7.2402263;0.1980000138282776;1673292151.6634722;-13.75508975982666;0.8153738379478455;-58.677207946777344
281;1673292151.8296995;47.1310473;7.2402104;0.1600000113248825;1673292151.8695626;-13.59345531463623;0.9439846873283386;-58.87881088256836
282;1673292152.0303946;47.1310638;7.240193799999999;0.12200000882148743;1673292152.069537;-13.457250595092773;1.0611318349838257;-59.089820861816406
283;1673292152.2266293;47.1310808;7.2401763;0.06800000369548798;1673292152.2648551;-13.336652755737305;1.2552992105484009;-59.269161224365234
284;1673292152.4275043;47.131097999999994;7.2401583;0.021000001579523087;1673292152.4705439;-13.173815727233887;1.3603476285934448;-59.4458122253418
285;1673292152.630483;47.1311154;7.2401398;-0.01600000075995922;1673292152.6738288;-13.065160751342773;1.5349524021148682;-59.59339904785156
286;1673292152.8355658;47.1311338;7.2401197999999996;-0.05900000408291817;1673292152.8728201;-12.921980857849121;1.7279956340789795;-59.70806121826172
287;1673292153.071553;47.131150999999996;7.2401009;-0.09400000423192978;1673292153.1134932;-12.824395179748535;1.9385219812393188;-59.862552642822266
288;1673292153.2546997;47.1311691;7.2400807;-0.1290000081062317;1673292153.292747;-12.717540740966797;2.0981290340423584;-59.96580505371094
289;1673292153.4346225;47.1311877;7.2400595;-0.18800000846385956;1673292153.4755535;-12.57027816772461;2.315323829650879;-60.07643508911133
290;1673292153.6155488;47.131206399999996;7.240037999999999;-0.23400001227855682;1673292153.6536999;-12.483410835266113;2.502551317214966;-60.19999313354492
291;1673292153.798518;47.131225099999995;7.2400161;-0.26900002360343933;1673292153.8395405;-12.307564735412598;2.642488479614258;-60.3211669921875
292;1673292153.9915514;47.1312439;7.2399939;-0.2930000126361847;1673292154.0404363;-12.227717399597168;2.7910356521606445;-60.425376892089844
293;1673292154.2145586;47.131263;7.2399711;-0.31800001859664917;1673292154.2575524;-12.078023910522461;2.936581611633301;-60.52973556518555
294;1673292154.4256265;47.1312831;7.239946799999999;-0.34200000762939453;1673292154.4627886;-11.998289108276367;3.0479912757873535;-60.61834716796875
295;1673292154.6195338;47.131301799999996;7.2399239;-0.36500000953674316;1673292154.6687248;-11.840810775756836;3.1931874752044678;-60.7512321472168
296;1673292154.8614645;47.131322;7.2398986999999995;-0.4190000295639038;1673292154.8994827;-11.818171501159668;3.3111300468444824;-60.83436584472656
297;1673292155.043658;47.131342;7.2398734;-0.4520000219345093;1673292155.085734;-11.680020332336426;3.402407646179199;-60.91220474243164
298;1673292155.2427294;47.131346;7.2398682;-0.4700000286102295;1673292155.283641;-11.531721115112305;3.512600898742676;-60.98456954956055
299;;;;;1673292155.478453;-11.47577953338623;3.573751926422119;-61.06793212890625
300;;;;;1673292155.6688535;-11.345309257507324;3.6630985736846924;-61.14120101928711
301;;;;;1673292155.8714213;-11.221419334411621;3.9287633895874023;-61.22074508666992
302;;;;;1673292156.0714042;-11.175910949707031;4.152471542358398;-61.296348571777344
303;;;;;1673292156.28607;-11.0733060836792;4.284705638885498;-61.41051483154297
304;;;;;1673292156.4855552;-11.033187866210938;4.386489391326904;-61.51826095581055
305;;;;;1673292156.6755688;-10.99001693725586;4.486357688903809;-61.656394958496094
306;;;;;1673292156.8817856;-10.90916633605957;4.564764499664307;-61.79464340209961
