;pos_time;latitude;longitude;altitude;alt_time;pitch;roll;yaw
0;1673284704.2413397;47.1306425;7.24062;-0.021000001579523087;1673284704.3766289;-0.09967654943466187;-0.34491339325904846;90.2373046875
1;1673284704.4767027;47.1306424;7.2406198999999996;-0.01600000075995922;1673284704.583642;-0.04958062618970871;-0.10907092690467834;90.16693115234375
2;1673284704.6906211;47.1306424;7.2406198999999996;-0.014000000432133675;1673284704.7936316;0.031656283885240555;-0.1583492010831833;90.1821517944336
3;1673284704.8995793;47.1306424;7.2406198999999996;-0.014000000432133675;1673284705.0045779;0.0017447530990466475;-0.28734004497528076;90.16361236572266
4;1673284705.1037848;47.1306424;7.240619799999999;-0.015000000596046448;1673284705.2048628;-0.018869290128350258;-0.42392581701278687;90.0552978515625
5;1673284705.3059318;47.1306424;7.2406198999999996;-0.017000000923871994;1673284705.4118757;-0.04668577387928963;-0.3005701005458832;90.01956176757812
6;1673284705.5090423;47.1306424;7.2406198999999996;-0.01600000075995922;1673284705.608213;-0.023251157253980637;-0.1279653161764145;90.07359313964844
7;1673284705.71183;47.1306423;7.2406198999999996;-0.014000000432133675;1673284705.8115363;0.2764579951763153;-0.19153136014938354;89.91311645507812
8;1673284705.9077532;47.1306423;7.2406198999999996;-0.01100000087171793;1673284706.0147307;-0.13209478557109833;-0.23424358665943146;90.0803451538086
9;1673284706.0884705;47.1306423;7.2406198999999996;-0.013000000268220901;1673284706.1768444;-0.12525694072246552;-0.21976207196712494;90.24263763427734
10;1673284706.264278;47.1306423;7.24062;-0.01600000075995922;1673284706.3594847;-0.07001840323209763;-0.19702258706092834;90.02942657470703
11;1673284706.4517808;47.1306423;7.24062;-0.013000000268220901;1673284706.5469875;-0.11110775917768478;-0.24099312722682953;90.08734893798828
12;1673284706.6412523;47.1306423;7.24062;-0.013000000268220901;1673284706.7443328;-0.14082492887973785;-0.24577438831329346;90.10716247558594
13;1673284706.8385468;47.1306423;7.24062;-0.013000000268220901;1673284706.9405885;-0.24419882893562317;-0.1437428742647171;90.03916931152344
14;1673284707.034286;47.1306424;7.24062;-0.0010000000474974513;1673284707.1354332;-0.11875870823860168;-1.1753785610198975;90.22750091552734
15;1673284707.2316298;47.1306424;7.24062;0.0;1673284707.3317473;-0.02734951861202717;-0.7523792386054993;90.18040466308594
16;1673284707.427942;47.1306424;7.2406201;-0.0010000000474974513;1673284707.5319433;-0.2235296070575714;-0.8145719766616821;89.98011016845703
17;1673284707.6291063;47.1306424;7.2406201;-0.0010000000474974513;1673284707.7326763;-0.1737663298845291;-0.815342128276825;90.08964538574219
18;1673284707.8342218;47.1306423;7.2406201;0.0;1673284707.936307;-0.04520299285650253;-0.7455999851226807;89.89706420898438
19;1673284708.0323677;47.1306423;7.2406201;-0.006000000052154064;1673284708.1365857;0.15273867547512054;-1.0773298740386963;90.04991912841797
20;1673284708.23127;47.1306423;7.24062;-0.004000000189989805;1673284708.3355055;-0.10872119665145874;-1.3393137454986572;89.96317291259766
21;1673284708.4334219;47.1306423;7.2406201;-0.007000000216066837;1673284708.5356297;0.03686346486210823;-0.6168867349624634;89.7861099243164
22;1673284708.632561;47.1306423;7.24062;-0.006000000052154064;1673284708.7355115;0.16255000233650208;-1.2248238325119019;89.71652221679688
23;1673284708.8324902;47.1306423;7.24062;-0.004000000189989805;1673284708.9354367;0.43704095482826233;-1.490028977394104;89.96086120605469
24;1673284709.0326731;47.1306423;7.24062;0.0;1673284709.1353385;0.16380120813846588;-0.9518266320228577;89.8216323852539
25;1673284709.231282;47.1306423;7.2406198999999996;0.0020000000949949026;1673284709.33464;0.24036069214344025;-1.1941704750061035;89.30899047851562
26;1673284709.4295835;47.1306424;7.2406198999999996;0.0020000000949949026;1673284709.5357008;0.03325016424059868;-0.5010437965393066;89.22566223144531
27;1673284709.6315215;47.1306424;7.240619799999999;0.0020000000949949026;1673284709.7325523;0.35090363025665283;-0.7055134773254395;89.5953140258789
28;1673284709.8285484;47.1306424;7.2406198999999996;0.0010000000474974513;1673284709.931485;0.5999606847763062;-0.5903013348579407;88.88929748535156
29;1673284710.027419;47.1306425;7.2406198999999996;0.0;1673284710.1312108;0.7566563487052917;-0.8631065487861633;87.98242950439453
30;1673284710.2286859;47.130642599999995;7.240619799999999;-0.006000000052154064;1673284710.3313236;0.126628115773201;-0.5553380846977234;82.9330062866211
31;1673284710.4263413;47.1306429;7.2406196;0.0;1673284710.5314257;-1.221879482269287;2.0399723052978516;81.54344177246094
32;1673284710.6286223;47.130643299999996;7.240618899999999;0.009000000543892384;1673284710.731488;-3.6441216468811035;4.35163688659668;85.96686553955078
33;1673284710.8260765;47.130643899999995;7.2406179999999996;0.024000000208616257;1673284710.9311163;-8.074234008789062;7.685140609741211;87.87105560302734
34;1673284711.0286396;47.1306446;7.2406166999999995;0.0430000014603138;1673284711.1311514;-10.829065322875977;11.92761516571045;87.88888549804688
35;1673284711.2275627;47.1306453;7.2406153;0.0690000057220459;1673284711.330961;-11.85781192779541;13.7753267288208;87.74049377441406
36;1673284711.426537;47.1306461;7.2406139;0.11000000685453415;1673284711.5295591;-13.148688316345215;13.538582801818848;87.88294982910156
37;1673284711.6266448;47.1306468;7.2406125999999995;0.16500000655651093;1673284711.729585;-15.268840789794922;13.714029312133789;87.94058227539062
38;1673284711.8254535;47.1306473;7.2406114;0.2410000115633011;1673284711.9300508;-16.198711395263672;16.64723777770996;87.68376922607422
39;1673284712.0282292;47.130647599999996;7.240610599999999;0.3410000205039978;1673284712.1303487;-17.169200897216797;18.45235824584961;87.49774169921875
40;1673284712.2245815;47.1306478;7.2406101;0.45600003004074097;1673284712.3256507;-19.60344123840332;16.537090301513672;87.89999389648438
41;1673284712.4228299;47.1306477;7.240610299999999;0.5850000381469727;1673284712.524869;-19.91967010498047;16.893205642700195;88.13103485107422
42;1673284712.6220813;47.1306473;7.2406112;0.7280000448226929;1673284712.725725;-18.064537048339844;19.027334213256836;87.6130142211914
43;1673284712.820416;47.1306467;7.240612499999999;0.8890000581741333;1673284712.921474;-16.174596786499023;15.61715316772461;88.27094268798828
44;1673284713.018631;47.1306459;7.240614;1.0660001039505005;1673284713.1197252;-14.49491024017334;12.042651176452637;88.92457580566406
45;1673284713.2188714;47.1306449;7.2406156;1.25600004196167;1673284713.3218923;-12.662107467651367;13.901753425598145;88.1219253540039
46;1673284713.4171576;47.130644;7.240616999999999;1.4560000896453857;1673284713.5221682;-10.790553092956543;12.939874649047852;88.02232360839844
47;1673284713.6173794;47.1306434;7.2406181;1.6560001373291016;1673284713.7259257;-9.869197845458984;8.864252090454102;82.56085205078125
48;1673284713.8216083;47.1306429;7.240619;1.8550001382827759;1673284713.9324386;-10.60999584197998;12.008086204528809;83.03934478759766
49;1673284714.0276484;47.130642599999995;7.2406194;2.0510001182556152;1673284714.1326466;-10.332691192626953;13.193154335021973;83.19552612304688
50;1673284714.228831;47.1306425;7.2406196;2.246000051498413;1673284714.3328373;-11.194961547851562;10.095566749572754;84.20641326904297
51;1673284714.4290771;47.1306424;7.2406196;2.442000150680542;1673284714.5711799;-11.87289047241211;11.556821823120117;84.05213928222656
52;1673284714.6664088;47.1306423;7.2406194;2.6410000324249268;1673284714.7690675;-12.209259986877441;15.19239616394043;83.43511962890625
53;1673284714.8647444;47.1306424;7.2406193;2.8470001220703125;1673284714.9726393;-12.646129608154297;12.438336372375488;83.81526184082031
54;1673284715.068878;47.130642699999996;7.2406191;3.0530002117156982;1673284715.1767716;-13.162397384643555;13.130949974060059;83.88036346435547
55;1673284715.2729573;47.1306429;7.240619;3.252000093460083;1673284715.3760536;-13.134379386901855;17.97870635986328;83.12715911865234
56;1673284715.4732203;47.1306431;7.240619;3.4580001831054688;1673284715.5762358;-13.147727012634277;15.128950119018555;83.6087875366211
57;1673284715.672449;47.1306431;7.2406191;3.6660001277923584;1673284715.775032;-13.277436256408691;12.959924697875977;84.11084747314453
58;1673284715.871709;47.1306428;7.240619199999999;3.872000217437744;1673284715.97571;-12.837740898132324;15.961091041564941;83.26813507080078
59;1673284716.0728507;47.130642599999995;7.240619199999999;4.077000141143799;1673284716.179853;-12.879305839538574;15.023234367370605;83.32462310791016
60;1673284716.2892795;47.1306425;7.2406194;4.285000324249268;1673284716.4030898;-12.808006286621094;11.636290550231934;83.81877136230469
61;1673284716.5041535;47.1306424;7.240619499999999;4.492000102996826;1673284716.6169298;-12.426461219787598;15.105737686157227;83.33213806152344
62;1673284716.7156444;47.1306424;7.2406197;4.693000316619873;1673284716.8249905;-11.999686241149902;15.175867080688477;83.23594665527344
63;1673284716.9339507;47.1306424;7.2406198999999996;4.89300012588501;1673284717.0369806;-12.160667419433594;12.137228012084961;83.84439086914062
64;1673284717.138043;47.1306423;7.24062;5.095000267028809;1673284717.248886;-12.083290100097656;13.500504493713379;83.49163055419922
65;1673284717.3489554;47.130642099999996;7.2406201;5.298000335693359;1673284717.4509954;-11.69763469696045;16.226938247680664;82.95185089111328
66;1673284717.5462387;47.130642099999996;7.2406201999999995;5.502000331878662;1673284717.6482775;-12.015300750732422;12.259954452514648;83.81798553466797
67;1673284717.7459931;47.1306422;7.2406201999999995;5.704000473022461;1673284717.8485236;-12.144739151000977;12.879664421081543;83.55941009521484
68;1673284717.9456854;47.1306423;7.2406201999999995;5.903000354766846;1673284718.0487082;-11.900806427001953;17.301286697387695;82.99005126953125
69;1673284718.1439664;47.1306424;7.2406203;6.104000091552734;1673284718.250842;-11.87657356262207;14.315516471862793;83.62368774414062
70;1673284718.347036;47.1306425;7.2406203;6.304000377655029;1673284718.4500709;-12.348573684692383;12.620734214782715;83.95962524414062
71;1673284718.5462441;47.1306424;7.2406203;6.506000518798828;1673284718.6533031;-12.06943416595459;16.20132827758789;83.04156494140625
72;1673284718.7510896;47.1306423;7.2406201999999995;6.714000225067139;1673284718.8536131;-12.00240707397461;15.236764907836914;83.27545166015625
73;1673284718.9556952;47.1306424;7.2406201;6.9210004806518555;1673284719.0587428;-12.611507415771484;11.98447036743164;83.91948699951172
74;1673284719.1559033;47.1306424;7.2406201;7.124000549316406;1673284719.2589183;-12.353968620300293;15.616408348083496;83.40823364257812
75;1673284719.356093;47.1306424;7.2406201;7.322000503540039;1673284719.4600656;-12.071945190429688;16.42693519592285;83.1920394897461
76;1673284719.5572333;47.1306424;7.2406201;7.517000198364258;1673284719.658305;-12.259847640991211;12.83988094329834;83.78923034667969
77;1673284719.7564785;47.1306423;7.2406201;7.715000152587891;1673284719.8595614;-12.525421142578125;13.775469779968262;83.50059509277344
78;1673284719.9664752;47.1306422;7.2406201;7.914000511169434;1673284720.0734086;-12.117674827575684;16.69953155517578;82.8718490600586
79;1673284720.1705651;47.1306422;7.2406201;8.116000175476074;1673284720.2824063;-12.192354202270508;12.83755874633789;83.85645294189453
80;1673284720.3785813;47.1306423;7.2406201;8.314000129699707;1673284720.4845264;-12.718505859375;12.847396850585938;83.79852294921875
81;1673284720.573881;47.1306423;7.2406201;8.510000228881836;1673284720.681775;-12.164082527160645;17.002296447753906;83.07649993896484
82;1673284720.7799568;47.1306424;7.2406201;8.704000473022461;1673284720.8849208;-12.016464233398438;14.289600372314453;83.46167755126953
83;1673284720.9840348;47.1306424;7.2406201999999995;8.902000427246094;1673284721.082177;-12.584638595581055;12.50293254852295;83.90392303466797
84;1673284721.1783628;47.1306423;7.2406201999999995;9.106000900268555;1673284721.2823882;-12.07576847076416;15.890497207641602;83.15303039550781
85;1673284721.3854177;47.1306422;7.2406201999999995;9.309000015258789;1673284721.4870179;-11.869989395141602;15.31229305267334;83.18701171875
86;1673284721.5837476;47.1306423;7.2406203;9.51300048828125;1673284721.6858377;-12.089699745178223;11.878243446350098;83.92121124267578
87;1673284721.7859771;47.1306423;7.2406203;9.718000411987305;1673284721.888623;-12.081398010253906;15.723082542419434;83.31140899658203
88;1673284721.988757;47.1306423;7.2406203;9.918000221252441;1673284722.0900166;-11.80900764465332;15.878474235534668;83.1053466796875
89;1673284722.1846914;47.1306424;7.2406203;10.117000579833984;1673284722.2857668;-11.5836820602417;12.133819580078125;83.8243408203125
90;1673284722.3862462;47.1306423;7.2406204;10.37600040435791;1673284722.485834;-13.018392562866211;13.818777084350586;83.76078033447266
91;1673284722.580132;47.130642099999996;7.2406206;10.731000900268555;1673284722.6871874;-13.422595977783203;18.217430114746094;83.38423919677734
92;1673284722.7873306;47.1306418;7.240621;11.116000175476074;1673284722.8938718;-11.974992752075195;13.066036224365234;83.92621612548828
93;1673284722.9910786;47.1306416;7.240621399999999;11.51200008392334;1673284723.094114;-11.531237602233887;11.614595413208008;83.78936767578125
94;1673284723.1952477;47.130641499999996;7.240621699999999;11.908000946044922;1673284723.2995055;-10.488227844238281;15.209541320800781;83.03142547607422
95;1673284723.3977098;47.130641399999995;7.240622;12.300000190734863;1673284723.4970748;-10.196789741516113;13.142071723937988;83.25342559814453
96;1673284723.596134;47.130641499999996;7.2406220999999995;12.692000389099121;1673284723.699199;-10.538735389709473;11.124725341796875;83.94754791259766
97;1673284723.7983534;47.130641399999995;7.240622;13.083000183105469;1673284723.8994114;-10.753214836120605;14.210028648376465;83.29145812988281
98;1673284723.994738;47.130641399999995;7.2406219;13.472001075744629;1673284724.0946245;-10.607547760009766;14.6399564743042;83.16044616699219
99;1673284724.1947196;47.130641499999996;7.240621699999999;13.860000610351562;1673284724.2958267;-11.530418395996094;11.367523193359375;83.80815887451172
100;1673284724.396091;47.1306417;7.240621399999999;14.247000694274902;1673284724.4944885;-11.94821834564209;14.990039825439453;83.34140014648438
101;1673284724.5975373;47.1306418;7.240621099999999;14.62600040435791;1673284724.697856;-11.741227149963379;16.079458236694336;83.16313934326172
102;1673284724.7957153;47.1306419;7.2406209;15.003000259399414;1673284724.8976488;-12.118218421936035;13.071362495422363;83.71639251708984
103;1673284724.9977033;47.1306419;7.240620799999999;15.382000923156738;1673284725.1007414;-12.513725280761719;13.720978736877441;83.6937026977539
104;1673284725.201815;47.1306418;7.2406207;15.76300048828125;1673284725.3096952;-12.04333782196045;16.352502822875977;83.21927642822266
105;1673284725.415727;47.1306418;7.2406207;16.148000717163086;1673284725.5128999;-11.891578674316406;13.184638977050781;83.73841857910156
106;1673284725.6063411;47.1306418;7.240620799999999;16.536001205444336;1673284725.7079525;-11.994346618652344;12.362730979919434;83.7385482788086
107;1673284725.8046324;47.1306419;7.240620799999999;16.921001434326172;1673284725.90668;-11.423072814941406;16.604570388793945;82.99098205566406
108;1673284726.003046;47.1306419;7.2406209;17.310001373291016;1673284726.106095;-11.246335983276367;14.11367130279541;83.38729095458984
109;1673284726.2013888;47.130641999999995;7.2406209;17.696001052856445;1673284726.325975;-11.77159595489502;12.370312690734863;83.7351303100586
110;1673284726.4466805;47.1306419;7.2406209;18.07900047302246;1673284726.548681;-11.38869857788086;15.150912284851074;83.14398193359375
111;1673284726.6487708;47.1306418;7.2406209;18.464000701904297;1673284726.758303;-11.407244682312012;15.177252769470215;83.26390075683594
112;1673284726.8579597;47.1306419;7.2406209;18.85300064086914;1673284726.958991;-11.73007869720459;11.794686317443848;83.8685302734375
113;1673284727.0571287;47.1306419;7.2406209;19.238000869750977;1673284727.1641595;-11.727417945861816;14.567109107971191;83.38301849365234
114;1673284727.261373;47.130641999999995;7.240620799999999;19.6200008392334;1673284727.366351;-11.2727632522583;16.168506622314453;83.16178131103516
115;1673284727.4625497;47.130641999999995;7.240620799999999;20.006000518798828;1673284727.5694897;-11.579895973205566;13.062413215637207;83.65255737304688
116;1673284727.6657405;47.130641999999995;7.240620799999999;20.393001556396484;1673284727.7684495;-11.888811111450195;12.65733814239502;83.90896606445312
117;1673284727.866087;47.1306419;7.240620799999999;20.782001495361328;1673284727.9691434;-11.559429168701172;15.583494186401367;83.18042755126953
118;1673284728.0678618;47.1306419;7.2406207;21.168001174926758;1673284728.1763806;-11.357367515563965;14.660238265991211;83.37850189208984
119;1673284728.273688;47.130641999999995;7.2406207;21.5570011138916;1673284728.376774;-11.785789489746094;11.893324851989746;83.87983703613281
120;1673284728.4759674;47.130641999999995;7.2406207;21.942001342773438;1673284728.5770698;-11.656373023986816;14.745585441589355;83.46429443359375
121;1673284728.675033;47.130642099999996;7.2406206;22.33700180053711;1673284728.7766178;-11.484443664550781;16.682355880737305;83.13703918457031
122;1673284728.8757274;47.1306422;7.2406204999999995;22.73200035095215;1673284728.9806967;-11.673395156860352;13.384526252746582;83.7313003540039
123;1673284729.077857;47.1306423;7.2406204999999995;23.12700080871582;1673284729.180879;-11.975586891174316;13.113533020019531;83.80119323730469
124;1673284729.2751095;47.1306422;7.2406204999999995;23.519001007080078;1673284729.378694;-11.349663734436035;15.84951114654541;83.0746841430664
125;1673284729.478357;47.1306422;7.2406204999999995;23.915000915527344;1673284729.5774877;-11.416259765625;15.60125732421875;83.18692016601562
126;1673284729.6727376;47.1306422;7.2406204;24.312000274658203;1673284729.776802;-11.750457763671875;11.744229316711426;83.98181915283203
127;1673284729.8755407;47.1306422;7.2406204;24.70100212097168;1673284729.9800513;-11.751198768615723;14.917281150817871;83.39664459228516
128;1673284730.0782368;47.1306422;7.2406204;25.09800148010254;1673284730.1774428;-11.301579475402832;16.25927734375;83.20708465576172
129;1673284730.277571;47.1306423;7.2406204;25.496000289916992;1673284730.379605;-11.52350902557373;12.697117805480957;83.67595672607422
130;1673284730.4778116;47.1306423;7.2406204;25.8960018157959;1673284730.5809376;-11.687981605529785;14.253116607666016;83.46073913574219
131;1673284730.6783242;47.1306422;7.2406203;26.292001724243164;1673284730.7815752;-11.302083969116211;16.40639305114746;83.02533721923828
132;1673284730.8826404;47.1306422;7.2406203;26.689001083374023;1673284730.9837706;-11.567610740661621;13.50152587890625;83.69050598144531
133;1673284731.0829499;47.130642099999996;7.2406201999999995;27.078001022338867;1673284731.1880193;-11.764060974121094;12.315027236938477;83.7520523071289
134;1673284731.2842638;47.130642099999996;7.2406201999999995;27.46900177001953;1673284731.3874447;-11.622733116149902;16.507156372070312;83.1836929321289
135;1673284731.4847069;47.130642099999996;7.2406201;27.867000579833984;1673284731.5868256;-11.490524291992188;14.206647872924805;83.40558624267578
136;1673284731.6811128;47.1306422;7.2406201;28.26500129699707;1673284731.7842863;-11.77708625793457;12.634552955627441;83.68038940429688
137;1673284731.8843822;47.1306422;7.24062;28.660001754760742;1673284731.9835067;-11.714763641357422;15.784807205200195;83.31546783447266
138;1673284732.0808723;47.1306422;7.24062;29.053001403808594;1673284732.1820228;-11.311077117919922;15.97681713104248;83.2381591796875
139;1673284732.2797322;47.1306422;7.24062;29.44900131225586;1673284732.38815;-11.812281608581543;12.42371654510498;84.01758575439453
140;1673284732.4884014;47.1306422;7.24062;29.840002059936523;1673284732.5894704;-11.581993103027344;14.430253028869629;83.45861053466797
141;1673284732.6876981;47.1306422;7.24062;30.24100112915039;1673284732.8020406;-11.363168716430664;17.021642684936523;83.08490753173828
142;1673284732.8987703;47.1306423;7.24062;30.643001556396484;1673284733.0028188;-11.610507011413574;13.10637378692627;83.7011489868164
143;1673284733.1009955;47.1306423;7.2406198999999996;31.043001174926758;1673284733.2030938;-11.669650077819824;13.62396240234375;83.7193374633789
144;1673284733.2984881;47.1306423;7.24062;31.439001083374023;1673284733.3991613;-11.447426795959473;16.354141235351562;83.14693450927734
145;1673284733.4934506;47.1306422;7.2406198999999996;31.838001251220703;1673284733.5940347;-11.53381633758545;14.26861572265625;83.46400451660156
146;1673284733.6892953;47.1306422;7.2406198999999996;32.229000091552734;1673284733.7943594;-11.851634979248047;12.276477813720703;83.80606079101562
147;1673284733.8906267;47.130642099999996;7.2406198999999996;32.62200164794922;1673284733.9936666;-11.623480796813965;16.026813507080078;83.25308990478516
148;1673284734.0915139;47.130642099999996;7.2406198999999996;33.022003173828125;1673284734.1940634;-11.359678268432617;15.220621109008789;83.29852294921875
149;1673284734.2913263;47.1306422;7.2406198999999996;33.42100143432617;1673284734.3933907;-11.916918754577637;12.44830322265625;83.73221588134766
150;1673284734.4934947;47.1306422;7.2406198999999996;33.819000244140625;1673284734.602367;-11.798412322998047;15.1170072555542;83.48473358154297
151;1673284734.70058;47.1306422;7.2406198999999996;34.220001220703125;1673284734.8027043;-11.350659370422363;16.23086929321289;83.11190795898438
152;1673284734.8999286;47.1306422;7.2406198999999996;34.62200164794922;1673284735.0009983;-11.62526798248291;12.839428901672363;83.79998016357422
153;1673284735.0972042;47.1306422;7.24062;35.0150032043457;1673284735.2003527;-11.741498947143555;13.518895149230957;83.55084228515625
154;1673284735.2985086;47.1306422;7.24062;35.40999984741211;1673284735.4109092;-11.288729667663574;17.063337326049805;82.96414184570312
155;1673284735.5071018;47.1306423;7.24062;35.810001373291016;1673284735.6131146;-11.477940559387207;13.931663513183594;83.5343017578125
156;1673284735.708525;47.1306424;7.24062;36.21000289916992;1673284735.8135028;-11.679522514343262;13.183097839355469;83.90251922607422
157;1673284735.9116495;47.1306424;7.2406201;36.611000061035156;1673284736.013695;-11.370691299438477;16.59793472290039;83.12600708007812
158;1673284736.1108618;47.1306424;7.2406201;37.0150032043457;1673284736.2168097;-11.226168632507324;15.314311027526855;83.36564636230469
159;1673284736.3139758;47.1306423;7.2406201999999995;37.410003662109375;1673284736.4160192;-11.688294410705566;11.991456985473633;83.97358703613281
160;1673284736.5151353;47.1306423;7.2406201;37.80900192260742;1673284736.6171763;-11.699820518493652;15.173530578613281;83.2674789428711
161;1673284736.7115092;47.1306423;7.2406201;38.2130012512207;1673284736.8193996;-11.195899963378906;16.20665740966797;83.20111846923828
162;1673284736.9137225;47.1306424;7.2406201;38.6150016784668;1673284737.0148027;-11.552910804748535;12.75219440460205;83.69916534423828
163;1673284737.1100652;47.130642599999995;7.2406201999999995;39.01300048828125;1673284737.2121537;-11.710369110107422;14.971059799194336;83.5060043334961
164;1673284737.3068874;47.130642599999995;7.2406201999999995;39.41400146484375;1673284737.4114714;-11.10793685913086;16.85093116760254;83.20282745361328
165;1673284737.5090976;47.130642699999996;7.2406201999999995;39.81700134277344;1673284737.6118915;-11.469160079956055;13.79980182647705;83.61595916748047
166;1673284737.7076268;47.130642599999995;7.2406201999999995;40.21200180053711;1673284737.8162131;-11.715972900390625;13.018579483032227;83.79865264892578
167;1673284737.9154215;47.130642599999995;7.2406201999999995;40.61000061035156;1673284738.0125911;-11.388917922973633;17.125930786132812;83.1108169555664
168;1673284738.1087432;47.130642599999995;7.2406201999999995;41.01100158691406;1673284738.2118664;-11.337882995605469;14.724652290344238;83.50357055664062
169;1673284738.3127177;47.130642699999996;7.2406201;41.4170036315918;1673284738.4147968;-11.694401741027832;13.111429214477539;83.69284057617188
170;1673284738.5140853;47.130642699999996;7.2406201;41.81800079345703;1673284738.61426;-11.470003128051758;16.455669403076172;83.20642852783203
171;1673284738.7144768;47.130642599999995;7.2406201;42.21900177001953;1673284738.826416;-11.162650108337402;15.737913131713867;83.38058471679688
172;1673284738.9226558;47.130642599999995;7.2406201;42.612003326416016;1673284739.040312;-11.766031265258789;12.162727355957031;84.00740814208984
173;1673284739.1405127;47.1306425;7.2406201;43.01100158691406;1673284739.2483654;-11.51728343963623;14.310954093933105;83.50479888916016
174;1673284739.3416278;47.1306425;7.2406201;43.415000915527344;1673284739.4446661;-11.41380500793457;17.249492645263672;83.09088897705078
175;1673284739.542785;47.130642599999995;7.2406201;43.82100296020508;1673284739.6439438;-11.338041305541992;13.8285551071167;83.5760269165039
176;1673284739.7391922;47.1306428;7.2406201;44.22700119018555;1673284739.843205;-11.713814735412598;13.671189308166504;83.78594970703125
177;1673284739.9404562;47.1306428;7.2406201;44.630001068115234;1673284740.0435033;-11.251669883728027;16.999858856201172;83.13426208496094
178;1673284740.1397874;47.130642699999996;7.2406201;45.02900314331055;1673284740.2428067;-11.27553653717041;14.785225868225098;83.42010498046875
179;1673284740.3399749;47.130642599999995;7.2406201;45.42100143432617;1673284740.448858;-11.66309642791748;12.424530982971191;83.91498565673828
180;1673284740.5480676;47.130642599999995;7.2406201;45.820003509521484;1673284740.6510885;-11.397632598876953;16.29928970336914;83.19242858886719
181;1673284740.7492602;47.130642599999995;7.24062;46.22500228881836;1673284740.8503256;-11.220076560974121;15.741884231567383;83.25637817382812
182;1673284740.9484649;47.130642699999996;7.24062;46.62800216674805;1673284741.0505123;-11.721099853515625;12.72808837890625;83.72856903076172
183;1673284741.147691;47.130642699999996;7.2406198999999996;47.031002044677734;1673284741.254594;-11.609964370727539;15.531128883361816;83.49163055419922
184;1673284741.34785;47.130642699999996;7.2406198999999996;47.435001373291016;1673284741.4508712;-11.32441520690918;16.700159072875977;83.17835998535156
185;1673284741.54413;47.130642599999995;7.2406198999999996;47.829002380371094;1673284741.6442955;-11.571675300598145;12.6535005569458;83.93165588378906
186;1673284741.7406027;47.130642599999995;7.2406198999999996;48.21200180053711;1673284741.8494608;-12.046154975891113;16.06096839904785;83.52249145507812
187;1673284741.9437013;47.130642599999995;7.240619799999999;48.551002502441406;1673284742.0496535;-11.517589569091797;16.71613311767578;83.31968688964844
188;1673284742.14584;47.130642699999996;7.2406197;48.842002868652344;1673284742.2498386;-11.862773895263672;13.480691909790039;83.7944564819336
189;1673284742.345041;47.1306429;7.240619499999999;49.0880012512207;1673284742.445133;-12.200153350830078;14.76441764831543;83.66490936279297
190;1673284742.5413222;47.130643;7.2406193;49.29300308227539;1673284742.6550708;-8.251441955566406;19.471027374267578;83.00061798095703
191;1673284742.7589166;47.130643199999994;7.240618899999999;49.45900344848633;1673284742.8606281;-2.325446367263794;17.040451049804688;78.69263458251953
192;1673284742.9622464;47.130643299999996;7.2406181;49.53700256347656;1673284743.0653033;-17.055978775024414;21.19770622253418;65.99322509765625
193;1673284743.1625688;47.1306434;7.2406172;49.54500198364258;1673284743.2756178;7.612709999084473;20.420188903808594;57.65211486816406
194;1673284743.4073465;47.130643199999994;7.2406166;49.55900192260742;1673284743.5073776;14.459702491760254;17.614694595336914;45.50267028808594
195;1673284743.6123526;47.130642599999995;7.2406152;49.59100341796875;1673284743.728631;2.1263720989227295;22.385343551635742;35.24104690551758
196;1673284743.8284993;47.1306418;7.240613799999999;49.643001556396484;1673284743.9358878;11.168197631835938;20.53071403503418;27.707683563232422
197;1673284744.0364227;47.130640899999996;7.2406125999999995;49.68800354003906;1673284744.1407266;11.989047050476074;20.090585708618164;18.13893699645996
198;1673284744.2353642;47.1306399;7.240611299999999;49.717002868652344;1673284744.336309;12.862183570861816;17.972270965576172;9.16502857208252
199;1673284744.4315658;47.1306389;7.240610299999999;49.746002197265625;1673284744.5337133;14.8449068069458;15.234254837036133;0.43164315819740295
200;1673284744.6373706;47.1306381;7.240609399999999;49.775001525878906;1673284744.7395287;16.633005142211914;11.7611083984375;-8.513073921203613
201;1673284744.8475351;47.1306374;7.2406087999999995;49.80500411987305;1673284744.9454901;17.44237518310547;7.999244689941406;-17.46324920654297
202;1673284745.0463426;47.130637;7.240608399999999;49.83700180053711;1673284745.152511;17.43301773071289;5.572653293609619;-26.07886505126953
203;1673284745.2484505;47.1306367;7.240608099999999;49.86900329589844;1673284745.3537657;17.595735549926758;4.480806827545166;-34.288246154785156
204;1673284745.4535086;47.130636599999995;7.240607799999999;49.897003173828125;1673284745.5534663;17.757598876953125;3.6962890625;-42.68084716796875
205;1673284745.6565795;47.1306365;7.2406077;49.91100311279297;1673284745.7547698;17.820682525634766;0.9672175645828247;-50.570499420166016
206;1673284745.8509657;47.130636599999995;7.240607499999999;49.928001403808594;1673284745.948122;19.673091888427734;-1.5191023349761963;-51.07838821411133
207;1673284746.0540693;47.1306368;7.2406068999999995;49.948001861572266;1673284746.1522286;21.484525680541992;-1.9751486778259277;-48.375640869140625
208;1673284746.2416053;47.1306369;7.2406063;49.96600341796875;1673284746.3544097;21.752521514892578;-3.0654594898223877;-46.7080078125
209;1673284746.4585516;47.130637;7.2406057;49.97800064086914;1673284746.575226;21.551786422729492;-3.395016670227051;-46.1882209777832
210;1673284746.682146;47.130637;7.2406052;49.98800277709961;1673284746.7814293;21.110536575317383;-2.347116470336914;-45.69359588623047
211;1673284746.8883479;47.1306368;7.240604899999999;49.98400115966797;1673284746.9943113;20.34229278564453;0.2783392667770386;-45.429176330566406
212;1673284747.1022646;47.1306365;7.2406047;49.9890022277832;1673284747.2044864;20.32981300354004;2.8492629528045654;-45.45645523071289
213;1673284747.299819;47.1306362;7.240604599999999;50.000003814697266;1673284747.4038186;20.94546127319336;3.717846393585205;-45.39729690551758
214;1673284747.5019894;47.130635899999994;7.2406045;50.009002685546875;1673284747.6020908;21.375232696533203;2.2461066246032715;-45.540985107421875
215;1673284747.701238;47.1306357;7.2406045;50.0160026550293;1673284747.802361;19.399438858032227;-0.2184300422668457;-46.14209747314453
216;1673284747.9005373;47.1306357;7.2406045;50.01700210571289;1673284748.0036163;-11.11584758758545;0.520919144153595;-48.04182815551758
217;1673284748.1037645;47.1306364;7.240603699999999;50.01100158691406;1673284748.2019992;-41.673038482666016;1.014986515045166;-49.02873229980469
218;1673284748.2942643;47.1306388;7.2406004;49.93700408935547;1673284748.3953888;-37.41349792480469;0.04897846281528473;-47.29294204711914
219;1673284748.4933462;47.130643199999994;7.2405938;49.8640022277832;1673284748.610128;-40.33083724975586;0.005566237028688192;-46.82840347290039
220;1673284748.712985;47.130649299999995;7.2405842;49.81100082397461;1673284748.8154943;-37.608428955078125;1.105744481086731;-47.232505798339844
221;1673284748.9153779;47.130657;7.2405716;49.75600051879883;1673284749.0233915;-31.043033599853516;3.379082679748535;-47.835269927978516
222;1673284749.1211824;47.130665799999996;7.2405569;49.70500183105469;1673284749.2215285;-28.244293212890625;2.9982683658599854;-48.01682662963867
223;1673284749.3166466;47.1306756;7.2405406;49.68000411987305;1673284749.445334;-33.89732360839844;2.238124132156372;-47.87303924560547
224;1673284749.5513954;47.130686399999995;7.2405227;49.68600082397461;1673284749.6580343;-41.86857986450195;1.305280327796936;-47.50321578979492
225;1673284749.7545052;47.1306985;7.2405028;49.71200180053711;1673284749.85233;-48.319061279296875;1.1298506259918213;-47.65625762939453
226;1673284749.9446034;47.1307122;7.2404806;49.75600051879883;1673284750.0479467;-54.73976135253906;2.6031453609466553;-47.895103454589844
227;1673284750.1455204;47.130727799999995;7.240455799999999;49.81700134277344;1673284750.2499058;-59.32670593261719;2.0892789363861084;-47.31689453125
228;1673284750.3394296;47.1307452;7.240428;49.884002685546875;1673284750.4425676;-58.24409866333008;1.743980050086975;-46.18263626098633
229;1673284750.5380003;47.1307644;7.2403976;49.927001953125;1673284750.6404984;-56.50933074951172;2.3402113914489746;-46.37904357910156
230;1673284750.7466404;47.130784899999995;7.240365199999999;49.941001892089844;1673284750.841478;-55.37945556640625;2.885683059692383;-46.87636947631836
231;1673284750.9374428;47.1308064;7.2403315;49.93600082397461;1673284751.0424132;-52.33323669433594;3.3642611503601074;-46.9041748046875
232;1673284751.1423464;47.130828799999996;7.2402966;49.92400360107422;1673284751.2490659;-21.101516723632812;4.364903926849365;-46.49058151245117
233;1673284751.3403738;47.130851199999995;7.240261899999999;49.91200256347656;1673284751.443154;26.67706871032715;3.680316209793091;-46.58480453491211
234;1673284751.5424073;47.130872;7.2402301;49.84400177001953;1673284751.643173;29.90840721130371;0.5665042996406555;-45.841087341308594
235;1673284751.751459;47.130890699999995;7.2402016;49.58100128173828;1673284751.8633924;18.000333786010742;-0.9616795778274536;-47.00285720825195
236;1673284751.9624517;47.1309067;7.2401770999999995;49.320003509521484;1673284752.0643795;15.937280654907227;-0.670997142791748;-47.79313659667969
237;1673284752.1584277;47.1309198;7.2401566;49.189002990722656;1673284752.255438;29.0406551361084;-1.2659282684326172;-48.48959732055664
238;1673284752.3615296;47.130930899999996;7.240139699999999;49.27000045776367;1673284752.4645846;57.42180633544922;-1.4628236293792725;-48.96689224243164
239;1673284752.5566795;47.130938799999996;7.2401281;49.406002044677734;1673284752.655343;58.165008544921875;-1.5226691961288452;-47.766414642333984
240;1673284752.7591875;47.130942999999995;7.2401221;49.566001892089844;1673284752.8694584;62.534332275390625;-1.3048714399337769;-48.02967071533203
241;1673284752.96826;47.1309441;7.2401212;49.711002349853516;1673284753.0684357;62.29369354248047;-1.5309525728225708;-47.266231536865234
242;1673284753.1607084;47.1309421;7.240125;49.832000732421875;1673284753.2676241;61.01421356201172;-2.0744986534118652;-47.433067321777344
243;1673284753.3628526;47.130937599999996;7.2401322;49.913002014160156;1673284753.4766655;57.43079376220703;-2.148991823196411;-47.25624084472656
244;1673284753.56845;47.1309311;7.2401418;49.961002349853516;1673284753.6618285;50.56247329711914;-1.7777634859085083;-47.45626449584961
245;1673284753.7515013;47.1309234;7.2401531;49.980003356933594;1673284753.8483298;40.52328872680664;-1.8095978498458862;-47.63579559326172
246;1673284753.9394789;47.1309153;7.240164999999999;49.967002868652344;1673284754.04251;25.913972854614258;-0.7988557815551758;-47.88958740234375
247;1673284754.1369588;47.1309073;7.240176399999999;49.93800354003906;1673284754.2350807;13.305856704711914;0.5046478509902954;-48.166439056396484
248;1673284754.32937;47.1309;7.2401865999999995;49.89600372314453;1673284754.4310997;3.059951066970825;1.6780122518539429;-47.86307907104492
249;1673284754.528224;47.130894;7.240195;49.85400390625;1673284754.6321318;-1.8556196689605713;3.876073122024536;-47.04838943481445
250;1673284754.7330184;47.1308897;7.2402007;49.823001861572266;1673284754.8345695;-7.981009006500244;-4.240825176239014;-46.35256576538086
251;1673284754.9317575;47.130886;7.2402058;49.53300094604492;1673284755.0386915;-29.010271072387695;-9.604482650756836;-41.646934509277344
252;1673284755.1339917;47.1308824;7.2402105;48.86900329589844;1673284755.2428741;-57.06495666503906;-20.493114471435547;-29.210330963134766
253;1673284755.3379648;47.130879;7.2402152;47.823001861572266;1673284755.4424887;-77.44579315185547;-72.55455780029297;26.305768966674805
254;1673284755.5386972;47.130875499999995;7.240219799999999;46.406002044677734;1673284755.6438632;-72.7103271484375;-126.60228729248047;85.7054214477539
255;1673284755.743033;47.1308721;7.2402244;44.62800216674805;1673284755.8478816;-72.24082946777344;-107.45291900634766;73.61608123779297
256;1673284755.9394758;47.130868799999995;7.2402289;42.492000579833984;1673284756.0418725;-63.486270904541016;-40.73533630371094;15.093655586242676
257;1673284756.1448832;47.1308655;7.240233099999999;39.98100280761719;1673284756.2516532;-28.581655502319336;-9.901390075683594;-7.875431537628174
258;1673284756.3490207;47.130862;7.2402374;37.10000228881836;1673284756.4618292;11.852325439453125;0.014239734970033169;-11.581689834594727
259;1673284756.5662346;47.1308587;7.2402416;33.827003479003906;1673284756.6713216;35.67201232910156;0.9274557828903198;-12.012299537658691
260;1673284756.7600496;47.1308557;7.2402456;30.185001373291016;1673284756.8514082;31.588848114013672;-5.57352876663208;-12.569878578186035
261;1673284756.9429224;47.130852999999995;7.240249299999999;26.185001373291016;1673284757.0496674;1.0456918478012085;-14.600268363952637;-7.3022308349609375
262;1673284757.1620865;47.1308508;7.2402527999999995;21.80000114440918;1673284757.2694778;-36.79563522338867;-26.59901237487793;6.50541353225708
263;1673284757.369738;47.1308485;7.2402562999999995;17.003000259399414;1673284757.4620802;-55.800559997558594;-34.63840866088867;20.6110782623291
264;1673284757.553434;47.1308459;7.2402599;11.870000839233398;1673284757.6558928;-45.23255157470703;-15.91677188873291;10.902645111083984
265;1673284757.7502375;47.1308429;7.2402637;6.402000427246094;1673284757.854436;-5.813688278198242;0.17454801499843597;3.319988965988159
266;1673284757.9519506;47.130839699999996;7.240267299999999;0.5560000538825989;1673284758.06665;4.200307846069336;-19.09349250793457;7.681625843048096
267;1673284758.1664317;47.1308286;7.240256199999999;-0.3190000057220459;1673284758.2653668;-11.694944381713867;-17.169902801513672;13.812973022460938
268;1673284758.3660688;47.130814;7.240244;-0.5330000519752502;1673284758.4745212;-15.488073348999023;-17.428749084472656;14.68298625946045
269;1673284758.566525;47.1307986;7.240232;-0.7270000576972961;1673284758.6689324;-4.8290534019470215;-18.78425407409668;11.051187515258789
270;1673284758.7625759;47.130781899999995;7.2402182999999996;-1.0220000743865967;1673284758.8730075;21.51756477355957;-20.354656219482422;2.7047393321990967
271;1673284758.9700534;47.1307652;7.240202999999999;-1.2320001125335693;1673284759.0955465;13.098774909973145;-19.501012802124023;5.50959587097168
272;1673284759.1932056;47.130748399999995;7.2401862999999995;-1.3890000581741333;1673284759.2960415;15.06455135345459;-22.144317626953125;4.8076558113098145
273;1673284759.3814113;47.130731399999995;7.240168499999999;-1.5170000791549683;1673284759.4704154;15.20380687713623;-23.062166213989258;4.7444071769714355
274;1673284759.5582833;47.1307143;7.240149799999999;-1.630000114440918;1673284759.661125;15.059675216674805;-22.92422866821289;4.732831001281738
275;1673284759.7711496;47.1306969;7.2401301;-1.7360000610351562;1673284759.8755012;14.912431716918945;-22.58518409729004;4.735944747924805
276;1673284759.9693425;47.130678499999995;7.2401088;-1.943000078201294;1673284760.072045;14.8064546585083;-22.135862350463867;4.714414596557617
277;1673284760.1682782;47.130660299999995;7.240087099999999;-2.0880000591278076;1673284760.2653463;14.593914031982422;-21.609737396240234;4.802196979522705
278;1673284760.3651438;47.1306423;7.2400649999999995;-2.19100022315979;1673284760.469307;14.35499095916748;-21.091379165649414;4.888462066650391
279;1673284760.5661402;47.1306243;7.2400424;-2.265000104904175;1673284760.6638644;14.172472953796387;-20.527759552001953;4.968285083770752
280;1673284760.7581434;47.1306064;7.2400193999999995;-2.324000120162964;1673284760.8631284;13.911731719970703;-19.953332901000977;5.062117099761963
281;1673284760.9663446;47.1305884;7.239995899999999;-2.372000217437744;1673284761.0721457;13.702253341674805;-19.428974151611328;5.141331195831299
282;1673284761.1660624;47.130570399999996;7.239972;-2.4100000858306885;1673284761.2641945;13.530084609985352;-18.895341873168945;5.1968464851379395
283;1673284761.3593028;47.1305507;7.2399455999999995;-2.561000108718872;1673284761.463114;13.337686538696289;-18.42353057861328;5.203982830047607
284;1673284761.55827;47.1305317;7.2399197;-2.6480002403259277;1673284761.6624813;13.10960578918457;-17.880142211914062;5.303365707397461
285;1673284761.759356;47.130513199999996;7.239894;-2.686000108718872;1673284761.8682082;12.941912651062012;-17.28402328491211;5.388706684112549
286;1673284761.9624703;47.1304948;7.2398682999999995;-2.696000099182129;1673284762.0732634;12.695149421691895;-16.745935440063477;5.500296592712402
287;1673284762.1706738;47.1304764;7.239842299999999;-2.68500018119812;1673284762.279258;12.399231910705566;-16.16366195678711;5.616428852081299
288;1673284762.3796358;47.130458;7.2398161;-2.6560001373291016;1673284762.4791842;12.205390930175781;-15.621529579162598;5.657655239105225
289;1673284762.5670605;47.1304375;7.2397865999999995;-2.739000082015991;1673284762.6632478;12.101065635681152;-15.202690124511719;5.646340847015381
290;1673284762.7722852;47.1304176;7.2397579;-2.764000177383423;1673284762.8762774;11.877738952636719;-14.737517356872559;5.7177863121032715
291;1673284762.9656758;47.130398;7.239729499999999;-2.745000123977661;1673284763.067046;11.696537017822266;-14.2434663772583;5.7434000968933105
292;1673284763.1681082;47.1303784;7.2397008;-2.704000234603882;1673284763.2711968;11.505044937133789;-13.80933952331543;5.7809648513793945
293;1673284763.3670774;47.130358699999995;7.239671899999999;-2.6430001258850098;1673284763.4703703;11.378847122192383;-13.403091430664062;5.813369274139404
294;1673284763.5613294;47.1303529;7.2396633999999995;-2.578000068664551;1673284763.660296;11.247032165527344;-12.981500625610352;5.8234333992004395
295;;;;;1673284763.8712995;11.089770317077637;-12.633204460144043;5.814349174499512
296;;;;;1673284764.0682838;10.976826667785645;-12.283641815185547;5.774470329284668
297;;;;;1673284764.2662344;10.782686233520508;-11.90516185760498;5.794370651245117
298;;;;;1673284764.469575;10.590914726257324;-11.553276062011719;5.775418758392334
299;;;;;1673284764.6654844;10.375683784484863;-11.212654113769531;5.776269435882568
300;;;;;1673284764.8760824;10.330961227416992;-10.525162696838379;5.73107385635376
301;;;;;1673284765.0823882;10.20411491394043;-10.193416595458984;5.706724643707275
302;;;;;1673284765.2751012;10.180074691772461;-9.882368087768555;5.644217014312744
