;pos_time;latitude;longitude;altitude;alt_time;pitch;roll;yaw
0;1673281823.3490763;47.1306423;7.2406198999999996;-0.01600000075995922;1673281823.5288067;-0.07897036522626877;-0.0030776732601225376;90.41033172607422
1;1673281823.5513072;47.1306424;7.2406198999999996;-0.014000000432133675;1673281823.7409127;0.1255703568458557;-0.009203154593706131;90.25582885742188
2;1673281823.7575104;47.1306424;7.240619799999999;-0.014000000432133675;1673281823.9470656;0.07493787258863449;0.21419885754585266;90.38790893554688
3;1673281823.964648;47.1306424;7.240619799999999;-0.015000000596046448;1673281824.141422;0.13754421472549438;-0.07677403837442398;90.4104232788086
4;1673281824.1600041;47.1306424;7.240619799999999;-0.014000000432133675;1673281824.3352487;0.12444733083248138;-0.06089458242058754;90.47872161865234
5;1673281824.3514547;47.1306424;7.240619799999999;-0.015000000596046448;1673281824.5283341;0.13047900795936584;-0.028432099148631096;90.4728012084961
6;1673281824.551829;47.1306424;7.240619799999999;-0.01900000125169754;1673281824.7310328;-0.14693939685821533;-0.014487292617559433;90.44776153564453
7;1673281824.7472544;47.1306424;7.2406198999999996;-0.020000001415610313;1673281824.9323523;-0.05450442060828209;0.20840778946876526;90.25916290283203
8;1673281824.9446971;47.1306423;7.24062;-0.023000001907348633;1673281825.1218846;0.1662309318780899;-0.18012461066246033;90.24889373779297
9;1673281825.141008;47.1306423;7.24062;-0.024000000208616257;1673281825.3251069;0.08928944170475006;-0.10699006170034409;90.42340850830078
10;1673281825.3413103;47.1306423;7.24062;-0.02500000037252903;1673281825.515718;0.13120003044605255;0.042615678161382675;90.4438705444336
11;1673281825.5371947;47.1306423;7.24062;-0.02500000037252903;1673281825.7218754;0.1762222945690155;-0.02128709852695465;90.50533294677734
12;1673281825.7404587;47.1306423;7.2406198999999996;-0.02500000037252903;1673281825.9406738;-0.18292251229286194;-0.43368834257125854;90.50513458251953
13;1673281825.9558892;47.1306424;7.2406198999999996;0.0;1673281826.1311493;-0.009385719895362854;-0.7710672616958618;90.57654571533203
14;1673281826.1503189;47.1306424;7.2406198999999996;-0.0020000000949949026;1673281826.3325257;0.029298601672053337;-0.5770066380500793;90.52794647216797
15;1673281826.3594744;47.1306424;7.2406198999999996;-0.003000000026077032;1673281826.5490625;-0.10657979547977448;-0.7075793743133545;90.5330810546875
16;1673281826.5675788;47.1306424;7.2406198999999996;-0.003000000026077032;1673281826.748201;0.02126678079366684;-0.5927861332893372;90.61638641357422
17;1673281826.7628431;47.1306424;7.2406198999999996;-0.0020000000949949026;1673281826.951872;-0.03350624069571495;-0.755484402179718;90.58519744873047
18;1673281826.9724567;47.1306424;7.2406198999999996;0.0;1673281827.1417503;-0.1819595843553543;-1.3485990762710571;90.67098236083984
19;1673281827.1559253;47.1306424;7.24062;0.0;1673281827.3338578;-0.29624152183532715;-0.7594857811927795;90.76509857177734
20;1673281827.35262;47.1306424;7.24062;-0.0010000000474974513;1673281827.5348003;-0.3367362916469574;-1.2594170570373535;90.6751480102539
21;1673281827.5560117;47.1306424;7.2406201;-0.0010000000474974513;1673281827.7466662;-0.13427895307540894;-0.36039403080940247;90.73565673828125
22;1673281827.7616322;47.1306424;7.2406201;0.0;1673281827.947002;-0.4312695264816284;-0.2951768934726715;90.83675384521484
23;1673281827.9628515;47.1306424;7.2406201;0.0;1673281828.129969;-0.33173826336860657;-0.5381162762641907;90.64491271972656
24;1673281828.146725;47.1306424;7.24062;-0.0020000000949949026;1673281828.3508658;-0.2858012020587921;-0.6229584217071533;90.89527893066406
25;1673281828.3677485;47.1306425;7.24062;-0.003000000026077032;1673281828.5556352;-0.14643248915672302;-0.5567725300788879;91.05037689208984
26;1673281828.572903;47.1306425;7.2406198999999996;-0.00800000037997961;1673281828.7589736;-0.32992634177207947;-0.34903275966644287;91.3831787109375
27;1673281828.7756405;47.130642599999995;7.2406198999999996;-0.014000000432133675;1673281828.9527192;-0.5884020328521729;-0.5049841403961182;91.69627380371094
28;1673281828.9717453;47.130642699999996;7.24062;-0.018000001087784767;1673281829.1539817;0.06907519698143005;-0.07522702217102051;94.74359893798828
29;1673281829.1667168;47.1306429;7.24062;-0.020000001415610313;1673281829.3497865;-0.12993618845939636;0.09397587180137634;100.43728637695312
30;1673281829.3689768;47.1306431;7.2406204;-0.01900000125169754;1673281829.5546484;1.392548680305481;3.121058464050293;100.27348327636719
31;1673281829.5690546;47.1306434;7.240621;-0.00800000037997961;1673281829.7299116;5.452481269836426;6.02911376953125;94.97782897949219
32;1673281829.7458596;47.130643899999995;7.2406217999999996;0.00800000037997961;1673281829.9410338;9.82111644744873;10.011260032653809;93.50444793701172
33;1673281829.9566905;47.130644499999995;7.2406229;0.026000000536441803;1673281830.1459725;12.489521026611328;13.44668197631836;93.7431411743164
34;1673281830.1657884;47.1306452;7.2406241;0.04800000041723251;1673281830.362952;13.003087997436523;14.837263107299805;93.9222640991211
35;1673281830.3798673;47.130645799999996;7.2406253;0.08300000429153442;1673281830.559951;14.241472244262695;14.888547897338867;93.93565368652344
36;1673281830.5766747;47.130646299999995;7.2406264;0.13300000131130219;1673281830.7722938;16.07232093811035;15.173686027526855;93.94994354248047
37;1673281830.786981;47.1306467;7.240627399999999;0.19700001180171967;1673281831.0014124;17.26490592956543;17.43719482421875;94.08920288085938
38;1673281831.023882;47.130646899999995;7.240628;0.2720000147819519;1673281831.1787014;18.24805450439453;18.310049057006836;93.87540435791016
39;1673281831.198774;47.130646899999995;7.2406282;0.3630000054836273;1673281831.3662436;20.109468460083008;16.69658660888672;93.31342315673828
40;1673281831.3828325;47.1306467;7.2406277999999995;0.46700000762939453;1673281831.561733;19.646595001220703;15.790019989013672;92.4960708618164
41;1673281831.575385;47.1306462;7.2406269;0.5770000219345093;1673281831.740441;17.735342025756836;17.02667999267578;91.70759582519531
42;1673281831.7580075;47.1306456;7.2406257;0.6960000395774841;1673281831.956272;15.896167755126953;11.788299560546875;90.00920104980469
43;1673281831.9718752;47.1306449;7.2406242999999995;0.8250000476837158;1673281832.151564;14.376886367797852;10.917975425720215;88.78714752197266
44;1673281832.165232;47.1306442;7.2406229;0.9610000252723694;1673281832.332379;13.332307815551758;12.979247093200684;87.90699005126953
45;1673281832.3470232;47.1306436;7.2406216;1.1100000143051147;1673281832.5346456;12.8346586227417;9.702765464782715;86.4677734375
46;1673281832.5736861;47.1306431;7.2406204999999995;1.2760000228881836;1673281832.7641275;12.567691802978516;8.652307510375977;85.38140869140625
47;1673281832.7817;47.1306428;7.240619799999999;1.4550000429153442;1673281832.945852;12.944957733154297;12.487039566040039;90.61415100097656
48;1673281832.9614718;47.130642699999996;7.2406194;1.6450001001358032;1673281833.1373343;12.488848686218262;11.158652305603027;88.95238494873047
49;1673281833.153926;47.130642699999996;7.240619199999999;1.840000033378601;1673281833.35811;13.76848030090332;8.973454475402832;87.28119659423828
50;1673281833.3776486;47.130642699999996;7.240619199999999;2.0350000858306885;1673281833.5693412;14.879250526428223;12.273398399353027;86.65033721923828
51;1673281833.5937393;47.130642599999995;7.2406194;2.2280001640319824;1673281833.7783897;15.892473220825195;11.307962417602539;85.60260772705078
52;1673281833.7931123;47.1306425;7.2406197;2.4210000038146973;1673281833.9582098;16.238008499145508;8.381017684936523;84.3651123046875
53;1673281833.971873;47.130642599999995;7.240619799999999;2.6130001544952393;1673281834.1340823;16.49433135986328;11.234658241271973;83.92300415039062
54;1673281834.1506846;47.130642599999995;7.24062;2.806000232696533;1673281834.3529522;16.83721160888672;11.89444637298584;83.8466567993164
55;1673281834.3695786;47.130642599999995;7.2406201;3.00600004196167;1673281834.533773;16.880836486816406;8.846332550048828;83.44159698486328
56;1673281834.55724;47.130642699999996;7.2406201999999995;3.207000255584717;1673281834.7302833;16.599594116210938;11.000165939331055;83.81450653076172
57;1673281834.7497966;47.130642699999996;7.2406201999999995;3.4040000438690186;1673281834.922756;16.494524002075195;12.449563026428223;84.05699157714844
58;1673281834.9373527;47.1306425;7.2406201999999995;3.5970001220703125;1673281835.1142125;16.333498001098633;8.750590324401855;83.63317108154297
59;1673281835.1337519;47.1306425;7.2406201;3.7930002212524414;1673281835.3202572;15.70140552520752;10.42747974395752;83.70721435546875
60;1673281835.3378196;47.130642599999995;7.2406198999999996;3.9880001544952393;1673281835.530368;15.557988166809082;13.138737678527832;84.12670135498047
61;1673281835.549914;47.130642599999995;7.240619799999999;4.183000087738037;1673281835.736483;15.61025619506836;9.8159818649292;83.84347534179688
62;1673281835.7501462;47.130642599999995;7.2406197;4.379000186920166;1673281835.9377487;15.540754318237305;9.808623313903809;83.74895477294922
63;1673281835.954379;47.130642599999995;7.2406196;4.576000213623047;1673281836.137006;15.61109447479248;12.710018157958984;83.9727783203125
64;1673281836.1555731;47.1306425;7.2406196;4.77400016784668;1673281836.3381906;15.803743362426758;10.165168762207031;83.78327941894531
65;1673281836.3557587;47.1306424;7.2406197;4.9720001220703125;1673281836.5511332;15.516937255859375;9.227272987365723;83.8359146118164
66;1673281836.567725;47.1306425;7.2406197;5.1710004806518555;1673281836.7493591;15.527960777282715;13.000484466552734;84.17391204833984
67;1673281836.767903;47.1306425;7.2406197;5.368000030517578;1673281836.9495862;15.80268383026123;11.234916687011719;83.99087524414062
68;1673281836.9671414;47.130642599999995;7.2406197;5.565000057220459;1673281837.156586;15.777616500854492;9.202561378479004;83.7775650024414
69;1673281837.1770825;47.130642599999995;7.2406197;5.760000228881836;1673281837.364618;15.821334838867188;12.390226364135742;84.15349578857422
70;1673281837.382175;47.1306425;7.240619799999999;5.955000400543213;1673281837.5668502;15.845725059509277;11.831916809082031;84.03643798828125
71;1673281837.588325;47.1306425;7.240619799999999;6.150000095367432;1673281837.7845929;15.694001197814941;8.658920288085938;83.76773834228516
72;1673281837.7982595;47.1306425;7.240619799999999;6.3470001220703125;1673281837.9867651;15.623281478881836;11.924097061157227;84.01731872558594
73;1673281838.0058947;47.1306425;7.240619799999999;6.544000148773193;1673281838.190919;15.710506439208984;12.78813648223877;84.21202087402344
74;1673281838.209066;47.130642599999995;7.240619799999999;6.73900032043457;1673281838.3843079;15.847820281982422;9.026411056518555;83.7277603149414
75;1673281838.3970304;47.130642599999995;7.240619799999999;6.935000419616699;1673281838.5710797;15.748897552490234;10.981229782104492;83.9953384399414
76;1673281838.5857444;47.1306425;7.2406198999999996;7.129000186920166;1673281838.7645695;15.55613899230957;12.621771812438965;84.26153564453125
77;1673281838.7831073;47.1306424;7.2406198999999996;7.322000503540039;1673281838.9716606;15.798648834228516;9.22930908203125;83.85865783691406
78;1673281838.9863;47.1306424;7.2406198999999996;7.516000270843506;1673281839.1817458;15.53369140625;10.014580726623535;83.89096069335938
79;1673281839.1964014;47.1306424;7.2406198999999996;7.707000255584717;1673281839.3742373;15.723084449768066;13.471173286437988;84.33692169189453
80;1673281839.391837;47.1306425;7.2406198999999996;7.901000499725342;1673281839.597104;15.84333324432373;10.631272315979004;84.00482940673828
81;1673281839.616259;47.130642599999995;7.2406198999999996;8.098000526428223;1673281839.7826896;15.744912147521973;9.764951705932617;83.86576080322266
82;1673281839.7983508;47.130642599999995;7.24062;8.293000221252441;1673281839.9731994;15.659148216247559;13.013545036315918;84.24755096435547
83;1673281839.9917662;47.1306425;7.2406201;8.487000465393066;1673281840.1754034;15.750321388244629;11.116097450256348;83.99740600585938
84;1673281840.1939504;47.1306425;7.2406201;8.682000160217285;1673281840.3697994;15.817822456359863;8.565715789794922;83.81684875488281
85;1673281840.3903391;47.1306425;7.2406201999999995;8.87600040435791;1673281840.576992;15.878732681274414;12.425459861755371;84.12442016601562
86;1673281840.5906508;47.1306425;7.2406201999999995;9.067000389099121;1673281840.77429;15.921680450439453;12.152933120727539;84.20024871826172
87;1673281840.7909024;47.1306425;7.2406201999999995;9.261000633239746;1673281840.9744825;15.909965515136719;8.960930824279785;83.77676391601562
88;1673281840.9910772;47.130642599999995;7.2406203;9.457000732421875;1673281841.1739213;15.902262687683105;11.583707809448242;84.0596694946289
89;1673281841.1855552;47.1306425;7.2406203;9.652000427246094;1673281841.3927486;15.827767372131348;12.562655448913574;84.13973999023438
90;1673281841.4128673;47.1306425;7.2406204;9.847000122070312;1673281841.5745614;15.959593772888184;9.106523513793945;83.96402740478516
91;1673281841.5911415;47.1306425;7.2406204;10.042000770568848;1673281841.7894433;15.94713020324707;10.650525093078613;84.29524230957031
92;1673281841.805093;47.1306425;7.2406203;10.26300048828125;1673281841.9829834;15.572242736816406;14.958316802978516;84.9313735961914
93;1673281842.0005383;47.1306424;7.24062;10.60200023651123;1673281842.1901267;16.22610092163086;12.234431266784668;84.51243591308594
94;1673281842.2057433;47.130642099999996;7.2406197;10.986000061035156;1673281842.3894057;15.21498966217041;10.417348861694336;84.20880889892578
95;1673281842.4060295;47.1306418;7.2406194;11.375000953674316;1673281842.581943;14.635811805725098;12.0617036819458;84.47959899902344
96;1673281842.5995383;47.130641399999995;7.2406191;11.765000343322754;1673281842.7744012;14.305000305175781;9.534104347229004;84.16659545898438
97;1673281842.790962;47.130641;7.240618899999999;12.160000801086426;1673281842.9678068;13.912190437316895;7.234623908996582;83.87052154541016
98;1673281842.9853635;47.130640899999996;7.2406188;12.557000160217285;1673281843.1700203;14.25338363647461;10.403081893920898;84.19966888427734
99;1673281843.1866202;47.130640799999995;7.2406188;12.953001022338867;1673281843.3600814;14.401468276977539;10.393436431884766;84.22130584716797
100;1673281843.3767083;47.130640899999996;7.2406188;13.349000930786133;1673281843.5722122;14.636919021606445;7.888062000274658;83.91392517089844
101;1673281843.590742;47.1306411;7.240619;13.742000579833984;1673281843.7861645;14.881159782409668;10.867759704589844;84.11416625976562
102;1673281843.803734;47.1306412;7.240619199999999;14.130001068115234;1673281843.9854887;15.23521900177002;11.716846466064453;84.24375915527344
103;1673281844.0001373;47.1306413;7.2406193;14.51400089263916;1673281844.1652398;15.695737838745117;8.709765434265137;83.9517593383789
104;1673281844.17988;47.130641499999996;7.2406194;14.899001121520996;1673281844.3704123;15.406269073486328;10.678361892700195;84.07522583007812
105;1673281844.3899329;47.1306417;7.240619499999999;15.279000282287598;1673281844.5784893;15.423117637634277;13.541868209838867;84.4370346069336
106;1673281844.5990021;47.1306419;7.240619499999999;15.66200065612793;1673281844.7806756;15.244868278503418;10.373059272766113;84.07747650146484
107;1673281844.8022103;47.130641999999995;7.2406194;16.047000885009766;1673281844.9858174;15.368339538574219;10.243873596191406;83.96925354003906
108;1673281845.0024366;47.130641999999995;7.2406194;16.435001373291016;1673281845.1793284;15.15496826171875;12.638134956359863;84.26226043701172
109;1673281845.1940038;47.1306419;7.240619499999999;16.828001022338867;1673281845.378595;15.297351837158203;10.636320114135742;84.16314697265625
110;1673281845.394169;47.1306419;7.240619499999999;17.224000930786133;1673281845.5770319;15.330954551696777;8.943252563476562;84.04174041748047
111;1673281845.5975266;47.130641999999995;7.2406194;17.617000579833984;1673281845.77541;15.155618667602539;12.349483489990234;84.37089538574219
112;1673281845.7939653;47.130641999999995;7.2406194;18.001001358032227;1673281845.978569;14.947012901306152;11.534806251525879;84.34064483642578
113;1673281845.9971628;47.130641999999995;7.2406194;18.38800048828125;1673281846.173959;15.099279403686523;8.609550476074219;83.83175659179688
114;1673281846.1925025;47.130641999999995;7.2406194;18.7810001373291;1673281846.3898926;15.035951614379883;11.537381172180176;84.09040832519531
115;1673281846.4103606;47.1306419;7.2406194;19.171001434326172;1673281846.604772;15.09744930267334;11.814067840576172;84.24703216552734
116;1673281846.6200144;47.130641999999995;7.2406194;19.56100082397461;1673281846.792432;15.161152839660645;8.720257759094238;84.02883911132812
117;1673281846.8070683;47.130641999999995;7.2406194;19.95400047302246;1673281846.985814;15.26483154296875;11.275605201721191;84.22357177734375
118;1673281847.0024123;47.130642099999996;7.2406194;20.345001220703125;1673281847.18507;15.031259536743164;12.769874572753906;84.45004272460938
119;1673281847.2006977;47.1306422;7.2406194;20.733001708984375;1673281847.3775926;15.260241508483887;9.434576034545898;83.98507690429688
120;1673281847.394184;47.1306423;7.2406193;21.125001907348633;1673281847.5856798;15.102482795715332;10.772295951843262;84.08361053466797
121;1673281847.6052194;47.1306423;7.2406193;21.517000198364258;1673281847.7938569;15.028942108154297;12.880809783935547;84.26927947998047
122;1673281847.808476;47.1306423;7.2406193;21.913000106811523;1673281847.9766119;15.144560813903809;10.04660701751709;84.04350280761719
123;1673281847.9961326;47.1306423;7.240619199999999;22.31100082397461;1673281848.1818452;15.088621139526367;9.72467041015625;83.92794036865234
124;1673281848.2033222;47.1306424;7.240619199999999;22.705001831054688;1673281848.3635983;14.867093086242676;13.188715934753418;84.45094299316406
125;1673281848.3821425;47.1306423;7.240619199999999;23.093000411987305;1673281848.5728295;15.075027465820312;10.772168159484863;84.19503021240234
126;1673281848.585486;47.1306423;7.240619199999999;23.481000900268555;1673281848.7721832;15.283019065856934;9.025871276855469;83.86380767822266
127;1673281848.7887743;47.1306423;7.240619199999999;23.871000289916992;1673281848.9763615;15.056066513061523;12.438956260681152;84.30607604980469
128;1673281848.9939296;47.1306422;7.2406193;24.26500129699707;1673281849.1834085;15.196660995483398;11.251739501953125;84.19527435302734
129;1673281849.200076;47.1306422;7.2406193;24.66200065612793;1673281849.3847156;15.232439041137695;9.052679061889648;83.97892761230469
130;1673281849.4023278;47.1306423;7.2406193;25.060001373291016;1673281849.579239;15.071824073791504;12.519490242004395;84.3539047241211
131;1673281849.594922;47.1306424;7.2406193;25.452001571655273;1673281849.7824287;15.184138298034668;12.643985748291016;84.43767547607422
132;1673281849.7990205;47.1306424;7.2406193;25.843000411987305;1673281849.987631;15.199786186218262;9.397171974182129;83.93516540527344
133;1673281850.0062246;47.1306425;7.2406193;26.242000579833984;1673281850.181113;15.138676643371582;11.758739471435547;84.17431640625
134;1673281850.1986783;47.1306424;7.2406194;26.63800048828125;1673281850.3784294;15.075157165527344;12.427778244018555;84.18690490722656
135;1673281850.3959842;47.1306424;7.2406194;27.033000946044922;1673281850.5846794;15.150740623474121;9.26419448852539;84.00040435791016
136;1673281850.6041727;47.1306424;7.2406194;27.429000854492188;1673281850.8024163;15.359113693237305;11.10650634765625;84.19837951660156
137;1673281850.8190613;47.1306424;7.2406194;27.82200050354004;1673281851.0599341;15.062617301940918;12.968884468078613;84.41423034667969
138;1673281851.0970595;47.1306424;7.240619499999999;28.209001541137695;1673281851.2583482;15.202099800109863;9.371797561645508;83.99991607666016
139;1673281851.2758958;47.1306423;7.240619499999999;28.59600067138672;1673281851.4390848;15.299675941467285;10.0408935546875;83.94963073730469
140;1673281851.4517958;47.1306422;7.240619499999999;28.987001419067383;1673281851.6037848;15.097809791564941;12.568686485290527;84.25984191894531
141;1673281851.6194444;47.1306422;7.2406196;29.380001068115234;1673281851.7796574;15.522377967834473;10.058616638183594;84.10748291015625
142;1673281851.7952733;47.1306422;7.2406196;29.7760009765625;1673281851.9720757;15.206927299499512;9.60126781463623;83.95254516601562
143;1673281851.989706;47.1306422;7.2406196;30.172000885009766;1673281852.173381;15.118537902832031;13.0989990234375;84.48626708984375
144;1673281852.188998;47.1306422;7.2406196;30.564001083374023;1673281852.3716624;15.088781356811523;10.820385932922363;84.29584503173828
145;1673281852.3892727;47.1306422;7.2406196;30.9580020904541;1673281852.5808678;15.273119926452637;9.197267532348633;84.00267028808594
146;1673281852.5974596;47.1306422;7.2406196;31.35500144958496;1673281852.7879388;15.14272689819336;12.572793960571289;84.2876968383789
147;1673281852.8025792;47.1306422;7.2406196;31.75200080871582;1673281852.9978988;15.148760795593262;11.50507640838623;84.27870178222656
148;1673281853.0193868;47.1306423;7.2406196;32.152000427246094;1673281853.2020595;15.15750503540039;9.134563446044922;84.13119506835938
149;1673281853.2186563;47.1306423;7.240619499999999;32.55400085449219;1673281853.385649;15.045144081115723;12.18584156036377;84.3433609008789
150;1673281853.405169;47.1306424;7.240619499999999;32.954002380371094;1673281853.6054823;14.993738174438477;11.903038024902344;84.25000762939453
151;1673281853.6230533;47.1306423;7.240619499999999;33.34800338745117;1673281853.7968762;15.055928230285645;8.880743980407715;83.78217315673828
152;1673281853.8115203;47.1306423;7.240619499999999;33.74100112915039;1673281853.9853425;15.0099458694458;11.500866889953613;84.13910675048828
153;1673281854.0029104;47.1306423;7.240619499999999;34.13600158691406;1673281854.1943989;14.841757774353027;12.66976547241211;84.32634735107422
154;1673281854.2149012;47.1306423;7.240619499999999;34.531002044677734;1673281854.4044466;15.225764274597168;9.538982391357422;84.10414123535156
155;1673281854.42396;47.1306425;7.240619499999999;34.93000030517578;1673281854.6018953;15.130193710327148;11.349862098693848;84.15689086914062
156;1673281854.617566;47.130642599999995;7.240619499999999;35.329002380371094;1673281854.8011503;15.023906707763672;13.58662223815918;84.46131896972656
157;1673281854.8139017;47.130642699999996;7.240619499999999;35.72300338745117;1673281854.9945524;15.20988941192627;9.959268569946289;84.03379821777344
158;1673281855.012141;47.130642699999996;7.2406196;36.11300277709961;1673281855.1977816;15.196764945983887;10.293962478637695;83.90160369873047
159;1673281855.2124329;47.130642599999995;7.2406196;36.50699996948242;1673281855.3805783;15.100994110107422;13.056018829345703;84.23267364501953
160;1673281855.3952117;47.130642599999995;7.2406196;36.90500259399414;1673281855.578007;15.180010795593262;10.622361183166504;84.17341613769531
161;1673281855.5945995;47.130642699999996;7.2406197;37.303001403808594;1673281855.776342;15.267449378967285;9.886529922485352;84.00439453125
162;1673281855.7940016;47.130642699999996;7.2406197;37.70000076293945;1673281855.998049;15.257608413696289;13.103333473205566;84.45677947998047
163;1673281856.0166104;47.130642699999996;7.240619799999999;38.09300231933594;1673281856.188523;15.258271217346191;11.217601776123047;84.20990753173828
164;1673281856.2109714;47.130642599999995;7.240619799999999;38.48100280761719;1673281856.391631;15.428349494934082;9.08626651763916;83.8648681640625
165;1673281856.4072492;47.130642599999995;7.2406198999999996;38.86900329589844;1673281856.604566;15.223899841308594;12.163914680480957;84.20989227294922
166;1673281856.623112;47.1306425;7.2406198999999996;39.26400375366211;1673281856.79801;15.250730514526367;11.891449928283691;84.25167846679688
167;1673281856.812629;47.130642599999995;7.240619799999999;39.66600036621094;1673281856.9972184;15.15221881866455;9.388471603393555;83.93785858154297
168;1673281857.0138106;47.130642699999996;7.240619799999999;40.069000244140625;1673281857.206255;15.114773750305176;12.10965633392334;84.22621154785156
169;1673281857.2238827;47.130642699999996;7.2406197;40.46800231933594;1673281857.4075758;15.124310493469238;12.530852317810059;84.35279846191406
170;1673281857.42516;47.130642699999996;7.2406197;40.862003326416016;1673281857.6049535;15.097466468811035;9.444554328918457;84.04043579101562
171;1673281857.6254318;47.130642699999996;7.2406197;41.25400161743164;1673281857.7973027;15.011984825134277;11.137310981750488;84.1396255493164
172;1673281857.814871;47.130642599999995;7.2406197;41.6510009765625;1673281858.0072792;15.103495597839355;12.841116905212402;84.28534698486328
173;1673281858.0238755;47.130642599999995;7.2406197;42.04900360107422;1673281858.2084587;15.191731452941895;10.115265846252441;84.11782836914062
174;1673281858.2230787;47.130642699999996;7.2406197;42.44900131225586;1673281858.402844;15.159049034118652;10.504097938537598;84.08148193359375
175;1673281858.4194677;47.130642699999996;7.2406197;42.84300231933594;1673281858.596436;15.019646644592285;13.324488639831543;84.49051666259766
176;1673281858.6140084;47.130642699999996;7.2406197;43.23600387573242;1673281858.8114536;15.064643859863281;10.670453071594238;84.17802429199219
177;1673281858.8260877;47.130642699999996;7.2406197;43.62700271606445;1673281859.0385706;15.134398460388184;9.738012313842773;84.04255676269531
178;1673281859.0590618;47.130642599999995;7.2406197;44.0160026550293;1673281859.2388847;15.086551666259766;12.427509307861328;84.26386260986328
179;1673281859.2593806;47.130642599999995;7.2406197;44.40800094604492;1673281859.4401286;15.154605865478516;11.870057106018066;84.17981719970703
180;1673281859.4567208;47.130642599999995;7.2406197;44.80600357055664;1673281859.6261883;15.133671760559082;9.2975435256958;83.97916412353516
181;1673281859.646244;47.130642699999996;7.2406197;45.20600128173828;1673281859.830293;15.04116153717041;12.509703636169434;84.31452941894531
182;1673281859.8454757;47.130642699999996;7.2406197;45.60200119018555;1673281860.0285316;14.960572242736816;12.334628105163574;84.40430450439453
183;1673281860.0506465;47.130642599999995;7.2406197;45.99100112915039;1673281860.2220063;15.068352699279785;9.030390739440918;84.13397979736328
184;1673281860.2391887;47.130642599999995;7.2406197;46.37800216674805;1673281860.4193764;15.066614151000977;11.080669403076172;84.2093505859375
185;1673281860.4335701;47.130642599999995;7.2406197;46.77000045776367;1673281860.619702;14.944567680358887;12.940693855285645;84.33663940429688
186;1673281860.639756;47.130642599999995;7.2406197;47.16600036621094;1673281860.8218868;15.244766235351562;9.862853050231934;83.96276092529297
187;1673281860.840072;47.130642699999996;7.2406197;47.56300354003906;1673281861.0319915;15.151725769042969;10.784396171569824;84.02667999267578
188;1673281861.0481973;47.1306428;7.2406197;47.957000732421875;1673281861.2464573;15.245925903320312;13.887740135192871;84.3365249633789
189;1673281861.2621176;47.1306428;7.2406197;48.33000183105469;1673281861.4417763;15.162336349487305;10.34250259399414;84.00967407226562
190;1673281861.4574065;47.1306428;7.240619799999999;48.650001525878906;1673281861.6250567;15.333746910095215;10.34534740447998;84.14514923095703
191;1673281861.6412435;47.1306428;7.24062;48.91400146484375;1673281861.8282845;15.599244117736816;13.146492958068848;84.20035552978516
192;1673281861.8416045;47.1306429;7.2406201;49.14400100708008;1673281862.0315526;16.2547664642334;10.426379203796387;83.68021392822266
193;1673281862.0497327;47.130643199999994;7.2406203;49.340003967285156;1673281862.2412884;26.292194366455078;16.843284606933594;81.28298950195312
194;1673281862.2539763;47.130643299999996;7.2406204;49.49700164794922;1673281862.4126844;29.878576278686523;15.440123558044434;68.26458740234375
195;1673281862.4273748;47.130643;7.24062;49.5890007019043;1673281862.6022577;20.73931884765625;6.534304618835449;57.85072326660156
196;1673281862.616896;47.1306423;7.240619199999999;49.64200210571289;1673281862.8083055;26.89990997314453;4.387215614318848;49.34281539916992
197;1673281862.8268468;47.130641399999995;7.2406184;49.68600082397461;1673281863.0187004;24.339004516601562;0.6480417251586914;40.69956588745117
198;1673281863.0378187;47.1306404;7.240617299999999;49.72600173950195;1673281863.2259579;21.356239318847656;-4.6121954917907715;32.433563232421875
199;1673281863.2436264;47.1306392;7.2406162;49.7650032043457;1673281863.4259276;18.41126823425293;-8.877123832702637;23.516450881958008
200;1673281863.4448845;47.1306381;7.2406152;49.80000305175781;1673281863.6387105;15.777339935302734;-11.715312957763672;14.403099060058594
201;1673281863.6585336;47.1306371;7.2406143;49.83000183105469;1673281863.8357623;13.140555381774902;-12.870399475097656;5.149899005889893
202;1673281863.8527648;47.1306362;7.2406137;49.855003356933594;1673281864.0243921;10.144168853759766;-12.72831916809082;-4.5497145652771
203;1673281864.043633;47.1306357;7.2406134;49.87000274658203;1673281864.2187657;6.095541477203369;-13.065634727478027;-14.50551986694336
204;1673281864.234869;47.130635399999996;7.2406131;49.884002685546875;1673281864.4106946;2.5842928886413574;-14.626567840576172;-24.120559692382812
205;1673281864.4268668;47.130635299999994;7.240613;49.900001525878906;1673281864.628096;0.21149684488773346;-17.566774368286133;-33.72206115722656
206;1673281864.6469474;47.130635299999994;7.240613;49.91800308227539;1673281864.8969007;-1.2166244983673096;-20.798744201660156;-42.94139862060547
207;1673281864.9148264;47.1306356;7.240613;49.93400192260742;1673281865.0684044;-3.3231360912323;-22.907800674438477;-51.20882797241211
208;1673281865.082614;47.130635999999996;7.240613;49.948001861572266;1673281865.2699168;-5.15977668762207;-22.962793350219727;-51.766422271728516
209;1673281865.2865326;47.1306365;7.2406128;49.958003997802734;1673281865.4500253;-2.292120933532715;-21.435714721679688;-48.14992904663086
210;1673281865.4671547;47.1306368;7.2406124;49.96800231933594;1673281865.6492631;-0.9960159063339233;-21.12235450744629;-46.210121154785156
211;1673281865.6673646;47.1306369;7.2406121;49.97700119018555;1673281865.825095;-0.19428081810474396;-19.38024139404297;-45.70133972167969
212;1673281865.8387697;47.1306369;7.2406117;49.98400115966797;1673281866.0146306;0.7893864512443542;-20.418010711669922;-45.42516326904297
213;1673281866.0312521;47.1306368;7.2406114;49.99100112915039;1673281866.217713;1.3046804666519165;-22.260517120361328;-45.374267578125
214;1673281866.236288;47.130636599999995;7.2406111;49.99700164794922;1673281866.42084;1.0114541053771973;-23.019590377807617;-45.2148323059082
215;1673281866.4374156;47.1306364;7.2406108;50.005001068115234;1673281866.6094959;0.18282823264598846;-22.42243194580078;-45.060855865478516
216;1673281866.631019;47.1306363;7.240610599999999;50.00800323486328;1673281866.8126547;-0.8464320302009583;-20.16642189025879;-45.107139587402344
217;1673281866.8282998;47.130635999999996;7.2406104;50.00300216674805;1673281867.0235996;-1.8874447345733643;-18.169343948364258;-45.10966491699219
218;1673281867.041168;47.1306356;7.240610299999999;50.00100326538086;1673281867.2257812;-9.810174942016602;-17.263019561767578;-45.59554672241211
219;1673281867.245294;47.130635399999996;7.2406101;49.99800109863281;1673281867.4308403;-32.9736328125;-13.600932121276855;-46.89732360839844
220;1673281867.4474316;47.1306356;7.2406093;50.00300216674805;1673281867.6242905;-48.540218353271484;-9.906502723693848;-48.05303192138672
221;1673281867.639937;47.1306373;7.240606499999999;50.01400375366211;1673281867.8186247;-57.527286529541016;-8.664551734924316;-48.614105224609375
222;1673281867.8352165;47.130641399999995;7.240600799999999;50.005001068115234;1673281868.0249774;-54.3922233581543;-9.374161720275879;-48.96368408203125
223;1673281868.0611782;47.130648099999995;7.2405919;49.98400115966797;1673281868.2292433;-55.862884521484375;-7.295392036437988;-51.05318832397461
224;1673281868.244106;47.130657;7.2405804;49.97800064086914;1673281868.4445727;-55.32341766357422;-6.999324321746826;-51.276153564453125
225;1673281868.4760604;47.1306679;7.240566299999999;49.97500228881836;1673281868.6728244;-54.756378173828125;-7.419984817504883;-51.04216384887695
226;1673281868.691272;47.130680299999995;7.240549799999999;49.96800231933594;1673281868.8927958;-54.61678695678711;-7.368177890777588;-50.249183654785156
227;1673281868.905129;47.130694;7.2405314999999995;49.954002380371094;1673281869.0881116;-52.18585968017578;-8.87967300415039;-49.606380462646484
228;1673281869.1021168;47.1307088;7.2405116;49.94400405883789;1673281869.3169792;-52.72842025756836;-8.671979904174805;-51.749412536621094
229;1673281869.329784;47.1307245;7.2404904;49.93400192260742;1673281869.481225;-51.1265754699707;-7.993929862976074;-52.33766555786133
230;1673281869.4950626;47.130740599999996;7.2404682;49.9160041809082;1673281869.6512384;-48.5847053527832;-8.314202308654785;-51.770652770996094
231;1673281869.6672046;47.1307572;7.2404452;49.90300369262695;1673281869.8401744;-48.4011116027832;-9.413630485534668;-51.282405853271484
232;1673281869.8572357;47.1307742;7.2404217;49.89200210571289;1673281870.029778;-48.631710052490234;-10.624890327453613;-51.2984733581543
233;1673281870.0459812;47.1307913;7.240397799999999;49.88900375366211;1673281870.2231007;-48.25093460083008;-11.696670532226562;-51.31648254394531
234;1673281870.2391143;47.1308084;7.240373399999999;49.8900032043457;1673281870.4129858;-47.26921463012695;-14.367446899414062;-51.163421630859375
235;1673281870.4302397;47.1308255;7.2403486;49.8900032043457;1673281870.6180582;-45.42314910888672;-18.69672393798828;-50.987945556640625
236;1673281870.6358361;47.1308423;7.240323399999999;49.89200210571289;1673281870.8169034;-42.460845947265625;-27.378353118896484;-50.664817810058594
237;1673281870.83144;47.1308584;7.240297699999999;49.900001525878906;1673281871.0238261;-35.46584701538086;-36.28822708129883;-53.470489501953125
238;1673281871.04018;47.1308733;7.240271399999999;49.90300369262695;1673281871.2259603;-16.02964973449707;-40.787750244140625;-57.94327926635742
239;1673281871.2440896;47.1308861;7.2402451;49.8910026550293;1673281871.4091256;8.059481620788574;-27.273874282836914;-59.27445602416992
240;1673281871.4292448;47.1308965;7.2402204999999995;49.85000228881836;1673281871.6338706;15.56091022491455;-12.13308048248291;-50.134132385253906
241;1673281871.6509683;47.1309049;7.2401994;49.794002532958984;1673281871.8402135;18.30575942993164;-6.866059303283691;-43.27568054199219
242;1673281871.8569338;47.130911499999996;7.2401826;49.743003845214844;1673281872.0372005;30.338144302368164;-13.092019081115723;-45.69235610961914
243;1673281872.054802;47.1309167;7.2401705;49.74100112915039;1673281872.244434;41.259883880615234;-19.70475196838379;-47.11478042602539
244;1673281872.2629197;47.130919999999996;7.2401627;49.78300094604492;1673281872.4485953;41.468563079833984;-20.593704223632812;-45.51240921020508
245;1673281872.4671366;47.1309208;7.2401589;49.82200241088867;1673281872.6402204;44.14850997924805;-25.866962432861328;-45.476505279541016
246;1673281872.6559086;47.130919299999995;7.240158399999999;49.867000579833984;1673281872.834625;46.3278694152832;-32.05169677734375;-44.735355377197266
247;1673281872.8531685;47.1309152;7.2401607;49.927001953125;1673281873.0407724;37.902320861816406;-35.51837158203125;-44.26029968261719
248;1673281873.0602956;47.1309085;7.2401646;49.9890022277832;1673281873.2508557;23.2589111328125;-36.31488800048828;-45.26461410522461
249;1673281873.2694237;47.1309;7.240169;50.02800369262695;1673281873.4492702;8.783671379089355;-31.04331398010254;-46.82527160644531
250;1673281873.4648685;47.130890799999996;7.2401732;50.04600143432617;1673281873.6455622;-0.6956325173377991;-24.90443229675293;-49.39739990234375
251;1673281873.6660566;47.1308815;7.2401767999999995;50.05000305175781;1673281873.842813;2.4965310096740723;-20.248796463012695;-50.63926696777344
252;1673281873.8584306;47.130873;7.240179899999999;50.048004150390625;1673281874.0527494;9.37872314453125;-22.033369064331055;-50.35979080200195
253;1673281874.0703173;47.130865199999995;7.2401829;50.04600143432617;1673281874.2558827;14.085891723632812;-4.668668746948242;-47.07627868652344
254;1673281874.2724755;47.130857899999995;7.2401861;49.867000579833984;1673281874.4395428;10.743582725524902;27.66878318786621;-43.850677490234375
255;1673281874.4541824;47.1308509;7.2401893;49.31100082397461;1673281874.629483;1.7743191719055176;66.79124450683594;-48.192649841308594
256;1673281874.6446557;47.1308441;7.2401924;48.36000061035156;1673281874.8321605;-3.5430068969726562;100.10432434082031;-60.47001266479492
257;1673281874.8477755;47.130837299999996;7.240195399999999;47.03700256347656;1673281875.0382125;-1.6083040237426758;116.78401947021484;-74.66716003417969
258;1673281875.0557623;47.130830499999995;7.240198299999999;45.355003356933594;1673281875.243332;0.4123181402683258;110.46780395507812;-87.63116455078125
259;1673281875.2608974;47.130823899999996;7.240201399999999;43.31800079345703;1673281875.4454749;-2.9819259643554688;79.3075180053711;-96.9283218383789
260;1673281875.4659874;47.1308174;7.240204599999999;40.935001373291016;1673281875.6594155;-6.661413669586182;28.468019485473633;-96.51029968261719
261;1673281875.67697;47.1308109;7.2402079;38.18300247192383;1673281875.8703313;-0.5970675349235535;-23.931636810302734;-92.94103240966797
262;1673281875.8859472;47.1308043;7.2402115;35.027000427246094;1673281876.063695;10.598616600036621;-51.69060134887695;-96.45356750488281
263;1673281876.0792913;47.1307981;7.2402150999999995;31.498001098632812;1673281876.2589858;19.663270950317383;-43.94254684448242;-101.94210815429688
264;1673281876.2746043;47.130792199999995;7.2402188999999995;27.62900161743164;1673281876.486561;24.828510284423828;0.6254890561103821;-102.198486328125
265;1673281876.5031834;47.130786799999996;7.2402225;23.409000396728516;1673281876.7352087;20.622236251831055;54.215232849121094;-102.18598937988281
266;1673281876.7469535;47.1307815;7.240225799999999;18.80000114440918;1673281876.942288;13.856979370117188;75.58334350585938;-111.02616119384766
267;1673281876.9530234;47.130775899999996;7.2402292;13.843000411987305;1673281877.099965;5.566401958465576;51.415321350097656;-122.03910827636719
268;1673281877.1126657;47.1307701;7.2402329;8.563000679016113;1673281877.2933335;-2.8423008918762207;-4.471242904663086;-123.43754577636719
269;1673281877.3197136;47.1307641;7.240237;2.9210002422332764;1673281877.4642866;-5.123697280883789;-2.836488723754883;-128.52915954589844
270;1673281877.4866998;47.130760599999995;7.24024;0.2330000102519989;1673281877.6430154;2.229217529296875;-9.347707748413086;-125.17457580566406
271;1673281877.659592;47.130757599999995;7.2402424;0.5420000553131104;1673281877.8319662;2.407531499862671;-7.193922996520996;-124.95954895019531
272;1673281877.8481214;47.1307531;7.2402462;0.7280000448226929;1673281878.037653;2.3864712715148926;-5.014730453491211;-124.67151641845703
273;1673281878.0533018;47.130748499999996;7.2402503;0.8600000143051147;1673281878.2905598;2.4190804958343506;-4.585303783416748;-124.39611053466797
274;1673281878.305246;47.130744;7.2402546999999995;0.9820000529289246;1673281878.4771252;2.443450450897217;-4.186984062194824;-124.19347381591797
275;1673281878.4927373;47.130739899999995;7.240259099999999;1.099000096321106;1673281878.6589088;2.5097742080688477;-3.741920232772827;-124.0326919555664
276;1673281878.6735487;47.1307366;7.2402631;1.1730000972747803;1673281878.846504;2.579092025756836;-3.4002163410186768;-123.87547302246094
277;1673281878.8631306;47.130734;7.2402668;1.2260000705718994;1673281879.0507135;2.5593624114990234;-2.9789299964904785;-123.75065612792969
278;1673281879.0663598;47.1307322;7.24027;1.2650001049041748;1673281879.258813;2.627119779586792;-2.5896177291870117;-123.63651275634766
279;1673281879.2763786;47.130730899999996;7.2402729;1.2970000505447388;1673281879.4668915;2.609630584716797;-2.3154194355010986;-123.48684692382812
280;1673281879.4854352;47.130730299999996;7.2402752999999995;1.3250000476837158;1673281879.681969;2.6119306087493896;-2.0838212966918945;-123.37427520751953
281;1673281879.701487;47.1307293;7.2402782;1.3660000562667847;1673281879.8900669;2.631359100341797;-2.010333299636841;-123.24676513671875
282;1673281879.9046912;47.130728399999995;7.2402809999999995;1.415000081062317;1673281880.0824687;2.64876389503479;-1.6749868392944336;-123.22146606445312
283;1673281880.0961325;47.1307288;7.2402824;1.446000099182129;1673281880.2710407;2.6165616512298584;-1.4447522163391113;-123.14698028564453
284;1673281880.287633;47.13073;7.2402828999999995;1.4660000801086426;1673281880.457647;2.5833630561828613;-1.272006630897522;-123.11981964111328
285;1673281880.4732447;47.130731399999995;7.2402828999999995;1.4790000915527344;1673281880.6481514;2.512096405029297;-1.1172547340393066;-123.06082153320312
286;1673281880.6647604;47.1307331;7.240282499999999;1.4860000610351562;1673281880.8361664;2.4761083126068115;-1.0358554124832153;-123.03291320800781
287;1673281880.8523793;47.130733799999994;7.2402833;1.503000020980835;1673281881.0364356;2.422060251235962;-1.000571370124817;-122.96114349365234
288;1673281881.0585065;47.1307342;7.240284399999999;1.5230001211166382;1673281881.247102;2.3293557167053223;-0.8623408675193787;-122.96186828613281
289;1673281881.266652;47.1307356;7.2402839;1.527000069618225;1673281881.4581947;2.2309138774871826;-0.7622062563896179;-122.96940612792969
290;1673281881.4718232;47.1307373;7.240282799999999;1.5240000486373901;1673281881.6527712;2.092566728591919;-0.7488940954208374;-122.97077178955078
291;1673281881.675174;47.1307392;7.2402812;1.5130001306533813;1673281881.8549173;2.052229881286621;-0.43583106994628906;-122.99368286132812
292;1673281881.873461;47.1307408;7.2402799;1.4970000982284546;1673281882.0581067;1.9162580966949463;-0.19435429573059082;-123.075439453125
293;1673281882.0766325;47.130742399999995;7.2402785;1.477000117301941;1673281882.2446976;1.900139570236206;-0.11921080946922302;-123.11478424072266
294;1673281882.2612898;47.1307433;7.2402783;1.4590001106262207;1673281882.4439747;1.7804605960845947;-0.20186875760555267;-123.1539306640625
295;1673281882.4576483;47.1307437;7.2402786;1.4440001249313354;1673281882.6359024;1.629546880722046;-0.16695135831832886;-123.21685028076172
296;1673281882.65016;47.130744799999995;7.2402777;1.4210001230239868;1673281882.8390474;1.4795053005218506;-0.0453760139644146;-123.27800750732422
297;1673281882.8552296;47.130747199999995;7.240272999999999;1.3970000743865967;1673281883.0467496;1.1942622661590576;0.21185903251171112;-123.35211944580078
298;1673281883.0633419;47.130750899999995;7.240264499999999;1.3760000467300415;1673281883.2548213;1.0513958930969238;0.23952354490756989;-123.40133666992188
299;1673281883.273382;47.1307541;7.240256899999999;1.350000023841858;1673281883.480506;0.9401618242263794;0.21306246519088745;-123.41924285888672
300;1673281883.4961238;47.1307561;7.2402519;1.3230000734329224;1673281883.6915164;0.8613922595977783;0.12253154814243317;-123.4271011352539
301;1673281883.708103;47.1307574;7.2402489999999995;1.2940000295639038;1673281883.8859222;0.698668897151947;0.10906578600406647;-123.4373550415039
302;1673281883.9045362;47.1307585;7.240246;1.2540000677108765;1673281884.110634;0.5234166979789734;-0.012305792421102524;-123.4397201538086
303;1673281884.1242971;47.1307593;7.240244;1.2110000848770142;1673281884.2933793;0.5095435380935669;-0.13604696094989777;-123.46159362792969
304;1673281884.3090055;47.130759999999995;7.2402424;1.1880000829696655;1673281884.471227;0.4478319585323334;-0.2602514624595642;-123.46373748779297
305;1673281884.4877687;47.1307604;7.2402413;-0.01600000075995922;1673281884.6715543;0.31617310643196106;-0.34842023253440857;-123.4669189453125
306;1673281884.6900795;47.130760699999996;7.2402406;-0.05400000140070915;1673281884.8679;0.2579236924648285;-0.42778298258781433;-123.46994018554688
307;1673281884.8844905;47.1307608;7.2402403;-0.10300000756978989;;;;
