;pos_time;latitude;longitude;altitude;alt_time;pitch;roll;yaw
0;1673292178.6066787;47.1306424;7.2406201;0.003000000026077032;1673292178.6086314;-0.07916418462991714;-0.5435978770256042;90.12350463867188
1;1673292178.8195438;47.1306424;7.2406201999999995;0.0010000000474974513;1673292178.8244188;-0.10253418236970901;-0.3915061056613922;90.27294921875
2;1673292179.0244672;47.1306424;7.2406201999999995;-0.0010000000474974513;1673292179.0293274;0.062369123101234436;-0.3967531621456146;90.2400131225586
3;1673292179.204776;47.1306425;7.2406201999999995;-0.003000000026077032;1673292179.20669;0.2664841413497925;-0.3495882451534271;90.17431640625
4;1673292179.3943405;47.1306425;7.2406201;-0.007000000216066837;1673292179.3982453;0.1353261023759842;-0.5156074166297913;90.42432403564453
5;1673292179.569408;47.1306425;7.2406201;-0.010000000707805157;1673292179.57429;0.09110084176063538;-0.4437255859375;90.41453552246094
6;1673292179.7628489;47.1306425;7.2406201;-0.014000000432133675;1673292179.7657776;0.012844463810324669;-0.46186360716819763;90.38739013671875
7;1673292179.967301;47.1306425;7.2406201;-0.017000000923871994;1673292179.971268;-0.18733127415180206;-0.2871181070804596;90.18478393554688
8;1673292180.1931787;47.1306424;7.2406201999999995;-0.018000001087784767;1673292180.196109;-0.1752922683954239;-0.43420130014419556;90.20744323730469
9;1673292180.4606867;47.1306424;7.2406201999999995;-0.018000001087784767;1673292180.463611;0.13423913717269897;-0.20352314412593842;90.23928833007812
10;1673292180.64554;47.1306424;7.2406201999999995;-0.015000000596046448;1673292180.647457;0.039357740432024;-0.5031601786613464;90.3630599975586
11;1673292180.7982633;47.1306424;7.2406201999999995;-0.012000000104308128;1673292180.8021731;0.16033749282360077;-0.16930684447288513;90.31608581542969
12;1673292180.9784768;47.1306424;7.2406203;-0.009000000543892384;1673292180.9813855;0.08230413496494293;-0.31428998708724976;90.36480712890625
13;1673292181.1758523;47.1306424;7.2406203;-0.010000000707805157;1673292181.1787915;-0.2375716269016266;-0.3457946181297302;90.25849914550781
14;1673292181.372179;47.1306423;7.2406203;0.0;1673292181.3741317;0.13810689747333527;-0.3085338771343231;90.26127624511719
15;1673292181.5708354;47.1306424;7.2406203;0.0010000000474974513;1673292181.5747418;-0.018500085920095444;-0.3008632957935333;90.16099548339844
16;1673292181.7757154;47.1306424;7.2406201999999995;0.006000000052154064;1673292181.777668;0.00941408146172762;-0.352095365524292;90.14652252197266
17;1673292181.9712102;47.1306424;7.2406201999999995;0.01100000087171793;1673292181.9741416;-0.0013195071369409561;-0.32061532139778137;90.16724395751953
18;1673292182.1715157;47.1306424;7.2406203;0.014000000432133675;1673292182.1744485;-0.08110397309064865;-0.33791548013687134;90.18016052246094
19;1673292182.3744621;47.1306424;7.2406203;0.014000000432133675;1673292182.377376;0.1379772424697876;-0.19304385781288147;90.02853393554688
20;1673292182.5802794;47.1306424;7.2406203;0.015000000596046448;1673292182.5831928;-0.10300551354885101;-0.34983307123184204;90.25609588623047
21;1673292182.7852812;47.1306424;7.2406203;0.0;1673292182.7872324;0.025461247190833092;-0.10907389968633652;90.19805145263672
22;1673292182.9908388;47.1306424;7.2406204;0.0020000000949949026;1673292182.9947588;0.22865845263004303;-0.02504744380712509;90.4658432006836
23;1673292183.2003438;47.1306424;7.2406203;0.004000000189989805;1673292183.2023506;0.1691819727420807;-0.11055347323417664;90.26936340332031
24;1673292183.381556;47.1306424;7.2406201999999995;0.006000000052154064;1673292183.3844888;0.14089813828468323;-0.1449129581451416;90.25764465332031
25;1673292183.5684018;47.1306424;7.2406201999999995;0.005000000353902578;1673292183.5724196;0.286963552236557;-0.5749369859695435;90.33849334716797
26;1673292183.7714322;47.1306424;7.2406201;0.004000000189989805;1673292183.774364;0.39404213428497314;-0.6894108057022095;90.37299346923828
27;1673292183.9792807;47.1306424;7.24062;0.003000000026077032;1673292183.9816036;0.3003677725791931;-0.32654038071632385;90.4493179321289
28;1673292184.187914;47.1306424;7.24062;0.003000000026077032;1673292184.1914234;1.225784420967102;-0.3595929443836212;90.50630950927734
29;1673292184.3825486;47.1306425;7.2406198999999996;0.004000000189989805;1673292184.3854883;2.5860378742218018;-0.33676180243492126;90.21664428710938
30;1673292184.577256;47.1306425;7.240619799999999;0.009000000543892384;1673292184.5802345;3.231355667114258;-0.08248147368431091;87.52278137207031
31;1673292184.7764194;47.130642599999995;7.240619199999999;0.009000000543892384;1673292184.7793844;-2.441622495651245;0.07547297328710556;80.08834838867188
32;1673292184.958278;47.130642599999995;7.240617899999999;0.024000000208616257;1673292184.961779;-6.791219711303711;0.3723333477973938;78.64321899414062
33;1673292185.155354;47.130642599999995;7.2406162;0.03700000047683716;1673292185.158291;-12.804171562194824;1.6285370588302612;78.87774658203125
34;1673292185.3583076;47.1306425;7.240614;0.05700000375509262;1673292185.363463;-14.762622833251953;3.1255996227264404;80.87508392333984
35;1673292185.5654101;47.1306423;7.240611599999999;0.09200000762939453;1673292185.5683386;-15.574603080749512;2.028212070465088;82.95169830322266
36;1673292185.7871585;47.130641999999995;7.2406092;0.1380000114440918;1673292185.790279;-17.18782615661621;1.3714700937271118;84.48726654052734
37;1673292185.9845765;47.1306417;7.240606799999999;0.19600000977516174;1673292185.9865012;-19.053491592407227;1.8361681699752808;85.52682495117188
38;1673292186.2445252;47.130641399999995;7.240604599999999;0.27400001883506775;1673292186.2464774;-20.97572898864746;0.6815795302391052;86.52430725097656
39;1673292186.4275966;47.1306412;7.240602999999999;0.3750000298023224;1673292186.4295516;-22.846485137939453;-2.6303584575653076;87.97227478027344
40;1673292186.6232731;47.1306411;7.240602;0.4970000088214874;1673292186.626201;-24.460203170776367;-0.27406617999076843;88.11854553222656
41;1673292186.8243537;47.130640899999996;7.2406016;0.6340000033378601;1673292186.8302093;-26.470226287841797;1.2731349468231201;88.04508209228516
42;1673292187.0149486;47.130641;7.240602;0.7820000648498535;1673292187.0169053;-28.72275733947754;-3.276226043701172;89.56473541259766
43;1673292187.2180235;47.1306412;7.2406033999999995;0.937000036239624;1673292187.2209587;-28.22142791748047;-2.168282985687256;89.83719635009766
44;1673292187.4203365;47.130641399999995;7.2406055;1.097000002861023;1673292187.4223056;-25.469688415527344;2.16736102104187;88.80830383300781
45;1673292187.607237;47.130641499999996;7.240608099999999;1.2640000581741333;1673292187.609171;-22.581716537475586;-1.9475393295288086;89.95574951171875
46;1673292187.8339179;47.1306417;7.2406108;1.4350000619888306;1673292187.8368454;-19.44069480895996;-2.263864755630493;90.31229400634766
47;1673292188.015782;47.1306419;7.2406134;1.6150001287460327;1673292188.0177348;-16.795591354370117;2.7255804538726807;88.96538543701172
48;1673292188.1924524;47.130641999999995;7.2406156;1.8090001344680786;1673292188.1953473;-14.627516746520996;0.8497017025947571;80.42655181884766
49;1673292188.394774;47.130642099999996;7.2406174;2.009999990463257;1673292188.3967292;-14.139015197753906;-2.4935195446014404;80.78945922851562
50;1673292188.596978;47.130642099999996;7.2406185999999995;2.2100000381469727;1673292188.6009502;-13.809536933898926;1.4389084577560425;79.53734588623047
51;1673292188.8022847;47.130642099999996;7.240619199999999;2.4120001792907715;1673292188.8052158;-14.278705596923828;-1.0144381523132324;80.02792358398438
52;1673292188.984691;47.1306422;7.2406193;2.619000196456909;1673292188.9876258;-15.557127952575684;-3.4164891242980957;81.26110076904297
53;1673292189.1889443;47.1306422;7.2406191;2.824000120162964;1673292189.1908772;-16.677997589111328;1.6184312105178833;80.26960754394531
54;1673292189.4023545;47.1306423;7.240618899999999;3.0330002307891846;1673292189.4062688;-17.940664291381836;1.2986856698989868;80.19051361083984
55;1673292189.633999;47.1306425;7.2406185999999995;3.2430002689361572;1673292189.6379173;-18.668386459350586;-2.0045533180236816;81.27857971191406
56;1673292189.8452568;47.130642599999995;7.2406184;3.455000162124634;1673292189.8512118;-19.398324966430664;2.4957547187805176;80.3586196899414
57;1673292190.0188763;47.130642599999995;7.2406182999999995;3.6630001068115234;1673292190.0208285;-19.709672927856445;2.8434836864471436;80.0552978515625
58;1673292190.241071;47.1306425;7.2406184;3.869000196456909;1673292190.244976;-19.85726547241211;-2.4438676834106445;81.27355194091797
59;1673292190.4275541;47.1306425;7.2406185999999995;4.072000026702881;1673292190.4305518;-19.563495635986328;0.4360392391681671;80.51839447021484
60;1673292190.635514;47.1306424;7.240618899999999;4.271000385284424;1673292190.6374662;-19.19568634033203;2.9756455421447754;80.0163803100586
61;1673292190.823894;47.1306423;7.2406191;4.473999977111816;1673292190.8258622;-19.044422149658203;-2.403884172439575;81.1647720336914
62;1673292191.018353;47.1306423;7.240619499999999;4.682000160217285;1673292191.0203004;-18.570676803588867;-1.265285849571228;80.97044372558594
63;1673292191.1984975;47.130642099999996;7.240619799999999;4.889000415802002;1673292191.2004411;-18.345365524291992;2.492570400238037;80.03951263427734
64;1673292191.4027555;47.1306419;7.24062;5.0980000495910645;1673292191.4056873;-18.276996612548828;-2.8242709636688232;81.33763122558594
65;1673292191.5900464;47.1306418;7.2406201999999995;5.301000118255615;1673292191.591998;-17.987689971923828;-1.9411081075668335;81.00100708007812
66;1673292191.7827094;47.1306419;7.2406203;5.502000331878662;1673292191.7856338;-18.214380264282227;2.383941888809204;80.183837890625
67;1673292191.9782581;47.1306419;7.2406204999999995;5.702000141143799;1673292191.981194;-18.158191680908203;-0.7102822065353394;80.7326431274414
68;1673292192.1902301;47.130641999999995;7.2406206;5.902000427246094;1673292192.1931608;-18.00425148010254;-1.8510304689407349;81.19657135009766
69;1673292192.3915086;47.130641999999995;7.2406207;6.104000091552734;1673292192.3954093;-18.066112518310547;2.6326091289520264;80.0941162109375
70;1673292192.5889058;47.1306419;7.240620799999999;6.304000377655029;1673292192.5937886;-18.13380241394043;0.17901085317134857;80.5400390625
71;1673292192.7872775;47.1306419;7.240620799999999;6.502000331878662;1673292192.7892294;-18.201536178588867;-2.5395030975341797;81.2242431640625
72;1673292193.0058055;47.1306419;7.2406209;6.698000431060791;1673292193.0087326;-18.25399398803711;1.7151540517807007;80.29219055175781
73;1673292193.1945317;47.130641999999995;7.240620799999999;6.89400053024292;1673292193.198429;-18.317752838134766;1.895954966545105;80.24469757080078
74;1673292193.4018762;47.130641999999995;7.240620799999999;7.091000556945801;1673292193.4038112;-18.480131149291992;-2.623847007751465;81.31287384033203
75;1673292193.5900264;47.130641999999995;7.2406209;7.285000324249268;1673292193.5929627;-18.435020446777344;0.9326528906822205;80.4727554321289
76;1673292193.7816722;47.1306419;7.2406209;7.479000568389893;1673292193.7846196;-18.326828002929688;1.8816250562667847;79.93525695800781
77;1673292193.98216;47.1306418;7.240621;7.674000263214111;1673292193.9870198;-18.517606735229492;-2.9815428256988525;81.08514404296875
78;1673292194.1749232;47.1306418;7.240621;7.869000434875488;1673292194.178806;-18.331409454345703;0.06752277910709381;80.49697875976562
79;1673292194.3764825;47.1306419;7.240621;8.064000129699707;1673292194.379431;-18.50506591796875;2.316889524459839;80.15019226074219
80;1673292194.573749;47.130641999999995;7.240621;8.260000228881836;1673292194.5766778;-18.391498565673828;-2.1452064514160156;81.17948913574219
81;1673292194.7782319;47.130642099999996;7.240621;8.456000328063965;1673292194.7811735;-18.304317474365234;-1.0812574625015259;80.88191223144531
82;1673292194.9964461;47.130642099999996;7.240621099999999;8.651000022888184;1673292195.0013256;-18.372068405151367;3.3500659465789795;79.8832778930664
83;1673292195.1845055;47.130641999999995;7.240621099999999;8.846000671386719;1673292195.1874084;-18.331605911254883;-1.8984493017196655;80.89552307128906
84;1673292195.385793;47.130641999999995;7.2406212;9.041000366210938;1673292195.388708;-18.243146896362305;-1.7690579891204834;80.96417999267578
85;1673292195.5985515;47.130641999999995;7.2406212;9.238000869750977;1673292195.6024566;-18.254451751708984;2.858844041824341;80.08289337158203
86;1673292195.791068;47.130642099999996;7.240621099999999;9.434000015258789;1673292195.7929978;-18.518024444580078;0.29564881324768066;80.6829833984375
87;1673292195.9788208;47.1306422;7.240621099999999;9.629000663757324;1673292195.9837022;-18.302227020263672;-1.8524577617645264;81.20764923095703
88;1673292196.189819;47.1306422;7.2406212;9.825000762939453;1673292196.1937213;-18.390350341796875;2.833940267562866;80.0149154663086
89;1673292196.401441;47.130642099999996;7.2406213;10.023000717163086;1673292196.4033935;-18.16966438293457;0.23376961052417755;80.37901306152344
90;1673292196.6059551;47.130642099999996;7.2406213;10.22800064086914;1673292196.6078784;-18.29615020751953;-2.3967957496643066;81.10256958007812
91;1673292196.7971013;47.1306422;7.2406215;10.506000518798828;1673292196.8020136;-21.693862915039062;1.0194728374481201;80.170166015625
92;1673292197.012523;47.1306424;7.2406220999999995;10.866000175476074;1673292197.0144718;-21.969722747802734;1.5362612009048462;80.12510681152344
93;1673292197.198922;47.130642599999995;7.2406231;11.253000259399414;1673292197.2038007;-18.726970672607422;-2.386673927307129;81.18939208984375
94;1673292197.392294;47.130642699999996;7.2406241;11.648000717163086;1673292197.3942351;-16.818496704101562;-0.04523128643631935;80.87059020996094
95;1673292197.5964534;47.130642699999996;7.240625;12.042000770568848;1673292197.5984075;-14.826822280883789;2.0839712619781494;80.15950775146484
96;1673292197.7972136;47.130642699999996;7.2406255999999996;12.444000244140625;1673292197.8001423;-14.005269050598145;-2.5646867752075195;81.12417602539062
97;1673292198.0346508;47.130642699999996;7.2406257;12.847001075744629;1673292198.03758;-14.10869026184082;-0.4118173122406006;80.78096008300781
98;1673292198.2349942;47.1306428;7.240625499999999;13.248001098632812;1673292198.2369487;-14.7091646194458;2.580717086791992;80.29533386230469
99;1673292198.4245586;47.1306428;7.240624899999999;13.65000057220459;1673292198.4265332;-15.801155090332031;-1.621963381767273;81.142822265625
100;1673292198.6169057;47.1306429;7.2406242999999995;14.052000999450684;1673292198.6208105;-16.599287033081055;-0.5284328460693359;81.12535095214844
101;1673292198.8192115;47.130643;7.2406236999999996;14.458001136779785;1673292198.82312;-17.62244415283203;3.3081119060516357;80.2489242553711
102;1673292199.0411127;47.1306429;7.2406231;14.86600112915039;1673292199.0440397;-18.077014923095703;0.3853863775730133;80.83067321777344
103;1673292199.2337158;47.130643;7.2406226;15.27500057220459;1673292199.235668;-18.74764060974121;-1.7001855373382568;81.32240295410156
104;1673292199.4231997;47.1306431;7.2406223;15.690000534057617;1673292199.426124;-18.70682716369629;3.177597761154175;80.3949203491211
105;1673292199.6146595;47.1306431;7.240622;16.10099983215332;1673292199.617611;-18.844261169433594;1.6390917301177979;80.58529663085938
106;1673292199.8238192;47.1306431;7.2406219;16.518001556396484;1673292199.8267517;-18.87815284729004;-1.7666869163513184;81.51200866699219
107;1673292200.0134244;47.1306431;7.240622;16.933000564575195;1673292200.0173569;-18.315444946289062;2.218113422393799;80.49246978759766
108;1673292200.2187412;47.1306429;7.2406220999999995;17.341001510620117;1673292200.221673;-17.89008140563965;1.882599115371704;80.24700164794922
109;1673292200.4733605;47.130642699999996;7.2406222;17.746000289916992;1673292200.478243;-17.77727699279785;-2.7179524898529053;81.2601547241211
110;1673292200.666626;47.130642699999996;7.2406223;18.144001007080078;1673292200.6685905;-17.25717544555664;0.6289475560188293;80.52513885498047
111;1673292200.8866417;47.130642599999995;7.2406223;18.54400062561035;1673292200.8895705;-17.416536331176758;2.4782662391662598;80.05923461914062
112;1673292201.07627;47.130642599999995;7.2406222;18.93800163269043;1673292201.078227;-17.576282501220703;-2.0247385501861572;81.18721008300781
113;1673292201.2463605;47.130642599999995;7.2406222;19.332000732421875;1673292201.2492893;-17.564367294311523;-0.5189132690429688;80.96282196044922
114;1673292201.421411;47.1306425;7.2406220999999995;19.729000091552734;1673292201.425315;-17.704565048217773;2.566272020339966;80.02620697021484
115;1673292201.611405;47.1306425;7.2406220999999995;20.130001068115234;1673292201.6133413;-17.722217559814453;-1.5472959280014038;80.88617706298828
116;1673292201.8143818;47.1306425;7.240622;20.532001495361328;1673292201.817311;-17.652172088623047;-0.8640472292900085;80.93900299072266
117;1673292202.0084577;47.130642599999995;7.240622;20.933000564575195;1673292202.0113883;-17.805585861206055;3.2744364738464355;80.09153747558594
118;1673292202.1912615;47.130642699999996;7.2406219;21.33100128173828;1673292202.197117;-17.822477340698242;-0.21016660332679749;80.8426742553711
119;1673292202.4236412;47.1306428;7.2406219;21.733001708984375;1673292202.4255762;-17.6807918548584;-1.1907163858413696;81.23152923583984
120;1673292202.621123;47.130642699999996;7.2406219;22.134000778198242;1673292202.6250288;-17.882129669189453;3.007938861846924;80.29893493652344
121;1673292202.8223686;47.130642699999996;7.2406217999999996;22.534000396728516;1673292202.8262587;-17.741567611694336;0.8756452798843384;80.57335662841797
122;1673292203.0180345;47.130642699999996;7.2406217999999996;22.93800163269043;1673292203.0205162;-18.001731872558594;-2.400486946105957;81.27903747558594
123;1673292203.196915;47.130642699999996;7.240621699999999;23.34400177001953;1673292203.200819;-17.679712295532227;2.8414502143859863;80.30421447753906
124;1673292203.3884096;47.130642699999996;7.2406216;23.746000289916992;1673292203.3923254;-17.9403133392334;1.2384917736053467;80.52107238769531
125;1673292203.6075811;47.130642699999996;7.240621399999999;24.141000747680664;1673292203.6095352;-18.04718780517578;-2.370392084121704;81.36068725585938
126;1673292203.7994008;47.130642599999995;7.240621399999999;24.53700065612793;1673292203.8023403;-18.03799819946289;1.300909399986267;80.541015625
127;1673292203.9959404;47.130642599999995;7.2406213;24.935001373291016;1673292203.9998286;-17.956756591796875;1.7919442653656006;80.38018035888672
128;1673292204.206266;47.130642599999995;7.2406212;25.336000442504883;1673292204.2103279;-18.352216720581055;-2.4039528369903564;81.4811782836914
129;1673292204.4150684;47.130642699999996;7.240621099999999;25.73600196838379;1673292204.4199483;-18.062286376953125;1.603682279586792;80.82135009765625
130;1673292204.60287;47.130642699999996;7.240621099999999;26.13300132751465;1673292204.6058018;-18.098976135253906;2.8183188438415527;80.03887176513672
131;1673292204.8271525;47.1306428;7.240621099999999;26.522001266479492;1673292204.831123;-17.962894439697266;-1.5007315874099731;81.0984878540039
132;1673292205.0287943;47.130642699999996;7.240621099999999;26.91200065612793;1673292205.0307438;-17.88895606994629;0.5498458743095398;80.80065155029297
133;1673292205.2109654;47.130642699999996;7.240621099999999;27.299001693725586;1673292205.2138958;-17.904403686523438;2.95767879486084;79.9433822631836
134;1673292205.404149;47.130642699999996;7.240621;27.68800163269043;1673292205.4070888;-18.05115509033203;-1.1764702796936035;80.97738647460938
135;1673292205.620532;47.130642699999996;7.240621;28.0830020904541;1673292205.6234593;-17.83358383178711;0.0896841511130333;81.01809692382812
136;1673292205.845929;47.130642699999996;7.2406209;28.47300148010254;1673292205.8488548;-18.18052101135254;3.5121347904205322;80.07886505126953
137;1673292206.0627315;47.130642599999995;7.2406209;28.86100196838379;1673292206.0676117;-17.80409812927246;-0.9705678820610046;81.04985809326172
138;1673292206.254449;47.1306425;7.2406209;29.242000579833984;1673292206.2563949;-18.187576293945312;-1.44991135597229;81.25077819824219
139;1673292206.477322;47.1306424;7.240620799999999;29.628002166748047;1673292206.4822202;-18.34838104248047;2.7005059719085693;80.25983428955078
140;1673292206.6551087;47.1306424;7.240620799999999;30.018001556396484;1673292206.6580348;-17.969505310058594;-0.20927633345127106;80.81346130371094
141;1673292206.83585;47.1306425;7.240620799999999;30.413002014160156;1673292206.8387702;-18.450115203857422;-1.644565224647522;81.32608795166016
142;1673292207.022024;47.130642599999995;7.2406209;30.809001922607422;1673292207.025926;-17.91055679321289;3.178331136703491;80.18154907226562
143;1673292207.217855;47.130642599999995;7.2406209;31.205001831054688;1673292207.2207906;-18.095251083374023;0.6054472923278809;80.59010314941406
144;1673292207.42477;47.130642599999995;7.2406209;31.59600067138672;1673292207.4277024;-18.11940574645996;-1.7146358489990234;81.2447738647461
145;1673292207.6084523;47.1306425;7.2406209;31.99100112915039;1673292207.6123571;-18.055864334106445;2.5475475788116455;80.22380065917969
146;1673292207.8063946;47.1306425;7.240621;32.38500213623047;1673292207.8093114;-17.800561904907227;1.3046168088912964;80.341064453125
147;1673292208.0341587;47.1306425;7.2406209;32.78300094604492;1673292208.0380635;-18.23887062072754;-2.2163846492767334;81.27208709716797
148;1673292208.2263188;47.130642599999995;7.2406209;33.18300247192383;1673292208.229247;-18.03360939025879;1.1850625276565552;80.6471939086914
149;1673292208.4341335;47.130642599999995;7.2406209;33.582000732421875;1673292208.438039;-18.085397720336914;2.8108363151550293;80.17146301269531
150;1673292208.610575;47.130642599999995;7.2406209;33.97500228881836;1673292208.6135066;-18.173690795898438;-1.951441764831543;81.13558959960938
151;1673292208.7962158;47.1306425;7.2406209;34.36300277709961;1673292208.799144;-18.058734893798828;0.6758357882499695;80.5526351928711
152;1673292209.0058665;47.1306425;7.2406209;34.75600051879883;1673292209.0097694;-18.06100082397461;2.866486072540283;80.11299896240234
153;1673292209.2073133;47.130642599999995;7.240620799999999;35.1510009765625;1673292209.210261;-18.146503448486328;-1.398003339767456;80.97823333740234
154;1673292209.4067461;47.1306428;7.240620799999999;35.55000305175781;1673292209.4106562;-18.145355224609375;0.16087472438812256;80.88926696777344
155;1673292209.6117961;47.1306429;7.2406207;35.95000076293945;1673292209.6137557;-18.215320587158203;3.8645434379577637;80.22996520996094
156;1673292209.8149889;47.1306429;7.2406207;36.34700012207031;1673292209.8189118;-18.000696182250977;-0.6717965006828308;81.1633529663086
157;1673292210.0191438;47.1306429;7.2406207;36.733001708984375;1673292210.0220907;-18.124038696289062;-0.6145164370536804;81.06974792480469
158;1673292210.2231524;47.1306429;7.2406207;37.12200164794922;1673292210.2261198;-18.2658634185791;3.2286922931671143;80.011474609375
159;1673292210.4265065;47.1306429;7.2406207;37.51000213623047;1673292210.4294202;-18.131072998046875;0.5271143913269043;80.59254455566406
160;1673292210.6299758;47.130643;7.2406207;37.9010009765625;1673292210.6339116;-18.20259666442871;-1.2085384130477905;81.31175994873047
161;1673292210.8305812;47.130643;7.2406206;38.2920036315918;1673292210.8350477;-18.36381721496582;3.6247692108154297;80.20743560791016
162;1673292211.0353262;47.130643;7.2406206;38.68000030517578;1673292211.0392106;-18.061168670654297;1.1165544986724854;80.58732604980469
163;1673292211.2129378;47.130643;7.2406206;39.06800079345703;1673292211.2158668;-18.15840721130371;-1.6842143535614014;81.22704315185547
164;1673292211.4186504;47.1306429;7.2406206;39.45000076293945;1673292211.4215758;-18.227975845336914;2.646756410598755;80.28498077392578
165;1673292211.629429;47.1306428;7.2406206;39.83700180053711;1673292211.6314013;-18.244810104370117;1.5857526063919067;80.39567565917969
166;1673292211.8435094;47.1306429;7.2406206;40.22600173950195;1673292211.8464377;-18.296039581298828;-2.021026372909546;81.15869903564453
167;1673292212.0555968;47.1306429;7.2406206;40.61300277709961;1673292212.0585263;-18.043363571166992;2.118483781814575;80.4935073852539
168;1673292212.2412996;47.1306429;7.2406207;41.00400161743164;1673292212.2452037;-18.29537010192871;2.9255270957946777;80.09334564208984
169;1673292212.4303713;47.1306429;7.2406207;41.39600372314453;1673292212.434273;-18.21868324279785;-1.9240057468414307;81.18482208251953
170;1673292212.6230354;47.1306428;7.2406206;41.781002044677734;1673292212.625964;-18.13931655883789;0.9149571657180786;80.68939971923828
171;1673292212.8242912;47.130642699999996;7.2406206;42.169002532958984;1673292212.8281825;-18.13994598388672;2.939815044403076;80.09278869628906
172;1673292213.0188248;47.1306428;7.2406204999999995;42.56100082397461;1673292213.0217402;-18.315731048583984;-1.3813976049423218;81.13566589355469
173;1673292213.2187521;47.1306429;7.2406204999999995;42.954002380371094;1673292213.2207046;-18.291568756103516;0.17107389867305756;80.90180969238281
174;1673292213.4202719;47.1306429;7.2406204;43.34600067138672;1673292213.4231956;-18.268295288085938;4.324385643005371;79.97393035888672
175;1673292213.6191175;47.1306428;7.2406204;43.73600387573242;1673292213.6230226;-18.328420639038086;-0.48894792795181274;80.89060974121094
176;1673292213.8548133;47.1306428;7.2406204;44.125003814697266;1673292213.8587177;-18.46749496459961;-0.5108882784843445;80.90486145019531
177;1673292214.0385923;47.1306428;7.2406204;44.50700378417969;1673292214.0415514;-18.28937530517578;3.2188823223114014;80.17849731445312
178;1673292214.2207882;47.1306429;7.2406204;44.893001556396484;1673292214.2256699;-18.2171630859375;0.5015062093734741;80.66587829589844
179;1673292214.4971085;47.130643;7.2406204;45.28200149536133;1673292214.498073;-18.37447738647461;-0.8507680892944336;81.1117172241211
180;1673292214.702351;47.130643;7.2406204;45.67500305175781;1673292214.7052786;-18.252628326416016;3.6288938522338867;80.09615325927734
181;1673292214.8625758;47.1306429;7.2406204;46.06700134277344;1673292214.8655038;-18.132070541381836;0.9813343286514282;80.59033966064453
182;1673292215.0484142;47.1306429;7.2406204;46.457000732421875;1673292215.0523193;-18.355377197265625;-1.468247413635254;81.26070404052734
183;1673292215.247741;47.1306428;7.2406204;46.84100341796875;1673292215.250678;-18.306880950927734;3.036292552947998;80.2680892944336
184;1673292215.4663768;47.1306428;7.2406204;47.230003356933594;1673292215.4693046;-18.29499626159668;1.7015478610992432;80.4333267211914
185;1673292215.6771371;47.1306428;7.2406203;47.62000274658203;1673292215.6790903;-18.358274459838867;-1.5737892389297485;81.32967376708984
186;1673292215.8933384;47.1306428;7.2406203;48.009002685546875;1673292215.8953042;-18.432058334350586;2.7761170864105225;80.31050109863281
187;1673292216.118696;47.1306428;7.2406203;48.37000274658203;1673292216.1216667;-19.118453979492188;2.048007011413574;80.20006561279297
188;1673292216.273636;47.130642699999996;7.2406201999999995;48.682003021240234;1673292216.275588;-18.347576141357422;-1.2062199115753174;81.4220199584961
189;1673292216.4526336;47.130642699999996;7.24062;48.94600296020508;1673292216.454615;-18.234046936035156;2.654892921447754;80.38481903076172
190;1673292216.634936;47.130642699999996;7.2406197;49.15900421142578;1673292216.637862;-18.528318405151367;2.756349802017212;80.295654296875
191;1673292216.8168023;47.130642699999996;7.2406194;49.340003967285156;1673292216.8197315;-16.306636810302734;0.07230151444673538;80.99610900878906
192;1673292217.0053532;47.130642699999996;7.2406187;49.47100067138672;1673292217.0082939;-13.81357479095459;0.18093262612819672;76.7214126586914
193;1673292217.2173426;47.130642599999995;7.240617599999999;49.493003845214844;1673292217.2202692;-20.696571350097656;11.932948112487793;65.41712951660156
194;1673292217.4361687;47.1306422;7.2406165;49.50100326538086;1673292217.438122;1.4798306226730347;14.200400352478027;54.92213439941406
195;1673292217.6409426;47.130641399999995;7.2406147999999995;49.55400085449219;1673292217.6434205;-15.813847541809082;14.950878143310547;43.07908248901367
196;1673292217.8559139;47.1306404;7.240613;49.61100387573242;1673292217.8588438;-12.417255401611328;14.182283401489258;35.489219665527344
197;1673292218.0436037;47.130639599999995;7.2406112;49.67100143432617;1673292218.0465815;-9.100762367248535;14.910155296325684;25.984033584594727
198;1673292218.240656;47.1306387;7.2406095;49.72600173950195;1673292218.2436938;-8.289263725280762;17.12058448791504;16.985090255737305
199;1673292218.4406304;47.130637899999996;7.240608099999999;49.77300262451172;1673292218.4425833;-4.538291931152344;20.594738006591797;7.821396827697754
200;1673292218.6435137;47.130637199999995;7.240607;49.80900192260742;1673292218.6454868;-1.8848847150802612;23.503501892089844;-1.3263169527053833
201;1673292218.8306725;47.130636599999995;7.240606199999999;49.8380012512207;1673292218.8336382;0.4643000662326813;24.846345901489258;-10.320676803588867
202;1673292219.063871;47.1306362;7.2406057;49.858001708984375;1673292219.0678532;3.261458396911621;22.124753952026367;-19.35055160522461
203;1673292219.3116302;47.1306358;7.2406054;49.86600112915039;1673292219.3146236;7.194952487945557;19.37447166442871;-28.485824584960938
204;1673292219.512583;47.1306355;7.2406052;49.875003814697266;1673292219.5177119;11.821623802185059;16.4166316986084;-37.22652053833008
205;1673292219.6934674;47.130635399999996;7.2406052;49.88300323486328;1673292219.6963966;13.651013374328613;15.698906898498535;-45.91651153564453
206;1673292219.8616567;47.130635399999996;7.2406052999999995;49.89200210571289;1673292219.8636084;13.840374946594238;14.788386344909668;-52.17156219482422
207;1673292220.0687938;47.1306355;7.2406052999999995;49.90200424194336;1673292220.07169;13.877979278564453;14.284285545349121;-51.39926528930664
208;1673292220.2555308;47.1306355;7.2406052;49.90800094604492;1673292220.2584593;14.17836856842041;13.663569450378418;-49.19911193847656
209;1673292220.4527717;47.1306352;7.2406051;49.90800094604492;1673292220.457689;15.029797554016113;12.513279914855957;-48.22087478637695
210;1673292220.6387818;47.1306349;7.2406049999999995;49.9160041809082;1673292220.6417093;14.990456581115723;12.464852333068848;-47.6469841003418
211;1673292220.842247;47.130634699999995;7.2406048;49.927001953125;1673292220.8461514;13.64310073852539;12.984134674072266;-47.24166488647461
212;1673292221.0459492;47.1306345;7.2406045;49.93700408935547;1673292221.0498908;12.218781471252441;12.548727035522461;-46.91046142578125
213;1673292221.2476923;47.1306344;7.2406042;49.94900131225586;1673292221.2506516;11.387641906738281;14.063504219055176;-46.610591888427734
214;1673292221.4426749;47.130634199999996;7.2406039;49.95600128173828;1673292221.4465814;11.638479232788086;15.91174602508545;-46.59499740600586
215;1673292221.646841;47.130634099999995;7.2406035;49.96600341796875;1673292221.6503222;12.334163665771484;17.69597053527832;-46.33360290527344
216;1673292221.841184;47.1306338;7.2406032;49.97100067138672;1673292221.8441126;13.500089645385742;17.469961166381836;-46.26624298095703
217;1673292222.0448315;47.130633599999996;7.2406028;49.98100280761719;1673292222.0477595;0.9116299748420715;17.46889877319336;-47.80478286743164
218;1673292222.241851;47.130634;7.2406014;50.000003814697266;1673292222.2457387;-30.575742721557617;13.127487182617188;-49.270633697509766
219;1673292222.4557056;47.130635899999994;7.2405976;49.99700164794922;1673292222.4592052;-50.105621337890625;7.80167293548584;-47.0961799621582
220;1673292222.6587899;47.1306398;7.2405903;49.94600296020508;1673292222.6618595;-43.64527893066406;1.78939950466156;-44.850135803222656
221;1673292222.862891;47.1306455;7.2405798;49.893001556396484;1673292222.8648496;-42.61883544921875;1.248244285583496;-44.064064025878906
222;1673292223.0738502;47.1306528;7.2405659;49.874000549316406;1673292223.0767727;-51.44654083251953;5.61858606338501;-43.82135009765625
223;1673292223.259697;47.1306624;7.240549;49.88800048828125;1673292223.2617261;-56.66136169433594;6.505874156951904;-43.41618728637695
224;1673292223.4477692;47.130674299999995;7.240528899999999;49.91100311279297;1673292223.4508119;-57.5169792175293;6.268642902374268;-43.772727966308594
225;1673292223.6507676;47.130688299999996;7.2405057;49.941001892089844;1673292223.6529367;-58.010433197021484;5.897216796875;-42.6817512512207
226;1673292223.867889;47.1307042;7.2404798999999995;49.958003997802734;1673292223.8709233;-56.8632698059082;5.249701499938965;-42.340457916259766
227;1673292224.0620532;47.1307214;7.2404519;49.958003997802734;1673292224.0649867;-55.30510711669922;5.333084583282471;-40.74685287475586
228;1673292224.2496922;47.1307397;7.240422499999999;49.94600296020508;1673292224.2527127;-55.10062026977539;4.093928813934326;-39.224998474121094
229;1673292224.455049;47.1307589;7.240391799999999;49.92000198364258;1673292224.4580135;-53.74408721923828;5.0259199142456055;-40.15398025512695
230;1673292224.6617517;47.130778799999995;7.240360099999999;49.88100051879883;1673292224.6637242;-51.88275909423828;6.083876132965088;-40.75595474243164
231;1673292224.8507843;47.1307994;7.2403276;49.845001220703125;1673292224.8540323;-48.18341827392578;8.445965766906738;-41.323158264160156
232;1673292225.0458703;47.130820299999996;7.240295;49.82400131225586;1673292225.049775;-45.59807205200195;14.526041030883789;-41.79630661010742
233;1673292225.2340088;47.1308416;7.2402631;49.83500289916992;1673292225.2388887;-19.801361083984375;22.263389587402344;-39.37166976928711
234;1673292225.4338603;47.1308619;7.2402337999999995;49.83700180053711;1673292225.4367926;24.12677574157715;24.815532684326172;-36.6933479309082
235;1673292225.6238575;47.130879799999995;7.2402077;49.70500183105469;1673292225.6277711;20.480199813842773;8.156455039978027;-41.648868560791016
236;1673292225.8456426;47.1308948;7.2401846999999995;49.52900314331055;1673292225.8485723;16.46998405456543;3.441237688064575;-44.214542388916016
237;1673292226.0544374;47.130907099999995;7.2401642;49.427001953125;1673292226.0583453;18.098283767700195;3.9601430892944336;-44.4759407043457
238;1673292226.2525892;47.1309167;7.2401466999999995;49.41200256347656;1673292226.2555223;32.24313735961914;7.070352554321289;-44.98259353637695
239;1673292226.451055;47.1309234;7.240132699999999;49.457000732421875;1673292226.454762;42.97389221191406;9.671887397766113;-46.08523178100586
240;1673292226.6406796;47.130927299999996;7.240122599999999;49.52100372314453;1673292226.6438906;47.2177848815918;10.75196647644043;-46.846099853515625
241;1673292226.8413906;47.1309287;7.2401164;49.595001220703125;1673292226.8452952;51.55792236328125;14.74315071105957;-45.97611999511719
242;1673292227.0398545;47.1309277;7.2401146;49.67500305175781;1673292227.041822;53.91067123413086;18.089168548583984;-44.72810745239258
243;1673292227.2479038;47.1309246;7.240116899999999;49.75400161743164;1673292227.2508326;55.85028076171875;20.03424072265625;-44.9650764465332
244;1673292227.45187;47.1309198;7.240123499999999;49.827003479003906;1673292227.4543607;56.2664680480957;21.276208877563477;-46.66839599609375
245;1673292227.6457589;47.130914;7.2401341;49.88900375366211;1673292227.649664;53.96967315673828;24.91098976135254;-46.24912643432617
246;1673292227.856956;47.130907799999996;7.2401477;49.926002502441406;1673292227.8618336;43.681949615478516;25.81879425048828;-46.56818389892578
247;1673292228.0670469;47.130901699999995;7.2401627;49.948001861572266;1673292228.068999;26.715476989746094;24.77567481994629;-46.42910385131836
248;1673292228.2644947;47.1308965;7.2401775;49.9530029296875;1673292228.268398;10.227275848388672;21.83273696899414;-44.519893646240234
249;1673292228.4656384;47.1308921;7.240190999999999;49.94000244140625;1673292228.4695272;-3.831709384918213;16.99772071838379;-42.323699951171875
250;1673292228.6779263;47.130888999999996;7.2402022;49.919002532958984;1673292228.6818354;-10.969133377075195;12.883930206298828;-41.20757293701172
251;1673292228.8848248;47.1308869;7.2402106999999996;49.897003173828125;1673292228.8877604;-3.73098087310791;9.700800895690918;-41.290950775146484
252;1673292229.0941103;47.130885199999994;7.2402178;49.6400032043457;1673292229.0980017;-5.055551052093506;-0.32937437295913696;-41.70418930053711
253;1673292229.2798166;47.1308836;7.2402242999999995;49.02000045776367;1673292229.2846975;-15.46292781829834;-20.478914260864258;-40.0475959777832
254;1673292229.474962;47.1308821;7.2402305;48.00800323486328;1673292229.4779055;-29.577112197875977;-48.91039276123047;-30.452619552612305
255;1673292229.6665561;47.1308807;7.240236599999999;46.59800338745117;1673292229.669499;-38.229705810546875;-79.43359375;-12.569432258605957
256;1673292229.905264;47.1308794;7.2402428;44.82600402832031;1673292229.908197;-40.58928298950195;-95.51785278320312;1.8943932056427002
257;1673292230.0927773;47.1308781;7.2402489;42.7030029296875;1673292230.096698;-43.2274169921875;-85.81369018554688;2.054530382156372
258;1673292230.2912898;47.1308769;7.2402549;40.229000091552734;1673292230.2942185;-38.47666931152344;-49.537967681884766;-13.785307884216309
259;1673292230.4694521;47.130875599999996;7.2402612;37.38100051879883;1673292230.473358;-20.360454559326172;-7.034287452697754;-27.835243225097656
260;1673292230.6728349;47.1308741;7.240267299999999;34.13100051879883;1673292230.67479;4.1053876876831055;20.18999481201172;-30.235387802124023
261;1673292230.8771358;47.1308727;7.2402728;30.488000869750977;1673292230.8800845;19.14822006225586;25.14308738708496;-28.5918025970459
262;1673292231.0831268;47.130871299999995;7.2402777;26.488000869750977;1673292231.0850706;16.632619857788086;4.801002025604248;-33.54409408569336
263;1673292231.2579365;47.130869999999994;7.240282199999999;22.11100196838379;1673292231.2628207;-3.8995721340179443;-25.685213088989258;-33.55646896362305
264;1673292231.4584322;47.130868899999996;7.2402866999999995;17.347000122070312;1673292231.4619343;-26.183774948120117;-47.77570724487305;-22.166603088378906
265;1673292231.6664338;47.1308679;7.240291699999999;12.230000495910645;1673292231.6693442;-36.678009033203125;-42.059688568115234;-17.824438095092773
266;1673292231.892193;47.1308667;7.240297099999999;6.76800012588501;1673292231.8980503;-27.54745864868164;-7.739665985107422;-28.79454231262207
267;1673292232.0969648;47.130865299999996;7.2403026;0.9260000586509705;1673292232.1008742;-0.508939802646637;17.60973358154297;-31.383668899536133
268;1673292232.2727947;47.130867699999996;7.2403097;0.29200002551078796;1673292232.2757106;5.493140697479248;3.1590476036071777;-34.93062210083008
269;1673292232.4644012;47.1308722;7.2403191;0.37700000405311584;1673292232.4673436;6.460934638977051;9.598251342773438;-38.33894729614258
270;1673292232.6618018;47.130877;7.2403298;0.44200003147125244;1673292232.6647294;6.470681190490723;3.0416009426116943;-37.840476989746094
271;1673292232.8691084;47.1308814;7.2403401999999994;0.47700002789497375;1673292232.8720357;6.492038726806641;5.449464321136475;-37.63520431518555
272;1673292233.1072245;47.130885;7.240349999999999;0.49400001764297485;1673292233.111115;6.538651466369629;5.110354900360107;-37.53633499145508
273;1673292233.3069568;47.130887699999995;7.2403588999999995;0.5049999952316284;1673292233.309884;6.516111373901367;4.663916110992432;-37.493167877197266
274;1673292233.471912;47.1308903;7.240367999999999;0.5240000486373901;1673292233.4738705;6.538400650024414;4.150090217590332;-37.387237548828125
275;1673292233.6486669;47.130891299999995;7.240374;0.5410000085830688;1673292233.6515958;6.545098304748535;3.3451149463653564;-37.517845153808594
276;1673292233.8540828;47.130891;7.240377499999999;0.5590000152587891;1673292233.8579862;6.520482540130615;2.5350310802459717;-37.6736946105957
277;1673292234.0455713;47.1308898;7.2403789;0.5820000171661377;1673292234.0495083;6.494715690612793;1.8293489217758179;-37.84006881713867
278;1673292234.2523396;47.130887799999996;7.2403787;0.6100000143051147;1673292234.2552674;6.463090896606445;1.180800437927246;-38.015533447265625
279;1673292234.4587038;47.130885199999994;7.2403774;0.6360000371932983;1673292234.4616344;6.430467128753662;0.5564060807228088;-38.1878547668457
280;1673292234.6478329;47.1308824;7.240375599999999;0.6630000472068787;1673292234.6507635;6.391679286956787;0.11462990939617157;-38.31717300415039
281;1673292234.8449934;47.130880399999995;7.2403768;0.690000057220459;1673292234.849874;6.360497951507568;-0.07501047849655151;-38.27981185913086
282;1673292235.0517213;47.1308775;7.2403749;0.718000054359436;1673292235.0546248;6.271845817565918;-0.5078315138816833;-38.42170715332031
283;1673292235.2603254;47.130874299999995;7.2403714;0.7470000386238098;1673292235.2647607;6.165502071380615;-0.8247085213661194;-38.54096603393555
284;1673292235.473986;47.1308709;7.240367;0.7670000195503235;1673292235.478866;6.048156261444092;-1.062238097190857;-38.645362854003906
285;1673292235.6705523;47.130867699999996;7.2403631;0.784000039100647;1673292235.6734822;5.952232360839844;-1.2020500898361206;-38.708065032958984
286;1673292235.860214;47.1308647;7.2403597;0.796000063419342;1673292235.86466;5.8775248527526855;-1.269563913345337;-38.7084846496582
287;1673292236.049235;47.130862099999995;7.2403596;0.8060000538825989;1673292236.0521662;5.8009514808654785;-1.2049199342727661;-38.675689697265625
288;1673292236.2529902;47.1308596;7.2403572;0.815000057220459;1673292236.2559187;5.652684211730957;-1.2846903800964355;-38.68779754638672
289;1673292236.4476576;47.130857299999995;7.240354;0.8160000443458557;1673292236.4506075;5.523090839385986;-1.3202990293502808;-38.713748931884766
290;1673292236.657227;47.1308551;7.2403507;0.8130000233650208;1673292236.6601667;5.354560852050781;-1.311760425567627;-38.739078521728516
291;1673292236.8583221;47.130853099999996;7.2403476;0.8100000619888306;1673292236.861211;5.2212605476379395;-1.2752726078033447;-38.72026062011719
292;1673292237.052689;47.130851299999996;7.2403447;0.8050000667572021;1673292237.0556076;5.034013271331787;-1.2211098670959473;-38.6855583190918
293;1673292237.2656507;47.1308496;7.240342399999999;0.7930000424385071;1673292237.2695885;4.928761005401611;-1.1757224798202515;-38.61130905151367
294;1673292237.452893;47.130847499999994;7.2403423;0.7790000438690186;1673292237.4548469;4.798295497894287;-1.0701167583465576;-38.513160705566406
295;1673292237.6583173;47.130846;7.2403407;0.7610000371932983;1673292237.66123;4.588885307312012;-1.04494309425354;-38.452606201171875
296;1673292237.8738244;47.130845;7.2403384;0.7420000433921814;1673292237.8777304;4.353263854980469;-1.0147219896316528;-38.40518569946289
297;1673292238.077135;47.1308441;7.2403359;0.7210000157356262;1673292238.0800645;4.279317855834961;-0.9304189085960388;-38.3442268371582
298;1673292238.2663023;47.130843299999995;7.240333499999999;0.6980000138282776;1673292238.2697902;4.055253505706787;-0.8576759696006775;-38.26592254638672
299;1673292238.4757442;47.1308426;7.2403314;0.6760000586509705;1673292238.479656;3.86676025390625;-0.7945264577865601;-38.186275482177734
300;1673292238.6710536;47.1308411;7.2403309;0.6510000228881836;1673292238.673003;3.7926220893859863;-0.7367229461669922;-38.11448287963867
301;1673292238.8703418;47.1308405;7.2403292;0.6260000467300415;1673292238.8732612;3.6403489112854004;-0.6379262208938599;-38.03261947631836
302;1673292239.0554793;47.1308404;7.240327;0.6030000448226929;1673292239.057434;3.4426112174987793;-0.23063503205776215;-37.95156478881836
303;1673292239.2549624;47.1308405;7.2403246;-0.012000000104308128;1673292239.2578957;3.2715818881988525;0.03856099396944046;-37.90327835083008
