;pos_time;latitude;longitude;altitude;alt_time;pitch;roll;yaw
0;1673294050.8812487;47.1306425;7.2406201999999995;0.003000000026077032;1673294051.0214057;-0.05653642863035202;-0.4747389554977417;90.71810913085938
1;1673294051.0726995;47.1306425;7.2406201999999995;-0.0010000000474974513;1673294051.2200725;-0.1842898279428482;-0.7188019752502441;90.61209869384766
2;1673294051.2735236;47.1306425;7.2406201999999995;-0.003000000026077032;1673294051.418014;-0.11256054043769836;0.07799392193555832;90.5942153930664
3;1673294051.47792;47.1306425;7.2406201999999995;-0.006000000052154064;1673294051.622981;-0.08455117791891098;-0.36449337005615234;90.70133209228516
4;1673294051.6829877;47.1306425;7.2406201;-0.005000000353902578;1673294051.844205;-0.005081390496343374;-0.083663709461689;90.7524642944336
5;1673294051.9004028;47.1306425;7.2406201;-0.007000000216066837;1673294052.0385356;-0.007132222875952721;-0.04147782549262047;90.54978942871094
6;1673294052.0935369;47.1306425;7.2406201;-0.007000000216066837;1673294052.2417786;-0.12461832910776138;-0.2521091103553772;90.78430938720703
7;1673294052.3034346;47.1306424;7.2406201;-0.009000000543892384;1673294052.4431179;0.10577932745218277;-0.03910396620631218;90.6899185180664
8;1673294052.5039449;47.1306424;7.2406201;-0.012000000104308128;1673294052.6420174;0.19689029455184937;-0.17523933947086334;90.77745819091797
9;1673294052.6934834;47.1306424;7.2406201;-0.015000000596046448;1673294052.8352818;-0.0844121128320694;-0.14443549513816833;90.52916717529297
10;1673294052.8910532;47.1306424;7.2406201;-0.0020000000949949026;1673294053.0374677;-0.18951772153377533;-0.2052919864654541;90.53688049316406
11;1673294053.0946035;47.1306424;7.2406201;0.0;1673294053.241999;-0.14322155714035034;-0.17946088314056396;90.59052276611328
12;1673294053.287253;47.1306424;7.2406201;0.0010000000474974513;1673294053.431049;-0.25238367915153503;-0.29419729113578796;90.62193298339844
13;1673294053.48625;47.1306424;7.2406201;0.0020000000949949026;1673294053.6448236;-0.30246245861053467;-0.1561931073665619;90.49952697753906
14;1673294053.7100673;47.1306423;7.2406201;0.0;1673294053.8479772;-0.32580700516700745;-0.20613311231136322;90.62487030029297
15;1673294053.8979383;47.1306423;7.2406201;0.004000000189989805;1673294054.0452065;-0.44851720333099365;0.01597607508301735;90.4351806640625
16;1673294054.1036918;47.1306423;7.2406201;0.006000000052154064;1673294054.2553575;-0.7877232432365417;-0.0070900325663387775;90.55181884765625
17;1673294054.310986;47.1306423;7.2406201999999995;0.013000000268220901;1673294054.4580383;-0.8429992198944092;0.40940988063812256;90.5877456665039
18;1673294054.5147805;47.1306423;7.2406203;0.0020000000949949026;1673294054.664122;-0.8255580067634583;-0.46384772658348083;90.66661071777344
19;1673294054.7269201;47.1306424;7.2406203;0.005000000353902578;1673294054.8905206;-0.7600587606430054;-0.005141823552548885;90.86628723144531
20;1673294054.9459817;47.1306424;7.2406204;0.00800000037997961;1673294055.083872;-0.7945736050605774;-0.04034116119146347;90.61682891845703
21;1673294055.1348283;47.1306424;7.2406204;0.010000000707805157;1673294055.2643855;-0.7526181936264038;-0.24155059456825256;90.83475494384766
22;1673294055.3214335;47.1306424;7.2406204999999995;0.009000000543892384;1673294055.445746;-0.7865545749664307;-0.16359439492225647;90.83577728271484
23;1673294055.4969614;47.1306424;7.2406204;0.009000000543892384;1673294055.6228864;-1.0909619331359863;-0.21106305718421936;90.94517517089844
24;1673294055.6748817;47.1306424;7.2406204;0.010000000707805157;1673294055.8367705;-1.2712353467941284;-0.1642865240573883;90.96656036376953
25;1673294055.9017859;47.1306424;7.2406204;0.010000000707805157;1673294056.0379643;-0.09504718333482742;-0.1203819289803505;92.90827941894531
26;1673294056.096005;47.1306425;7.2406207;0.00800000037997961;1673294056.2414954;2.146580219268799;-0.3546592891216278;92.73992156982422
27;1673294056.2966049;47.1306425;7.240621699999999;0.017000000923871994;1673294056.4410164;7.697436809539795;-0.11689123511314392;92.31456756591797
28;1673294056.500291;47.1306425;7.240623599999999;0.026000000536441803;1673294056.623879;13.115227699279785;0.16273005306720734;93.11734008789062
29;1673294056.676886;47.1306425;7.2406264;0.03400000184774399;1673294056.816826;16.976049423217773;0.9770568013191223;93.33464813232422
30;1673294056.8743365;47.130642599999995;7.2406299;0.04700000211596489;1673294057.0218735;17.470348358154297;1.8447656631469727;92.95608520507812
31;1673294057.0761933;47.130642599999995;7.240634;0.07200000435113907;1673294057.2110689;18.196653366088867;1.6039568185806274;92.55751037597656
32;1673294057.265034;47.130642699999996;7.2406386;0.10100000351667404;1673294057.4128208;19.636430740356445;0.9511880874633789;92.13640594482422
33;1673294057.4718494;47.130642699999996;7.240643599999999;0.13500000536441803;1673294057.6088824;21.353300094604492;1.2748388051986694;91.91140747070312
34;1673294057.6627126;47.130642699999996;7.2406486999999995;0.17600001394748688;1673294057.8052695;23.207380294799805;1.5698517560958862;91.77005767822266
35;1673294057.8636127;47.130642699999996;7.2406539;0.21900001168251038;1673294058.0097096;25.228107452392578;0.8232455849647522;91.5123062133789
36;1673294058.069343;47.130642699999996;7.2406589;0.27000001072883606;1673294058.2235835;27.280763626098633;0.7316588163375854;91.35186767578125
37;1673294058.2768447;47.130642699999996;7.2406635999999995;0.3230000138282776;1673294058.4328597;29.33876609802246;1.5981419086456299;91.44242095947266
38;1673294058.492924;47.130642699999996;7.2406678;0.3720000088214874;1673294058.6356096;31.539356231689453;1.084841251373291;91.32073974609375
39;1673294058.6905959;47.130642699999996;7.2406713;0.42600002884864807;1673294058.8339326;33.67715072631836;0.4669271409511566;91.02594757080078
40;1673294058.889634;47.130642699999996;7.240673999999999;0.4830000102519989;1673294059.0384693;35.839385986328125;0.9829424023628235;91.1264419555664
41;1673294059.0953064;47.130642699999996;7.2406758;0.5450000166893005;1673294059.2395444;38.006019592285156;1.0223556756973267;91.08777618408203
42;1673294059.3026597;47.130642699999996;7.2406766;0.6100000143051147;1673294059.451776;40.18280792236328;0.7878226637840271;90.98224639892578
43;1673294059.50381;47.130642699999996;7.2406761;0.6790000200271606;1673294059.6513014;42.41242599487305;0.8768026232719421;90.87870025634766
44;1673294059.7084622;47.130642599999995;7.240674299999999;0.7520000338554382;1673294059.8495996;44.59215545654297;0.8071383237838745;90.80201721191406
45;1673294059.9131322;47.1306425;7.240671099999999;0.8280000686645508;1673294060.0651252;46.103755950927734;0.633674144744873;90.77347564697266
46;1673294060.1289866;47.1306425;7.240666399999999;0.9050000309944153;1673294060.2753954;42.34934616088867;0.6080641150474548;90.82044219970703
47;1673294060.3308477;47.1306424;7.240660399999999;0.9740000367164612;1673294060.4766533;38.0306282043457;0.138529971241951;90.6461181640625
48;1673294060.533839;47.1306423;7.2406538;1.0390000343322754;1673294060.7053533;33.03971481323242;0.36566269397735596;90.63267517089844
49;1673294060.7503324;47.1306423;7.240647;1.1069999933242798;1673294060.872446;28.218656539916992;0.08559060096740723;90.55247497558594
50;1673294060.9176233;47.1306422;7.2406406;1.1680001020431519;1673294061.0400946;24.220937728881836;0.007880812510848045;90.52989959716797
51;1673294061.0954683;47.1306422;7.2406350999999995;1.2200000286102295;1673294061.2307446;21.7600154876709;0.12582612037658691;90.53382873535156
52;1673294061.2863753;47.1306422;7.240630599999999;1.2730000019073486;1673294061.4738638;20.779714584350586;0.4585955739021301;90.60887145996094
53;1673294061.542076;47.1306422;7.2406272;1.3370000123977661;1673294061.677152;21.170377731323242;-0.08583786338567734;90.38765716552734
54;1673294061.7284842;47.1306422;7.240625;1.4130001068115234;1673294061.9016306;22.32717514038086;-0.2449493259191513;90.29354858398438
55;1673294061.9693208;47.1306423;7.2406238;1.499000072479248;1673294062.0985816;23.99300765991211;1.9007641077041626;93.51483917236328
56;1673294062.1475317;47.1306423;7.240623299999999;1.5940001010894775;1673294062.2731347;25.542879104614258;1.03596031665802;92.89820861816406
57;1673294062.3253567;47.1306423;7.2406232;1.7030000686645508;1673294062.4499717;27.222707748413086;-1.2749927043914795;92.2095947265625
58;1673294062.5028613;47.1306423;7.240623299999999;1.821000099182129;1673294062.6566062;28.18769073486328;2.412304401397705;93.13722229003906
59;1673294062.7143633;47.1306424;7.2406234;1.9520001411437988;1673294062.8499694;28.929988861083984;1.6423712968826294;92.92620086669922
60;1673294062.9032063;47.1306425;7.2406234;2.0940001010894775;1673294063.0455008;29.274736404418945;-0.7509539127349854;92.34852600097656
61;1673294063.1019561;47.1306425;7.2406232;2.252000093460083;1673294063.2450206;29.159997940063477;1.622473955154419;92.62287902832031
62;1673294063.3036227;47.1306425;7.2406229;2.4230000972747803;1673294063.4464812;28.881826400756836;1.7160190343856812;92.52750396728516
63;1673294063.5162735;47.1306424;7.2406226;2.6100001335144043;1673294063.6587763;28.62838363647461;-1.2397187948226929;91.8992691040039
64;1673294063.7196035;47.1306423;7.2406220999999995;2.7980000972747803;1673294063.8575292;27.90863037109375;0.33779266476631165;92.1532974243164
65;1673294063.9090478;47.1306423;7.2406216;2.9900002479553223;1673294064.0423746;27.46519660949707;1.9601737260818481;92.82722473144531
66;1673294064.0976367;47.1306423;7.240621099999999;3.180000066757202;1673294064.2511337;27.127567291259766;-0.929648756980896;91.99899291992188
67;1673294064.310231;47.1306422;7.2406207;3.370000123977661;1673294064.4486234;26.89975929260254;-0.22875425219535828;92.10400390625
68;1673294064.5075219;47.1306422;7.2406204;3.561000108718872;1673294064.6665118;26.81570053100586;2.075199842453003;92.81694793701172
69;1673294064.7247863;47.1306422;7.2406203;3.751000165939331;1673294064.8641782;27.060976028442383;-0.9304068088531494;92.025634765625
70;1673294064.915237;47.130642099999996;7.2406203;3.942000150680542;1673294065.0486896;27.126270294189453;-0.5684138536453247;92.01189422607422
71;1673294065.1037517;47.130642099999996;7.2406203;4.131999969482422;1673294065.2469275;27.441959381103516;2.3460068702697754;92.76909637451172
72;1673294065.3021436;47.1306422;7.2406204;4.324000358581543;1673294065.442406;27.615652084350586;0.12037363648414612;92.1751937866211
73;1673294065.4982843;47.1306422;7.2406204999999995;4.515000343322754;1673294065.6486065;27.691198348999023;-0.6308717727661133;91.90943908691406
74;1673294065.706032;47.1306422;7.2406204999999995;4.705000400543213;1673294065.853113;27.74026107788086;2.2601730823516846;92.81678009033203
75;1673294065.9121964;47.1306422;7.2406206;4.896000385284424;1673294066.0533657;27.94642448425293;0.010323921218514442;92.29232025146484
76;1673294066.1058302;47.130642099999996;7.2406207;5.083000183105469;1673294066.2637744;27.824495315551758;-1.2810652256011963;91.8775405883789
77;1673294066.3147914;47.130642099999996;7.2406207;5.272000312805176;1673294066.459604;28.004867553710938;1.8780347108840942;92.7674331665039
78;1673294066.5176136;47.130642099999996;7.240620799999999;5.467000484466553;1673294066.6560042;27.98360252380371;0.9134482145309448;92.57500457763672
79;1673294066.720917;47.1306422;7.240620799999999;5.659000396728516;1673294066.8714178;27.913928985595703;-1.1599663496017456;91.87419128417969
80;1673294066.9301965;47.1306422;7.240620799999999;5.853000164031982;1673294067.0640006;27.762577056884766;1.3120203018188477;92.51715087890625
81;1673294067.1234276;47.1306422;7.2406207;6.045000076293945;1673294067.2733262;27.827564239501953;1.1475521326065063;92.58055114746094
82;1673294067.3337224;47.1306422;7.2406207;6.238000392913818;1673294067.477234;27.695125579833984;-1.1709706783294678;91.91331481933594
83;1673294067.5276167;47.1306422;7.2406207;6.429000377655029;1673294067.665937;27.594770431518555;0.8469328880310059;92.34619140625
84;1673294067.723268;47.1306423;7.2406207;6.621000289916992;1673294067.8647418;27.70255470275879;2.061284303665161;92.71730041503906
85;1673294067.9304347;47.1306424;7.2406207;6.811000347137451;1673294068.0784826;27.645837783813477;-0.8980332016944885;91.95514678955078
86;1673294068.1355393;47.1306424;7.2406207;7.004000186920166;1673294068.2733786;27.607149124145508;0.525223970413208;92.35150146484375
87;1673294068.3334413;47.1306424;7.2406206;7.198000431060791;1673294068.472053;27.573381423950195;2.1265130043029785;92.83243560791016
88;1673294068.519996;47.1306423;7.2406207;7.389000415802002;1673294068.6731653;27.629688262939453;-0.9762465953826904;91.9609375
89;1673294068.7297022;47.1306423;7.2406207;7.583000183105469;1673294068.8599048;27.782451629638672;0.03680286183953285;92.20207214355469
90;1673294068.9141307;47.1306424;7.240620799999999;7.78000020980835;1673294069.063716;27.765851974487305;2.5556461811065674;92.90446472167969
91;1673294069.1155462;47.1306424;7.240620799999999;7.973000526428223;1673294069.2501676;27.843313217163086;-0.3784281313419342;92.14927673339844
92;1673294069.3079147;47.1306424;7.2406209;8.168000221252441;1673294069.457037;27.890308380126953;-0.3010847866535187;92.00287628173828
93;1673294069.519081;47.1306424;7.240621;8.36500072479248;1673294069.6670184;27.935077667236328;2.3583672046661377;92.73655700683594
94;1673294069.7273352;47.1306424;7.2406209;8.562000274658203;1673294069.8618116;27.873802185058594;0.15077969431877136;92.24195861816406
95;1673294069.9229069;47.1306424;7.2406209;8.76400089263916;1673294070.0700018;27.782798767089844;-0.6071885824203491;91.98049926757812
96;1673294070.1257334;47.1306424;7.2406209;8.961000442504883;1673294070.2620673;27.834007263183594;2.444897413253784;92.84632110595703
97;1673294070.313267;47.1306425;7.240621;9.16100025177002;1673294070.46086;27.89029312133789;0.8430537581443787;92.37474822998047
98;1673294070.5186627;47.1306425;7.240621;9.363000869750977;1673294070.6736152;27.91582489013672;-0.9888436794281006;91.7344741821289
99;1673294070.7363439;47.1306424;7.240621;9.562000274658203;1673294070.888693;27.694732666015625;1.8806568384170532;92.50102996826172
100;1673294070.946372;47.1306424;7.2406209;9.758000373840332;1673294071.110496;27.868417739868164;0.9371224045753479;92.45354461669922
101;1673294071.1549788;47.1306423;7.2406209;9.957000732421875;1673294071.2817724;27.783802032470703;-1.1789193153381348;91.9398193359375
102;1673294071.3440714;47.1306423;7.2406209;10.16100025177002;1673294071.4878004;27.103153228759766;1.5892353057861328;92.57374572753906
103;1673294071.5417452;47.1306424;7.2406206;10.450000762939453;1673294071.674729;28.44774627685547;1.8430675268173218;92.71429443359375
104;1673294071.7250488;47.1306424;7.2406201;10.834000587463379;1673294071.8604622;27.957975387573242;-0.4759029448032379;91.94056701660156
105;1673294071.9176855;47.1306424;7.240619499999999;11.236000061035156;1673294072.0804806;26.499380111694336;0.4902961254119873;92.26617431640625
106;1673294072.1380193;47.1306423;7.240618899999999;11.646000862121582;1673294072.2731047;25.57094383239746;1.8527655601501465;92.75927734375
107;1673294072.3546474;47.1306423;7.2406184;12.053000450134277;1673294072.4967358;25.036340713500977;-0.710746169090271;91.91072082519531
108;1673294072.5490987;47.1306423;7.2406181;12.461000442504883;1673294072.6749487;25.119365692138672;0.0074983625672757626;92.14999389648438
109;1673294072.72199;47.1306423;7.2406179999999996;12.86400032043457;1673294072.860715;25.32343292236328;2.1516001224517822;92.79573822021484
110;1673294072.916675;47.1306423;7.2406182;13.266000747680664;1673294073.061802;25.674009323120117;-0.9940086007118225;91.93684387207031
111;1673294073.117988;47.1306423;7.2406184;13.666000366210938;1673294073.2613988;26.291170120239258;0.40755951404571533;92.27557373046875
112;1673294073.328511;47.1306423;7.2406188;14.062000274658203;1673294073.476331;26.782716751098633;2.1213769912719727;92.70548248291016
113;1673294073.538406;47.1306423;7.2406191;14.446001052856445;1673294073.707516;27.073232650756836;-0.3982439935207367;92.11994171142578
114;1673294073.7545526;47.1306423;7.2406194;14.828001022338867;1673294073.8829985;27.213497161865234;0.29127416014671326;92.24431610107422
115;1673294073.9393733;47.1306424;7.2406196;15.213000297546387;1673294074.0892365;27.459840774536133;2.5262742042541504;92.7995376586914
116;1673294074.1454697;47.1306425;7.240619799999999;15.601000785827637;1673294074.285743;27.50022315979004;-0.26457953453063965;92.10011291503906
117;1673294074.34435;47.1306424;7.2406198999999996;15.99100112915039;1673294074.4855857;27.435062408447266;-0.04164526239037514;92.10210418701172
118;1673294074.5374038;47.1306425;7.24062;16.384000778198242;1673294074.6820323;27.30706787109375;2.4131669998168945;92.83496856689453
119;1673294074.7357795;47.1306425;7.24062;16.777000427246094;1673294074.8900073;27.259641647338867;0.6284342408180237;92.2491683959961
120;1673294074.946018;47.1306425;7.2406198999999996;17.166000366210938;1673294075.0931635;26.870508193969727;-0.6153693199157715;91.85335540771484
121;1673294075.150979;47.130642599999995;7.2406197;17.56100082397461;1673294075.2922657;26.906099319458008;2.2090818881988525;92.56243896484375
122;1673294075.3526013;47.130642599999995;7.2406197;17.95800018310547;1673294075.4977012;26.67646598815918;1.08686101436615;92.37342834472656
123;1673294075.5521858;47.130642599999995;7.2406196;18.35700035095215;1673294075.7013798;26.616931915283203;-0.7445381879806519;91.92737579345703
124;1673294075.7583084;47.1306425;7.240619499999999;18.762001037597656;1673294075.9525008;26.628482818603516;1.9431675672531128;92.71100616455078
125;1673294075.9965556;47.1306425;7.240619499999999;19.165000915527344;1673294076.1674187;26.468828201293945;1.3716154098510742;92.62069702148438
126;1673294076.2143517;47.1306425;7.2406194;19.556001663208008;1673294076.337032;26.457799911499023;-0.8471128940582275;91.87870788574219
127;1673294076.3829887;47.1306425;7.2406194;19.953001022338867;1673294076.507355;26.687854766845703;1.888427495956421;92.59085083007812
128;1673294076.5629187;47.130642599999995;7.2406194;20.351001739501953;1673294076.6889808;26.89716148376465;1.566638469696045;92.55381774902344
129;1673294076.7483177;47.1306425;7.240619499999999;20.749000549316406;1673294076.896695;26.804412841796875;-0.8847445845603943;91.89004516601562
130;1673294076.9539802;47.1306425;7.2406196;21.147001266479492;1673294077.102527;26.860300064086914;1.0654786825180054;92.46516418457031
131;1673294077.161439;47.1306425;7.2406197;21.545000076293945;1673294077.2941477;27.03089714050293;2.231107234954834;92.67320251464844
132;1673294077.3519113;47.1306425;7.2406197;21.939001083374023;1673294077.4853537;26.97427749633789;-0.4389224052429199;91.94229125976562
133;1673294077.54028;47.130642599999995;7.2406197;22.32200050354004;1673294077.689226;27.05840492248535;1.051424503326416;92.29688262939453
134;1673294077.742818;47.130642599999995;7.2406197;22.71200180053711;1673294077.8828287;26.946697235107422;2.554919719696045;92.7332534790039
135;1673294077.938965;47.130642599999995;7.240619799999999;23.10900115966797;1673294078.0814226;26.972713470458984;0.13286526501178741;92.1636734008789
136;1673294078.1749735;47.1306425;7.240619799999999;23.509000778198242;1673294078.3331125;26.899444580078125;0.20355577766895294;92.15675354003906
137;1673294078.374716;47.1306424;7.240619799999999;23.910001754760742;1673294078.488106;26.809659957885742;2.4254868030548096;92.81488800048828
138;1673294078.5317476;47.1306424;7.240619799999999;24.3070011138916;1673294078.675324;27.039121627807617;-0.036397919058799744;92.21540069580078
139;1673294078.7293622;47.1306424;7.240619799999999;24.696001052856445;1673294078.8870695;26.755207061767578;-0.0480804517865181;92.07777404785156
140;1673294078.9436054;47.1306424;7.240619799999999;25.086000442504883;1673294079.0967045;26.86035919189453;2.45902681350708;92.69186401367188
141;1673294079.149503;47.1306424;7.2406198999999996;25.48000144958496;1673294079.2930124;26.981626510620117;0.8415656089782715;92.311279296875
142;1673294079.3518615;47.1306423;7.2406198999999996;25.880001068115234;1673294079.4838629;26.886573791503906;-0.7511315941810608;91.85371398925781
143;1673294079.5398133;47.1306422;7.2406198999999996;26.27800178527832;1673294079.6948466;26.996780395507812;2.0272631645202637;92.63417053222656
144;1673294079.7503185;47.1306422;7.24062;26.680002212524414;1673294079.8936634;26.804676055908203;1.2934365272521973;92.50564575195312
145;1673294079.9496944;47.1306422;7.24062;27.08100128173828;1673294080.082056;26.909603118896484;-0.6263359785079956;91.99207305908203
146;1673294080.133944;47.1306423;7.2406198999999996;27.474000930786133;1673294080.26956;26.761159896850586;1.861999750137329;92.64775085449219
147;1673294080.3294208;47.1306423;7.2406198999999996;27.8700008392334;1673294080.477659;26.9426212310791;1.4997817277908325;92.64531707763672
148;1673294080.533968;47.1306422;7.2406198999999996;28.269001007080078;1673294080.6780846;26.87876319885254;-0.7933421730995178;91.95960235595703
149;1673294080.7412705;47.1306422;7.2406198999999996;28.671001434326172;1673294080.8756013;26.83199119567871;1.1659159660339355;92.39369201660156
150;1673294080.9254436;47.1306422;7.2406198999999996;29.073001861572266;1673294081.0780084;26.87301254272461;1.9441112279891968;92.69795989990234
151;1673294081.1343555;47.1306423;7.24062;29.474000930786133;1673294081.2860286;26.88945198059082;-0.8234642744064331;91.88567352294922
152;1673294081.3479187;47.1306423;7.2406198999999996;29.86600112915039;1673294081.4964826;26.85555648803711;1.023820161819458;92.34817504882812
153;1673294081.5504684;47.1306424;7.2406198999999996;30.264001846313477;1673294081.6839354;26.845056533813477;2.419140338897705;92.70191192626953
154;1673294081.7311687;47.1306424;7.2406198999999996;30.66200065612793;1673294081.8819647;26.790319442749023;-0.5510339736938477;91.9846420288086
155;1673294081.9495358;47.1306424;7.2406198999999996;31.066001892089844;1673294082.09418;26.67135238647461;0.746471643447876;92.21459197998047
156;1673294082.1460862;47.1306425;7.2406198999999996;31.47100067138672;1673294082.2823236;26.861099243164062;2.6679561138153076;92.81783294677734
157;1673294082.3365622;47.1306425;7.2406198999999996;31.876001358032227;1673294082.478538;26.847806930541992;-0.038575392216444016;92.07965087890625
158;1673294082.5366747;47.1306425;7.24062;32.27900314331055;1673294082.6835508;26.849056243896484;0.4295542240142822;92.17713928222656
159;1673294082.7407393;47.1306425;7.24062;32.67000198364258;1673294082.8869116;26.864524841308594;2.5626869201660156;92.82177734375
160;1673294082.9428935;47.1306425;7.24062;33.0629997253418;1673294083.0973458;26.917503356933594;0.10299377143383026;92.12574768066406
161;1673294083.1499786;47.1306424;7.2406201;33.46200180053711;1673294083.305851;26.947616577148438;-0.3314878046512604;91.94010925292969
162;1673294083.3612895;47.1306424;7.2406201;33.8650016784668;1673294083.5290635;26.901844024658203;2.493211030960083;92.63732147216797
163;1673294083.5862687;47.1306425;7.2406201;34.26700210571289;1673294083.749953;26.922679901123047;0.8990910649299622;92.2750473022461
164;1673294083.8085802;47.1306425;7.2406201;34.66800308227539;1673294083.9581654;26.94169044494629;-0.4317407011985779;91.94962310791016
165;1673294084.0029101;47.1306425;7.2406201;35.05900192260742;1673294084.1229644;26.711036682128906;2.431386947631836;92.74419403076172
166;1673294084.1748316;47.1306425;7.2406201;35.46000289916992;1673294084.2992942;26.976804733276367;0.9572471380233765;92.4441146850586
167;1673294084.3490088;47.1306425;7.2406201;35.862003326416016;1673294084.4912367;26.91287612915039;-0.37643563747406006;91.93866729736328
168;1673294084.5522919;47.1306425;7.2406201;36.2650032043457;1673294084.684449;26.940460205078125;2.140021324157715;92.63778686523438
169;1673294084.7368534;47.130642599999995;7.2406201;36.67000198364258;1673294084.866611;26.8629093170166;1.8623318672180176;92.63983154296875
170;1673294084.9268124;47.130642599999995;7.2406201;37.073001861572266;1673294085.0780456;26.86427116394043;-0.4173038899898529;92.04195404052734
171;1673294085.1371658;47.130642599999995;7.2406201;37.479000091552734;1673294085.285097;26.918710708618164;1.5612335205078125;92.47510528564453
172;1673294085.3469102;47.130642599999995;7.2406201;37.874000549316406;1673294085.4979274;26.75857162475586;1.9709986448287964;92.63375854492188
173;1673294085.5563712;47.1306425;7.24062;38.27400207519531;1673294085.6976006;26.76530647277832;-0.7250739336013794;91.93779754638672
174;1673294085.7590842;47.1306425;7.24062;38.678001403808594;1673294085.89702;26.804540634155273;1.0100916624069214;92.24537658691406
175;1673294085.9583466;47.130642599999995;7.2406198999999996;39.08300018310547;1673294086.1282954;26.844192504882812;2.2960524559020996;92.61560821533203
176;1673294086.182845;47.130642599999995;7.2406198999999996;39.487003326416016;1673294086.3108888;26.759016036987305;-0.3507317304611206;92.01470184326172
177;1673294086.3602107;47.1306425;7.2406198999999996;39.8900032043457;1673294086.4863641;26.740846633911133;0.4340798258781433;92.3059310913086
178;1673294086.5394485;47.1306425;7.240619799999999;40.28200149536133;1673294086.6807055;26.668933868408203;2.3929367065429688;92.83655548095703
179;1673294086.7416444;47.1306425;7.240619799999999;40.67900085449219;1673294086.917372;26.675369262695312;0.20463238656520844;92.22769927978516
180;1673294086.9698172;47.1306425;7.240619799999999;41.08000183105469;1673294087.1055994;26.729766845703125;0.1979764699935913;92.09038543701172
181;1673294087.1632469;47.130642599999995;7.2406198999999996;41.48200225830078;1673294087.305678;26.76803207397461;2.7559845447540283;92.77265167236328
182;1673294087.3639727;47.130642699999996;7.2406198999999996;41.88300323486328;1673294087.5109668;26.698320388793945;0.9167807102203369;92.32543182373047
183;1673294087.5738235;47.130642699999996;7.2406198999999996;42.28700256347656;1673294087.7196891;26.799760818481445;-0.32822132110595703;91.83194732666016
184;1673294087.782685;47.130642699999996;7.2406198999999996;42.69000244140625;1673294087.921957;26.78424644470215;2.2948484420776367;92.58624267578125
185;1673294087.9753957;47.130642699999996;7.24062;43.08100128173828;1673294088.1174178;26.836666107177734;1.2312934398651123;92.38162231445312
186;1673294088.1615546;47.130642699999996;7.24062;43.47800064086914;1673294088.2802813;26.762365341186523;-0.5786772966384888;91.88794708251953
187;1673294088.3357093;47.130642599999995;7.24062;43.87800216674805;1673294088.478884;26.782819747924805;2.256979465484619;92.63616180419922
188;1673294088.556833;47.130642699999996;7.24062;44.27800369262695;1673294088.6833472;26.803869247436523;1.8304846286773682;92.56021118164062
189;1673294088.7366257;47.130642699999996;7.24062;44.68100357055664;1673294088.8754306;26.740821838378906;-0.46866002678871155;92.06362915039062
190;1673294088.928506;47.130642699999996;7.24062;45.08500289916992;1673294089.0731137;26.733728408813477;1.618972659111023;92.5511474609375
191;1673294089.1304526;47.130642699999996;7.24062;45.47800064086914;1673294089.2855399;26.690366744995117;2.334994316101074;92.78636932373047
192;1673294089.3464458;47.130642599999995;7.24062;45.87900161743164;1673294089.5041378;26.802778244018555;-0.5360167622566223;91.98875427246094
193;1673294089.5596228;47.130642599999995;7.24062;46.285003662109375;1673294089.7294664;26.730878829956055;0.9618021249771118;92.19287109375
194;1673294089.7853155;47.130642699999996;7.24062;46.69400405883789;1673294089.9336424;26.822755813598633;2.6828811168670654;92.73474884033203
195;1673294089.9827597;47.130642699999996;7.24062;47.10300064086914;1673294090.1164305;26.739337921142578;-0.309170126914978;91.95716857910156
196;1673294090.1661432;47.130642699999996;7.2406201;47.50600051879883;1673294090.3175964;26.77521324157715;0.7132636308670044;92.16310119628906
197;1673294090.3691208;47.130642699999996;7.2406201;47.906002044677734;1673294090.5025997;26.711027145385742;2.4627387523651123;92.80906677246094
198;1673294090.5605457;47.130642699999996;7.2406201999999995;48.2760009765625;1673294090.704147;26.94830322265625;0.3464179039001465;92.22957611083984
199;1673294090.766204;47.130642699999996;7.2406204;48.60600280761719;1673294090.8930042;26.988834381103516;0.3022328019142151;92.05433654785156
200;1673294090.942463;47.1306428;7.2406207;48.8910026550293;1673294091.1069446;27.3619441986084;3.013550281524658;92.8718490600586
201;1673294091.167483;47.1306428;7.240621099999999;49.13100051879883;1673294091.300127;27.90103530883789;0.9069028496742249;92.24173736572266
202;1673294091.3578563;47.1306428;7.2406216;49.332000732421875;1673294091.4979436;37.26077651977539;0.5897547602653503;89.29085540771484
203;1673294091.5602138;47.130642699999996;7.2406219;49.49100112915039;1673294091.6939647;28.126802444458008;-0.7333838939666748;80.89318084716797
204;1673294091.7564247;47.1306425;7.2406220999999995;49.52300262451172;1673294091.912887;29.565773010253906;-3.7818617820739746;69.07894134521484
205;1673294091.9695551;47.130642099999996;7.2406223999999995;49.53600311279297;1673294092.103442;39.98849868774414;-8.588827133178711;58.392417907714844
206;1673294092.157266;47.1306411;7.2406220999999995;49.583003997802734;1673294092.3004804;25.729093551635742;-17.66499137878418;49.691593170166016
207;1673294092.3544357;47.130639699999996;7.2406212;49.637001037597656;1673294092.4974854;21.61271095275879;-23.91397476196289;40.69075393676758
208;1673294092.5525763;47.130638399999995;7.2406201;49.68400192260742;1673294092.7063043;18.058996200561523;-26.73471450805664;31.186368942260742
209;1673294092.7684863;47.130637199999995;7.240618899999999;49.72200393676758;1673294092.9164112;10.427278518676758;-29.36897087097168;21.758724212646484
210;1673294092.9776776;47.1306361;7.240617599999999;49.75800323486328;1673294093.140494;4.754360198974609;-29.66580581665039;12.268842697143555
211;1673294093.1964188;47.130635299999994;7.2406163999999995;49.77800369262695;1673294093.329599;-1.1990618705749512;-28.82127571105957;2.659611940383911
212;1673294093.3884442;47.130634699999995;7.2406153;49.803001403808594;1673294093.5151634;-6.2595295906066895;-27.544708251953125;-6.597558975219727
213;1673294093.5633276;47.1306343;7.240614399999999;49.82400131225586;1673294093.704635;-10.413182258605957;-25.53009796142578;-15.50385570526123
214;1673294093.766629;47.130634099999995;7.2406137;49.84700393676758;1673294093.9075909;-13.873887062072754;-23.45264434814453;-24.357975006103516
215;1673294093.9625103;47.130634099999995;7.2406131;49.86600112915039;1673294094.104502;-16.038040161132812;-22.139997482299805;-32.95389175415039
216;1673294094.1607292;47.130634099999995;7.2406125999999995;49.887001037597656;1673294094.303094;-18.36227798461914;-21.52121353149414;-41.24916458129883
217;1673294094.358;47.130634099999995;7.240612199999999;49.89400100708008;1673294094.4923139;-20.95073890686035;-20.246540069580078;-49.50700759887695
218;1673294094.54653;47.130634;7.240611899999999;49.90500259399414;1673294094.6884775;-21.909528732299805;-17.564128875732422;-51.54640197753906
219;1673294094.750658;47.1306338;7.2406115;49.92000198364258;1673294094.8930483;-21.943025588989258;-16.949169158935547;-47.29078674316406
220;1673294094.9511883;47.130633599999996;7.2406114;49.94000244140625;1673294095.0978093;-21.622034072875977;-17.201738357543945;-45.7286491394043
221;1673294095.1583753;47.130633599999996;7.240611299999999;49.95900344848633;1673294095.3083272;-21.382007598876953;-17.111129760742188;-45.85993576049805
222;1673294095.371724;47.130633599999996;7.2406114;49.97700119018555;1673294095.5162826;-20.884740829467773;-18.970407485961914;-45.34751892089844
223;1673294095.5741572;47.1306337;7.2406114;49.99100112915039;1673294095.6976442;-20.260557174682617;-21.489673614501953;-44.85721969604492
224;1673294095.7545345;47.1306338;7.2406114;49.98500061035156;1673294095.904507;-20.168123245239258;-22.584522247314453;-44.62604904174805
225;1673294095.95883;47.1306337;7.240611299999999;49.983001708984375;1673294096.1090171;-20.637622833251953;-21.84615135192871;-44.49530792236328
226;1673294096.1735134;47.130633599999996;7.2406112;49.98600387573242;1673294096.316829;-21.043981552124023;-19.344913482666016;-44.6587028503418
227;1673294096.3763044;47.1306334;7.2406109999999995;49.9890022277832;1673294096.502006;-22.46941566467285;-17.315195083618164;-45.09103775024414
228;1673294096.5578144;47.1306333;7.2406108;49.992000579833984;1673294096.7073812;-39.35363006591797;-14.245652198791504;-45.9329719543457
229;1673294096.763164;47.130633599999996;7.2406102;50.005001068115234;1673294096.909903;-52.37834548950195;-10.98859691619873;-46.85789489746094
230;1673294096.9685466;47.1306351;7.240608099999999;50.00700378417969;1673294097.1146753;-59.839298248291016;-8.18598747253418;-48.44810485839844
231;1673294097.1639655;47.1306383;7.240603699999999;50.01000213623047;1673294097.3087413;-57.77075958251953;-5.856752395629883;-50.66798782348633
232;1673294097.3607426;47.1306434;7.2405971;49.99800109863281;1673294097.5008862;-52.2187614440918;-5.238225936889648;-50.929508209228516
233;1673294097.560712;47.1306501;7.240588799999999;49.967002868652344;1673294097.6987667;-51.781219482421875;-7.112728595733643;-49.947181701660156
234;1673294097.765016;47.130657899999996;7.2405792;49.94600296020508;1673294097.9216707;-53.888973236083984;-7.404053688049316;-49.66968536376953
235;1673294097.9839609;47.1306667;7.2405684;49.92400360107422;1673294098.121586;-51.80509567260742;-8.245284080505371;-49.00395965576172
236;1673294098.1779218;47.1306764;7.2405567;49.8910026550293;1673294098.3168468;-50.36811828613281;-8.183206558227539;-48.92899703979492
237;1673294098.3728375;47.1306867;7.2405443;49.85000228881836;1673294098.516802;-48.00929260253906;-8.088265419006348;-48.805458068847656
238;1673294098.57692;47.1306976;7.2405313;49.816001892089844;1673294098.7276752;-47.626060485839844;-8.049294471740723;-50.919883728027344
239;1673294098.7828193;47.1307088;7.240518;49.79900360107422;1673294098.9259944;-48.60991668701172;-8.403412818908691;-51.03337478637695
240;1673294098.9890106;47.1307203;7.2405044;49.79300308227539;1673294099.1098275;-49.012786865234375;-8.657941818237305;-50.605072021484375
241;1673294099.1617084;47.1307319;7.2404905;49.79600143432617;1673294099.305874;-48.865535736083984;-8.735835075378418;-50.51980972290039
242;1673294099.3678916;47.1307437;7.2404762;49.797000885009766;1673294099.5139694;-48.517669677734375;-8.996637344360352;-50.45212936401367
243;1673294099.5687294;47.1307556;7.2404619;49.78900146484375;1673294099.7167902;-47.38661193847656;-9.223628997802734;-50.4609489440918
244;1673294099.7740738;47.1307675;7.2404473;49.78300094604492;1673294099.9206946;-47.09804916381836;-9.795439720153809;-50.448585510253906
245;1673294099.9837222;47.130779499999996;7.2404323999999995;49.78200149536133;1673294100.1257472;-47.43772888183594;-10.500914573669434;-50.424468994140625
246;1673294100.181704;47.1307915;7.2404174999999995;49.785003662109375;1673294100.3337908;-47.74077606201172;-10.891489028930664;-50.5586051940918
247;1673294100.3932042;47.1308034;7.2404024;49.78900146484375;1673294100.5785258;-47.601783752441406;-11.114391326904297;-50.68642044067383
248;1673294100.6637497;47.130815299999995;7.2403870999999995;49.79300308227539;1673294100.8007214;-47.116241455078125;-12.185385704040527;-50.58797073364258
249;1673294100.864737;47.130827;7.2403717;49.80000305175781;1673294101.01958;-46.687374114990234;-13.6399507522583;-50.614688873291016
250;1673294101.0607634;47.130838499999996;7.2403561;49.802001953125;1673294101.178679;-46.47074890136719;-14.746199607849121;-50.92239761352539
251;1673294101.2215912;47.1308497;7.2403401999999994;49.80500411987305;1673294101.3385284;-45.87267303466797;-17.124971389770508;-50.93471145629883
252;1673294101.3936346;47.1308606;7.240323999999999;49.81100082397461;1673294101.5366368;-44.93425369262695;-20.54486656188965;-51.33161926269531
253;1673294101.5908;47.1308709;7.240307499999999;49.820003509521484;1673294101.7621987;-43.80363464355469;-24.31536102294922;-51.7591438293457
254;1673294101.8457468;47.130880399999995;7.2402907;49.82600402832031;1673294101.9714816;-42.198814392089844;-26.323684692382812;-52.98564529418945
255;1673294102.0296376;47.130888999999996;7.2402735;49.82600402832031;1673294102.1649842;-38.19370651245117;-33.00245666503906;-53.23915481567383
256;1673294102.2154477;47.130896199999995;7.240255899999999;49.82400131225586;1673294102.3490286;-26.063283920288086;-42.22932434082031;-55.151893615722656
257;1673294102.403184;47.1309016;7.240238499999999;49.80800247192383;1673294102.544319;-0.07560508698225021;-32.15666961669922;-61.54529571533203
258;1673294102.5961103;47.1309049;7.2402226;49.74100112915039;1673294102.7370355;7.067006587982178;-12.139617919921875;-53.57310485839844
259;1673294102.7933905;47.130906599999996;7.2402099;49.65900421142578;1673294102.9325247;26.547378540039062;-24.76384925842285;-44.80006790161133
260;1673294103.002144;47.1309064;7.240201399999999;49.669002532958984;1673294103.178998;36.026611328125;-26.10981559753418;-43.338096618652344
261;1673294103.2290268;47.1309037;7.2401968;49.707000732421875;1673294103.353157;24.70298194885254;-28.23781967163086;-42.271705627441406
262;1673294103.3997638;47.1308985;7.2401957999999995;49.7660026550293;1673294103.5247984;14.077553749084473;-24.210010528564453;-46.107784271240234
263;1673294103.57728;47.1308921;7.240196699999999;49.73100280761719;1673294103.7128255;15.646515846252441;4.745144844055176;-54.48536682128906
264;1673294103.7665672;47.1308856;7.240198299999999;49.35300064086914;1673294103.9148364;24.593658447265625;46.65778732299805;-59.04652404785156
265;1673294103.9713705;47.130879199999995;7.240200199999999;48.583003997802734;1673294104.1152442;34.49332046508789;91.6886978149414;-53.4259033203125
266;1673294104.1763363;47.1308726;7.2402022;47.426002502441406;1673294104.3186264;40.64845275878906;125.12239074707031;-43.1456184387207
267;1673294104.3807733;47.130866;7.2402044;45.906002044677734;1673294104.5116873;48.60298156738281;137.1262664794922;-36.13465881347656
268;1673294104.564643;47.1308594;7.2402069;44.027000427246094;1673294104.7047431;60.85511779785156;110.99189758300781;-50.83991241455078
269;1673294104.7619762;47.130852999999995;7.240209699999999;41.7760009765625;1673294104.9090037;56.39487075805664;30.073612213134766;-104.44023132324219
270;1673294104.9710839;47.130846399999996;7.2402125999999996;39.17400360107422;1673294105.1140468;20.808597564697266;-21.81461524963379;-115.49095153808594
271;1673294105.1734903;47.130839699999996;7.2402155;36.18600082397461;1673294105.3042119;-10.405571937561035;-53.142704010009766;-103.48992156982422
272;1673294105.3620288;47.1308333;7.2402184;32.8129997253418;1673294105.5184588;-26.812358856201172;-60.10330581665039;-97.21916198730469
273;1673294105.5762477;47.1308272;7.2402215;29.09400177001953;1673294105.7410562;-25.672630310058594;-30.964263916015625;-114.0621566772461
274;1673294105.7951076;47.130821399999995;7.240225;25.03700065612793;1673294105.9446056;7.969561576843262;10.440826416015625;-130.74163818359375
275;1673294106.0018783;47.1308158;7.2402288;20.597000122070312;1673294106.1455448;50.1991081237793;42.669376373291016;-122.87959289550781
276;1673294106.1999655;47.1308101;7.240232799999999;15.758000373840332;1673294106.375007;70.07171630859375;46.65171432495117;-118.53681945800781
277;1673294106.4163084;47.1308041;7.2402371;10.594000816345215;1673294106.5306678;51.813743591308594;-7.684703350067139;-155.2606964111328
278;1673294106.5850785;47.130797799999996;7.2402415;5.119000434875488;1673294106.7255745;1.1275675296783447;-29.427413940429688;-148.831787109375
279;1673294106.7892442;47.130792799999995;7.240244799999999;0.26100000739097595;1673294106.9557269;7.7354536056518555;5.023159503936768;-146.98252868652344
280;1673294107.0116725;47.1307944;7.2402462;0.7120000123977661;1673294107.1470478;4.122461318969727;-0.46108341217041016;-142.6332550048828
281;1673294107.1983654;47.1307943;7.240247699999999;0.971000075340271;1673294107.3291836;4.8213725090026855;1.9693938493728638;-143.5224609375
282;1673294107.3777878;47.1307942;7.2402495;1.2720000743865967;1673294107.549579;4.712710857391357;1.8300126791000366;-143.86488342285156
283;1673294107.6162138;47.130793999999995;7.240249599999999;1.4520000219345093;1673294107.7656262;4.477787494659424;2.026639461517334;-144.17530822753906
284;1673294107.822495;47.1307939;7.2402489;1.5690001249313354;1673294107.954187;4.334630489349365;2.1585874557495117;-144.50677490234375
285;1673294108.00787;47.1307937;7.240247999999999;1.6340000629425049;1673294108.147602;4.222186088562012;2.2827510833740234;-144.81382751464844
286;1673294108.21056;47.1307936;7.2402472;1.6790001392364502;1673294108.3523064;4.1132402420043945;2.2600836753845215;-145.11341857910156
287;1673294108.4198163;47.1307936;7.2402465;1.7090001106262207;1673294108.5501308;4.000443458557129;2.255585193634033;-145.4107666015625
288;1673294108.6038713;47.1307936;7.240246;1.7290000915527344;1673294108.7385142;3.9560205936431885;2.157174587249756;-145.6917266845703
289;1673294108.7926016;47.1307943;7.2402459;1.8090001344680786;1673294108.9303;3.917916774749756;2.034459352493286;-145.94117736816406
290;1673294109.0025203;47.130794599999994;7.2402456;1.852000117301941;1673294109.1400666;3.7700626850128174;1.8595925569534302;-146.20655822753906
291;1673294109.200181;47.130794699999996;7.2402454;1.871000051498413;1673294109.3322132;3.6875622272491455;1.672069787979126;-146.45962524414062
292;1673294109.3913794;47.130794599999994;7.2402451999999995;1.880000114440918;1673294109.5154078;3.5782430171966553;1.492966651916504;-146.70188903808594
293;1673294109.5741744;47.130794599999994;7.240245;1.8850001096725464;1673294109.7181458;3.4575088024139404;1.341412901878357;-146.9333953857422
294;1673294109.774143;47.1307945;7.2402448999999995;1.8850001096725464;1673294109.9226084;3.4656338691711426;1.1442348957061768;-147.1021270751953
295;1673294109.9771118;47.130795299999996;7.240244799999999;1.9290001392364502;1673294110.150829;3.3748655319213867;0.9747940897941589;-147.3152618408203
296;1673294110.243991;47.1307956;7.240244799999999;1.9450000524520874;1673294110.3932807;3.2505686283111572;0.8320732712745667;-147.49656677246094
297;1673294110.4396365;47.1307956;7.2402447;1.9470001459121704;1673294110.5614522;3.0474796295166016;0.6572474837303162;-147.69622802734375
298;1673294110.6143978;47.1307955;7.2402446;1.939000129699707;1673294110.7367082;2.965200662612915;0.5127811431884766;-147.85150146484375
299;1673294110.7852025;47.1307954;7.240244499999999;1.9240001440048218;1673294110.914472;2.8526883125305176;0.3618682026863098;-148.0255584716797
300;1673294110.9667664;47.130795199999994;7.2402444;1.9060001373291016;1673294111.1029603;2.716399908065796;0.21410763263702393;-148.17686462402344
301;1673294111.1614306;47.1307951;7.2402444;1.883000135421753;1673294111.3091412;2.697300672531128;0.14143994450569153;-148.30722045898438
302;1673294111.3625474;47.130795899999995;7.2402443;1.8880001306533813;1673294111.5060616;2.608370780944824;0.05337736755609512;-148.40875244140625
303;1673294111.5609474;47.1307961;7.2402443;1.871000051498413;1673294111.7498684;2.435328722000122;-0.004150366876274347;-148.53855895996094
304;1673294111.8056245;47.1307961;7.2402443;1.842000126838684;1673294111.928362;2.32051682472229;-0.2426871806383133;-148.583984375
305;1673294111.983755;47.130795899999995;7.2402444;1.8050000667572021;1673294112.1251566;2.2831339836120605;-0.34779250621795654;-148.63787841796875
306;1673294112.181398;47.1307957;7.2402444;1.7640000581741333;1673294112.3261642;2.1567482948303223;-0.4288341999053955;-148.6737060546875
307;1673294112.3796723;47.1307955;7.240244499999999;1.7190001010894775;1673294112.5126848;2.0590286254882812;-0.4302143156528473;-148.69171142578125
308;1673294112.5689623;47.130796;7.240244499999999;1.690000057220459;1673294112.7406304;1.9275367259979248;-0.44063591957092285;-148.73081970214844
309;1673294112.792033;47.1307961;7.2402446;1.6470000743865967;1673294112.9383686;1.8600789308547974;-0.46212247014045715;-148.7628631591797
310;1673294112.9942133;47.130795899999995;7.2402446;1.596000075340271;1673294113.1236923;1.760255217552185;-0.444000780582428;-148.80563354492188
311;1673294113.176002;47.1307956;7.2402447;1.5410001277923584;1673294113.3340197;1.6374740600585938;-0.4289361238479614;-148.8625030517578
312;1673294113.390329;47.130795299999996;7.2402447;1.4820001125335693;1673294113.5285559;1.5177266597747803;0.025307096540927887;-148.8520050048828
313;1673294113.5867603;47.130795;7.2402447;1.434000015258789;1673294113.7261145;1.4422246217727661;0.4044313132762909;-148.89474487304688
314;1673294113.7865431;47.130794699999996;7.2402447;-0.0010000000474974513;;;;
