;pos_time;latitude;longitude;altitude;alt_time;pitch;roll;yaw
0;1673292260.7026708;47.1306424;7.2406198999999996;-0.012000000104308128;1673292260.8615112;0.04685979709029198;-0.3075559437274933;90.080078125
1;1673292260.9212136;47.1306424;7.2406198999999996;-0.014000000432133675;1673292261.0560338;0.1402534693479538;-0.260177880525589;90.35325622558594
2;1673292261.1161852;47.1306424;7.2406198999999996;-0.01600000075995922;1673292261.264574;-0.12132476270198822;-0.25627148151397705;90.15213012695312
3;1673292261.3484182;47.1306424;7.2406198999999996;-0.018000001087784767;1673292261.4760437;0.021273784339427948;-0.32947996258735657;90.06584930419922
4;1673292261.5501795;47.1306424;7.2406198999999996;-0.021000001579523087;1673292261.6837912;-0.05941231548786163;-0.28925392031669617;90.13532257080078
5;1673292261.7400973;47.1306424;7.240619799999999;-0.023000001907348633;1673292261.8665922;0.08033150434494019;-0.24093079566955566;90.10415649414062
6;1673292261.9522355;47.1306423;7.240619799999999;-0.023000001907348633;1673292262.14334;0.1770818829536438;-0.1631937175989151;90.17897033691406
7;1673292262.2068872;47.1306423;7.2406197;-0.023000001907348633;1673292262.322072;0.08725927025079727;-0.3530937433242798;90.2661361694336
8;1673292262.3974812;47.1306423;7.2406197;-0.02200000174343586;1673292262.5170612;-0.017564963549375534;-0.09976856410503387;90.20767974853516
9;1673292262.570782;47.1306423;7.2406197;-0.026000000536441803;1673292262.7026706;0.021653473377227783;-0.2975086569786072;90.28116607666016
10;1673292262.7612302;47.1306424;7.2406196;0.0;1673292262.9028146;0.14881981909275055;-0.23823799192905426;90.38410949707031
11;1673292262.9580827;47.1306424;7.2406196;0.0;1673292263.0750022;-0.17881520092487335;-0.3269954025745392;90.16014862060547
12;1673292263.1659787;47.1306424;7.2406196;0.0;1673292263.3103657;-0.07831570506095886;-0.16996830701828003;90.1507568359375
13;1673292263.3640058;47.1306423;7.2406196;-0.003000000026077032;1673292263.502075;0.03820052742958069;-0.24295639991760254;90.12236785888672
14;1673292263.5814974;47.1306423;7.2406197;-0.005000000353902578;1673292263.7320848;-0.07267124205827713;-0.25932106375694275;90.11006927490234
15;1673292263.785375;47.1306423;7.2406197;-0.00800000037997961;1673292263.9093864;0.20385579764842987;0.14297878742218018;90.04534149169922
16;1673292263.971486;47.1306424;7.240619799999999;-0.012000000104308128;1673292264.0957007;0.03447194769978523;-0.17252343893051147;90.15813446044922
17;1673292264.1545992;47.1306424;7.240619799999999;-0.012000000104308128;1673292264.2735724;0.09160801023244858;-0.04582509398460388;90.22599792480469
18;1673292264.3384078;47.1306424;7.240619799999999;0.0;1673292264.4710515;0.5950433015823364;-0.09308399260044098;90.19932556152344
19;1673292264.5334973;47.1306423;7.2406198999999996;0.0020000000949949026;1673292264.6723037;0.2241234928369522;-0.08702319860458374;90.44475555419922
20;1673292264.7372932;47.1306423;7.24062;0.006000000052154064;1673292264.8793454;0.30272600054740906;0.11975116282701492;90.54408264160156
21;1673292264.941302;47.1306423;7.2406201;0.006000000052154064;1673292265.0784962;0.299134224653244;-0.048942793160676956;90.39604949951172
22;1673292265.1373456;47.1306423;7.2406201999999995;0.007000000216066837;1673292265.2734528;0.13604390621185303;-0.09560146182775497;90.62245178222656
23;1673292265.3343878;47.1306423;7.2406201999999995;0.009000000543892384;1673292265.4648182;1.4075695276260376;-0.14432600140571594;90.57920837402344
24;1673292265.5254557;47.1306423;7.2406201;0.014000000432133675;1673292265.6636372;3.8123233318328857;-0.22038507461547852;90.45015716552734
25;1673292265.7234192;47.1306424;7.2406201;0.01600000075995922;1673292265.86522;6.412834167480469;-0.17895981669425964;90.46498107910156
26;1673292265.9183629;47.1306424;7.24062;0.020000001415610313;1673292266.0705595;6.5597639083862305;0.06247150897979736;87.75469970703125
27;1673292266.1357768;47.1306424;7.2406196;0.013000000268220901;1673292266.2733622;-4.632848739624023;-0.40949898958206177;85.1541748046875
28;1673292266.3353248;47.1306424;7.2406182;0.01600000075995922;1673292266.4663577;-9.224200248718262;-0.935529887676239;87.68949127197266
29;1673292266.5223305;47.1306423;7.2406162;0.02500000037252903;1673292266.6604593;-13.139984130859375;0.7202628254890442;87.5273666381836
30;1673292266.7352057;47.1306422;7.2406139;0.049000002443790436;1673292266.8753667;-14.607733726501465;2.4365234375;88.1208724975586
31;1673292266.9353933;47.130642099999996;7.2406114;0.08800000697374344;1673292267.0697417;-15.836809158325195;-3.156445264816284;89.52560424804688
32;1673292267.1253662;47.1306419;7.2406087999999995;0.14300000667572021;1673292267.2681901;-17.851757049560547;0.4255090355873108;89.24732971191406
33;1673292267.3324041;47.1306417;7.2406063;0.2110000103712082;1673292267.4642103;-19.87955665588379;1.591284155845642;89.09953308105469
34;1673292267.5205283;47.1306416;7.240603999999999;0.2990000247955322;1673292267.6544824;-21.888240814208984;-3.6177780628204346;90.64774322509766
35;1673292267.7220478;47.1306416;7.240602099999999;0.4010000228881836;1673292267.8691356;-23.88392448425293;-1.2983691692352295;90.56224822998047
36;1673292267.929237;47.1306417;7.2406009;0.5190000534057617;1673292268.0605493;-26.19767189025879;1.3912174701690674;90.23672485351562
37;1673292268.1190069;47.1306417;7.2406004;0.6550000309944153;1673292268.2647083;-28.153263092041016;-3.841200828552246;91.62749481201172
38;1673292268.3278046;47.1306417;7.240601;0.8020000457763672;1673292268.4601426;-29.293235778808594;-2.2058253288269043;91.34696197509766
39;1673292268.5154145;47.1306417;7.2406025;0.9650000333786011;1673292268.651886;-26.345624923706055;0.7606633901596069;90.3819808959961
40;1673292268.7059274;47.1306418;7.2406047;1.1440000534057617;1673292268.8480003;-23.70711326599121;-3.8528847694396973;91.50587463378906
41;1673292268.9052126;47.130641999999995;7.2406074;1.3380000591278076;1673292269.0515819;-20.176185607910156;0.5216957330703735;90.58135223388672
42;1673292269.1262405;47.1306423;7.240610299999999;1.537000060081482;1673292269.251573;-17.068050384521484;1.784463882446289;84.99554443359375
43;1673292269.3288238;47.1306424;7.2406128999999995;1.7370001077651978;1673292269.4564044;-14.826725006103516;-3.666844129562378;86.60115814208984
44;1673292269.5087178;47.1306423;7.2406152;1.936000108718872;1673292269.648296;-13.394403457641602;0.8071191310882568;85.40792846679688
45;1673292269.7169178;47.1306423;7.2406168;2.139000177383423;1673292269.8540728;-13.559541702270508;-0.2396988570690155;85.63542175292969
46;1673292269.9085665;47.1306424;7.2406178;2.3450000286102295;1673292270.0574958;-13.903386116027832;-3.1808536052703857;86.83213806152344
47;1673292270.1138372;47.130642599999995;7.2406182999999995;2.5530002117156982;1673292270.2440996;-15.115756034851074;2.7072343826293945;85.42194366455078
48;1673292270.3047493;47.130642699999996;7.2406184;2.765000104904175;1673292270.442954;-16.293560028076172;-0.7236691117286682;86.18260192871094
49;1673292270.5031986;47.130642699999996;7.2406182999999995;2.9760000705718994;1673292270.6472712;-17.614124298095703;-1.7775436639785767;86.56497192382812
50;1673292270.725927;47.1306428;7.2406179999999996;3.181000232696533;1673292270.8661985;-18.737781524658203;3.6588118076324463;85.28678894042969
51;1673292270.9294138;47.1306428;7.2406177;3.382000207901001;1673292271.070343;-19.5419921875;-1.8078821897506714;86.44808197021484
52;1673292271.1363764;47.130642699999996;7.2406175;3.5880000591278076;1673292271.259122;-19.835765838623047;-0.6248904466629028;86.19982147216797
53;1673292271.321268;47.1306425;7.2406175;3.7960002422332764;1673292271.4614782;-19.92401123046875;1.4277544021606445;85.56129455566406
54;1673292271.5177183;47.1306422;7.240617599999999;4.0;1673292271.6588447;-19.907712936401367;-4.158824443817139;86.5681381225586
55;1673292271.7179232;47.130641999999995;7.2406178;4.206000328063965;1673292271.88126;-19.227783203125;-0.3604661822319031;85.7310562133789
56;1673292271.9385526;47.1306419;7.2406181;4.4150004386901855;1673292272.0726101;-18.82853889465332;0.8894412517547607;85.53644561767578
57;1673292272.1378;47.1306419;7.2406185;4.616000175476074;1673292272.2620137;-18.44388198852539;-3.985307216644287;86.91466522216797
58;1673292272.33564;47.1306418;7.240619;4.817000389099121;1673292272.4721408;-17.98416519165039;0.561062753200531;85.91000366210938
59;1673292272.5306466;47.1306417;7.2406194;5.021000385284424;1673292272.6607976;-17.497169494628906;-0.9720144271850586;85.95294952392578
60;1673292272.7219071;47.1306416;7.240619799999999;5.2260003089904785;1673292272.857359;-17.538206100463867;-3.693284511566162;86.67005157470703
61;1673292272.9242465;47.1306416;7.24062;5.432000160217285;1673292273.0578408;-17.55506134033203;1.9468443393707275;85.58201599121094
62;1673292273.1199458;47.1306416;7.2406201;5.639000415802002;1673292273.257232;-17.57216453552246;-2.0185883045196533;86.19158172607422
63;1673292273.3232548;47.1306416;7.2406201999999995;5.8470001220703125;1673292273.46157;-17.840190887451172;-2.540971279144287;86.35440826416016
64;1673292273.5305681;47.1306416;7.2406201999999995;6.048000335693359;1673292273.6769915;-17.884675979614258;2.3074023723602295;85.22177124023438
65;1673292273.7361417;47.1306416;7.2406201999999995;6.247000217437744;1673292273.905714;-17.937440872192383;-2.7777092456817627;86.23594665527344
66;1673292273.9630897;47.1306418;7.2406201999999995;6.446000099182129;1673292274.0936623;-18.337310791015625;-1.1165918111801147;86.37293243408203
67;1673292274.1439946;47.1306419;7.2406201999999995;6.64900016784668;1673292274.277499;-18.463329315185547;1.7894703149795532;85.46076202392578
68;1673292274.3554943;47.1306419;7.2406201;6.8470001220703125;1673292274.5019836;-18.206375122070312;-3.457322835922241;86.7222900390625
69;1673292274.5734825;47.1306419;7.2406201;7.049000263214111;1673292274.7010512;-18.47870635986328;0.6429406404495239;85.95500946044922
70;1673292274.758364;47.130641999999995;7.2406201;7.247000217437744;1673292274.8850358;-18.522878646850586;0.9518099427223206;85.72891235351562
71;1673292274.9382944;47.130642099999996;7.2406201;7.444000244140625;1673292275.0789242;-18.383636474609375;-3.341015338897705;86.95231628417969
72;1673292275.137536;47.130642099999996;7.2406201;7.64400053024292;1673292275.2837102;-18.614761352539062;2.4167346954345703;85.63665771484375
73;1673292275.3604326;47.130642099999996;7.2406201;7.844000339508057;1673292275.488681;-18.171632766723633;-0.3678418695926666;86.0877914428711
74;1673292275.5424461;47.130642099999996;7.2406201;8.04800033569336;1673292275.6767628;-18.569351196289062;-2.389871120452881;86.77125549316406
75;1673292275.7668662;47.130642099999996;7.2406201;8.247000694274902;1673292275.9237363;-18.471399307250977;2.5627450942993164;85.37794494628906
76;1673292275.9813564;47.130642099999996;7.2406201;8.444000244140625;1673292276.1039617;-18.276906967163086;-1.8648769855499268;86.22325134277344
77;1673292276.1620872;47.130641999999995;7.2406201;8.641000747680664;1673292276.2985969;-18.647478103637695;-2.356729507446289;86.4932861328125
78;1673292276.3592813;47.130641999999995;7.2406201;8.84000015258789;1673292276.4948616;-18.512609481811523;1.9165210723876953;85.15778350830078
79;1673292276.5506678;47.1306419;7.2406201999999995;9.03700065612793;1673292276.695792;-18.311508178710938;-3.2536520957946777;86.51038360595703
80;1673292276.7487617;47.1306419;7.2406201999999995;9.232000350952148;1673292276.8734598;-18.46204376220703;-1.3445229530334473;86.43636322021484
81;1673292276.9298506;47.130641999999995;7.2406203;9.427000045776367;1673292277.069351;-18.270681381225586;2.205235004425049;85.50817108154297
82;1673292277.1348667;47.130641999999995;7.2406204;9.628000259399414;1673292277.2740638;-18.426637649536133;-3.829157590866089;86.7768325805664
83;1673292277.335322;47.130641999999995;7.2406203;9.827000617980957;1673292277.4895616;-18.341047286987305;0.34595030546188354;85.75177764892578
84;1673292277.550122;47.130641999999995;7.2406204;10.026000022888184;1673292277.689489;-18.136526107788086;0.7551192045211792;85.66372680664062
85;1673292277.7624824;47.130642099999996;7.2406204999999995;10.241000175476074;1673292277.8900928;-20.42093849182129;-3.2109811305999756;86.75018310546875
86;1673292277.9473119;47.1306422;7.240620799999999;10.528000831604004;1673292278.0898223;-22.70867156982422;0.41284018754959106;85.87698364257812
87;1673292278.1499522;47.1306424;7.2406216;10.882000923156738;1673292278.2778423;-18.815792083740234;1.183934211730957;85.69263458251953
88;1673292278.335026;47.1306425;7.240622699999999;11.26400089263916;1673292278.4811203;-17.12034034729004;-3.462505578994751;86.9424057006836
89;1673292278.5392246;47.130642599999995;7.2406236999999996;11.657000541687012;1673292278.6823134;-15.232267379760742;1.7573604583740234;85.78032684326172
90;1673292278.746617;47.130642699999996;7.2406244;12.052000999450684;1673292278.8825018;-14.406768798828125;0.33055609464645386;86.00426483154297
91;1673292278.9426806;47.1306428;7.2406248;12.453001022338867;1673292279.082749;-14.016756057739258;-2.4452807903289795;86.76611328125
92;1673292279.143811;47.1306428;7.240624899999999;12.85400104522705;1673292279.278241;-14.647765159606934;2.7152671813964844;85.3206558227539
93;1673292279.3413265;47.130642699999996;7.2406247;13.256000518798828;1673292279.4759152;-15.391376495361328;-1.581015944480896;86.18038177490234
94;1673292279.5384884;47.130642699999996;7.2406242;13.66100025177002;1673292279.6757398;-16.659011840820312;-1.713780164718628;86.34122467041016
95;1673292279.739018;47.130642699999996;7.240623599999999;14.065000534057617;1673292279.8793955;-17.279571533203125;2.6334848403930664;85.42855072021484
96;1673292279.938567;47.1306428;7.2406229;14.467000961303711;1673292280.073158;-18.25592613220215;-1.7931270599365234;86.43633270263672
97;1673292280.1339602;47.1306428;7.2406223;14.873001098632812;1673292280.2763176;-18.58477210998535;-0.5336943864822388;86.34810638427734
98;1673292280.340301;47.1306428;7.2406219;15.280000686645508;1673292280.4895608;-18.87300682067871;2.4508025646209717;85.41666412353516
99;1673292280.5529418;47.1306428;7.2406216;15.684000968933105;1673292280.6884968;-18.75152015686035;-2.9777777194976807;86.7094955444336
100;1673292280.7554495;47.130642699999996;7.2406215;16.09200096130371;1673292280.905474;-18.423152923583984;0.10150547325611115;86.19768524169922
101;1673292280.953905;47.130642699999996;7.2406216;16.499000549316406;1673292281.0715609;-18.342510223388672;1.6616970300674438;85.63921356201172
102;1673292281.1502793;47.130642599999995;7.240621699999999;16.908000946044922;1673292281.2864635;-17.911359786987305;-3.4950852394104004;86.7651138305664
103;1673292281.3444211;47.1306425;7.240621699999999;17.31300163269043;1673292281.4767475;-17.81580352783203;1.1168147325515747;85.73865509033203
104;1673292281.5389788;47.1306424;7.2406217999999996;17.718000411987305;1673292281.683964;-17.410247802734375;0.11679832637310028;85.93887329101562
105;1673292281.757902;47.1306424;7.2406219;18.119001388549805;1673292281.9076488;-17.352073669433594;-3.318629026412964;86.85702514648438
106;1673292281.9609563;47.1306425;7.2406219;18.52400016784668;1673292282.1069393;-17.4765567779541;2.3739101886749268;85.50772094726562
107;1673292282.1641479;47.1306425;7.2406219;18.935001373291016;1673292282.2991126;-17.407426834106445;-1.1045259237289429;86.04633331298828
108;1673292282.3548272;47.1306424;7.2406219;19.345001220703125;1673292282.4980712;-17.534177780151367;-2.3003716468811035;86.39060974121094
109;1673292282.5640147;47.1306424;7.2406217999999996;19.753000259399414;1673292282.7072287;-17.77728843688965;2.175029754638672;85.3841323852539
110;1673292282.7696886;47.1306424;7.240621699999999;20.16900062561035;1673292282.9066515;-17.646379470825195;-2.4199330806732178;86.39362335205078
111;1673292282.9654462;47.1306425;7.2406216;20.586000442504883;1673292283.0999355;-17.569726943969727;-1.0145974159240723;86.46995544433594
112;1673292283.1787617;47.1306425;7.2406216;21.001001358032227;1673292283.334812;-17.736774444580078;1.9657741785049438;85.54289245605469
113;1673292283.3894582;47.1306425;7.2406216;21.413000106811523;1673292283.5160377;-17.562702178955078;-2.5019149780273438;86.59378051757812
114;1673292283.5732028;47.130642599999995;7.2406215;21.827001571655273;1673292283.7000248;-17.77272605895996;0.36885184049606323;86.15065002441406
115;1673292283.75972;47.130642699999996;7.2406215;22.240001678466797;1673292283.9011192;-17.809629440307617;2.2251038551330566;85.4310073852539
116;1673292283.9519498;47.1306428;7.2406213;22.648000717163086;1673292284.077828;-17.76572036743164;-2.5745677947998047;86.70220947265625
117;1673292284.1365104;47.1306428;7.2406213;23.054000854492188;1673292284.2826495;-17.69626235961914;0.9607316851615906;86.00626373291016
118;1673292284.3418343;47.130642699999996;7.2406212;23.465002059936523;1673292284.477193;-17.879053115844727;0.9833917021751404;85.67330932617188
119;1673292284.5423033;47.130642599999995;7.2406212;23.876001358032227;1673292284.683094;-17.87544059753418;-3.3642983436584473;86.82076263427734
120;1673292284.7486277;47.130642699999996;7.240621099999999;24.288002014160156;1673292284.893687;-17.72747230529785;1.1839803457260132;85.81610107421875
121;1673292284.9568024;47.130642699999996;7.240621;24.707000732421875;1673292285.0988867;-17.810298919677734;0.8284697532653809;85.65165710449219
122;1673292285.1640604;47.130642699999996;7.2406209;25.108001708984375;1673292285.3179612;-18.044187545776367;-3.028810501098633;86.72452545166016
123;1673292285.380956;47.130642599999995;7.240620799999999;25.512001037597656;1673292285.5112174;-17.957332611083984;0.669289767742157;86.02542114257812
124;1673292285.577328;47.130642599999995;7.2406207;25.917001724243164;1673292285.727842;-18.15079689025879;1.6009044647216797;85.70779418945312
125;1673292285.7816877;47.130642599999995;7.2406206;26.32000160217285;1673292285.9102159;-18.26082992553711;-2.7618958950042725;86.67337799072266
126;1673292285.9699218;47.130642699999996;7.2406204999999995;26.725000381469727;1673292286.0890415;-18.035390853881836;-0.09966865181922913;86.1838150024414
127;1673292286.1452303;47.1306428;7.2406204999999995;27.131000518798828;1673292286.2933404;-18.111095428466797;2.776596784591675;85.4628677368164
128;1673292286.3514643;47.130642699999996;7.2406204;27.53700065612793;1673292286.4909985;-18.21067237854004;-2.342503547668457;86.49283599853516
129;1673292286.5538275;47.130642599999995;7.2406204;27.934001922607422;1673292286.6908536;-18.252233505249023;-1.2955905199050903;86.49427032470703
130;1673292286.7463517;47.130642599999995;7.2406203;28.33700180053711;1673292286.8824892;-18.1521053314209;2.0502121448516846;85.72103118896484
131;1673292286.9396703;47.1306425;7.2406203;28.739002227783203;1673292287.0781581;-18.086313247680664;-1.424198865890503;86.40457916259766
132;1673292287.1418836;47.130642599999995;7.2406203;29.14200210571289;1673292287.3062794;-18.184499740600586;-2.3072566986083984;86.92324829101562
133;1673292287.367583;47.130642699999996;7.2406201999999995;29.545001983642578;1673292287.516813;-18.109989166259766;2.5853288173675537;85.61311340332031
134;1673292287.5793726;47.130642699999996;7.2406201999999995;29.94700050354004;1673292287.7418337;-18.063283920288086;-0.2140979766845703;86.033203125
135;1673292287.7964728;47.130642699999996;7.2406201999999995;30.34200096130371;1673292287.9378881;-18.086933135986328;-2.6921074390411377;86.7374038696289
136;1673292287.986688;47.130642599999995;7.2406201999999995;30.740001678466797;1673292288.1195228;-18.26055145263672;1.6436814069747925;85.6816635131836
137;1673292288.1767242;47.1306425;7.2406201999999995;31.14200210571289;1673292288.3221638;-17.969282150268555;0.2772098779678345;85.9180908203125
138;1673292288.3807945;47.1306425;7.2406201999999995;31.545001983642578;1673292288.504603;-18.1354923248291;-2.897305727005005;86.84242248535156
139;1673292288.558834;47.130642599999995;7.2406201999999995;31.946001052856445;1673292288.696259;-18.129051208496094;1.247371792793274;85.82402801513672
140;1673292288.7622285;47.130642599999995;7.2406201999999995;32.35100173950195;1673292288.9320161;-18.04829216003418;1.444888710975647;85.72589111328125
141;1673292289.010873;47.130642599999995;7.2406201999999995;32.75600051879883;1673292289.1459863;-18.169979095458984;-3.091719627380371;86.81429290771484
142;1673292289.2500415;47.1306425;7.2406201999999995;33.152000427246094;1673292289.4102848;-18.06520652770996;0.7823135256767273;85.96853637695312
143;1673292289.448413;47.1306424;7.2406201999999995;33.54800033569336;1673292289.5554667;-18.17003631591797;1.6142369508743286;85.55847930908203
144;1673292289.6151402;47.1306424;7.2406201999999995;33.94900131225586;1673292289.7402215;-18.244338989257812;-2.716801404953003;86.60918426513672
145;1673292289.793901;47.1306425;7.2406201999999995;34.35200119018555;1673292289.9264653;-18.037750244140625;-0.03236401826143265;86.14436340332031
146;1673292289.9827843;47.130642599999995;7.2406201999999995;34.755001068115234;1673292290.1292157;-18.12675666809082;2.4435601234436035;85.50444030761719
147;1673292290.1917086;47.1306425;7.2406201999999995;35.15800094604492;1673292290.330671;-18.180875778198242;-1.5366853475570679;86.44606018066406
148;1673292290.411411;47.1306425;7.2406201999999995;35.553001403808594;1673292290.5556426;-18.31328773498535;-1.1233241558074951;86.50027465820312
149;1673292290.6055717;47.1306424;7.2406201999999995;35.952003479003906;1673292290.7418978;-18.235332489013672;1.9218153953552246;85.48025512695312
150;1673292290.8043768;47.1306424;7.2406201999999995;36.358001708984375;1673292290.9381864;-18.528518676757812;-1.251365303993225;86.18326568603516
151;1673292290.9938543;47.1306425;7.2406201;36.7660026550293;1673292291.1116009;-17.89287567138672;-2.151832103729248;86.404052734375
152;1673292291.1678772;47.130642599999995;7.2406201999999995;37.17400360107422;1673292291.297477;-18.24562644958496;2.9542717933654785;85.40486145019531
153;1673292291.3526866;47.130642599999995;7.2406201999999995;37.58100128173828;1673292291.4969976;-18.064279556274414;0.22318650782108307;85.7907485961914
154;1673292291.562217;47.130642599999995;7.2406201999999995;37.98500061035156;1673292291.7022126;-18.239370346069336;-2.912555456161499;86.7621841430664
155;1673292291.769226;47.1306425;7.2406201;38.37800216674805;1673292291.8946462;-18.386198043823242;1.136992335319519;85.81511688232422
156;1673292291.9488711;47.1306425;7.2406201;38.775001525878906;1673292292.091425;-18.351194381713867;1.4551752805709839;85.59955596923828
157;1673292292.1579857;47.130642599999995;7.2406201;39.177001953125;1673292292.2941136;-18.209877014160156;-2.2576193809509277;86.6179428100586
158;1673292292.355208;47.1306428;7.2406201;39.58100128173828;1673292292.5033925;-18.201152801513672;1.4840977191925049;86.03833770751953
159;1673292292.557681;47.1306429;7.2406201;39.986000061035156;1673292292.6911626;-18.201019287109375;2.1414687633514404;85.48551940917969
160;1673292292.7669504;47.1306429;7.2406201999999995;40.39200210571289;1673292292.904408;-18.2299861907959;-2.4079370498657227;86.50365447998047
161;1673292292.9567406;47.1306428;7.2406201999999995;40.788002014160156;1673292293.0833728;-18.122880935668945;0.04465732350945473;86.11918640136719
162;1673292293.1435785;47.130642699999996;7.2406201999999995;41.18800354003906;1673292293.2978003;-18.146390914916992;1.8153706789016724;85.58853912353516
163;1673292293.3652744;47.130642699999996;7.2406201999999995;41.592002868652344;1673292293.5115123;-18.182340621948242;-2.1844637393951416;86.56193542480469
164;1673292293.5709376;47.130642699999996;7.2406201999999995;41.99500274658203;1673292293.6977236;-18.106821060180664;-0.7037297487258911;86.5443344116211
165;1673292293.7546508;47.1306428;7.2406201999999995;42.397003173828125;1673292293.9293563;-18.07449722290039;2.4104270935058594;85.69995880126953
166;1673292293.9904554;47.1306428;7.2406201999999995;42.79800033569336;1673292294.1250064;-18.14258575439453;-1.3375625610351562;86.44086456298828
167;1673292294.1764762;47.1306428;7.2406201999999995;43.20000076293945;1673292294.3363352;-18.402694702148438;-1.3520762920379639;86.48477172851562
168;1673292294.4000192;47.1306428;7.2406201;43.59300231933594;1673292294.541255;-18.093700408935547;2.4515676498413086;85.5007095336914
169;1673292294.5954862;47.1306428;7.2406201;43.992000579833984;1673292294.732961;-18.37306022644043;-0.06260097771883011;86.18828582763672
170;1673292294.7939878;47.1306429;7.2406201;44.39600372314453;1673292294.9531178;-18.191434860229492;-1.7565561532974243;86.68251037597656
171;1673292295.0226898;47.130643;7.2406201;44.80400085449219;1673292295.1539938;-18.280879974365234;2.5787668228149414;85.6458511352539
172;1673292295.2077034;47.130643;7.24062;45.21000289916992;1673292295.3401504;-18.21291160583496;0.972038209438324;85.86395263671875
173;1673292295.4032624;47.1306429;7.24062;45.61600112915039;1673292295.5209696;-18.431575775146484;-2.627429723739624;86.66522979736328
174;1673292295.5752044;47.1306428;7.24062;46.01100158691406;1673292295.719473;-18.323959350585938;1.228804588317871;85.81908416748047
175;1673292295.7824745;47.130642699999996;7.24062;46.41100311279297;1673292295.9200876;-18.430500030517578;1.6168867349624634;85.68279266357422
176;1673292295.9807968;47.130642699999996;7.2406198999999996;46.81200408935547;1673292296.136964;-18.34186553955078;-2.3955020904541016;86.6450424194336
177;1673292296.2025917;47.130642699999996;7.2406198999999996;47.21200180053711;1673292296.3353062;-18.46853256225586;0.6703735589981079;85.99263763427734
178;1673292296.4004807;47.1306428;7.2406198999999996;47.618003845214844;1673292296.5661092;-18.410324096679688;2.4068636894226074;85.55531311035156
179;1673292296.6227605;47.130642699999996;7.240619799999999;48.022003173828125;1673292296.7529457;-19.00559425354004;-2.4711997509002686;86.4509048461914
180;1673292296.8096018;47.130642699999996;7.240619799999999;48.3910026550293;1673292296.9540088;-18.296833038330078;1.1917612552642822;86.20809173583984
181;1673292297.0097587;47.130642699999996;7.2406197;48.69600296020508;1673292297.1354475;-18.348121643066406;1.835330605506897;85.62948608398438
182;1673292297.1926022;47.1306428;7.240619499999999;48.9630012512207;1673292297.3172915;-18.541522979736328;-1.785776138305664;86.73704528808594
183;1673292297.381306;47.1306428;7.2406191;49.191001892089844;1673292297.5196621;-18.715970993041992;0.8464632034301758;86.12593078613281
184;1673292297.5788054;47.1306428;7.2406187;49.38100051879883;1673292297.7247353;-9.397822380065918;6.508101940155029;80.82588958740234
185;1673292297.790837;47.130642599999995;7.240617899999999;49.51100158691406;1673292297.929696;-6.361331462860107;17.172290802001953;70.16670227050781
186;1673292297.9862099;47.130642099999996;7.2406165;49.56300354003906;1673292298.1548493;-18.897064208984375;6.533463954925537;58.79056930541992
187;1673292298.2207427;47.1306411;7.2406147;49.61100387573242;1673292298.3538752;-12.986722946166992;12.082141876220703;48.9342041015625
188;1673292298.4115324;47.130640299999996;7.240613;49.65800094604492;1673292298.541774;-13.094802856445312;12.488214492797852;40.69053649902344
189;1673292298.5976999;47.1306394;7.240611299999999;49.702003479003906;1673292298.730654;-11.651657104492188;13.437553405761719;31.655651092529297
190;1673292298.7947438;47.1306386;7.2406098;49.74100112915039;1673292298.9360929;-8.788140296936035;17.290891647338867;22.604990005493164
191;1673292298.9959059;47.130637899999996;7.2406085;49.78000259399414;1673292299.120466;-5.984119415283203;21.07859230041504;13.373117446899414
192;1673292299.1807752;47.1306373;7.2406074;49.81300354003906;1673292299.3567812;-3.3047168254852295;23.698348999023438;3.9770216941833496
193;1673292299.4108388;47.1306369;7.240606499999999;49.84100341796875;1673292299.5412748;-0.22664716839790344;22.467710494995117;-5.039429187774658
194;1673292299.5972805;47.1306364;7.2406058;49.85600280761719;1673292299.7479355;3.4234561920166016;20.602067947387695;-14.101301193237305
195;1673292299.8037443;47.1306361;7.2406052999999995;49.874000549316406;1673292299.9408762;8.029764175415039;18.477685928344727;-23.064598083496094
196;1673292300.0033784;47.130635999999996;7.2406049999999995;49.89200210571289;1673292300.1426914;12.015625953674316;16.273128509521484;-31.948890686035156
197;1673292300.2033117;47.130635899999994;7.2406048;49.90900421142578;1673292300.3294294;13.237802505493164;16.220855712890625;-41.05039596557617
198;1673292300.3909395;47.1306358;7.2406047;49.92900085449219;1673292300.6280642;13.116036415100098;16.211763381958008;-49.91508102416992
199;1673292300.6909192;47.1306358;7.2406045;49.94600296020508;1673292300.8291981;14.946444511413574;12.361615180969238;-53.18842697143555
200;1673292300.8909671;47.1306357;7.2406045;49.95000076293945;1673292301.0430968;16.371461868286133;10.439815521240234;-50.42893600463867
201;1673292301.1059344;47.1306356;7.2406044;49.961002349853516;1673292301.2363293;16.01176643371582;11.396746635437012;-47.24803924560547
202;1673292301.292123;47.130635399999996;7.2406042;49.97200393676758;1673292301.4215336;14.60970401763916;12.968545913696289;-46.17857360839844
203;1673292301.4828608;47.1306352;7.2406039;49.98500061035156;1673292301.6458867;12.227555274963379;15.582027435302734;-46.07568359375
204;1673292301.7143724;47.1306349;7.2406035;49.99500274658203;1673292301.855359;11.257688522338867;15.419568061828613;-46.12058639526367
205;1673292301.9141746;47.1306345;7.2406030999999995;50.005001068115234;1673292302.0518632;12.471324920654297;12.337187767028809;-46.02275085449219
206;1673292302.1192908;47.130634099999995;7.240602699999999;50.01700210571289;1673292302.2689562;14.28681755065918;13.063450813293457;-46.58970642089844
207;1673292302.3319643;47.1306337;7.240602399999999;50.0150032043457;1673292302.4574172;14.147125244140625;16.45097541809082;-46.97422409057617
208;1673292302.5174937;47.130633499999995;7.240602;50.02000427246094;1673292302.6478937;11.676490783691406;18.383806228637695;-46.975528717041016
209;1673292302.7064528;47.1306334;7.2406016;50.025001525878906;1673292302.8493001;-12.665361404418945;17.773677825927734;-49.829097747802734
210;1673292302.9091766;47.1306337;7.2406007;50.03200149536133;1673292303.0543838;-40.43882369995117;12.762022018432617;-50.087890625
211;1673292303.1183727;47.1306352;7.2405979;50.03900146484375;1673292303.2691486;-49.45073699951172;5.387722015380859;-45.930572509765625
212;1673292303.3233457;47.1306386;7.2405919;50.00300216674805;1673292303.4593823;-40.28630065917969;1.0157569646835327;-45.25331497192383
213;1673292303.5177307;47.1306438;7.240582;49.92900085449219;1673292303.6757612;-42.823551177978516;3.2095119953155518;-44.35514831542969
214;1673292303.723542;47.130650599999996;7.2405691999999995;49.880001068115234;1673292303.8513153;-45.49993133544922;3.927398681640625;-43.85269546508789
215;1673292303.9105444;47.1306587;7.2405534;49.85000228881836;1673292304.0412328;-47.11766815185547;2.785341501235962;-43.50138854980469
216;1673292304.0941887;47.130668199999995;7.2405349;49.849002838134766;1673292304.216382;-51.70241165161133;6.081636905670166;-43.96546936035156
217;1673292304.2758207;47.1306793;7.2405136;49.88100051879883;1673292304.4252625;-59.141075134277344;9.314849853515625;-42.80513381958008
218;1673292304.4852824;47.130692499999995;7.2404896;49.9170036315918;1673292304.6287637;-60.59451675415039;8.472360610961914;-41.84120559692383
219;1673292304.6873035;47.130707799999996;7.2404632;49.93600082397461;1673292304.8353264;-54.83754348754883;7.724205017089844;-38.99536895751953
220;1673292304.9273763;47.130724799999996;7.2404351;49.935001373291016;1673292305.0934482;-54.340415954589844;5.065550804138184;-37.900596618652344
221;1673292305.1480865;47.1307431;7.2404056;49.923004150390625;1673292305.2801077;-54.707855224609375;6.992542266845703;-39.49646759033203
222;1673292305.3772619;47.1307626;7.240374999999999;49.9010009765625;1673292305.505133;-52.19114685058594;7.410550594329834;-39.87024688720703
223;1673292305.5622685;47.1307828;7.2403435;49.87300109863281;1673292305.6733677;-48.55947494506836;10.00371265411377;-40.438316345214844
224;1673292305.725434;47.1308037;7.2403116999999995;49.85000228881836;1673292305.8521984;-46.00708770751953;17.209280014038086;-41.16172790527344
225;1673292305.910343;47.130824999999994;7.240279999999999;49.8380012512207;1673292306.0434184;-27.500185012817383;28.375850677490234;-38.79395294189453
226;1673292306.1012082;47.1308466;7.240249899999999;49.85400390625;1673292306.232322;12.523022651672363;33.08600997924805;-34.84158706665039
227;1673292306.288159;47.1308673;7.2402226999999995;49.83500289916992;1673292306.424455;18.71456527709961;13.899189949035645;-40.24579620361328
228;1673292306.4831915;47.130885899999996;7.240198599999999;49.717002868652344;1673292306.6512284;17.50011444091797;7.988611698150635;-44.36600875854492
229;1673292306.70247;47.1309014;7.2401778;49.630001068115234;1673292306.8394303;23.443029403686523;9.164213180541992;-44.55107116699219
230;1673292306.9102411;47.130914;7.2401599;49.595001220703125;1673292307.053287;38.128543853759766;12.221397399902344;-45.330352783203125
231;1673292307.1163473;47.130923599999996;7.2401456;49.617000579833984;1673292307.2571974;47.05545425415039;13.427030563354492;-46.61872863769531
232;1673292307.311958;47.130930199999995;7.2401354;49.672000885009766;1673292307.4436722;47.45822525024414;12.500006675720215;-47.19194030761719
233;1673292307.4950356;47.130933899999995;7.2401295;49.72500228881836;1673292307.6342003;50.27006912231445;15.661720275878906;-45.395172119140625
234;1673292307.6942627;47.1309353;7.240127299999999;49.77900314331055;1673292307.823672;51.69432830810547;17.18731689453125;-45.1490592956543
235;1673292307.8812957;47.130934599999996;7.240128899999999;49.823001861572266;1673292308.0201974;53.340599060058594;19.882902145385742;-44.83054733276367
236;1673292308.0807173;47.1309322;7.2401342;49.8640022277832;1673292308.2293274;54.11376190185547;23.213327407836914;-44.9908447265625
237;1673292308.2902577;47.130928499999996;7.2401433;49.900001525878906;1673292308.4362946;51.916324615478516;26.83032989501953;-44.5308723449707
238;1673292308.500093;47.1309238;7.2401556;49.93400192260742;1673292308.6412902;41.464752197265625;26.270397186279297;-45.65773010253906
239;1673292308.7043521;47.1309189;7.240170099999999;49.96200180053711;1673292308.8406305;24.512710571289062;23.600427627563477;-45.303462982177734
240;1673292308.902857;47.130914;7.240185299999999;49.974002838134766;1673292309.044289;7.084438800811768;19.837800979614258;-43.671478271484375
241;1673292309.1102931;47.1309097;7.2401998999999995;49.965003967285156;1673292309.2502348;0.48029211163520813;15.011133193969727;-41.38675308227539
242;1673292309.3064635;47.1309062;7.2402125999999996;49.95500183105469;1673292309.4495487;1.9138946533203125;11.346882820129395;-40.765499114990234
243;1673292309.515994;47.130903499999995;7.2402231;49.941001892089844;1673292309.6485765;12.415563583374023;14.880704879760742;-39.63056564331055
244;1673292309.7076821;47.1309013;7.2402318999999995;49.87700271606445;1673292309.8420184;8.241434097290039;19.05780029296875;-37.80099105834961
245;1673292309.9030862;47.130899199999995;7.240240099999999;49.50600051879883;1673292310.0474079;-5.889787673950195;10.854963302612305;-38.54448318481445
246;1673292310.1463242;47.1308972;7.2402475;48.749000549316406;1673292310.3052804;-28.296859741210938;-9.962861061096191;-36.38544845581055
247;1673292310.3728473;47.1308952;7.2402546;47.60700225830078;1673292310.5128415;-49.33597183227539;-47.87790298461914;-20.25952911376953
248;1673292310.5812502;47.130893199999996;7.2402617;46.07400131225586;1673292310.7450485;-55.5351676940918;-92.71842956542969;5.895064830780029
249;1673292310.7911267;47.1308911;7.240268899999999;44.172000885009766;1673292310.9080315;-55.290653228759766;-106.92514038085938;9.316666603088379
250;1673292310.9666305;47.1308891;7.240276;41.919002532958984;1673292311.0968912;-55.101402282714844;-79.1439437866211;-16.254243850708008
251;1673292311.1536138;47.1308872;7.2402831;39.314002990722656;1673292311.277241;-39.4832878112793;-25.91139793395996;-54.70345687866211
252;1673292311.3304837;47.130885199999994;7.2402903;36.33700180053711;1673292311.461312;-3.6717450618743896;8.374164581298828;-67.17107391357422
253;1673292311.521159;47.1308833;7.2402975;32.97200012207031;1673292311.6614141;23.155527114868164;28.0168514251709;-62.54683303833008
254;1673292311.718752;47.1308814;7.240304399999999;29.22800064086914;1673292311.875156;27.154325485229492;28.373132705688477;-65.77161407470703
255;1673292311.9318717;47.1308795;7.2403106;25.130001068115234;1673292312.0579278;4.558953285217285;9.142745971679688;-78.48017120361328
256;1673292312.1148138;47.130877299999995;7.240316099999999;20.665000915527344;1673292312.2500741;-34.36933135986328;-12.376084327697754;-82.67395782470703
257;1673292312.3169854;47.1308752;7.240321499999999;15.80000114440918;1673292312.457206;-58.09938049316406;-25.573766708374023;-79.72313690185547
258;1673292312.5140846;47.1308733;7.2403273;10.576000213623047;1673292312.6742215;-51.13494873046875;-7.738921642303467;-93.97933959960938
259;1673292312.725202;47.1308714;7.2403334;5.00700044631958;1673292312.8513577;-13.196348190307617;11.334107398986816;-100.00883483886719
260;1673292312.910006;47.1308702;7.2403398;0.1380000114440918;1673292313.048246;10.92587947845459;1.1906745433807373;-104.79389953613281
261;1673292313.1068347;47.1308714;7.2403412;0.46300002932548523;1673292313.2368135;8.863821029663086;2.897876262664795;-110.17741394042969
262;1673292313.298923;47.130872;7.240340799999999;0.5610000491142273;1673292313.4417768;8.897625923156738;0.3874349594116211;-109.34217071533203
263;1673292313.5107634;47.1308721;7.2403409;0.6060000061988831;1673292313.6497517;8.8294677734375;0.7111433148384094;-108.68891143798828
264;1673292313.7156792;47.130872;7.2403413;0.6260000467300415;1673292313.8588533;8.810637474060059;1.0067991018295288;-108.34782409667969
265;1673292313.9255323;47.1308722;7.240342399999999;0.675000011920929;1673292314.0650122;8.692163467407227;1.516106367111206;-108.16836547851562
266;1673292314.125191;47.1308721;7.2403431;0.6920000314712524;1673292314.2614572;8.465947151184082;1.973551869392395;-108.05767822265625
267;1673292314.3254797;47.130871899999995;7.2403436999999995;0.6910000443458557;1673292314.4658008;8.291781425476074;2.248202085494995;-107.90699768066406
268;1673292314.535289;47.1308718;7.2403442;0.6800000071525574;1673292314.673481;8.119735717773438;2.469722032546997;-107.78593444824219
269;1673292314.738527;47.1308716;7.240344599999999;0.6600000262260437;1673292314.8865955;7.908592700958252;2.6598551273345947;-107.68316650390625
270;1673292314.9517033;47.1308715;7.240345;0.6360000371932983;1673292315.101925;7.753115653991699;2.639660358428955;-107.6008071899414
271;1673292315.1596224;47.1308714;7.2403454;0.6140000224113464;1673292315.2792947;7.746481895446777;2.5909934043884277;-107.50381469726562
272;1673292315.338442;47.1308717;7.2403471999999995;0.6110000014305115;1673292315.478645;7.490395545959473;2.4177863597869873;-107.42706298828125
273;1673292315.5394194;47.130871899999995;7.2403485;0.597000002861023;1673292315.6733596;7.456139087677002;2.307488203048706;-107.3579330444336
274;1673292315.7648525;47.1308724;7.2403517;0.581000030040741;1673292315.8962991;7.468658447265625;2.127789258956909;-107.26460266113281
275;1673292315.958611;47.130873199999996;7.2403561;0.5640000104904175;1673292316.09374;7.476438045501709;1.9810693264007568;-107.20075225830078
276;1673292316.1577332;47.1308741;7.2403613;0.5440000295639038;1673292316.2910137;7.4134521484375;1.8767962455749512;-107.12250518798828
277;1673292316.355985;47.130874999999996;7.2403669;0.5190000534057617;1673292316.4750047;7.410367012023926;1.7575851678848267;-107.06774139404297
278;1673292316.5324304;47.130876099999995;7.2403735;0.5010000467300415;1673292316.6733396;7.294460773468018;1.6272276639938354;-107.04695129394531
279;1673292316.7313187;47.1308771;7.2403797;0.4790000319480896;1673292316.875871;7.243724346160889;1.493657112121582;-107.00446319580078
280;1673292316.9424798;47.130877999999996;7.2403854999999995;0.4570000171661377;1673292317.0802255;7.186086177825928;1.3910555839538574;-106.95582580566406
281;1673292317.141386;47.1308788;7.240390799999999;0.43300002813339233;1673292317.2712362;7.023251056671143;1.2727514505386353;-106.93426513671875
282;1673292317.329232;47.1308795;7.240395899999999;0.41100001335144043;1673292317.4586234;6.874638080596924;1.1490728855133057;-106.90332794189453
283;1673292317.5154922;47.1308801;7.2404002;0.3890000283718109;1673292317.651848;6.701098442077637;1.07124662399292;-106.85983276367188
284;1673292317.7109754;47.1308806;7.240403799999999;0.36900001764297485;1673292317.8660593;6.690525054931641;0.9600716233253479;-106.79997253417969
285;1673292317.92662;47.1308814;7.240409799999999;0.3450000286102295;1673292318.0835447;6.4569292068481445;0.86613929271698;-106.76667785644531
286;1673292318.1437972;47.130881699999996;7.2404132;0.3230000138282776;1673292318.275758;6.269380569458008;0.7596265077590942;-106.72634887695312
287;1673292318.3346152;47.1308818;7.240414899999999;0.3050000071525574;1673292318.4741788;6.027501106262207;0.656036376953125;-106.7021484375
288;1673292318.534562;47.130881699999996;7.2404155;0.289000004529953;1673292318.6779284;5.777079105377197;0.5590647459030151;-106.68301391601562
289;1673292318.7353072;47.1308815;7.240415199999999;0.27800002694129944;1673292318.88378;5.500190734863281;0.4029283821582794;-106.66421508789062
290;1673292318.9506261;47.130881099999996;7.2404139;0.26500001549720764;1673292319.0934958;5.433449745178223;0.2990786135196686;-106.61717987060547
291;1673292319.143007;47.1308815;7.240418;0.24300001561641693;1673292319.269761;5.383876800537109;0.2273923009634018;-106.56825256347656
292;1673292319.331125;47.130882299999996;7.240425;0.21900001168251038;1673292319.4595523;5.334895610809326;0.16547825932502747;-106.56346130371094
293;1673292319.5182805;47.130883399999995;7.240433899999999;0.1900000125169754;1673292319.6486795;5.364938735961914;0.09076231718063354;-106.5089340209961
294;1673292319.7109556;47.130884599999995;7.240444;0.16300000250339508;1673292319.861141;5.414034366607666;-0.05338728800415993;-106.46266174316406
295;1673292319.921928;47.130885899999996;7.2404547;0.1340000033378601;1673292320.0621212;5.337510585784912;-0.13787321746349335;-106.40586853027344
296;1673292320.1211467;47.1308873;7.2404661;0.12200000882148743;1673292320.247732;5.31781530380249;-0.22676898539066315;-106.35533142089844
297;1673292320.304058;47.1308887;7.240477899999999;0.0950000062584877;1673292320.4453351;5.186583995819092;-0.266250342130661;-106.28720092773438
298;1673292320.5009086;47.130890199999996;7.2404901;0.06000000238418579;1673292320.6669452;5.137681007385254;-0.2346513271331787;-106.24844360351562
299;1673292320.7340567;47.1308916;7.2405026999999995;0.032999999821186066;;;;
