;pos_time;latitude;longitude;altitude;alt_time;pitch;roll;yaw
0;1673281577.6405783;47.1306422;7.2406201;-0.024000000208616257;1673281577.6977994;-0.19194871187210083;-0.575522243976593;90.1396484375
1;1673281577.8341684;47.1306422;7.2406201;-0.02200000174343586;1673281577.9108489;-0.08878614008426666;-0.4860594868659973;90.03186798095703
2;1673281578.079753;47.1306423;7.24062;-0.018000001087784767;1673281578.1565406;0.09586334973573685;-0.3253682851791382;90.19609069824219
3;1673281578.2770967;47.1306423;7.2406198999999996;-0.017000000923871994;1673281578.3230302;-0.11677385866641998;-0.2900118827819824;90.13090515136719
4;1673281578.4735723;47.1306422;7.24062;-0.01900000125169754;1673281578.5213995;0.10337761789560318;-0.3616439402103424;90.05965423583984
5;1673281578.650522;47.1306422;7.24062;-0.021000001579523087;1673281578.6944394;0.08197218179702759;-0.2511793076992035;90.01348876953125
6;1673281578.8375046;47.1306422;7.24062;-0.020000001415610313;1673281578.8888512;-0.24544385075569153;-0.26340430974960327;90.09559631347656
7;1673281579.02219;47.1306422;7.24062;-0.02200000174343586;1673281579.078443;-0.23256753385066986;-0.33563071489334106;90.1192626953125
8;1673281579.2020388;47.1306422;7.24062;-0.023000001907348633;1673281579.2524452;-0.13063384592533112;-0.3662613034248352;90.25892639160156
9;1673281579.3828862;47.1306422;7.2406198999999996;-0.02500000037252903;1673281579.4346795;-0.12568162381649017;-0.20795617997646332;90.03913879394531
10;1673281579.5881598;47.1306422;7.2406198999999996;-0.027000000700354576;1673281579.6417892;0.04906533658504486;-0.41729283332824707;90.1156234741211
11;1673281579.7990987;47.1306422;7.240619799999999;-0.030000001192092896;1673281579.8544052;-0.29869282245635986;-0.3417418897151947;90.21089935302734
12;1673281579.9945724;47.1306423;7.240619799999999;-0.030000001192092896;1673281580.0546772;-0.08935505896806717;-0.17886246740818024;90.2011489868164
13;1673281580.2094212;47.1306423;7.2406197;-0.027000000700354576;1673281580.2666025;-0.06759326905012131;-0.42297711968421936;90.1491928100586
14;1673281580.4096885;47.1306423;7.2406197;-0.0010000000474974513;1673281580.4639108;-0.16715441644191742;-0.6391845345497131;90.3060073852539
15;1673281580.596208;47.1306423;7.240619799999999;-0.003000000026077032;1673281580.6489367;-0.23498058319091797;-0.5794176459312439;90.04178619384766
16;1673281580.7886817;47.1306423;7.2406198999999996;-0.003000000026077032;1673281580.840413;-0.053278520703315735;-0.6879037022590637;90.31237030029297
17;1673281580.9810517;47.1306423;7.24062;-0.004000000189989805;1673281581.034734;-0.3319531977176666;-0.5585847496986389;90.0230712890625
18;1673281581.179303;47.1306423;7.24062;-0.004000000189989805;1673281581.2348156;0.002373277209699154;-0.733745276927948;90.15801239013672
19;1673281581.3768947;47.1306423;7.24062;-0.0020000000949949026;1673281581.4341106;-0.20548583567142487;-0.6269266605377197;90.17711639404297
20;1673281581.5821247;47.1306423;7.2406198999999996;0.0;1673281581.6388443;-0.027387911453843117;-0.7496354579925537;90.29694366455078
21;1673281581.7938156;47.1306423;7.2406198999999996;-0.003000000026077032;1673281581.860586;-0.15128867328166962;-0.6406450867652893;90.27561950683594
22;1673281582.0038574;47.1306423;7.24062;-0.0010000000474974513;1673281582.0537653;-0.4599928855895996;-0.6439400315284729;90.23746490478516
23;1673281582.1918428;47.1306424;7.2406198999999996;-0.004000000189989805;1673281582.2529104;-0.07754428684711456;-0.02790435031056404;90.34664916992188
24;1673281582.405782;47.1306424;7.2406198999999996;-0.007000000216066837;1673281582.4626713;-0.19453054666519165;-0.33612844347953796;90.16451263427734
25;1673281582.601742;47.1306424;7.2406198999999996;-0.007000000216066837;1673281582.6579716;-0.22473911941051483;-0.6929440498352051;90.24049377441406
26;1673281582.8134212;47.1306424;7.2406198999999996;-0.004000000189989805;1673281582.8698356;-0.3962509036064148;-0.3355611264705658;90.31224060058594
27;1673281583.0176973;47.1306424;7.2406198999999996;-0.0020000000949949026;1673281583.0741239;-0.3004591763019562;-0.4146476984024048;90.3119125366211
28;1673281583.2079244;47.1306425;7.240619799999999;0.0;1673281583.2577872;-0.33760732412338257;-0.35631030797958374;90.45338439941406
29;1673281583.3910422;47.1306425;7.240619799999999;-0.0020000000949949026;1673281583.442961;-0.3160420060157776;-0.38016968965530396;90.38619995117188
30;1673281583.5879388;47.1306425;7.240619799999999;-0.003000000026077032;1673281583.6398034;-0.3959640562534332;-0.41971513628959656;90.29306030273438
31;1673281583.7831087;47.1306425;7.240619799999999;-0.004000000189989805;1673281583.8357065;-0.5178855657577515;-0.321429044008255;91.27386474609375
32;1673281583.9776905;47.1306425;7.24062;-0.0010000000474974513;1673281584.038671;0.6199980974197388;0.7435515522956848;93.6458740234375
33;1673281584.1907768;47.130642599999995;7.2406203;0.014000000432133675;1673281584.246779;2.894190549850464;3.7959110736846924;92.87757873535156
34;1673281584.394943;47.130642699999996;7.2406206;0.03500000014901161;1673281584.450878;7.969598293304443;7.842092990875244;92.46668243408203
35;1673281584.5979621;47.1306428;7.2406209;0.06800000369548798;1673281584.6539567;8.197403907775879;11.062034606933594;92.03904724121094
36;1673281584.8067338;47.130642699999996;7.240621099999999;0.12400000542402267;1673281584.8576398;7.915189266204834;4.482357978820801;91.21793365478516
37;1673281585.0116065;47.130642599999995;7.240621099999999;0.1940000057220459;1673281585.066813;8.462200164794922;4.257669925689697;90.54935455322266
38;1673281585.2177613;47.130642599999995;7.240621;0.27400001883506775;1673281585.2695363;8.83387279510498;9.132474899291992;90.54759216308594
39;1673281585.4121642;47.1306425;7.2406207;0.3660000264644623;1673281585.4649594;8.456263542175293;5.461557388305664;90.35326385498047
40;1673281585.6041634;47.1306425;7.2406204999999995;0.47600001096725464;1673281585.6574037;7.730438232421875;4.83292818069458;89.8236312866211
41;1673281585.798572;47.130642599999995;7.2406201999999995;0.6010000109672546;1673281585.8684077;6.51096773147583;8.70950984954834;88.67854309082031
42;1673281586.0182717;47.1306425;7.24062;0.734000027179718;1673281586.0690575;6.602339744567871;6.669381618499756;87.45845794677734
43;1673281586.203315;47.1306424;7.240619799999999;0.8820000290870667;1673281586.2624173;6.941205024719238;2.295758008956909;86.75631713867188
44;1673281586.4143167;47.1306424;7.2406197;1.0460000038146973;1673281586.468531;7.537582874298096;7.162803649902344;86.95599365234375
45;1673281586.6126382;47.1306422;7.2406196;1.218000054359436;1673281586.6748333;7.539300918579102;6.731650352478027;87.34388732910156
46;1673281586.8256426;47.1306422;7.240619499999999;1.4040000438690186;1673281586.8818762;7.5001373291015625;4.109610557556152;87.3192367553711
47;1673281587.0459936;47.1306423;7.240619499999999;1.5980000495910645;1673281587.11041;6.783494472503662;6.85853385925293;88.72012329101562
48;1673281587.255141;47.1306424;7.240619499999999;1.7950000762939453;1673281587.3088174;6.67065954208374;8.112188339233398;87.564453125
49;1673281587.4563959;47.1306423;7.240619499999999;1.9890000820159912;1673281587.5091088;7.776864051818848;2.907696485519409;86.63275146484375
50;1673281587.6405246;47.1306423;7.2406196;2.17900013923645;1673281587.6889734;8.188835144042969;5.321958541870117;85.9456787109375
51;1673281587.8492339;47.1306422;7.2406196;2.372000217437744;1673281587.8960986;8.139542579650879;6.911011219024658;85.90111541748047
52;1673281588.0401576;47.130642099999996;7.2406196;2.572000026702881;1673281588.0963922;8.068343162536621;3.2816174030303955;85.90847778320312
53;1673281588.2297618;47.1306422;7.2406196;2.7770001888275146;1673281588.285991;7.610503673553467;5.362177848815918;85.66616821289062
54;1673281588.4238;47.1306424;7.240619499999999;2.9790000915527344;1673281588.4795277;6.955834865570068;8.860166549682617;85.2903060913086
55;1673281588.6226566;47.1306425;7.2406194;3.180000066757202;1673281588.6788914;7.419605255126953;4.403101921081543;85.29067993164062
56;1673281588.8259585;47.1306425;7.2406194;3.382000207901001;1673281588.8869781;7.701972961425781;3.6571803092956543;85.40463256835938
57;1673281589.0241497;47.1306424;7.240619499999999;3.579000234603882;1673281589.106755;8.012160301208496;8.175369262695312;85.71269989013672
58;1673281589.2553873;47.1306423;7.240619499999999;3.7740001678466797;1673281589.3061385;7.632665157318115;4.763072967529297;86.03670501708984
59;1673281589.4337564;47.1306424;7.240619499999999;3.9790000915527344;1673281589.4791868;7.3802409172058105;3.803180694580078;86.00680541992188
60;1673281589.6144836;47.1306425;7.240619499999999;4.185000419616699;1673281589.6813521;6.998205184936523;8.223769187927246;85.59239196777344
61;1673281589.818558;47.130642599999995;7.240619499999999;4.388000011444092;1673281589.8797128;7.063985347747803;7.210762023925781;85.52796173095703
62;1673281590.0217946;47.1306425;7.2406196;4.588000297546387;1673281590.0799446;7.62843132019043;2.8599417209625244;85.47693634033203
63;1673281590.2152896;47.1306424;7.240619799999999;4.7860002517700195;1673281590.2656612;7.985929489135742;6.287209510803223;85.58899688720703
64;1673281590.4000144;47.1306423;7.2406198999999996;4.985000133514404;1673281590.4562914;8.484443664550781;6.80791711807251;85.85490417480469
65;1673281590.6003487;47.1306424;7.2406198999999996;5.189000129699707;1673281590.6556227;8.64351749420166;3.524791717529297;85.70743560791016
66;1673281590.8016455;47.1306425;7.2406198999999996;5.39900016784668;1673281590.8559227;7.574404239654541;6.2696452140808105;85.23397827148438
67;1673281591.000926;47.130642699999996;7.240619799999999;5.610000133514404;1673281591.0561104;7.385793209075928;8.546126365661621;85.2783432006836
68;1673281591.1973038;47.130642699999996;7.240619799999999;5.816000461578369;1673281591.2515433;7.300666809082031;4.042888641357422;85.68685150146484
69;1673281591.4102452;47.130642699999996;7.240619799999999;6.022000312805176;1673281591.4683707;7.553375244140625;4.756309509277344;85.93618774414062
70;1673281591.626039;47.130642699999996;7.240619799999999;6.2220001220703125;1673281591.6783073;8.024349212646484;8.84544849395752;86.20145416259766
71;1673281591.8438349;47.130642599999995;7.240619799999999;6.425000190734863;1673281591.903894;8.345074653625488;4.983951091766357;86.0067138671875
72;1673281592.024482;47.130642599999995;7.240619799999999;6.63200044631958;1673281592.0757701;7.652897834777832;4.98295783996582;85.52620697021484
73;1673281592.208068;47.130642699999996;7.240619799999999;6.836000442504883;1673281592.2613251;7.034697532653809;8.681855201721191;85.11138916015625
74;1673281592.4053237;47.130642599999995;7.240619799999999;7.038000106811523;1673281592.4605854;7.437588214874268;5.231692790985107;85.3520736694336
75;1673281592.604593;47.1306425;7.2406198999999996;7.237000465393066;1673281592.6608112;7.561567306518555;3.355834722518921;85.6240234375
76;1673281592.8165338;47.1306424;7.2406198999999996;7.434000492095947;1673281592.8795352;7.997653484344482;7.920478820800781;86.10314178466797
77;1673281593.0245428;47.1306423;7.2406198999999996;7.629000186920166;1673281593.072906;8.267000198364258;5.868045806884766;86.24272155761719
78;1673281593.2247212;47.1306423;7.2406198999999996;7.828000545501709;1673281593.2789521;7.954122066497803;3.549652576446533;85.73223876953125
79;1673281593.4337287;47.1306424;7.2406198999999996;8.035000801086426;1673281593.4859943;7.264334201812744;7.379477024078369;85.11415100097656
80;1673281593.6300151;47.1306424;7.24062;8.237000465393066;1673281593.6822815;7.436747074127197;6.8794355392456055;85.1425552368164
81;1673281593.8399546;47.1306423;7.24062;8.439000129699707;1673281593.8941689;8.085596084594727;2.9463090896606445;85.49327850341797
82;1673281594.0303712;47.1306423;7.2406201;8.643000602722168;1673281594.085574;8.29450511932373;6.754591464996338;85.7601547241211
83;1673281594.227138;47.1306424;7.2406201;8.843000411987305;1673281594.2784708;8.114439010620117;7.832456588745117;86.2936019897461
84;1673281594.425399;47.1306424;7.2406201;9.044000625610352;1673281594.4776673;8.034841537475586;4.260031223297119;86.18494415283203
85;1673281594.6178126;47.130642599999995;7.2406201;9.244000434875488;1673281594.6711233;7.607930660247803;6.809186935424805;85.6902084350586
86;1673281594.816093;47.130642599999995;7.2406201;9.440999984741211;1673281594.8713508;7.524083137512207;8.594627380371094;85.46866607666016
87;1673281595.012431;47.1306425;7.2406201999999995;9.63900089263916;1673281595.0657432;7.821795463562012;3.5830743312835693;85.38337707519531
88;1673281595.219547;47.1306424;7.2406201999999995;9.838000297546387;1673281595.2728074;7.877026081085205;5.250274658203125;85.48652648925781
89;1673281595.4227676;47.1306424;7.2406201;10.03600025177002;1673281595.4780006;8.251404762268066;8.199031829833984;85.8925552368164
90;1673281595.6191144;47.1306424;7.2406201;10.245000839233398;1673281595.6743498;8.235990524291992;5.496096134185791;86.10102844238281
91;1673281595.8437665;47.1306424;7.24062;10.552000045776367;1673281595.8911815;8.864852905273438;6.937180519104004;85.70417022705078
92;1673281596.0176332;47.1306422;7.240619799999999;10.92400074005127;1673281596.0796685;8.270875930786133;9.046058654785156;85.36479187011719
93;1673281596.2315571;47.1306418;7.2406196;11.312000274658203;1673281596.2857678;7.421573162078857;6.058520793914795;85.64678955078125
94;1673281596.4181006;47.130641399999995;7.240619499999999;11.711000442504883;1673281596.4684744;6.857967853546143;2.191216230392456;85.82305908203125
95;1673281596.6066425;47.1306411;7.2406193;12.118000984191895;1673281596.6608534;6.546751976013184;5.546226978302002;86.00708770751953
96;1673281596.8283215;47.130640899999996;7.240619199999999;12.521000862121582;1673281596.898201;6.972475051879883;5.132046222686768;85.87444305419922
97;1673281597.0334492;47.130641;7.2406191;12.92400074005127;1673281597.0847538;6.977022647857666;2.0819735527038574;85.72476196289062
98;1673281597.2248898;47.1306411;7.240619199999999;13.331000328063965;1673281597.2830725;6.808746337890625;5.2626471519470215;85.78997802734375
99;1673281597.4272335;47.1306413;7.2406193;13.738000869750977;1673281597.481494;6.78155517578125;7.227076530456543;85.9250717163086
100;1673281597.6284614;47.130641399999995;7.2406194;14.145000457763672;1673281597.6836963;7.261366844177246;3.3264567852020264;85.8482666015625
101;1673281597.8238664;47.130641499999996;7.240619499999999;14.557001113891602;1673281597.8849258;7.337703227996826;5.167912006378174;85.91656494140625
102;1673281598.0378194;47.1306416;7.2406197;14.9660005569458;1673281598.1086636;7.578866481781006;8.463434219360352;86.01541137695312
103;1673281598.2517586;47.1306417;7.2406197;15.378000259399414;1673281598.3099062;7.887408256530762;5.1387434005737305;85.69368743896484
104;1673281598.4560866;47.1306418;7.2406197;15.790000915527344;1673281598.509328;7.997906684875488;4.6094841957092285;85.6924057006836
105;1673281598.6426435;47.130641999999995;7.2406197;16.200000762939453;1673281598.6969075;7.744655609130859;8.381750106811523;85.89028930664062
106;1673281598.837995;47.130641999999995;7.2406197;16.60900115966797;1673281598.8913748;7.382162094116211;5.841677188873291;85.85830688476562
107;1673281599.0373788;47.130641999999995;7.2406197;17.020999908447266;1673281599.0975034;7.250295639038086;3.6274492740631104;85.74574279785156
108;1673281599.2289176;47.130641999999995;7.2406197;17.433000564575195;1673281599.277294;7.03598690032959;7.8971028327941895;85.760009765625
109;1673281599.40967;47.130641999999995;7.2406196;17.838001251220703;1673281599.462993;7.25655460357666;6.544273853302002;85.63835144042969
110;1673281599.599223;47.130641999999995;7.2406196;18.24700164794922;1673281599.6539145;7.3156819343566895;3.529261827468872;85.6430435180664
111;1673281599.7936602;47.130642099999996;7.2406196;18.659000396728516;1673281599.8474166;7.40475606918335;6.783868789672852;85.81312561035156
112;1673281599.988053;47.130642099999996;7.2406196;19.069000244140625;1673281600.0446603;7.44076681137085;7.737077236175537;85.92302703857422
113;1673281600.1981428;47.130641999999995;7.2406196;19.477001190185547;1673281600.2547355;7.530751705169678;3.6268978118896484;85.77957153320312
114;1673281600.3993495;47.130642099999996;7.2406197;19.89000129699707;1673281600.4569976;7.292705059051514;4.508663654327393;85.64921569824219
115;1673281600.5997238;47.130642099999996;7.2406197;20.292001724243164;1673281600.6572752;7.377081871032715;7.957700252532959;85.85476684570312
116;1673281600.8029594;47.130642099999996;7.2406197;20.692001342773438;1673281600.860578;7.4517130851745605;4.820736885070801;85.83255004882812
117;1673281601.0071568;47.1306422;7.2406197;21.09800148010254;1673281601.0653462;7.506885528564453;4.658785820007324;85.6585693359375
118;1673281601.2143407;47.1306423;7.2406197;21.505001068115234;1673281601.2705877;7.533022880554199;8.320222854614258;85.88690948486328
119;1673281601.4317281;47.1306423;7.2406197;21.908000946044922;1673281601.4903216;7.677493572235107;6.188587188720703;85.88326263427734
120;1673281601.6538544;47.1306423;7.2406197;22.312000274658203;1673281601.7158742;7.512694358825684;3.3746578693389893;85.55328369140625
121;1673281601.8653142;47.1306423;7.2406197;22.716001510620117;1673281601.9189844;7.511440277099609;8.002727508544922;85.6377944946289
122;1673281602.0512927;47.1306424;7.2406197;23.11100196838379;1673281602.1211493;7.379000663757324;7.195527076721191;85.82003784179688
123;1673281602.262378;47.1306424;7.2406196;23.509000778198242;1673281602.3097405;7.292620658874512;3.879260301589966;85.8338623046875
124;1673281602.4416175;47.1306425;7.240619499999999;23.909000396728516;1673281602.4943373;7.257233619689941;7.160987854003906;85.77371215820312
125;1673281602.6344602;47.1306425;7.240619499999999;24.308000564575195;1673281602.6877248;7.253568172454834;8.236797332763672;85.91150665283203
126;1673281602.8297849;47.1306424;7.240619499999999;24.709001541137695;1673281602.8849933;7.379249572753906;3.697281837463379;85.75888061523438
127;1673281603.0309455;47.1306424;7.240619499999999;25.113000869750977;1673281603.0832334;7.419209003448486;5.390196800231934;85.63860321044922
128;1673281603.2273345;47.1306424;7.240619499999999;25.509000778198242;1673281603.283473;7.56603479385376;7.831814765930176;85.79420471191406
129;1673281603.4221573;47.1306423;7.2406196;25.905000686645508;1673281603.4778204;7.424655914306641;4.093231201171875;85.88081359863281
130;1673281603.6189039;47.1306424;7.2406196;26.308000564575195;1673281603.6760597;7.446593761444092;5.06747579574585;85.6513900756836
131;1673281603.817138;47.1306424;7.2406197;26.713001251220703;1673281603.8752568;7.556832790374756;8.495710372924805;85.80620574951172
132;1673281604.1213477;47.1306424;7.2406197;27.119001388549805;1673281604.1775055;7.652242183685303;4.775990962982178;85.78214263916016
133;1673281604.3195724;47.1306423;7.2406196;27.524002075195312;1673281604.384511;7.604105472564697;4.320652961730957;85.6244888305664
134;1673281604.5266674;47.1306424;7.2406196;27.9320011138916;1673281604.6052816;7.546695232391357;8.5452880859375;85.69271850585938
135;1673281604.7464314;47.1306424;7.2406196;28.330001831054688;1673281604.8006754;7.564342498779297;6.048438549041748;85.86361694335938
136;1673281604.9417918;47.1306424;7.240619499999999;28.73400115966797;1673281604.994151;7.398763656616211;4.276830673217773;85.7581558227539
137;1673281605.146944;47.1306424;7.240619499999999;29.136001586914062;1673281605.1982598;7.223467826843262;7.66082763671875;85.58567810058594
138;1673281605.3325462;47.1306424;7.240619499999999;29.53400230407715;1673281605.3868828;7.489434242248535;7.122188568115234;85.65837860107422
139;1673281605.5288577;47.1306422;7.2406196;29.930002212524414;1673281605.5821092;7.368589401245117;3.2674355506896973;85.80838012695312
140;1673281605.729114;47.1306422;7.2406196;30.32600212097168;1673281605.7833848;7.188942909240723;7.051884651184082;85.82576751708984
141;1673281605.9273713;47.1306422;7.2406196;30.718002319335938;1673281605.9825668;7.6358642578125;7.378585338592529;85.8480453491211
142;1673281606.1304848;47.1306422;7.2406196;31.117000579833984;1673281606.187713;7.512425422668457;3.8971755504608154;85.79548645019531
143;1673281606.3336725;47.1306423;7.2406196;31.51500129699707;1673281606.3898447;7.595941066741943;6.261746406555176;85.78948974609375
144;1673281606.529086;47.1306424;7.2406196;31.91200065612793;1673281606.582339;7.313369274139404;8.465249061584473;85.74515533447266
145;1673281606.7253578;47.1306423;7.2406196;32.30800247192383;1673281606.7825296;7.447819709777832;4.152764797210693;85.79125213623047
146;1673281606.9275868;47.1306422;7.2406196;32.7140007019043;1673281606.9839287;7.2047834396362305;5.185418128967285;85.81576538085938
147;1673281607.1269975;47.1306422;7.2406196;33.12000274658203;1673281607.1813006;7.432903289794922;8.496593475341797;85.88127136230469
148;1673281607.330197;47.1306422;7.2406196;33.5160026550293;1673281607.397158;7.563568592071533;5.124520778656006;85.71359252929688
149;1673281607.5461407;47.1306423;7.2406196;33.91800308227539;1673281607.6013558;7.519791126251221;4.465195655822754;85.74568939208984
150;1673281607.7376113;47.1306423;7.2406197;34.32600021362305;1673281607.792881;7.412212371826172;8.283698081970215;85.82855987548828
151;1673281607.939903;47.1306422;7.2406197;34.72800064086914;1673281607.997032;7.513333320617676;5.351283073425293;85.74675750732422
152;1673281608.1684456;47.130642099999996;7.2406197;35.13199996948242;1673281608.2246273;7.454014778137207;3.430906295776367;85.70890045166016
153;1673281608.3740854;47.130642099999996;7.240619799999999;35.53700256347656;1673281608.428859;7.301301956176758;7.592774391174316;85.7839584350586
154;1673281608.5660672;47.130642099999996;7.240619799999999;35.93300247192383;1673281608.6223009;7.450405597686768;6.490176677703857;85.70281219482422
155;1673281608.766454;47.1306422;7.240619799999999;36.33300018310547;1673281608.8207512;7.512383937835693;3.684532880783081;85.647216796875
156;1673281608.9637856;47.1306424;7.240619799999999;36.733001708984375;1673281609.0209563;7.571658611297607;7.356879234313965;85.84185791015625
157;1673281609.1869988;47.1306425;7.2406197;37.13199996948242;1673281609.241666;7.4661970138549805;8.143763542175293;86.00557708740234
158;1673281609.381434;47.1306424;7.2406197;37.531002044677734;1673281609.4458666;7.347658634185791;4.011100769042969;85.69183349609375
159;1673281609.5856197;47.1306425;7.2406197;37.93400192260742;1673281609.642226;7.268995761871338;5.9496893882751465;85.76236724853516
160;1673281609.7897696;47.1306425;7.2406196;38.3390007019043;1673281609.8395436;6.981779098510742;8.922402381896973;85.82323455810547
161;1673281609.9773889;47.130642599999995;7.2406196;38.736000061035156;1673281610.0300913;7.105463027954102;4.932336330413818;85.7385482788086
162;1673281610.1713362;47.130642599999995;7.2406196;39.13500213623047;1673281610.2265482;6.995933532714844;4.925865173339844;85.71593475341797
163;1673281610.3676505;47.130642599999995;7.2406197;39.535003662109375;1673281610.418675;7.294550895690918;8.906027793884277;85.97039794921875
164;1673281610.6008465;47.1306425;7.240619799999999;39.93100357055664;1673281610.655502;7.629144191741943;5.624805927276611;85.87938690185547
165;1673281610.7893796;47.1306424;7.240619799999999;40.33000183105469;1673281610.8381906;7.681855201721191;3.5144741535186768;85.52906036376953
166;1673281610.9867203;47.1306424;7.240619799999999;40.73100280761719;1673281611.041365;7.683056354522705;7.934816360473633;85.63926696777344
167;1673281611.1619825;47.1306424;7.240619799999999;41.124000549316406;1673281611.214246;7.499582290649414;6.612486839294434;85.8613052368164
168;1673281611.3553257;47.1306425;7.240619799999999;41.52400207519531;1673281611.408569;7.337966442108154;3.861020803451538;85.81048583984375
169;1673281611.5487068;47.130642599999995;7.240619799999999;41.928001403808594;1673281611.6009705;7.237938404083252;7.286385536193848;85.7860107421875
170;1673281611.754741;47.1306425;7.2406197;42.329002380371094;1673281611.8109097;7.397857666015625;7.932014465332031;85.85665893554688
171;1673281611.95983;47.1306424;7.2406197;42.73200225830078;1673281612.016991;7.500855922698975;3.94339919090271;85.80014038085938
172;1673281612.1658852;47.1306424;7.2406197;43.13600158691406;1673281612.2220585;7.31903076171875;5.964508533477783;85.61392974853516
173;1673281612.361184;47.1306425;7.2406196;43.540000915527344;1673281612.4174178;7.3767499923706055;8.167201042175293;85.80069732666016
174;1673281612.5643644;47.1306425;7.2406196;43.935001373291016;1673281612.6146753;7.302676677703857;4.317921161651611;85.80557250976562
175;1673281612.7596562;47.1306425;7.2406196;44.3380012512207;1673281612.8187826;7.311338901519775;5.3231120109558105;85.77606201171875
176;1673281612.97156;47.130642599999995;7.2406197;44.73500061035156;1673281613.0287242;7.383384704589844;8.629656791687012;85.7367935180664
177;1673281613.1708002;47.1306424;7.2406197;45.130001068115234;1673281613.2230613;7.522952556610107;4.887386798858643;85.80130767822266
178;1673281613.363164;47.1306424;7.2406197;45.5260009765625;1673281613.419927;7.439842700958252;4.066876411437988;85.74554443359375
179;1673281613.5663717;47.1306424;7.2406197;45.92900085449219;1673281613.6215963;7.46489953994751;8.64268684387207;85.77335357666016
180;1673281613.7607608;47.1306425;7.2406197;46.32400131225586;1673281613.8286474;7.644001483917236;6.3715596199035645;85.79528045654297
181;1673281613.9746022;47.1306425;7.2406196;46.724002838134766;1673281614.0297935;7.516973495483398;4.162765026092529;85.75852966308594
182;1673281614.189095;47.130642599999995;7.2406196;47.12700271606445;1673281614.2476492;7.209995746612549;7.6919732093811035;85.71678924560547
183;1673281614.3942392;47.1306425;7.2406196;47.53000259399414;1673281614.4474497;7.312913417816162;7.190515518188477;85.65326690673828
184;1673281614.5905466;47.1306424;7.2406196;47.932003021240234;1673281614.6452096;7.232463836669922;3.4528069496154785;85.74706268310547
185;1673281614.7907584;47.1306423;7.2406196;48.30400085449219;1673281614.848349;7.3103461265563965;6.927445888519287;85.78105926513672
186;1673281614.9910107;47.1306424;7.2406197;48.62000274658203;1673281615.0436516;7.363377094268799;7.323448181152344;85.6336669921875
187;1673281615.1834722;47.1306425;7.240619799999999;48.87700271606445;1673281615.2429705;7.293704032897949;3.3652687072753906;85.42696380615234
188;1673281615.3826354;47.130642599999995;7.240619799999999;49.092002868652344;1673281615.4388225;7.379307746887207;6.355400562286377;85.46644592285156
189;1673281615.566751;47.130642699999996;7.24062;49.275001525878906;1673281615.6170576;7.905975818634033;8.711445808410645;85.53404235839844
190;1673281615.7669404;47.130642699999996;7.2406201;49.427001953125;1673281615.8221817;16.974620819091797;7.68467378616333;83.26142120361328
191;1673281615.9711337;47.130642599999995;7.2406197;49.52700424194336;1673281616.0409856;21.761699676513672;15.069378852844238;74.14889526367188
192;1673281616.1664896;47.130642099999996;7.2406188;49.582000732421875;1673281616.2187548;11.94962215423584;1.6146597862243652;61.61552810668945
193;1673281616.3510666;47.1306412;7.2406177;49.63200378417969;1673281616.4025507;15.4680757522583;-0.35614994168281555;52.31386184692383
194;1673281616.5433645;47.1306401;7.2406166;49.67900085449219;1673281616.599586;15.15516471862793;-1.5942803621292114;43.752220153808594
195;1673281616.7434916;47.1306389;7.2406153;49.720001220703125;1673281616.7986093;12.390348434448242;-1.5957579612731934;36.19523620605469
196;1673281616.943835;47.130637799999995;7.240614;49.755001068115234;1673281617.0014913;9.472587585449219;-0.5167776346206665;27.642799377441406
197;1673281617.1455545;47.1306367;7.240613;49.78600311279297;1673281617.2035873;5.549483776092529;-2.626357078552246;18.670795440673828
198;1673281617.3463855;47.130635999999996;7.240612199999999;49.81700134277344;1673281617.4016325;3.1921985149383545;-6.135319232940674;9.405951499938965
199;1673281617.5497026;47.1306356;7.2406115;49.845001220703125;1673281617.6071708;3.628817319869995;-6.789819240570068;0.22332172095775604
200;1673281617.7457638;47.130635399999996;7.2406109999999995;49.8650016784668;1673281617.8013544;4.768004894256592;-7.8585991859436035;-9.015556335449219
201;1673281617.944737;47.130635299999994;7.2406106999999995;49.88800048828125;1673281618.0086231;5.166720867156982;-7.854276657104492;-17.922771453857422
202;1673281618.155843;47.130635299999994;7.2406106999999995;49.90700149536133;1673281618.2099876;3.998986005783081;-7.095414638519287;-26.130842208862305
203;1673281618.354775;47.130635399999996;7.2406106999999995;49.92100143432617;1673281618.4110918;0.8492223024368286;-7.940342903137207;-35.318695068359375
204;1673281618.5675817;47.1306356;7.2406106999999995;49.93400192260742;1673281618.6255863;-1.2727704048156738;-9.388577461242676;-44.931312561035156
205;1673281618.7772179;47.1306358;7.240610599999999;49.94700241088867;1673281618.8324723;-3.4942281246185303;-11.19307804107666;-52.47404098510742
206;1673281618.9638944;47.130635899999994;7.2406105;49.952003479003906;1673281619.0171933;-2.658817768096924;-12.848830223083496;-52.936580657958984
207;1673281619.1641643;47.130635999999996;7.2406104;49.961002349853516;1673281619.2155173;-0.5110095143318176;-11.671820640563965;-49.80360412597656
208;1673281619.3527648;47.1306361;7.240610299999999;49.974002838134766;1673281619.406448;0.35416677594184875;-10.976689338684082;-47.82270431518555
209;1673281619.558978;47.1306362;7.2406102;49.98200225830078;1673281619.6171541;-0.00840540137141943;-10.235536575317383;-47.16203689575195
210;1673281619.7710173;47.1306363;7.2406099;49.987003326416016;1673281619.834027;-1.481325387954712;-10.23654556274414;-46.58021926879883
211;1673281619.9838917;47.1306363;7.2406095;49.99100112915039;1673281620.0381763;-1.7165393829345703;-11.050385475158691;-45.909542083740234
212;1673281620.1822672;47.1306363;7.240609;49.99500274658203;1673281620.2345448;-0.23308980464935303;-11.130826950073242;-45.48366928100586
213;1673281620.3757105;47.1306361;7.2406086;49.9900016784668;1673281620.4286168;1.3596171140670776;-10.156492233276367;-45.13918685913086
214;1673281620.578967;47.130635899999994;7.2406083;49.98400115966797;1673281620.6342537;2.615339994430542;-10.50336742401123;-45.12466049194336
215;1673281620.7792037;47.1306356;7.2406083;49.98100280761719;1673281620.8334293;-3.0028328895568848;-10.18249797821045;-45.05720901489258
216;1673281620.9716456;47.1306355;7.240608099999999;49.97600173950195;1673281621.0249338;-30.714658737182617;-7.54195499420166;-44.100215911865234
217;1673281621.1709511;47.1306363;7.2406064;49.97500228881836;1673281621.238894;-50.779964447021484;-2.7392022609710693;-46.27711486816406
218;1673281621.3721938;47.130639099999996;7.2406023;49.95000076293945;1673281621.4238307;-48.89400100708008;-1.73105788230896;-48.09765625
219;1673281621.5817611;47.130644;7.240595399999999;49.89500427246094;1673281621.6337223;-42.969215393066406;-4.452744007110596;-47.496253967285156
220;1673281621.7938168;47.1306504;7.2405865;49.85200119018555;1673281621.854501;-41.86733627319336;-5.472843647003174;-47.130558013916016
221;1673281621.9928508;47.130658;7.240575799999999;49.855003356933594;1673281622.0489085;-50.20525360107422;-6.300784111022949;-46.9897346496582
222;1673281622.2065272;47.1306673;7.2405626;49.900001525878906;1673281622.2617402;-59.584476470947266;-4.0529375076293945;-49.00022506713867
223;1673281622.4068003;47.130678599999996;7.2405462;49.94900131225586;1673281622.4555109;-60.13066101074219;-2.321591377258301;-50.708274841308594
224;1673281622.6395552;47.1306917;7.2405272;49.97300338745117;1673281622.6908443;-56.62392044067383;-2.478278398513794;-49.69151306152344
225;1673281622.8709638;47.1307061;7.2405063;49.974002838134766;1673281622.939002;-53.45098114013672;-4.396296977996826;-50.40571975708008
226;1673281623.048507;47.1307214;7.2404838;49.96900177001953;1673281623.092616;-54.46998596191406;-2.2922792434692383;-51.87382125854492
227;1673281623.2194178;47.1307374;7.24046;49.9530029296875;1673281623.272636;-53.360687255859375;-2.409766912460327;-51.3824577331543
228;1673281623.3956852;47.1307541;7.240435;49.927001953125;1673281623.4445412;-48.99818420410156;-3.102672576904297;-50.91916275024414
229;1673281623.5758154;47.1307711;7.2404094;49.90800094604492;1673281623.6326945;-48.09311294555664;-3.6849679946899414;-50.68349838256836
230;1673281623.7776968;47.1307884;7.2403834;49.8910026550293;1673281623.8427804;-48.23929977416992;-3.8789076805114746;-50.752586364746094
231;1673281624.0057502;47.1308058;7.2403569999999995;49.88300323486328;1673281624.0595262;-48.28864288330078;-4.975889205932617;-50.61151123046875
232;1673281624.2074602;47.130823199999995;7.2403303999999995;49.87800216674805;1673281624.2657213;-48.669307708740234;-7.4344682693481445;-50.279441833496094
233;1673281624.4147973;47.1308406;7.240303399999999;49.87700271606445;1673281624.4729047;-47.725284576416016;-12.188058853149414;-49.69774627685547
234;1673281624.6083572;47.1308577;7.2402757;49.8900032043457;1673281624.6604881;-30.717735290527344;-13.172653198242188;-53.37171173095703
235;1673281624.7981563;47.130873799999996;7.2402485;49.90700149536133;1673281624.8493125;10.609299659729004;-16.59917640686035;-53.2398796081543
236;1673281624.9913485;47.130888;7.2402242999999995;49.874000549316406;1673281625.045612;30.46242332458496;-6.071582794189453;-54.52299880981445
237;1673281625.194117;47.130900399999994;7.2402038;49.65900421142578;1673281625.25393;17.681974411010742;-3.735687732696533;-49.9917106628418
238;1673281625.3984623;47.1309106;7.2401879;49.42900085449219;1673281625.457683;14.894157409667969;-3.643342971801758;-49.4122428894043
239;1673281625.5968435;47.1309186;7.2401766;49.31300354003906;1673281625.6494405;16.229957580566406;-5.102309703826904;-48.94599533081055
240;1673281625.7943695;47.1309247;7.240169099999999;49.35400390625;1673281625.8506043;42.189369201660156;-11.393043518066406;-48.74240493774414
241;1673281625.9903688;47.130928399999995;7.2401656;49.428001403808594;1673281626.0416865;44.60502624511719;-11.065840721130371;-45.93604278564453
242;1673281626.1886306;47.1309294;7.2401658;49.500003814697266;1673281626.2457728;45.895660400390625;-12.128791809082031;-45.900997161865234
243;1673281626.3791747;47.130927899999996;7.2401691999999995;49.57400131225586;1673281626.4344077;49.04222869873047;-17.3330135345459;-47.67447280883789
244;1673281626.5754824;47.130923599999996;7.2401756;49.65700149536133;1673281626.6375425;45.71181869506836;-18.69575309753418;-47.0108528137207
245;1673281626.800635;47.130917;7.2401838;49.73400115966797;1673281626.8572443;31.209762573242188;-18.654394149780273;-46.389129638671875
246;1673281627.0164661;47.1309091;7.2401928;49.781002044677734;1673281627.114678;9.029891014099121;-16.01264762878418;-46.340152740478516
247;1673281627.273383;47.130900999999994;7.2402013;49.810001373291016;1673281627.3178322;-11.023104667663574;-9.931732177734375;-48.42241287231445
248;1673281627.4335957;47.130893699999994;7.240208399999999;49.82600402832031;1673281627.47655;-23.449819564819336;-8.650763511657715;-50.75956726074219
249;1673281627.6181946;47.1308879;7.2402137;49.81100082397461;1673281627.6718824;-31.446216583251953;-2.26391863822937;-50.3689079284668
250;1673281627.8029168;47.1308837;7.2402172;49.70600128173828;1673281627.8712013;-64.2047119140625;2.811622381210327;-55.32807922363281
251;1673281628.0177422;47.1308801;7.2402204999999995;49.27900314331055;1673281628.0714073;-80.77098846435547;139.25096130371094;175.8192138671875
252;1673281628.211204;47.1308766;7.240223599999999;48.46800231933594;1673281628.2609124;-57.966896057128906;174.1107940673828;153.82205200195312
253;1673281628.4018106;47.1308734;7.2402269;47.29900360107422;1673281628.466317;-45.66641616821289;-167.3052215576172;152.61956787109375
254;1673281628.62461;47.1308703;7.2402301;45.7650032043457;1673281628.675356;-45.872867584228516;-145.81593322753906;154.15638732910156
255;1673281628.807304;47.1308674;7.2402333;43.86600112915039;1673281628.8570871;-53.46994400024414;-101.215087890625;136.57159423828125
256;1673281628.9924738;47.130864599999995;7.2402365;41.61300277709961;1673281629.0418327;-42.958038330078125;-28.7235050201416;94.7663803100586
257;1673281629.187955;47.1308617;7.2402394999999995;38.98800277709961;1673281629.2441418;-2.1296539306640625;19.30645179748535;84.60496520996094
258;1673281629.387203;47.130859;7.2402422;35.94300079345703;1673281629.4395645;37.49901580810547;52.476417541503906;100.40882110595703
259;1673281629.5826569;47.1308565;7.2402451;32.54300308227539;1673281629.63793;57.44927978515625;72.84488677978516;123.79289245605469
260;1673281629.7722309;47.130854199999995;7.2402482;28.815000534057617;1673281629.8206058;62.53866958618164;40.81035232543945;109.85494232177734
261;1673281629.9744704;47.130852;7.2402514;24.757001876831055;1673281630.028714;34.078128814697266;-14.38083267211914;87.77975463867188
262;1673281630.195285;47.1308499;7.2402552;20.330001831054688;1673281630.2466297;-13.360074996948242;-48.20754623413086;101.72706604003906
263;1673281630.386835;47.130847499999994;7.2402589;15.5260009765625;1673281630.437862;-44.38444519042969;-69.65046691894531;130.7374267578125
264;1673281630.5775187;47.1308449;7.2402622;10.402000427246094;1673281630.6385548;-56.73429489135742;-45.68533706665039;128.839599609375
265;1673281630.7952838;47.1308424;7.240265099999999;4.954000473022461;1673281630.8505337;-29.48318862915039;12.426826477050781;99.73346710205078
266;1673281630.9867382;47.1308404;7.2402672;0.14000000059604645;1673281631.0448735;0.9279707670211792;-9.432920455932617;96.65083312988281
267;1673281631.182101;47.130837299999996;7.2402653;0.40700000524520874;1673281631.2314968;-0.4403001070022583;-0.5963766574859619;87.87577056884766
268;1673281631.3833702;47.130832;7.240262599999999;0.49000000953674316;1673281631.4352028;0.7461349964141846;1.3126894235610962;88.36040496826172
269;1673281631.5797997;47.1308266;7.2402599;0.5740000009536743;1673281631.634065;0.8805685639381409;0.48262667655944824;88.34723663330078
270;1673281631.7878854;47.1308219;7.2402574;0.6260000467300415;1673281631.845093;0.8789165019989014;0.02989194355905056;88.38138580322266
271;1673281631.9892073;47.1308173;7.2402546999999995;0.6950000524520874;1673281632.0415208;0.8977765440940857;-0.3624262511730194;88.39529418945312
272;1673281632.1914742;47.130814199999996;7.2402526;0.7350000143051147;1673281632.2476609;0.8522847890853882;-0.8466219902038574;88.45832061767578
273;1673281632.3838449;47.1308125;7.2402513;0.7610000371932983;1673281632.4386408;0.7912426590919495;-1.2921717166900635;88.5267562866211
274;1673281632.576298;47.130812;7.240250499999999;0.7800000309944153;1673281632.6295376;0.6478613615036011;-1.7954250574111938;88.64766693115234
275;1673281632.774522;47.1308176;7.2402541;0.8050000667572021;1673281632.8297236;0.14320722222328186;-2.864000082015991;89.14680480957031
276;1673281632.9757018;47.1308237;7.2402581999999995;0.8260000348091125;1673281633.0289435;-0.06851065158843994;-3.2767152786254883;89.33583068847656
277;1673281633.2022464;47.1308286;7.240261599999999;0.8370000123977661;1673281633.2642605;-0.104859359562397;-3.5101144313812256;89.40345764160156
278;1673281633.4004765;47.1308315;7.2402633;0.8660000562667847;1673281633.4498494;-0.16589367389678955;-3.6383016109466553;89.423583984375
279;1673281633.5850735;47.1308337;7.2402649;0.8750000596046448;1673281633.638336;-0.2905098795890808;-3.7659342288970947;89.38795471191406
280;1673281633.7833335;47.1308353;7.240266;0.8760000467300415;1673281633.8365917;-0.37586328387260437;-3.660823345184326;89.3961181640625
281;1673281633.9757054;47.1308364;7.2402669;0.8710000514984131;1673281634.0348017;-0.38056641817092896;-3.672640800476074;89.36141967773438
282;1673281634.1836863;47.1308371;7.2402675;0.8640000224113464;1673281634.2359495;-0.3964470624923706;-3.678483486175537;89.36975860595703
283;1673281634.3872697;47.1308377;7.2402679;0.8560000658035278;1673281634.4542348;-0.4134085476398468;-3.6812326908111572;89.36309051513672
284;1673281634.59339;47.130838399999995;7.2402681;0.8630000352859497;1673281634.643718;-0.4136068522930145;-3.701028347015381;89.36628723144531
285;1673281634.7789416;47.1308388;7.240268299999999;0.8560000658035278;1673281634.8362;-0.38090163469314575;-3.6879684925079346;89.34222412109375
286;1673281634.9821622;47.130839099999996;7.2402685;0.8440000414848328;1673281635.0462122;-0.3936140537261963;-3.691657781600952;89.342529296875
287;1673281635.185339;47.1308392;7.240268599999999;0.8260000348091125;1673281635.237602;-0.3743310570716858;-3.676041841506958;89.34283447265625
288;1673281635.3952832;47.1308394;7.2402687;0.8090000152587891;1673281635.4544954;-0.3936646580696106;-3.644192695617676;89.33560943603516
289;1673281635.5868196;47.1308395;7.2402688;0.7930000424385071;1673281635.6430423;-0.40403997898101807;-3.6190264225006104;89.34292602539062
290;1673281635.7870843;47.130839699999996;7.240268899999999;0.7750000357627869;1673281635.846207;-0.3589712381362915;-3.593442916870117;89.31028747558594
291;1673281635.9902265;47.130840199999994;7.240269;0.7660000324249268;1673281636.0844636;-0.3449234068393707;-3.5927369594573975;89.3143539428711
292;1673281636.238904;47.1308404;7.240269;0.753000020980835;1673281636.2896569;-0.34130752086639404;-3.555980920791626;89.30183410644531
293;1673281636.4391994;47.1308405;7.2402691;0.7320000529289246;1673281636.4850748;-0.34657368063926697;-3.486243724822998;89.30279541015625
294;1673281636.622905;47.1308405;7.2402691;0.7120000123977661;1673281636.6687758;-0.3601558804512024;-3.4376118183135986;89.31134033203125
295;1673281636.8069758;47.1308405;7.2402691;0.6880000233650208;1673281636.8554106;-0.3592299520969391;-3.40291690826416;89.32176971435547
296;1673281636.9907062;47.1308405;7.2402691;0.6630000472068787;1673281637.042969;-0.44592225551605225;-3.3498001098632812;89.34770965576172
297;1673281637.183078;47.130840799999994;7.2402693;0.6430000066757202;1673281637.2393289;-0.47852644324302673;-3.2515664100646973;89.34886169433594
298;1673281637.391232;47.130840899999995;7.2402693;0.6190000176429749;1673281637.4513478;-0.46689361333847046;-3.125572681427002;89.35626220703125
299;1673281637.5983381;47.130840899999995;7.2402694;0.5980000495910645;1673281637.6662242;-0.48161977529525757;-3.040790557861328;89.35269165039062
300;1673281637.827436;47.130840899999995;7.2402694;0.5760000348091125;1673281637.8781862;-0.4413408637046814;-2.75622820854187;89.34085083007812
301;1673281638.0257394;47.130840899999995;7.2402694;0.5690000057220459;1673281638.0706346;-0.44359660148620605;-2.654264450073242;89.35437774658203
302;1673281638.2058609;47.130840799999994;7.2402694;-0.004000000189989805;1673281638.2630053;-0.43717601895332336;-2.534158945083618;89.35888671875
303;1673281638.4012666;47.130840799999994;7.2402694;-0.017000000923871994;1673281638.4611828;-0.44902899861335754;-2.4396166801452637;89.36173248291016
