;pos_time;latitude;longitude;altitude;alt_time;pitch;roll;yaw
0;1673293795.5571535;47.1306424;7.2406201999999995;-0.02500000037252903;1673293795.6929338;0.21203278005123138;-0.531907320022583;90.12528228759766
1;1673293795.7572832;47.1306424;7.2406201999999995;-0.024000000208616257;1673293795.896334;0.6370489597320557;-0.39257004857063293;90.00457763671875
2;1673293795.964698;47.1306424;7.2406201999999995;-0.023000001907348633;1673293796.1216347;0.11800958961248398;-0.19294176995754242;90.13192749023438
3;1673293796.2133207;47.1306424;7.2406201999999995;-0.024000000208616257;1673293796.3454967;0.26207098364830017;-0.44280779361724854;90.2258071899414
4;1673293796.4158053;47.1306424;7.2406201999999995;-0.024000000208616257;1673293796.536569;0.4707607924938202;-0.31573227047920227;90.05738830566406
5;1673293796.597781;47.1306424;7.2406201999999995;-0.023000001907348633;1673293796.7369983;0.2059183120727539;-0.5000301599502563;90.17253875732422
6;1673293796.7927895;47.1306424;7.2406201;-0.024000000208616257;1673293796.9226015;0.07766774296760559;-0.1659107357263565;89.98450469970703
7;1673293796.983688;47.1306424;7.2406201;-0.024000000208616257;1673293797.1305554;0.5298087000846863;-0.29514071345329285;90.05033874511719
8;1673293797.1932125;47.1306424;7.2406201;-0.023000001907348633;1673293797.3403926;0.03657350316643715;-0.2843717634677887;89.96275329589844
9;1673293797.4073024;47.1306424;7.2406201;-0.024000000208616257;1673293797.5466871;-0.1450442671775818;-0.27074894309043884;90.08650970458984
10;1673293797.634804;47.1306425;7.2406201;-0.02500000037252903;1673293797.7593112;-0.12255989760160446;-0.18359044194221497;90.03085327148438
11;1673293797.8164568;47.1306425;7.2406201999999995;-0.024000000208616257;1673293797.9458387;0.03829006850719452;-0.3389367163181305;90.21388244628906
12;1673293798.0030124;47.1306424;7.2406201;-0.02500000037252903;1673293798.1291287;0.08796346932649612;-0.16793383657932281;90.0203857421875
13;1673293798.1860614;47.1306424;7.2406201;0.0;1673293798.3162568;-0.11893019825220108;-0.2819100022315979;90.1463394165039
14;1673293798.3773644;47.1306424;7.2406201;0.0010000000474974513;1673293798.508886;-0.042689789086580276;-0.24303729832172394;90.0743408203125
15;1673293798.5729308;47.1306424;7.2406201;0.0020000000949949026;1673293798.705923;0.10989753156900406;-0.07076992094516754;90.10015869140625
16;1673293798.7702541;47.1306423;7.2406201;0.0010000000474974513;1673293798.9180875;0.008018428459763527;-0.300153911113739;90.26968383789062
17;1673293798.978931;47.1306423;7.2406201;0.0;1673293799.1159463;-0.2491227388381958;-0.07466631382703781;90.10193634033203
18;1673293799.1748934;47.1306423;7.2406201;0.0;1673293799.32712;-0.2983657419681549;0.026476707309484482;90.07093811035156
19;1673293799.3918593;47.1306424;7.2406201;0.0;1673293799.517989;-0.32111501693725586;-0.1766648143529892;90.01882934570312
20;1673293799.5769954;47.1306424;7.2406201;0.0010000000474974513;1673293799.7082276;-0.34921738505363464;0.5196632146835327;90.00875854492188
21;1673293799.767928;47.1306424;7.2406201;0.0;1673293799.9127827;-0.4055672883987427;0.15707314014434814;90.03437042236328
22;1673293799.9715302;47.1306424;7.2406201;0.0010000000474974513;1673293800.101834;-0.617945671081543;-0.3002164363861084;90.05901336669922
23;1673293800.1569889;47.1306423;7.2406201;0.0;1673293800.2934763;-0.5612568259239197;-0.10317380726337433;90.16741180419922
24;1673293800.3499582;47.1306423;7.2406201999999995;0.0;1673293800.483846;-0.4989457130432129;-0.08354684710502625;90.15280151367188
25;1673293800.5538275;47.1306423;7.2406201999999995;0.0010000000474974513;1673293800.70701;-0.604084849357605;0.01046795304864645;90.14490509033203
26;1673293800.7738085;47.1306423;7.2406201999999995;0.006000000052154064;1673293800.920912;-0.4142874777317047;-0.09037768840789795;89.91162872314453
27;1673293800.986113;47.1306423;7.2406201999999995;0.007000000216066837;1673293801.1338787;-0.7104369401931763;-0.06252794712781906;90.02552032470703
28;1673293801.1978924;47.1306423;7.2406201;0.007000000216066837;1673293801.342985;-0.8818767666816711;-0.10909978300333023;89.9848403930664
29;1673293801.3979082;47.1306423;7.2406201;0.00800000037997961;1673293801.5221224;-0.6653911471366882;-0.18456697463989258;88.32492065429688
30;1673293801.5821865;47.1306423;7.2406201999999995;0.007000000216066837;1673293801.7197483;2.9581871032714844;0.16241046786308289;87.48482513427734
31;1673293801.7718556;47.1306423;7.2406209;0.017000000923871994;1673293801.9251127;9.410691261291504;-0.48397454619407654;86.10098266601562
32;1673293801.9859936;47.1306424;7.240622;0.032999999821186066;1673293802.1127937;15.481690406799316;-0.589061975479126;85.552001953125
33;1673293802.1928635;47.1306424;7.2406235;0.052000001072883606;1673293802.3189893;16.401546478271484;0.7663893103599548;86.77297973632812
34;1673293802.375819;47.1306424;7.240625199999999;0.08500000089406967;1673293802.5099125;17.29775619506836;-1.8338288068771362;87.25360107421875
35;1673293802.5747955;47.1306424;7.2406269;0.1300000101327896;1673293802.713366;18.70110511779785;-2.464423179626465;87.6875991821289
36;1673293802.785916;47.1306425;7.2406285;0.18800000846385956;1673293802.9228451;20.60921287536621;1.5721373558044434;88.70907592773438
37;1673293802.998827;47.130642599999995;7.2406299999999995;0.25699999928474426;1673293803.1198254;22.53255271911621;0.9480029940605164;89.04783630371094
38;1673293803.17655;47.130642699999996;7.2406311;0.33900001645088196;1673293803.3157437;24.576417922973633;-1.9905734062194824;88.87896728515625
39;1673293803.3742971;47.130642699999996;7.2406315999999995;0.4300000071525574;1673293803.5317;26.638668060302734;1.153647541999817;89.55056762695312
40;1673293803.598614;47.130642699999996;7.2406315999999995;0.527999997138977;1673293803.7398033;28.02313232421875;1.5454431772232056;89.94210815429688
41;1673293803.7940497;47.130642699999996;7.2406308;0.6330000162124634;1673293803.9204879;26.0513858795166;-1.8506174087524414;89.5024642944336
42;1673293803.9802024;47.130642599999995;7.240629299999999;0.7430000305175781;1673293804.1208918;24.023807525634766;0.7539016604423523;90.02289581298828
43;1673293804.1809485;47.130642599999995;7.240627399999999;0.8600000143051147;1673293804.3269377;21.523193359375;1.817122220993042;90.57020568847656
44;1673293804.3767138;47.130642599999995;7.240625199999999;0.9880000352859497;1673293804.5095568;19.055164337158203;-1.8043529987335205;89.87133026123047
45;1673293804.5695796;47.130642599999995;7.2406232;1.127000093460083;1673293804.7147074;17.188987731933594;0.43399885296821594;90.20309448242188
46;1673293804.7782936;47.130642599999995;7.240621399999999;1.2780001163482666;1673293804.9180372;15.990727424621582;1.6818488836288452;90.50907897949219
47;1673293804.9854186;47.1306425;7.2406201;1.4390000104904175;1673293805.1227143;15.559557914733887;-2.0652971267700195;89.74533081054688
48;1673293805.1793652;47.1306425;7.2406191;1.6120001077651978;1673293805.314162;15.107160568237305;0.1767808496952057;95.01657104492188
49;1673293805.381563;47.1306425;7.2406185;1.790000081062317;1673293805.526279;15.895196914672852;2.6430580615997314;94.12499237060547
50;1673293805.5841482;47.130642599999995;7.2406182;1.968000054359436;1673293805.718406;16.559907913208008;-1.309529185295105;92.66837310791016
51;1673293805.7769573;47.130642599999995;7.2406182999999995;2.1480000019073486;1673293805.9048932;17.62833595275879;-1.861378788948059;92.09144592285156
52;1673293805.9663734;47.1306425;7.2406185999999995;2.328000068664551;1673293806.141751;18.419038772583008;2.1743967533111572;92.08805084228516
53;1673293806.206421;47.1306425;7.240619;2.507000207901001;1673293806.3808937;19.15350914001465;-1.112337350845337;91.42095184326172
54;1673293806.4350996;47.1306425;7.2406194;2.687000036239624;1673293806.5688837;19.528303146362305;-1.6804323196411133;91.07963562011719
55;1673293806.6153345;47.130642599999995;7.2406196;2.871000051498413;1673293806.7350411;19.887632369995117;2.879622459411621;91.61448669433594
56;1673293806.7951975;47.130642699999996;7.2406198999999996;3.059000253677368;1673293806.9256365;19.866621017456055;0.8010871410369873;91.38455963134766
57;1673293806.9824452;47.1306428;7.24062;3.249000072479248;1673293807.1205812;19.752607345581055;-1.4442064762115479;91.04663848876953
58;1673293807.1866183;47.1306428;7.2406201;3.438000202178955;1673293807.3211832;19.634645462036133;2.1608524322509766;91.52385711669922
59;1673293807.375396;47.130642699999996;7.2406201;3.628000259399414;1673293807.5049362;19.488182067871094;0.9464353322982788;91.59471130371094
60;1673293807.5753665;47.130642599999995;7.2406201;3.819000244140625;1673293807.7291613;19.43865394592285;-2.2975287437438965;91.09464263916016
61;1673293807.7956958;47.1306425;7.2406201;4.01200008392334;1673293807.93949;19.1729793548584;1.1363250017166138;91.50235748291016
62;1673293808.0007977;47.1306425;7.24062;4.205000400543213;1673293808.1224096;19.077558517456055;1.7977665662765503;91.71511840820312
63;1673293808.1810062;47.1306425;7.24062;4.397000312805176;1673293808.317008;19.04290199279785;-1.995438814163208;91.1485824584961
64;1673293808.3794556;47.1306424;7.2406198999999996;4.590000152587891;1673293808.530343;18.84189796447754;0.3466379642486572;91.39236450195312
65;1673293808.5908992;47.1306423;7.2406198999999996;4.7829999923706055;1673293808.7212834;18.900300979614258;1.7978943586349487;91.64128875732422
66;1673293808.7847278;47.1306422;7.240619799999999;4.978000164031982;1673293808.9322345;18.852317810058594;-1.756181001663208;91.11915588378906
67;1673293808.9898121;47.1306422;7.240619799999999;5.176000118255615;1673293809.124822;18.805694580078125;0.13518179953098297;91.35800170898438
68;1673293809.1853383;47.1306423;7.2406197;5.373000144958496;1673293809.3308978;18.846744537353516;2.8190104961395264;91.7707290649414
69;1673293809.39242;47.1306423;7.2406197;5.568000316619873;1673293809.5292256;18.791261672973633;-1.0812417268753052;91.09339141845703
70;1673293809.584858;47.1306423;7.2406197;5.766000270843506;1673293809.776513;18.70453643798828;-0.4855377972126007;91.12093353271484
71;1673293809.8323486;47.1306422;7.240619799999999;5.963000297546387;1673293809.9696891;18.92579460144043;2.8987624645233154;91.73921203613281
72;1673293810.020834;47.1306423;7.240619799999999;6.159000396728516;1673293810.1385202;18.89076805114746;-0.6182473301887512;91.33450317382812
73;1673293810.1907804;47.1306423;7.2406198999999996;6.3510003089904785;1673293810.3149211;19.013044357299805;-1.0195763111114502;91.1672134399414
74;1673293810.3725185;47.1306423;7.24062;6.5410003662109375;1673293810.5064418;19.134836196899414;3.0445282459259033;91.629150390625
75;1673293810.563211;47.1306423;7.2406201;6.734000205993652;1673293810.7217681;18.961875915527344;0.29013630747795105;91.33013916015625
76;1673293810.791124;47.1306423;7.2406201;6.929000377655029;1673293810.9341905;19.09490966796875;-1.5900589227676392;91.16812896728516
77;1673293810.9937997;47.1306422;7.2406201999999995;7.128000259399414;1673293811.1289098;19.12137222290039;2.514758825302124;91.80247497558594
78;1673293811.1930468;47.1306422;7.2406201999999995;7.325000286102295;1673293811.3332841;19.060626983642578;0.581141471862793;91.43045806884766
79;1673293811.3961217;47.130642099999996;7.2406201999999995;7.51900053024292;1673293811.5303698;19.115982055664062;-1.8317680358886719;91.19718933105469
80;1673293811.590928;47.130642099999996;7.2406203;7.714000225067139;1673293811.7385442;19.077491760253906;1.9174549579620361;91.66040802001953
81;1673293811.7995908;47.130642099999996;7.2406203;7.908000469207764;1673293811.9504344;18.965360641479492;1.56387197971344;91.57562255859375
82;1673293812.0141983;47.130642099999996;7.2406203;8.105000495910645;1673293812.1403341;19.043977737426758;-2.1678407192230225;91.02955627441406
83;1673293812.1950026;47.130642099999996;7.2406203;8.303000450134277;1673293812.3263805;19.032405853271484;1.207535982131958;91.60696411132812
84;1673293812.3983238;47.130642099999996;7.2406204;8.5;1673293812.5365071;19.143714904785156;2.0087428092956543;91.65650939941406
85;1673293812.5942698;47.130642099999996;7.2406204;8.700000762939453;1673293812.737574;18.97612953186035;-1.7653579711914062;91.05303192138672
86;1673293812.7980876;47.1306422;7.2406204;8.898000717163086;1673293812.9202962;19.12042808532715;0.7401930689811707;91.26927947998047
87;1673293812.9837372;47.1306423;7.2406204;9.095000267028809;1673293813.111123;18.92449378967285;2.901135206222534;91.77346801757812
88;1673293813.1699042;47.1306423;7.2406204;9.292000770568848;1673293813.3051076;18.998857498168945;-1.0302598476409912;91.2035140991211
89;1673293813.3639243;47.1306422;7.2406204999999995;9.492000579833984;1673293813.5238438;19.112031936645508;-0.5114694237709045;91.20256042480469
90;1673293813.592837;47.130642099999996;7.2406206;9.695000648498535;1673293813.7452407;19.29402732849121;2.6043996810913086;91.62187194824219
91;1673293813.7994323;47.130642099999996;7.2406206;9.894000053405762;1673293813.9298687;19.293621063232422;-0.6409475207328796;91.34909057617188
92;1673293813.9965117;47.130642099999996;7.2406207;10.093000411987305;1673293814.1397176;19.306276321411133;-0.6114179491996765;91.24657440185547
93;1673293814.2027671;47.1306422;7.2406206;10.331000328063965;1673293814.3400204;20.690349578857422;2.7081785202026367;91.56520080566406
94;1673293814.3988545;47.1306422;7.2406201999999995;10.67300033569336;1673293814.5336394;20.314693450927734;0.7945247292518616;91.76927947998047
95;1673293814.5941567;47.130642099999996;7.2406197;11.051000595092773;1673293814.7269852;18.566566467285156;-1.2417023181915283;91.31866455078125
96;1673293814.7874956;47.130641999999995;7.2406191;11.446000099182129;1673293814.927217;17.521764755249023;1.930572271347046;91.75923156738281
97;1673293814.985931;47.130641999999995;7.2406185999999995;11.849000930786133;1673293815.1342921;16.61492347717285;0.6201661229133606;91.55460357666016
98;1673293815.195936;47.130641999999995;7.2406182;12.25100040435791;1673293815.3415473;16.43549346923828;-1.4694476127624512;91.14219665527344
99;1673293815.4011395;47.130642099999996;7.2406179999999996;12.653000831604004;1673293815.5350432;16.555591583251953;2.1373538970947266;91.67484283447266
100;1673293815.587246;47.130642099999996;7.2406179999999996;13.057000160217285;1673293815.729505;16.900163650512695;1.069544792175293;91.57321166992188
101;1673293815.8007958;47.130642099999996;7.2406182;13.460000991821289;1673293815.9451346;17.392316818237305;-1.6573140621185303;91.17897033691406
102;1673293816.0386808;47.130641999999995;7.2406185;13.858000755310059;1673293816.192828;18.037534713745117;1.8104599714279175;91.60103607177734
103;1673293816.2453277;47.130641999999995;7.240618899999999;14.257000923156738;1673293816.3649533;18.56510353088379;1.0930794477462769;91.58472442626953
104;1673293816.4367232;47.130642099999996;7.240619199999999;14.648000717163086;1673293816.6010466;18.78768539428711;-1.4586281776428223;91.05824279785156
105;1673293816.6568859;47.1306422;7.240619499999999;15.03800106048584;1673293816.7827444;19.016347885131836;2.1486568450927734;91.47865295410156
106;1673293816.8414006;47.1306422;7.2406197;15.429000854492188;1673293816.9723248;19.137304306030273;1.7888875007629395;91.62444305419922
107;1673293817.0262766;47.1306422;7.240619799999999;15.822000503540039;1673293817.1533873;19.10924530029297;-1.0804648399353027;91.20677185058594
108;1673293817.207341;47.130642099999996;7.2406198999999996;16.220001220703125;1673293817.3417926;19.09925079345703;1.3458360433578491;91.4489974975586
109;1673293817.402497;47.130642099999996;7.2406198999999996;16.619001388549805;1673293817.5443366;18.78366470336914;1.9251136779785156;91.58527374267578
110;1673293817.6030583;47.130642099999996;7.2406198999999996;17.017000198364258;1673293817.7335396;18.68964958190918;-1.3751511573791504;91.10455322265625
111;1673293817.794083;47.130642099999996;7.240619799999999;17.413000106811523;1673293817.9406939;18.53896713256836;1.0900272130966187;91.47430419921875
112;1673293818.0041862;47.130642099999996;7.240619799999999;17.806001663208008;1673293818.1333141;18.308818817138672;2.0214717388153076;91.73562622070312
113;1673293818.1928592;47.130642099999996;7.2406197;18.204999923706055;1673293818.336466;18.240812301635742;-1.4612507820129395;91.20315551757812
114;1673293818.3942342;47.130642099999996;7.2406196;18.606000900268555;1673293818.542057;18.362558364868164;-0.031084029003977776;91.36204528808594
115;1673293818.6026044;47.130642099999996;7.2406196;19.005001068115234;1673293818.7327251;18.369503021240234;2.295459270477295;91.7369155883789
116;1673293818.792261;47.1306422;7.2406197;19.4010009765625;1673293818.929305;18.35338020324707;-1.049294352531433;91.18607330322266
117;1673293818.984485;47.1306423;7.2406197;19.793001174926758;1673293819.1172361;18.445642471313477;0.45093604922294617;91.28903198242188
118;1673293819.181142;47.1306423;7.2406197;20.18000030517578;1673293819.3388836;18.61857795715332;2.6117842197418213;91.65589141845703
119;1673293819.4013567;47.1306424;7.240619799999999;20.57000160217285;1673293819.547101;18.687841415405273;-0.883333683013916;91.17125701904297
120;1673293819.6017463;47.1306424;7.240619799999999;20.961000442504883;1673293819.7336948;18.59368896484375;0.47614413499832153;91.34585571289062
121;1673293819.7873755;47.1306425;7.240619799999999;21.354000091552734;1673293819.9173224;18.532041549682617;3.377749443054199;91.79033660888672
122;1673293819.9780009;47.130642599999995;7.240619799999999;21.750001907348633;1673293820.1245873;18.581867218017578;-0.05669010803103447;91.23934173583984
123;1673293820.185068;47.130642599999995;7.240619799999999;22.144001007080078;1673293820.332614;18.59430503845215;0.011227509006857872;91.20397186279297
124;1673293820.400788;47.1306425;7.2406197;22.538002014160156;1673293820.5484433;18.568462371826172;2.5438835620880127;91.77207946777344
125;1673293820.621877;47.1306424;7.2406197;22.928001403808594;1673293820.7689667;18.426054000854492;-0.7555682063102722;91.3897705078125
126;1673293820.8229053;47.1306424;7.2406197;23.325000762939453;1673293820.9462874;18.621219635009766;-0.6622101068496704;91.26780700683594
127;1673293821.0070686;47.1306424;7.2406196;23.725000381469727;1673293821.135371;18.308765411376953;2.9470627307891846;91.8260269165039
128;1673293821.1922536;47.1306425;7.2406196;24.125001907348633;1673293821.3308344;18.27303123474121;0.22482380270957947;91.40050506591797
129;1673293821.3904026;47.130642599999995;7.240619499999999;24.522001266479492;1673293821.5263565;18.33838653564453;-0.4556350111961365;91.22557067871094
130;1673293821.5820165;47.130642599999995;7.240619499999999;24.91200065612793;1673293821.7191844;18.495590209960938;2.6985349655151367;91.69535827636719
131;1673293821.7787194;47.130642599999995;7.240619499999999;25.302001953125;1673293821.9172251;18.486183166503906;0.02610022760927677;91.375
132;1673293821.9774804;47.130642599999995;7.240619499999999;25.696001052856445;1673293822.1224554;18.44652557373047;-0.8413212299346924;91.17035675048828
133;1673293822.1841395;47.130642599999995;7.2406196;26.095001220703125;1673293822.328227;18.448698043823242;3.015872001647949;91.69515228271484
134;1673293822.3927026;47.1306428;7.2406196;26.49300193786621;1673293822.5411377;18.415552139282227;1.6607509851455688;91.47672271728516
135;1673293822.604762;47.1306429;7.2406196;26.88800048828125;1673293822.741726;18.48304557800293;-0.5518777966499329;91.13610076904297
136;1673293822.8025486;47.1306429;7.2406196;27.283000946044922;1673293822.9341488;18.681840896606445;2.3924641609191895;91.64813232421875
137;1673293822.9969246;47.1306428;7.2406196;27.679000854492188;1673293823.1576364;18.481584548950195;2.0298914909362793;91.62687683105469
138;1673293823.2196019;47.130642699999996;7.2406197;28.07400131225586;1673293823.3696833;18.636428833007812;-1.0649827718734741;91.11921691894531
139;1673293823.446479;47.130642699999996;7.2406197;28.47500228881836;1673293823.5789773;18.485912322998047;2.17085599899292;91.57940673828125
140;1673293823.640139;47.130642699999996;7.2406197;28.875001907348633;1673293823.7930338;18.56680679321289;2.095949411392212;91.6549072265625
141;1673293823.8534236;47.130642699999996;7.2406197;29.273000717163086;1673293823.9725165;18.653242111206055;-1.2515618801116943;91.14109802246094
142;1673293824.0299459;47.130642599999995;7.2406197;29.66900062561035;1673293824.181428;18.548439025878906;1.3485941886901855;91.54750061035156
143;1673293824.242007;47.1306425;7.240619799999999;30.06300163269043;1673293824.3668973;18.583528518676758;2.189959764480591;91.6738510131836
144;1673293824.4276707;47.1306424;7.240619799999999;30.455001831054688;1673293824.5677288;18.571762084960938;-1.4216312170028687;91.12532806396484
145;1673293824.6373851;47.1306424;7.240619799999999;30.852001190185547;1673293824.7669358;18.644405364990234;1.3175755739212036;91.44126892089844
146;1673293824.818229;47.1306425;7.240619799999999;31.250001907348633;1673293824.9499638;18.441829681396484;2.5792953968048096;91.61103057861328
147;1673293825.0097053;47.130642599999995;7.240619799999999;31.644001007080078;1673293825.1501513;18.50405502319336;-0.42475730180740356;91.19649505615234
148;1673293825.2068841;47.130642599999995;7.240619799999999;32.03900146484375;1673293825.3663726;18.611215591430664;1.0566208362579346;91.35902404785156
149;1673293825.4217305;47.130642599999995;7.2406198999999996;32.4379997253418;1673293825.5413365;18.58954620361328;2.940734386444092;91.7210464477539
150;1673293825.5951052;47.130642599999995;7.2406198999999996;32.83500289916992;1673293825.7388115;18.682043075561523;-0.45429134368896484;91.20475006103516
151;1673293825.7997842;47.130642599999995;7.24062;33.22700119018555;1673293825.9520643;18.64373207092285;0.8863176107406616;91.30458068847656
152;1673293826.0185347;47.130642699999996;7.24062;33.62700271606445;1673293826.1553726;18.585708618164062;3.0799505710601807;91.64671325683594
153;1673293826.2134383;47.130642699999996;7.24062;34.03000259399414;1673293826.3623135;18.491079330444336;-0.497529000043869;91.1961441040039
154;1673293826.4321282;47.130642599999995;7.24062;34.432003021240234;1673293826.5738518;18.700836181640625;0.28314998745918274;91.32443237304688
155;1673293826.6392815;47.130642599999995;7.24062;34.83500289916992;1673293826.770953;18.581077575683594;3.1432297229766846;91.7470474243164
156;1673293826.830273;47.130642599999995;7.24062;35.237003326416016;1673293826.9716234;18.517513275146484;-0.3904759883880615;91.22564697265625
157;1673293827.029834;47.130642599999995;7.24062;35.63500213623047;1673293827.1728632;18.637117385864258;0.20102559030056;91.24629211425781
158;1673293827.2347097;47.130642699999996;7.24062;36.040000915527344;1673293827.3695426;18.48105812072754;3.3060035705566406;91.77615356445312
159;1673293827.430896;47.1306428;7.24062;36.445003509521484;1673293827.5712416;18.53549575805664;0.5624075531959534;91.42244720458984
160;1673293827.6554308;47.1306428;7.24062;36.85200119018555;1673293827.811532;18.55867576599121;-0.17090299725532532;91.22881317138672
161;1673293827.8662508;47.130642699999996;7.24062;37.255001068115234;1673293827.9790397;18.650917053222656;3.148270606994629;91.74463653564453
162;1673293828.0303497;47.130642699999996;7.2406201;37.65700149536133;1673293828.1577547;18.654300689697266;1.1692237854003906;91.50376892089844
163;1673293828.2134814;47.1306428;7.2406201;38.05600357055664;1673293828.3684287;18.673934936523438;-0.47759565711021423;91.1382064819336
164;1673293828.4303777;47.1306428;7.2406201;38.45100021362305;1673293828.5666134;18.633302688598633;3.1086061000823975;91.62411499023438
165;1673293828.6212835;47.1306428;7.2406201;38.849002838134766;1673293828.7494607;18.57513999938965;1.7674837112426758;91.52064514160156
166;1673293828.8071613;47.1306428;7.2406201;39.24800109863281;1673293828.9479814;18.627037048339844;-0.6229480504989624;91.20903015136719
167;1673293829.0114248;47.130642699999996;7.2406201;39.64900207519531;1673293829.1873083;18.634828567504883;2.1670634746551514;91.59339904785156
168;1673293829.24844;47.130642699999996;7.2406201;40.051002502441406;1673293829.4003952;18.499921798706055;2.2574799060821533;91.58833312988281
169;1673293829.4588764;47.130642699999996;7.2406201;40.44700241088867;1673293829.6043499;18.596019744873047;-0.8035598397254944;91.17671966552734
170;1673293829.676857;47.130642699999996;7.2406201;40.84100341796875;1673293829.8161182;18.711578369140625;2.0151207447052;91.4898452758789
171;1673293829.8856132;47.130642699999996;7.2406201;41.24100112915039;1673293830.0102751;18.655092239379883;2.5077624320983887;91.64383697509766
172;1673293830.0670617;47.130642599999995;7.2406201;41.64500045776367;1673293830.1993175;18.594207763671875;-0.6048938632011414;91.20234680175781
173;1673293830.272233;47.130642599999995;7.2406201;42.05000305175781;1673293830.40175;18.711931228637695;0.9394492506980896;91.4351577758789
174;1673293830.4639552;47.1306425;7.24062;42.45500183105469;1673293830.5951993;18.607545852661133;2.980741262435913;91.75494384765625
175;1673293830.6505075;47.1306425;7.24062;42.85900115966797;1673293830.7750823;18.619522094726562;-0.3578105866909027;91.1894302368164
176;1673293830.8293593;47.1306425;7.24062;43.26100158691406;1673293830.9630837;18.567136764526367;0.7351714968681335;91.34806823730469
177;1673293831.0209236;47.1306425;7.24062;43.65800094604492;1673293831.1776705;18.63010597229004;2.993985414505005;91.68314361572266
178;1673293831.2340708;47.1306425;7.24062;44.060001373291016;1673293831.3725288;18.510847091674805;-0.11296578496694565;91.26800537109375
179;1673293831.4335928;47.1306424;7.2406198999999996;44.4640007019043;1673293831.5640674;18.578218460083008;-0.11156380921602249;91.2638168334961
180;1673293831.6219401;47.1306424;7.2406198999999996;44.86600112915039;1673293831.7583644;18.510831832885742;2.948462724685669;91.78074645996094
181;1673293831.8237953;47.1306425;7.2406198999999996;45.26700210571289;1673293831.9613473;18.517091751098633;0.5168727040290833;91.37869262695312
182;1673293832.0144203;47.1306425;7.2406198999999996;45.663002014160156;1673293832.1542554;18.517452239990234;-0.1305692046880722;91.24361419677734
183;1673293832.222216;47.1306425;7.2406198999999996;46.057003021240234;1673293832.3554378;18.576675415039062;3.3676819801330566;91.76838684082031
184;1673293832.423928;47.130642599999995;7.2406198999999996;46.45600128173828;1673293832.5585976;18.364059448242188;0.923531711101532;91.49527740478516
185;1673293832.6232505;47.1306425;7.2406198999999996;46.858001708984375;1673293832.777689;18.60232925415039;-0.5815500617027283;91.24557495117188
186;1673293832.84373;47.1306425;7.2406198999999996;47.26100158691406;1673293832.9761846;18.453889846801758;3.097146987915039;91.70916748046875
187;1673293833.0339584;47.130642599999995;7.2406198999999996;47.66400146484375;1673293833.1610422;18.39344596862793;1.7289469242095947;91.5252685546875
188;1673293833.2180202;47.130642599999995;7.2406198999999996;48.06200408935547;1673293833.3531437;18.622459411621094;-0.5765770077705383;91.16068267822266
189;1673293833.4119852;47.130642599999995;7.24062;48.42100143432617;1673293833.554839;18.47627830505371;2.8429362773895264;91.67864990234375
190;1673293833.6226432;47.130642599999995;7.2406201;48.72300338745117;1673293833.7722485;18.488468170166016;1.3892064094543457;91.37349700927734
191;1673293833.8393118;47.130642599999995;7.2406204;48.98400115966797;1673293833.9849615;18.886762619018555;-1.079156517982483;90.91075897216797
192;1673293834.0429678;47.130642599999995;7.2406207;49.207000732421875;1673293834.1940403;21.261463165283203;4.293314456939697;91.5200424194336
193;1673293834.2534664;47.130642599999995;7.240621099999999;49.39800262451172;1673293834.3908465;30.617420196533203;-1.1520185470581055;87.03610229492188
194;1673293834.4480095;47.130642599999995;7.240621;49.544002532958984;1673293834.5684078;16.550601959228516;-0.9109260439872742;76.73280334472656
195;1673293834.6279614;47.130642599999995;7.240620799999999;49.592002868652344;1673293834.7762332;20.294580459594727;-1.4077703952789307;65.68521881103516
196;1673293834.8431518;47.1306423;7.2406209;49.59400177001953;1673293834.9861765;33.61402130126953;-8.128867149353027;55.21772003173828
197;1673293835.0432441;47.1306416;7.2406206;49.617000579833984;1673293835.1772234;21.56416130065918;-11.53432559967041;47.044979095458984
198;1673293835.2366748;47.130640299999996;7.2406196;49.660003662109375;1673293835.373997;13.024307250976562;-13.14181900024414;38.090267181396484
199;1673293835.441088;47.130638999999995;7.2406185;49.708003997802734;1673293835.5711262;13.382149696350098;-15.38089656829834;28.955522537231445
200;1673293835.632136;47.130637799999995;7.2406175;49.75300216674805;1673293835.7690594;6.060698509216309;-17.624128341674805;19.79444122314453
201;1673293835.8320827;47.130636599999995;7.2406166;49.7910041809082;1673293835.9850414;1.4085756540298462;-18.886903762817383;9.68914794921875
202;1673293836.0463183;47.1306357;7.2406158;49.81800079345703;1673293836.1861598;-1.841781735420227;-20.26427459716797;-0.012752147391438484
203;1673293836.2402036;47.130635;7.240615099999999;49.83700180053711;1673293836.3741446;-4.797898769378662;-20.9908390045166;-9.19814682006836
204;1673293836.4386728;47.1306346;7.2406144999999995;49.85900115966797;1673293836.5832095;-7.561233997344971;-19.571985244750977;-17.98406219482422
205;1673293836.6440434;47.1306343;7.2406139;49.88100051879883;1673293836.7811303;-10.181340217590332;-17.035186767578125;-26.639108657836914
206;1673293836.853426;47.130634099999995;7.240613499999999;49.900001525878906;1673293836.9990695;-12.301030158996582;-14.064542770385742;-35.04523468017578
207;1673293837.0573409;47.130634099999995;7.2406131;49.91100311279297;1673293837.1940806;-13.808767318725586;-12.951759338378906;-43.39320373535156
208;1673293837.274487;47.130634099999995;7.2406127;49.91400146484375;1673293837.412054;-14.666897773742676;-12.712675094604492;-50.63288116455078
209;1673293837.4649816;47.130634099999995;7.2406124;49.915000915527344;1673293837.6064277;-14.422971725463867;-14.148167610168457;-50.26477813720703
210;1673293837.6611526;47.130634099999995;7.240612199999999;49.928001403808594;1673293837.791311;-13.728778839111328;-16.552013397216797;-47.11363983154297
211;1673293837.8508558;47.130634099999995;7.240612;49.945003509521484;1673293837.9974446;-13.807616233825684;-17.23316764831543;-45.47047805786133
212;1673293838.0669785;47.130634;7.2406118;49.96000289916992;1673293838.1983457;-14.261686325073242;-15.606590270996094;-44.97764205932617
213;1673293838.253141;47.1306339;7.240611599999999;49.97200393676758;1673293838.4047537;-14.321060180664062;-13.047741889953613;-45.05586242675781
214;1673293838.471644;47.1306338;7.2406114;49.98100280761719;1673293838.5904117;-13.886711120605469;-12.350642204284668;-44.95348358154297
215;1673293838.6489727;47.1306338;7.2406112;49.983001708984375;1673293838.7938402;-12.747567176818848;-14.256693840026855;-44.33940505981445
216;1673293838.8535705;47.1306338;7.2406109999999995;49.97800064086914;1673293838.9890678;-11.949645042419434;-17.094343185424805;-43.847076416015625
217;1673293839.05473;47.1306338;7.2406109;49.97800064086914;1673293839.1768553;-12.188279151916504;-18.19293975830078;-43.884193420410156
218;1673293839.229599;47.1306337;7.2406108;49.980003356933594;1673293839.3611495;-14.436495780944824;-16.828523635864258;-44.285255432128906
219;1673293839.421391;47.130633599999996;7.240610599999999;49.98200225830078;1673293839.5726645;-34.232723236083984;-14.893654823303223;-44.918296813964844
220;1673293839.637272;47.1306338;7.240609999999999;49.996002197265625;1673293839.780686;-49.39936447143555;-8.547683715820312;-47.15898895263672
221;1673293839.8441916;47.1306351;7.2406076;50.01400375366211;1673293839.9733667;-58.11677932739258;-4.943153381347656;-48.84993362426758
222;1673293840.0352635;47.130638499999996;7.2406026;50.02000427246094;1673293840.1793818;-56.95022201538086;-4.6288933753967285;-50.359039306640625
223;1673293840.2359927;47.130644;7.2405949;50.025001525878906;1673293840.3632884;-57.24510955810547;-3.565310001373291;-51.90970993041992
224;1673293840.4201627;47.1306514;7.240584699999999;50.03200149536133;1673293840.5520751;-56.10624694824219;-3.581350564956665;-51.2208366394043
225;1673293840.6113045;47.130660299999995;7.2405725;50.03000259399414;1673293840.7463212;-53.75678253173828;-5.578820705413818;-49.790855407714844
226;1673293840.8052053;47.1306704;7.2405586;50.01700210571289;1673293840.9535103;-55.091400146484375;-6.252020359039307;-49.233558654785156
227;1673293841.021181;47.130681499999994;7.240543199999999;50.00400161743164;1673293841.1821003;-53.580169677734375;-4.8150248527526855;-49.33447265625
228;1673293841.2403603;47.1306936;7.240526699999999;49.97700119018555;1673293841.3779392;-50.53317642211914;-6.008697032928467;-48.86634063720703
229;1673293841.4367847;47.1307063;7.2405094;49.94400405883789;1673293841.5843334;-48.93777847290039;-5.446834087371826;-50.78584671020508
230;1673293841.643325;47.1307194;7.2404915;49.919002532958984;1673293841.777127;-48.174156188964844;-4.580320358276367;-50.999698638916016
231;1673293841.8331933;47.130732699999996;7.240473199999999;49.89600372314453;1673293841.9702864;-48.246028900146484;-5.681437969207764;-50.205284118652344
232;1673293842.0265024;47.1307464;7.240454499999999;49.887001037597656;1673293842.1823282;-48.883148193359375;-6.484734058380127;-49.93574142456055
233;1673293842.2411084;47.1307603;7.2404357;49.887001037597656;1673293842.3750422;-49.122920989990234;-6.824179649353027;-50.09421920776367
234;1673293842.446051;47.1307742;7.2404166;49.88600158691406;1673293842.5820386;-48.92788314819336;-7.053744316101074;-50.21815872192383
235;1673293842.6470184;47.1307881;7.240397199999999;49.88100051879883;1673293842.7840712;-47.7650146484375;-6.906497955322266;-50.43372344970703
236;1673293842.852633;47.1308022;7.2403775999999995;49.88100051879883;1673293842.9981859;-47.213043212890625;-8.01176929473877;-50.265655517578125
237;1673293843.0580173;47.1308162;7.240357899999999;49.88900375366211;1673293843.2131155;-47.679290771484375;-9.877806663513184;-50.04899215698242
238;1673293843.2701545;47.1308301;7.2403379;49.90300369262695;1673293843.4000545;-47.871925354003906;-11.629831314086914;-50.20818328857422
239;1673293843.4582314;47.130843899999995;7.2403176;49.92100143432617;1673293843.5837724;-48.307579040527344;-9.285035133361816;-51.512657165527344
240;1673293843.6323109;47.130857299999995;7.240297;49.941001892089844;1673293843.7539918;-49.00523376464844;-7.480883598327637;-51.66816711425781
241;1673293843.8168864;47.130870699999996;7.240276199999999;49.9530029296875;1673293843.9451375;-45.86323547363281;-10.974766731262207;-50.958595275878906
242;1673293844.0031233;47.1308839;7.2402552;49.970001220703125;1673293844.1511738;-20.278526306152344;-7.217954635620117;-52.121585845947266
243;1673293844.2190113;47.1308966;7.2402349;50.00700378417969;1673293844.3552241;25.429994583129883;-0.13546408712863922;-49.93291091918945
244;1673293844.420134;47.130908;7.2402178;49.999000549316406;1673293844.5600863;27.707162857055664;6.527153015136719;-54.21646499633789
245;1673293844.626213;47.130918;7.2402045;49.76300048828125;1673293844.7757578;16.94193458557129;2.038221836090088;-49.6967887878418
246;1673293844.84782;47.1309262;7.2401959;49.42500305175781;1673293844.9974148;14.765010833740234;1.6057898998260498;-48.47909164428711
247;1673293845.0502791;47.1309326;7.2401918;49.124000549316406;1673293845.2002914;13.663422584533691;0.21335160732269287;-48.271636962890625
248;1673293845.256393;47.1309373;7.2401918;48.93800354003906;1673293845.3913026;12.996379852294922;-2.192065715789795;-48.336524963378906
249;1673293845.4561152;47.1309407;7.2401952;48.932003021240234;1673293845.592197;36.75844192504883;-9.478029251098633;-48.812034606933594
250;1673293845.6536422;47.1309423;7.2402017;49.05500411987305;1673293845.795378;41.69083023071289;-14.250102043151855;-46.544227600097656
251;1673293845.855485;47.1309416;7.2402114;49.19400405883789;1673293845.97615;37.88315200805664;-19.08717155456543;-45.160728454589844
252;1673293846.032328;47.1309385;7.2402237;49.3380012512207;1673293846.1708105;25.567808151245117;-23.55647850036621;-45.55039978027344
253;1673293846.228566;47.130933399999996;7.2402372999999995;49.47200393676758;1673293846.3677266;12.882793426513672;-15.828633308410645;-45.9283561706543
254;1673293846.4288228;47.130927299999996;7.240251199999999;49.53300094604492;1673293846.5660903;-5.96492338180542;14.327234268188477;-48.580562591552734
255;1673293846.6272347;47.130921099999995;7.240265;49.25300216674805;1673293846.7615821;-24.22368049621582;51.87297058105469;-62.77632522583008
256;1673293846.8226345;47.1309148;7.2402789;48.59400177001953;1673293846.9677835;-30.82810401916504;91.88919830322266;-86.19578552246094
257;1673293847.0268946;47.130908299999994;7.2402929;47.557003021240234;1673293847.1709492;-26.493610382080078;119.18041229248047;-105.34202575683594
258;1673293847.2360487;47.130901699999995;7.2403068;46.1510009765625;1673293847.362578;-21.805618286132812;126.1646499633789;-115.12728881835938
259;1673293847.4207475;47.1308953;7.2403207;44.38300323486328;1673293847.566962;-21.639476776123047;112.78721618652344;-117.28781127929688
260;1673293847.6319416;47.1308891;7.2403344999999995;42.243003845214844;1673293847.785034;-23.044719696044922;74.64482116699219;-109.29727935791016
261;1673293847.8496284;47.130883;7.2403483;39.7400016784668;1673293847.984896;-13.36702823638916;18.64005470275879;-95.7741470336914
262;1673293848.0510101;47.130876699999995;7.240362299999999;36.871002197265625;1673293848.1965685;8.349221229553223;-36.22818374633789;-94.80321502685547
263;1673293848.2591574;47.1308705;7.2403764;33.608001708984375;1673293848.4343288;22.97682762145996;-69.30389404296875;-104.6995620727539
264;1673293848.4874258;47.1308647;7.2403904;29.992000579833984;1673293848.6181846;29.00843048095703;-65.99934387207031;-107.13714599609375
265;1673293848.674651;47.130859099999995;7.2404043;26.051000595092773;1673293848.8035173;23.689311981201172;-21.774980545043945;-95.63011169433594
266;1673293848.8534853;47.130853699999996;7.240418;21.766000747680664;1673293848.9891088;0.4890081584453583;36.709320068359375;-93.22942352294922
267;1673293849.0453248;47.1308485;7.240431399999999;17.07400131225586;1673293849.2504313;-18.37944984436035;75.38978576660156;-107.46490478515625
268;1673293849.29829;47.130843;7.2404449;12.017000198364258;1673293849.4569407;-27.80317497253418;69.28477478027344;-112.16673278808594
269;1673293849.5260265;47.130837299999996;7.240458599999999;6.657000541687012;1673293849.6622825;-21.731203079223633;14.505367279052734;-95.28560638427734
270;1673293849.7110863;47.130831199999996;7.2404727;0.9630000591278076;1673293849.830282;24.463844299316406;-8.074539184570312;-101.05020904541016
271;1673293849.917681;47.1308266;7.2404760999999995;0.3140000104904175;1673293850.0718539;48.63324737548828;-9.345141410827637;-113.47852325439453
272;1673293850.1464407;47.1308211;7.2404728;0.45000001788139343;1673293850.2443068;44.70917892456055;-10.282676696777344;-113.69058990478516
273;1673293850.2970252;47.130815399999996;7.240467499999999;0.5430000424385071;1673293850.4237993;27.40846824645996;-8.40103530883789;-109.65547943115234
274;1673293850.4908597;47.130809899999996;7.240462699999999;0.5910000205039978;1673293850.6169512;7.602270126342773;-6.574779033660889;-106.3998031616211
275;1673293850.6728313;47.1308054;7.240460799999999;0.581000030040741;1673293850.809109;10.335139274597168;-6.034759521484375;-106.65774536132812
276;1673293850.8600466;47.1308018;7.2404611999999995;0.5550000071525574;1673293850.9796915;11.178285598754883;-4.47117280960083;-106.10708618164062
277;1673293851.0330496;47.1307993;7.240463399999999;0.527999997138977;1673293851.1694891;11.38675594329834;-4.284694671630859;-105.83716583251953
278;1673293851.2325685;47.130797799999996;7.240467199999999;0.5020000338554382;1673293851.365867;11.544108390808105;-3.991391658782959;-105.4735107421875
279;1673293851.425993;47.130797199999996;7.2404722999999995;0.47700002789497375;1673293851.5700192;11.685254096984863;-3.8388445377349854;-105.10142517089844
280;1673293851.63009;47.1307968;7.2404782999999995;0.45100003480911255;1673293851.7731426;11.672236442565918;-3.874901533126831;-104.92659759521484
281;1673293851.8274868;47.1307962;7.2404847;0.42900002002716064;1673293851.9735327;11.786770820617676;-3.787055015563965;-104.56246185302734
282;1673293852.036648;47.130797199999996;7.2404917;0.40400001406669617;1673293852.1821363;11.866992950439453;-3.6380317211151123;-104.21376037597656
283;1673293852.2410748;47.130798999999996;7.240499;0.37800002098083496;1673293852.4055102;11.867630004882812;-3.4545905590057373;-103.96781921386719
284;1673293852.470466;47.1308011;7.2405062;0.35200002789497375;1673293852.6057022;11.811126708984375;-3.314978837966919;-103.72288513183594
285;1673293852.6677344;47.130803199999995;7.240513099999999;0.32500001788139343;1673293852.80107;11.735199928283691;-3.263951063156128;-103.55458068847656
286;1673293852.8954344;47.1308047;7.240520399999999;0.289000004529953;1673293853.0349052;11.658668518066406;-3.1877050399780273;-103.45367431640625
287;1673293853.093997;47.1308055;7.2405278;0.24700000882148743;1673293853.2209682;11.45151138305664;-2.967747449874878;-103.32440185546875
288;1673293853.2781134;47.1308071;7.2405335;0.2120000123977661;1673293853.4136906;11.27706241607666;-2.8277382850646973;-103.24373626708984
289;1673293853.4737618;47.1308088;7.2405383;0.18200001120567322;1673293853.6331372;11.071078300476074;-2.7864890098571777;-103.13519287109375
290;1673293853.6995735;47.1308106;7.2405425;0.1510000079870224;1673293853.8316426;10.844148635864258;-2.756760358810425;-103.08260345458984
291;1673293853.8956063;47.1308122;7.2405463;0.1210000067949295;1673293854.041961;10.64089298248291;-2.746973991394043;-103.03064727783203
292;1673293854.0981512;47.1308137;7.2405497;0.09100000560283661;1673293854.223293;10.369109153747559;-2.7420835494995117;-103.00022888183594
293;1673293854.2844334;47.130814799999996;7.240554299999999;0.05700000375509262;1673293854.4032657;10.3375244140625;-2.840339183807373;-102.94987487792969
294;1673293854.4532993;47.130814699999995;7.240563799999999;0.006000000052154064;1673293854.5891514;10.298928260803223;-2.960941791534424;-102.88978576660156
295;1673293854.6433792;47.1308139;7.240576399999999;-0.03800000250339508;1673293854.7778406;10.250701904296875;-3.026853561401367;-102.85033416748047
296;1673293854.8398855;47.1308128;7.2405909;-0.08100000023841858;1673293854.9702916;10.227869987487793;-3.107309341430664;-102.79814910888672
297;1673293855.0304236;47.1308116;7.240606799999999;-0.12300000339746475;1673293855.1619327;10.158438682556152;-3.1694369316101074;-102.7379150390625
298;1673293855.2244642;47.1308103;7.2406238;-0.16600000858306885;1673293855.3613572;10.10479736328125;-3.2266719341278076;-102.6780014038086
299;1673293855.4249525;47.130809;7.240641699999999;-0.21800000965595245;1673293855.5694354;10.018431663513184;-3.2469820976257324;-102.6246109008789
300;1673293855.6354246;47.1308078;7.2406605;-0.2760000228881836;1673293855.7772682;9.953524589538574;-3.2933614253997803;-102.59088897705078
301;1673293855.8433256;47.1308065;7.240679999999999;-0.320000022649765;1673293855.9794035;9.874654769897461;-3.3445749282836914;-102.5440902709961
302;1673293856.0362494;47.1308053;7.2407001;-0.3540000021457672;1673293856.1725566;9.785717010498047;-3.36519193649292;-102.51818084716797
303;1673293856.2379937;47.1308041;7.240721;-0.38100001215934753;1673293856.3702705;9.687446594238281;-3.3434879779815674;-102.4704818725586
304;1673293856.4302561;47.130803;7.2407425;-0.406000018119812;1673293856.5632453;9.574640274047852;-3.31195330619812;-102.43424224853516
305;1673293856.6265488;47.130801899999994;7.2407647;-0.42600002884864807;1673293856.773497;9.560017585754395;-3.2827775478363037;-102.40850830078125
306;1673293856.8370228;47.130800799999996;7.2407879;-0.44200003147125244;1673293856.9796057;9.477368354797363;-3.2835307121276855;-102.35629272460938
307;1673293857.0354183;47.130799599999996;7.2408122;-0.4830000102519989;;;;
