;pos_time;latitude;longitude;altitude;alt_time;pitch;roll;yaw
0;1673292342.2143433;47.1306424;7.240619799999999;-0.023000001907348633;1673292342.2927673;0.050105851143598557;-0.06836578249931335;90.24441528320312
1;1673292342.4134603;47.1306424;7.240619799999999;-0.023000001907348633;1673292342.4808517;0.03336482122540474;-0.3265896439552307;90.19033813476562
2;1673292342.6116986;47.1306423;7.2406198999999996;-0.021000001579523087;1673292342.690192;-0.03471139445900917;-0.1228572353720665;90.23324584960938
3;1673292342.8206656;47.1306423;7.24062;-0.021000001579523087;1673292342.9219077;-0.08844587206840515;-0.10040155053138733;90.24311065673828
4;1673292343.044502;47.1306424;7.2406201999999995;-0.017000000923871994;1673292343.1141365;-0.03439255803823471;-0.17553064227104187;90.268798828125
5;1673292343.2508066;47.1306424;7.2406201999999995;-0.015000000596046448;1673292343.329288;0.057764120399951935;-0.17226757109165192;90.28694152832031
6;1673292343.427451;47.1306424;7.2406201;-0.014000000432133675;1673292343.4929316;0.254535973072052;-0.09083014726638794;90.31211853027344
7;1673292343.611674;47.1306425;7.24062;-0.01600000075995922;1673292343.6854231;0.02634315937757492;-0.256324827671051;90.185546875
8;1673292343.8040907;47.1306425;7.2406198999999996;-0.01600000075995922;1673292343.8788526;0.14852385222911835;-0.18404972553253174;90.28568267822266
9;1673292344.0144072;47.1306425;7.2406198999999996;-0.014000000432133675;1673292344.093838;0.14158503711223602;-0.1777333915233612;90.32132720947266
10;1673292344.2186468;47.1306425;7.2406198999999996;-0.009000000543892384;1673292344.2866595;0.007387769874185324;-0.12688767910003662;90.19401550292969
11;1673292344.4025264;47.1306425;7.2406198999999996;-0.005000000353902578;1673292344.4819074;-0.13347923755645752;-0.18136270344257355;90.24275970458984
12;1673292344.606146;47.1306424;7.24062;-0.0020000000949949026;1673292344.6819935;0.18515552580356598;0.010279161855578423;90.1274642944336
13;1673292344.8047278;47.1306424;7.24062;-0.0010000000474974513;1673292344.8787441;0.13849997520446777;-0.30240580439567566;90.28316497802734
14;1673292345.0220375;47.1306424;7.2406198999999996;0.0;1673292345.096256;0.020049065351486206;-0.10765068978071213;90.20035552978516
15;1673292345.2867723;47.1306424;7.240619799999999;-0.0010000000474974513;1673292345.3546596;0.3299185633659363;0.026892848312854767;90.08768463134766
16;1673292345.5031412;47.1306424;7.2406198999999996;-0.0010000000474974513;1673292345.5935566;0.3177563548088074;-0.228046715259552;90.15703582763672
17;1673292345.7215774;47.1306425;7.2406198999999996;-0.0020000000949949026;1673292345.7887785;0.2464410811662674;-0.04514051601290703;90.32572937011719
18;1673292345.9200127;47.1306425;7.2406198999999996;0.0;1673292345.9805596;0.24313385784626007;-0.19719259440898895;90.40716552734375
19;1673292346.0846965;47.1306424;7.2406198999999996;0.003000000026077032;1673292346.1549633;0.45678606629371643;0.10320360213518143;90.38026428222656
20;1673292346.277969;47.1306425;7.2406198999999996;0.003000000026077032;1673292346.334767;0.2856299877166748;0.05265170708298683;90.3586654663086
21;1673292346.438517;47.1306425;7.2406198999999996;0.003000000026077032;1673292346.5005558;0.27893438935279846;0.13776475191116333;90.34722137451172
22;1673292346.6214712;47.1306425;7.2406198999999996;0.0;1673292346.6947017;0.2553924322128296;-0.16848547756671906;90.46561431884766
23;1673292346.8256147;47.1306425;7.2406201;-0.0010000000474974513;1673292346.921777;0.6243190765380859;0.07409142702817917;90.4195556640625
24;1673292347.0471733;47.1306424;7.24062;-0.0020000000949949026;1673292347.1200805;0.4523206055164337;-0.38654571771621704;90.48291778564453
25;1673292347.246423;47.1306424;7.24062;-0.0010000000474974513;1673292347.318652;1.5630966424942017;-0.27462849020957947;90.60478210449219
26;1673292347.437772;47.1306424;7.2406198999999996;0.0010000000474974513;1673292347.5186687;2.6077640056610107;-0.12722887098789215;90.41764831542969
27;1673292347.64057;47.1306424;7.2406198999999996;0.0010000000474974513;1673292347.7194924;3.252009630203247;-0.2654944360256195;90.66932678222656
28;1673292347.8417978;47.1306424;7.240619799999999;0.005000000353902578;1673292347.909437;4.816163063049316;-0.16170041263103485;90.70510864257812
29;1673292348.0357487;47.1306424;7.2406197;0.010000000707805157;1673292348.1107743;6.328911304473877;-0.17760036885738373;91.12853240966797
30;1673292348.2386339;47.1306423;7.2406191;0.004000000189989805;1673292348.3227706;-0.7495986819267273;-0.3201161324977875;91.71640014648438
31;1673292348.4660854;47.1306423;7.2406172;0.015000000596046448;1673292348.5377407;-3.769261360168457;-0.5517977476119995;90.51774597167969
32;1673292348.6916273;47.1306422;7.2406143;0.027000000700354576;1673292348.79371;-10.336477279663086;1.461442232131958;91.697021484375
33;1673292348.8998218;47.1306422;7.240610599999999;0.04100000113248825;1673292348.9627898;-16.30415153503418;-2.014833450317383;91.80656433105469
34;1673292349.0747316;47.130642099999996;7.240606199999999;0.06200000271201134;1673292349.1455934;-16.437898635864258;-2.1490275859832764;91.51583099365234
35;1673292349.2580085;47.1306419;7.2406011999999995;0.09100000560283661;1673292349.32165;-17.27529525756836;0.05452001839876175;90.53340911865234
36;1673292349.4340196;47.1306418;7.2405956;0.12600000202655792;1673292349.509717;-18.627513885498047;-1.0468251705169678;90.69269561767578
37;1673292349.6395924;47.1306417;7.2405897999999995;0.15800000727176666;1673292349.7048795;-20.29954719543457;-2.36454701423645;90.99868774414062
38;1673292349.8185143;47.1306417;7.2405839;0.19300000369548798;1673292349.887607;-22.20822525024414;-0.5126335620880127;90.38843536376953
39;1673292350.018375;47.1306417;7.2405782;0.22800001502037048;1673292350.0935812;-24.21377182006836;-0.522011935710907;90.2542953491211
40;1673292350.219321;47.1306416;7.240572599999999;0.2670000195503235;1673292350.2980862;-26.260547637939453;-1.682962417602539;90.55198669433594
41;1673292350.4216223;47.1306416;7.2405672999999995;0.30300000309944153;1673292350.4974847;-28.35346221923828;-0.7125148773193359;90.17882537841797
42;1673292350.6330729;47.130641499999996;7.240562499999999;0.3330000042915344;1673292350.7166705;-30.503232955932617;-0.3688412308692932;89.97869110107422
43;1673292350.8555403;47.130641499999996;7.240558399999999;0.3620000183582306;1673292350.9339612;-32.64016342163086;-1.3290188312530518;90.22525787353516
44;1673292351.046446;47.130641499999996;7.2405551;0.3920000195503235;1673292351.1194456;-34.85491180419922;-0.7713038921356201;90.06556701660156
45;1673292351.2430508;47.130641499999996;7.2405528;0.4190000295639038;1673292351.3454053;-37.01702117919922;-0.510498046875;89.87123107910156
46;1673292351.481149;47.130641499999996;7.2405516;0.4400000274181366;1673292351.5594652;-39.186214447021484;-1.273410677909851;90.1032943725586
47;1673292351.6695714;47.130641499999996;7.2405516;0.46700000762939453;1673292351.740007;-41.39131164550781;-0.9177353382110596;89.92376708984375
48;1673292351.8587906;47.130641499999996;7.2405529;0.49000000953674316;1673292351.925351;-43.56587600708008;-0.7741578817367554;89.74860382080078
49;1673292352.041243;47.130641499999996;7.240555499999999;0.5139999985694885;1673292352.109076;-45.789772033691406;-0.9917470216751099;89.8279800415039
50;1673292352.2201197;47.1306416;7.2405596;0.5370000004768372;1673292352.2934682;-47.87822723388672;-1.0803649425506592;89.77204132080078
51;1673292352.4257033;47.1306417;7.2405653999999995;0.5520000457763672;1673292352.4945672;-44.78721618652344;-0.8020871877670288;89.65247344970703
52;1673292352.6191993;47.1306418;7.2405724;0.5550000071525574;1673292352.704759;-40.098876953125;-0.7422248721122742;89.61056518554688
53;1673292352.8339922;47.1306419;7.2405801;0.5640000104904175;1673292352.913595;-34.9571647644043;-0.4864662289619446;89.4576416015625
54;1673292353.0500782;47.130641999999995;7.240587799999999;0.5940000414848328;1673292353.1278436;-29.98484230041504;-0.4692123532295227;89.34009552001953
55;1673292353.2499762;47.130642099999996;7.240595;0.6440000534057617;1673292353.330192;-25.585670471191406;-0.7490724325180054;89.44194030761719
56;1673292353.4985535;47.1306422;7.2406014;0.7080000042915344;1673292353.5723078;-21.348478317260742;-0.36221176385879517;89.3515853881836
57;1673292353.6897402;47.1306423;7.2406067;0.7710000276565552;1673292353.7565448;-19.823932647705078;-0.09116042405366898;89.25452423095703
58;1673292353.877366;47.1306423;7.2406105;0.831000030040741;1673292353.9497569;-19.510173797607422;-1.067499041557312;89.58413696289062
59;1673292354.0994492;47.1306423;7.240613;0.893000066280365;1673292354.1626384;-20.887691497802734;-1.4071601629257202;89.77201843261719
60;1673292354.3187706;47.1306422;7.240614399999999;0.9720000624656677;1673292354.39186;-22.000110626220703;0.7923861742019653;88.8319320678711
61;1673292354.497016;47.130642099999996;7.240615099999999;1.0640000104904175;1673292354.5630116;-23.748376846313477;-1.1508501768112183;89.41143035888672
62;1673292354.6670208;47.1306422;7.2406153;1.159000039100647;1673292354.7343616;-25.596729278564453;-2.295626401901245;89.99679565429688
63;1673292354.8469737;47.1306422;7.240615099999999;1.2650001049041748;1673292354.9133837;-27.760725021362305;1.3698792457580566;88.8292465209961
64;1673292355.03725;47.1306422;7.240615;1.3890000581741333;1673292355.110063;-28.582717895507812;-1.004428744316101;89.48106384277344
65;1673292355.2426882;47.1306422;7.240615;1.5220000743865967;1673292355.3140602;-29.50204849243164;-2.485470771789551;90.1857681274414
66;1673292355.4336529;47.130642099999996;7.240615099999999;1.6700000762939453;1673292355.51213;-28.807065963745117;-0.897048830986023;94.51617431640625
67;1673292355.6471097;47.1306422;7.240615399999999;1.8260000944137573;1673292355.7215512;-29.294727325439453;-1.7471975088119507;94.94055938720703
68;1673292355.8510842;47.1306423;7.2406158;1.9910000562667847;1673292355.9246771;-28.304832458496094;-2.182157278060913;95.65543365478516
69;1673292356.0380182;47.1306424;7.2406163999999995;2.1650002002716064;1673292356.115;-28.31160545349121;0.8587639331817627;94.61295318603516
70;1673292356.2439106;47.1306425;7.240616999999999;2.3450000286102295;1673292356.3189747;-27.67913246154785;-0.9876584410667419;95.24590301513672
71;1673292356.45405;47.1306425;7.2406175;2.5350000858306885;1673292356.5261421;-27.933818817138672;-1.835469126701355;95.63660430908203
72;1673292356.6823976;47.130642599999995;7.2406179999999996;2.7240002155303955;1673292356.7738338;-27.288808822631836;1.2419474124908447;94.32981872558594
73;1673292356.8814843;47.130642599999995;7.2406185999999995;2.9150002002716064;1673292356.9613235;-27.012357711791992;0.8244664072990417;94.45381164550781
74;1673292357.0703197;47.130642699999996;7.240619;3.1050002574920654;1673292357.14276;-26.797561645507812;-1.7665051221847534;95.41545104980469
75;1673292357.247999;47.130642599999995;7.2406194;3.2960002422332764;1673292357.3164384;-26.728099822998047;0.7773150205612183;94.26181030273438
76;1673292357.44151;47.1306425;7.2406196;3.492000102996826;1673292357.5182767;-26.50194549560547;-0.19370044767856598;94.2962646484375
77;1673292357.6450014;47.1306424;7.240619799999999;3.68500018119812;1673292357.7133598;-26.88456153869629;-2.841967821121216;95.32546997070312
78;1673292357.8298967;47.1306423;7.2406198999999996;3.879000186920166;1673292357.9061482;-26.773130416870117;-0.13815832138061523;94.4692611694336
79;1673292358.034674;47.1306423;7.2406198999999996;4.075000286102295;1673292358.1118588;-27.171043395996094;0.25820183753967285;94.22689819335938
80;1673292358.2551534;47.1306423;7.2406198999999996;4.267000198364258;1673292358.333381;-27.021047592163086;-2.8179821968078613;95.31166076660156
81;1673292358.479373;47.1306424;7.2406198999999996;4.463000297546387;1673292358.555079;-27.516990661621094;-0.347434401512146;94.62429809570312
82;1673292358.674809;47.1306423;7.2406198999999996;4.659000396728516;1673292358.7779486;-27.383726119995117;0.34396201372146606;94.18404388427734
83;1673292358.8894794;47.1306423;7.24062;4.855000019073486;1673292358.9570053;-27.40987205505371;-2.7518293857574463;95.3017578125
84;1673292359.0772305;47.1306424;7.24062;5.050000190734863;1673292359.1536384;-27.31830406188965;-0.8645097613334656;94.8041763305664
85;1673292359.277096;47.1306424;7.24062;5.24500036239624;1673292359.3507547;-27.64236068725586;1.0537854433059692;93.95992279052734
86;1673292359.473471;47.1306425;7.24062;5.438000202178955;1673292359.5466437;-27.40349006652832;-1.9992799758911133;95.04214477539062
87;1673292359.6670668;47.1306425;7.2406201;5.630000114440918;1673292359.7363782;-27.386747360229492;-1.1837215423583984;94.94965362548828
88;1673292359.8977857;47.1306425;7.2406201;5.822000503540039;1673292359.9614806;-27.165178298950195;1.0571073293685913;94.03852081298828
89;1673292360.067054;47.1306425;7.2406201999999995;6.011000156402588;1673292360.1341078;-27.416767120361328;-1.8299287557601929;95.05278778076172
90;1673292360.244441;47.1306425;7.2406201999999995;6.199000358581543;1673292360.3372114;-27.20016860961914;-2.114006757736206;95.252197265625
91;1673292360.4627311;47.130642599999995;7.2406201999999995;6.390000343322754;1673292360.541836;-27.33385467529297;1.2074421644210815;94.14640808105469
92;1673292360.6761887;47.130642599999995;7.2406203;6.581000328063965;1673292360.7606049;-27.080427169799805;-1.3947906494140625;95.0107192993164
93;1673292360.877576;47.130642599999995;7.2406204;6.773000240325928;1673292360.9471278;-27.186302185058594;-1.802890419960022;95.06539916992188
94;1673292361.0654764;47.1306425;7.2406204999999995;6.966000556945801;1673292361.1374824;-27.050086975097656;0.9053215384483337;94.07433319091797
95;1673292361.2574062;47.1306424;7.2406204999999995;7.160000324249268;1673292361.365857;-27.138181686401367;-1.1473894119262695;94.67947387695312
96;1673292361.489605;47.1306424;7.2406204999999995;7.3580002784729;1673292361.5567114;-27.111146926879883;-2.0840353965759277;95.13229370117188
97;1673292361.696384;47.1306424;7.2406206;7.557000160217285;1673292361.771148;-27.1722469329834;0.698518693447113;94.24790954589844
98;1673292361.8824263;47.1306424;7.2406204999999995;7.753000259399414;1673292361.948082;-27.316967010498047;-0.8660418391227722;94.70349884033203
99;1673292362.0634542;47.1306424;7.2406204999999995;7.952000141143799;1673292362.1276243;-27.24823760986328;-2.880661964416504;95.39269256591797
100;1673292362.2442348;47.1306423;7.2406204999999995;8.152000427246094;1673292362.3223298;-27.307498931884766;0.2616663873195648;94.26773834228516
101;1673292362.4491892;47.1306422;7.2406206;8.35200023651123;1673292362.5276191;-27.271448135375977;-0.367972731590271;94.36805725097656
102;1673292362.6603901;47.1306422;7.2406206;8.550000190734863;1673292362.7332978;-27.266977310180664;-3.081888437271118;95.39047241210938
103;1673292362.874004;47.1306423;7.2406207;8.75100040435791;1673292362.944601;-27.097492218017578;0.0021223672665655613;94.50270080566406
104;1673292363.05811;47.1306423;7.2406206;8.947000503540039;1673292363.1271787;-27.418834686279297;0.3133983314037323;94.25098419189453
105;1673292363.2505991;47.1306423;7.2406206;9.144000053405762;1673292363.327794;-27.20879364013672;-2.7141709327697754;95.26680755615234
106;1673292363.4452138;47.1306423;7.2406207;9.345000267028809;1673292363.51706;-27.290834426879883;-0.05101080611348152;94.52359771728516
107;1673292363.62905;47.1306423;7.240620799999999;9.54900074005127;1673292363.7027385;-27.16657257080078;0.33916112780570984;94.22665405273438
108;1673292363.8348281;47.1306423;7.2406209;9.75100040435791;1673292363.9304726;-27.17438316345215;-2.584993600845337;95.2708740234375
109;1673292364.0507915;47.1306424;7.240621;9.958000183105469;1673292364.1304476;-26.931604385375977;-0.5130556225776672;94.69451141357422
110;1673292364.2698135;47.1306423;7.240621099999999;10.168000221252441;1673292364.3459845;-26.57168960571289;0.733849287033081;94.10952758789062
111;1673292364.4654617;47.1306423;7.2406212;10.428000450134277;1673292364.5329125;-31.201416015625;-2.4150919914245605;95.10105895996094
112;1673292364.6642742;47.1306423;7.2406219;10.769000053405762;1673292364.7429867;-32.238739013671875;-0.8304992914199829;94.57076263427734
113;1673292364.8676572;47.1306422;7.2406232;11.15000057220459;1673292364.9462438;-27.822877883911133;0.03574305400252342;94.26449584960938
114;1673292365.071547;47.1306423;7.2406247;11.553000450134277;1673292365.150379;-25.073278427124023;-1.7002171277999878;95.11314392089844
115;1673292365.2737541;47.1306424;7.240626;11.963000297546387;1673292365.341145;-22.68415641784668;-0.6405447721481323;94.91539764404297
116;1673292365.4740825;47.1306424;7.240627;12.371000289916992;1673292365.5481575;-21.480445861816406;1.2538667917251587;94.271728515625
117;1673292365.6793516;47.1306424;7.2406272;12.77400016784668;1673292365.7602763;-21.686355590820312;-1.7985293865203857;95.2222671508789
118;1673292365.8777318;47.1306424;7.240627;13.1850004196167;1673292365.9490151;-22.337142944335938;-0.7551659345626831;94.79957580566406
119;1673292366.0871375;47.1306424;7.2406264;13.601000785827637;1673292366.1629915;-23.701581954956055;1.1200453042984009;94.06877136230469
120;1673292366.2815664;47.1306423;7.2406255999999996;14.017000198364258;1673292366.3587832;-24.837194442749023;-2.152848243713379;95.02713012695312
121;1673292366.4745984;47.1306423;7.2406247;14.440000534057617;1673292366.5542476;-25.825510025024414;-1.9048486948013306;95.03324890136719
122;1673292366.6853933;47.1306423;7.2406236999999996;14.861001014709473;1673292366.7557778;-26.9478702545166;0.8101798295974731;94.19298553466797
123;1673292366.8756514;47.1306422;7.2406229;15.281001091003418;1673292366.94495;-27.371713638305664;-1.9988658428192139;94.78193664550781
124;1673292367.0570688;47.1306422;7.2406223;15.693000793457031;1673292367.1259508;-28.005046844482422;-2.402003765106201;95.07534790039062
125;1673292367.241979;47.130642099999996;7.2406219;16.10700035095215;1673292367.3122816;-27.729694366455078;0.23192176222801208;94.28656005859375
126;1673292367.4517312;47.1306422;7.240621699999999;16.519001007080078;1673292367.5349476;-27.648454666137695;-1.1850738525390625;94.79430389404297
127;1673292367.675687;47.1306423;7.2406217999999996;16.929000854492188;1673292367.7461941;-26.949674606323242;-2.11427903175354;95.14910125732422
128;1673292367.861691;47.1306424;7.2406217999999996;17.339000701904297;1673292367.930793;-26.91657066345215;0.3930140733718872;94.35847473144531
129;1673292368.0562768;47.1306424;7.240622;17.7450008392334;1673292368.1342442;-26.320228576660156;-0.09564177691936493;94.56634521484375
130;1673292368.2538044;47.1306425;7.240622;18.145999908447266;1673292368.328296;-26.274639129638672;-2.1097910404205322;95.2981185913086
131;1673292368.4758036;47.1306425;7.2406220999999995;18.551000595092773;1673292368.5412297;-26.069948196411133;0.3532155752182007;94.5223617553711
132;1673292368.6592226;47.1306425;7.2406220999999995;18.959001541137695;1673292368.7335086;-25.963735580444336;0.35719892382621765;94.3976058959961
133;1673292368.8662484;47.130642599999995;7.2406220999999995;19.369001388549805;1673292368.9370832;-26.067428588867188;-2.091963768005371;95.27535247802734
134;1673292369.0738294;47.130642599999995;7.240622;19.77800178527832;1673292369.1420333;-26.12395668029785;0.23557673394680023;94.59854888916016
135;1673292369.266724;47.130642599999995;7.240622;20.190000534057617;1673292369.3447132;-26.097084045410156;0.6921291947364807;94.26889038085938
136;1673292369.4706464;47.130642599999995;7.2406219;20.59800148010254;1673292369.5454621;-26.201034545898438;-2.1596617698669434;95.07464599609375
137;1673292369.6905649;47.130642599999995;7.240621699999999;20.994001388549805;1673292369.7637715;-26.26568603515625;-0.4588187336921692;94.6892318725586
138;1673292369.9007506;47.1306425;7.2406216;21.394001007080078;1673292369.9698353;-26.515241622924805;0.7121846079826355;94.25060272216797
139;1673292370.080199;47.1306425;7.2406215;21.796001434326172;1673292370.1459372;-26.637372970581055;-2.073411226272583;95.2110824584961
140;1673292370.2609315;47.1306425;7.240621399999999;22.19900131225586;1673292370.3304238;-26.590757369995117;-0.8986399173736572;94.8528060913086
141;1673292370.4582987;47.1306425;7.2406213;22.601001739501953;1673292370.5423484;-26.76439666748047;0.8780634999275208;94.13809967041016
142;1673292370.674234;47.1306424;7.2406212;23.000001907348633;1673292370.7489593;-26.63303565979004;-1.7252321243286133;94.91060638427734
143;1673292370.8622756;47.1306424;7.2406212;23.392000198364258;1673292370.9332604;-26.855031967163086;-1.3859100341796875;94.93655395507812
144;1673292371.0610752;47.1306424;7.2406212;23.792001724243164;1673292371.1393445;-26.6219425201416;0.8572114706039429;94.2422103881836
145;1673292371.284993;47.1306424;7.2406212;24.19500160217285;1673292371.362105;-26.763933181762695;-1.2211652994155884;94.94007873535156
146;1673292371.487166;47.1306425;7.2406212;24.601001739501953;1673292371.5630598;-26.397323608398438;-1.6552956104278564;95.19596862792969
147;1673292371.6854331;47.1306424;7.2406213;25.005001068115234;1673292371.780512;-26.558141708374023;0.9670582413673401;94.24845886230469
148;1673292371.8856542;47.1306424;7.2406213;25.407001495361328;1673292371.9536166;-26.371469497680664;-0.8318784236907959;94.68850708007812
149;1673292372.0779881;47.1306424;7.2406212;25.81100082397461;1673292372.1493614;-26.6719970703125;-2.281942844390869;95.34455108642578
150;1673292372.2661157;47.1306424;7.240621099999999;26.20600128173828;1673292372.3405979;-26.556489944458008;0.5436350703239441;94.28802490234375
151;1673292372.4651709;47.1306424;7.240621099999999;26.608001708984375;1673292372.5377703;-26.553556442260742;0.09358885139226913;94.35456848144531
152;1673292372.6671476;47.1306425;7.240621099999999;27.01300048828125;1673292372.7456808;-26.392610549926758;-2.206559658050537;95.22770690917969
153;1673292372.875125;47.1306425;7.2406212;27.420001983642578;1673292372.9469035;-26.650440216064453;0.31044694781303406;94.47694396972656
154;1673292373.07682;47.1306424;7.2406212;27.82400131225586;1673292373.148382;-26.35820960998535;0.342002809047699;94.2878646850586
155;1673292373.2771797;47.1306425;7.2406212;28.227001190185547;1673292373.3539414;-26.647769927978516;-2.226109027862549;95.22737884521484
156;1673292373.4822288;47.1306425;7.240621099999999;28.6200008392334;1673292373.5576174;-26.429941177368164;-0.0730658546090126;94.6197509765625
157;1673292373.677202;47.1306425;7.240621;29.01500129699707;1673292373.7433617;-26.80191993713379;0.8982321619987488;94.21321868896484
158;1673292373.858753;47.130642599999995;7.240621;29.415000915527344;1673292373.9336503;-26.468801498413086;-1.7657437324523926;95.11343383789062
159;1673292374.1147742;47.130642599999995;7.240621;29.817001342773438;1673292374.185919;-26.8449649810791;-0.6747129559516907;94.90838623046875
160;1673292374.313293;47.130642599999995;7.240621;30.220001220703125;1673292374.38731;-26.577476501464844;1.1110336780548096;94.23038482666016
161;1673292374.4954243;47.130642599999995;7.240621;30.624000549316406;1673292374.571673;-26.75017547607422;-1.566358208656311;95.01322937011719
162;1673292374.6820104;47.130642599999995;7.240621;31.027002334594727;1673292374.744677;-26.562185287475586;-1.156554102897644;95.01897430419922
163;1673292374.8657508;47.130642599999995;7.2406209;31.420001983642578;1673292374.9407194;-26.640674591064453;1.1211403608322144;94.09513854980469
164;1673292375.0944512;47.130642599999995;7.2406209;31.821001052856445;1673292375.1584492;-26.787073135375977;-0.9618694186210632;94.8236083984375
165;1673292375.274132;47.130642599999995;7.2406209;32.22300338745117;1673292375.3490694;-26.567012786865234;-1.580296277999878;95.13944244384766
166;1673292375.4746382;47.130642599999995;7.2406209;32.62700271606445;1673292375.549488;-26.600584030151367;0.8665292263031006;94.2845230102539
167;1673292375.6674848;47.130642599999995;7.2406209;33.03000259399414;1673292375.7368596;-26.53919792175293;-0.4989056885242462;94.65733337402344
168;1673292375.8617642;47.130642599999995;7.2406209;33.43300247192383;1673292375.9367912;-26.80521011352539;-2.0296883583068848;95.2581787109375
169;1673292376.0648184;47.130642599999995;7.240620799999999;33.8280029296875;1673292376.1434507;-26.654787063598633;0.6579916477203369;94.35453796386719
170;1673292376.269944;47.130642599999995;7.2406207;34.230003356933594;1673292376.3446898;-26.746906280517578;0.07103028893470764;94.47985076904297
171;1673292376.4683747;47.130642599999995;7.2406207;34.63300323486328;1673292376.5419457;-26.608604431152344;-1.905419945716858;95.25688171386719
172;1673292376.6744604;47.130642599999995;7.2406207;35.040000915527344;1673292376.7464137;-26.855987548828125;0.5491780638694763;94.43162536621094
173;1673292376.8688862;47.130642599999995;7.2406206;35.44700241088867;1673292376.943653;-26.57487678527832;0.37057551741600037;94.38725280761719
174;1673292377.0751584;47.130642599999995;7.2406206;35.85100173950195;1673292377.1552086;-26.734539031982422;-2.0413055419921875;95.26596069335938
175;1673292377.290934;47.130642599999995;7.2406204999999995;36.25100326538086;1673292377.3707354;-26.71002197265625;-0.1195121482014656;94.67745208740234
176;1673292377.4930847;47.1306425;7.2406204999999995;36.6410026550293;1673292377.5709345;-26.860599517822266;0.8484256863594055;94.18842315673828
177;1673292377.7231731;47.1306425;7.2406204;37.03700256347656;1673292377.7948534;-26.83152198791504;-1.862801194190979;95.10540008544922
178;1673292377.913706;47.1306425;7.2406204;37.435001373291016;1673292377.9838471;-26.937150955200195;-0.29519784450531006;94.72024536132812
179;1673292378.1009657;47.1306425;7.2406204;37.83500289916992;1673292378.180153;-26.70740509033203;0.9098063111305237;94.20890045166016
180;1673292378.314414;47.1306424;7.2406204;38.237003326416016;1673292378.3778536;-26.97686767578125;-1.8822201490402222;95.08084106445312
181;1673292378.4980261;47.1306424;7.2406204;38.638999938964844;1673292378.5700135;-26.707555770874023;-0.7491748332977295;94.82860565185547
182;1673292378.6940901;47.1306425;7.2406204;39.03300094604492;1673292378.7712758;-26.908857345581055;1.27619469165802;94.15158081054688
183;1673292378.8964164;47.1306425;7.2406204999999995;39.43300247192383;1673292378.9680765;-26.581174850463867;-1.4520610570907593;95.02544403076172
184;1673292379.0993958;47.1306425;7.2406204999999995;39.83700180053711;1673292379.1735785;-26.805213928222656;-1.224250316619873;95.01766967773438
185;1673292379.2858803;47.1306424;7.2406204999999995;40.2390022277832;1673292379.3624802;-26.625141143798828;1.2098106145858765;94.07565307617188
186;1673292379.494719;47.1306424;7.2406204999999995;40.6400032043457;1673292379.571124;-26.83030128479004;-0.7515168190002441;94.8027114868164
187;1673292379.6936584;47.1306425;7.2406204999999995;41.03600311279297;1673292379.7739148;-26.601518630981445;-1.5135600566864014;95.19171142578125
188;1673292379.8837848;47.1306425;7.2406204;41.435001373291016;1673292379.9566455;-26.843597412109375;1.2516957521438599;94.25617218017578
189;1673292380.0908072;47.1306425;7.2406204;41.827003479003906;1673292380.1625845;-26.712379455566406;-0.512610673904419;94.66516876220703
190;1673292380.2901115;47.1306425;7.2406204;42.22800064086914;1673292380.3736572;-26.927268981933594;-1.7803454399108887;95.22909545898438
191;1673292380.4912267;47.1306424;7.2406203;42.63500213623047;1673292380.566248;-26.66918182373047;0.9423193335533142;94.34725189208984
192;1673292380.7137487;47.1306424;7.2406203;43.0420036315918;1673292380.7851653;-26.828125;-0.23189878463745117;94.6172866821289
193;1673292380.9467428;47.1306424;7.2406203;43.44700241088867;1673292381.0061069;-26.760704040527344;-2.017296314239502;95.27495574951172
194;1673292381.1036043;47.1306424;7.2406203;43.85000228881836;1673292381.169215;-26.68816375732422;0.43572330474853516;94.4787826538086
195;1673292381.294127;47.1306424;7.2406203;44.24100112915039;1673292381.3656452;-26.91102409362793;0.6240783929824829;94.41218566894531
196;1673292381.491553;47.1306425;7.2406201999999995;44.63500213623047;1673292381.559463;-26.754833221435547;-1.7789313793182373;95.21990203857422
197;1673292381.6870441;47.1306425;7.2406201999999995;45.038002014160156;1673292381.7671797;-26.988527297973633;-0.2695225179195404;94.7584228515625
198;1673292381.889193;47.1306424;7.2406201999999995;45.439002990722656;1673292381.9656966;-26.541025161743164;1.1225080490112305;94.24332427978516
199;1673292382.0977685;47.1306424;7.2406201999999995;45.84100341796875;1673292382.1643186;-26.83485984802246;-1.4212536811828613;95.05548095703125
200;1673292382.2901266;47.1306425;7.2406201999999995;46.24500274658203;1673292382.3718958;-26.582624435424805;-0.38680022954940796;94.8444595336914
201;1673292382.500214;47.1306425;7.2406201999999995;46.64600372314453;1673292382.5770502;-26.762046813964844;1.5093159675598145;94.22245788574219
202;1673292382.6961675;47.1306425;7.2406201999999995;47.03900146484375;1673292382.7702954;-26.748079299926758;-1.4183603525161743;95.01316833496094
203;1673292382.892497;47.1306424;7.2406201;47.43400192260742;1673292382.9660819;-26.691509246826172;-0.810981035232544;94.93224334716797
204;1673292383.089437;47.1306423;7.2406201;47.83400344848633;1673292383.1704233;-26.806007385253906;1.306308388710022;94.12171936035156
205;1673292383.279566;47.1306423;7.24062;48.21600341796875;1673292383.3557904;-27.37837791442871;-1.5562409162521362;95.11250305175781
206;1673292383.4826035;47.1306423;7.2406198999999996;48.548004150390625;1673292383.5568821;-27.23375701904297;-0.8164566159248352;94.79527282714844
207;1673292383.6833587;47.1306423;7.2406196;48.83100128173828;1673292383.7619932;-27.67007064819336;0.9183374643325806;94.31599426269531
208;1673292383.8831143;47.1306423;7.2406191;49.05600357055664;1673292383.9580796;-28.16964340209961;-0.6053807735443115;94.86511993408203
209;1673292384.081154;47.1306423;7.2406185999999995;49.24800109863281;1673292384.1516507;-28.232568740844727;-0.23541098833084106;94.78797912597656
210;1673292384.2860818;47.1306423;7.2406179999999996;49.40500259399414;1673292384.3672633;-19.1821231842041;1.6914376020431519;92.49720764160156
211;1673292384.4922779;47.1306422;7.240616999999999;49.49700164794922;1673292384.5825818;-33.38060760498047;5.714852333068848;83.22654724121094
212;1673292384.7090118;47.130641999999995;7.2406158;49.51300048828125;1673292384.794268;-15.844574928283691;16.33460235595703;71.41241455078125
213;1673292384.934247;47.1306417;7.2406143;49.53400421142578;1673292385.0131845;-18.24935531616211;19.111957550048828;60.559165954589844
214;1673292385.1231291;47.130640899999996;7.240612499999999;49.58400344848633;1673292385.1822617;-23.135873794555664;17.28692626953125;50.97412872314453
215;1673292385.3062198;47.130640199999995;7.2406109999999995;49.624000549316406;1673292385.3783872;-14.504876136779785;20.977596282958984;42.34970474243164
216;1673292385.496379;47.1306393;7.2406095;49.6670036315918;1673292385.5772228;-14.043566703796387;23.858373641967773;32.52959442138672
217;1673292385.6890547;47.1306383;7.2406082;49.711002349853516;1673292385.762208;-9.319575309753418;26.822351455688477;23.178138732910156
218;1673292385.8959632;47.1306375;7.2406068999999995;49.75200271606445;1673292385.9741693;-6.0852837562561035;29.71938705444336;14.349987983703613
219;1673292386.103074;47.1306369;7.2406058;49.78400421142578;1673292386.1733632;-2.2094013690948486;30.99042510986328;5.275144100189209
220;1673292386.2990286;47.1306363;7.2406048;49.81100082397461;1673292386.3740828;2.6443428993225098;30.677616119384766;-3.885291337966919
221;1673292386.4961975;47.130635899999994;7.240603999999999;49.82400131225586;1673292386.5625298;8.312359809875488;29.355205535888672;-12.912363052368164
222;1673292386.7001667;47.1306357;7.2406035;49.8390007019043;1673292386.7771437;14.044291496276855;27.301584243774414;-21.858718872070312
223;1673292386.9004745;47.1306356;7.2406032;49.85300064086914;1673292386.9725363;18.67409896850586;24.572669982910156;-30.86229705810547
224;1673292387.095074;47.1306356;7.2406030999999995;49.862003326416016;1673292387.1691048;21.738189697265625;21.45273208618164;-39.73211669921875
225;1673292387.291098;47.1306356;7.2406032;49.87200164794922;1673292387.3651364;23.99956703186035;18.37401008605957;-48.39670181274414
226;1673292387.4944818;47.1306357;7.2406033999999995;49.88300323486328;1673292387.573199;25.581188201904297;15.45052719116211;-52.86821365356445
227;1673292387.705002;47.1306356;7.2406035;49.89400100708008;1673292387.793958;25.465810775756836;15.095211029052734;-50.65617370605469
228;1673292387.9224143;47.130635299999994;7.240603699999999;49.89400100708008;1673292387.993239;24.193666458129883;14.941483497619629;-48.56525421142578
229;1673292388.1197433;47.1306351;7.2406038;49.897003173828125;1673292388.1895256;23.48184585571289;15.115989685058594;-47.380889892578125
230;1673292388.3013182;47.130634799999996;7.2406038;49.9010009765625;1673292388.3834774;22.357145309448242;16.08361053466797;-46.40641784667969
231;1673292388.526618;47.1306346;7.240603699999999;49.90300369262695;1673292388.607105;21.271493911743164;18.048484802246094;-45.717227935791016
232;1673292388.7545896;47.1306344;7.2406036;49.91100311279297;1673292388.8144996;20.8651065826416;19.946142196655273;-45.41422653198242
233;1673292388.923378;47.130634199999996;7.2406035;49.92100143432617;1673292388.9986432;21.15585708618164;20.890283584594727;-45.65904998779297
234;1673292389.129566;47.130634;7.2406033999999995;49.91800308227539;1673292389.2038436;21.588111877441406;19.782474517822266;-46.28201675415039
235;1673292389.3398983;47.1306339;7.2406032;49.92500305175781;1673292389.4119272;15.55872917175293;19.53544044494629;-48.21352767944336
236;1673292389.5299006;47.130634099999995;7.2406025;49.93000411987305;1673292389.6008694;-14.434497833251953;19.085853576660156;-50.9758415222168
237;1673292389.7307355;47.130635299999994;7.240600199999999;49.941001892089844;1673292389.8050444;-43.52939224243164;12.51089096069336;-49.02800750732422
238;1673292389.9285812;47.1306383;7.2405943;49.94300079345703;1673292390.0013213;-50.99110794067383;7.026829719543457;-43.62514114379883
239;1673292390.1199648;47.1306435;7.2405838;49.92000198364258;1673292390.1930146;-49.22404479980469;6.977401256561279;-44.69977569580078
240;1673292390.322995;47.130650499999994;7.240568499999999;49.89200210571289;1673292390.3971899;-51.4553108215332;10.158967971801758;-45.10713195800781
241;1673292390.532082;47.1306598;7.240549199999999;49.87000274658203;1673292390.6063457;-53.74515914916992;11.55506706237793;-43.86539840698242
242;1673292390.7539515;47.1306705;7.2405254999999995;49.86300277709961;1673292390.81311;-55.5051383972168;13.305793762207031;-42.977542877197266
243;1673292390.9231737;47.1306832;7.240498499999999;49.868003845214844;1673292391.005949;-56.325130462646484;13.898226737976074;-41.41005325317383
244;1673292391.1339972;47.1306979;7.2404689;49.87000274658203;1673292391.2059968;-55.146751403808594;14.130657196044922;-40.479496002197266
245;1673292391.3249302;47.130714399999995;7.2404375;49.85200119018555;1673292391.4031243;-53.73104476928711;16.623180389404297;-40.72707748413086
246;1673292391.5341346;47.130732599999995;7.240405;49.82200241088867;1673292391.611006;-50.90754699707031;14.076750755310059;-35.63214874267578
247;1673292391.7482126;47.130752199999996;7.2403724;49.80500411987305;1673292391.8230894;-52.17913055419922;14.759636878967285;-35.7422981262207
248;1673292391.9611218;47.130773;7.2403394;49.78200149536133;1673292392.0481138;-51.109073638916016;17.492938995361328;-37.38825607299805
249;1673292392.176912;47.1307949;7.2403062;49.75800323486328;1673292392.2399416;-45.072174072265625;23.330324172973633;-37.80828094482422
250;1673292392.3670018;47.1308175;7.2402736;49.73600387573242;1673292392.431127;-32.655433654785156;34.39684295654297;-35.58633041381836
251;1673292392.550696;47.1308405;7.2402431;49.71600341796875;1673292392.624942;7.873222827911377;34.21805191040039;-28.113588333129883
252;1673292392.7460353;47.130862199999996;7.240215399999999;49.643001556396484;1673292392.8210478;17.791074752807617;11.684288024902344;-34.21018981933594
253;1673292392.9559948;47.1308814;7.2401900999999995;49.49500274658203;1673292393.028703;14.297186851501465;2.154886245727539;-42.20794677734375
254;1673292393.1549056;47.1308967;7.2401671;49.42100143432617;1673292393.2301621;29.639755249023438;4.193744659423828;-44.32579040527344
255;1673292393.3771272;47.130908999999996;7.240146299999999;49.406002044677734;1673292393.495273;34.7945556640625;6.634261608123779;-44.1295051574707
256;1673292393.6111584;47.1309183;7.2401281;49.435001373291016;1673292393.6670647;43.20217514038086;8.299062728881836;-44.69241714477539
257;1673292393.7719123;47.130924799999995;7.2401132;49.48400115966797;1673292393.8439572;45.93461608886719;9.429405212402344;-45.338714599609375
258;1673292393.953957;47.1309286;7.240101699999999;49.54300308227539;1673292394.0200832;50.56698226928711;14.27341079711914;-43.508609771728516
259;1673292394.1380095;47.1309298;7.2400937999999995;49.61000061035156;1673292394.210204;52.55421447753906;17.54599380493164;-42.9290771484375
260;1673292394.3239088;47.1309286;7.2400895;49.677001953125;1673292394.402879;53.77077102661133;20.041532516479492;-42.81515884399414
261;1673292394.5288904;47.1309255;7.2400889;49.74100112915039;1673292394.598454;54.45426940917969;20.96354103088379;-43.83708572387695
262;1673292394.7214355;47.130921;7.2400917;49.798004150390625;1673292394.7998843;54.10388946533203;22.55756187438965;-44.80324935913086
263;1673292394.9186065;47.1309155;7.2400977;49.8390007019043;1673292394.9939773;52.50098419189453;24.647031784057617;-44.767738342285156
264;1673292395.1366377;47.1309093;7.240106399999999;49.87200164794922;1673292395.2110622;48.73619842529297;26.010332107543945;-45.42277526855469
265;1673292395.350526;47.130902899999995;7.2401174;49.906002044677734;1673292395.4213407;47.53543472290039;30.46991539001465;-45.02320861816406
266;1673292395.5431156;47.1308967;7.24013;49.919002532958984;1673292395.6155276;45.8350830078125;33.33930587768555;-44.961185455322266
267;1673292395.7433019;47.1308909;7.240144099999999;49.93300247192383;1673292395.810656;36.44050979614258;30.95372200012207;-46.424373626708984
268;1673292395.9349186;47.130885799999994;7.2401591;49.945003509521484;1673292396.0093062;19.217966079711914;27.245405197143555;-43.078758239746094
269;1673292396.1333072;47.1308814;7.240173599999999;49.945003509521484;1673292396.2045922;4.036614418029785;21.415590286254883;-40.13231658935547
270;1673292396.3346617;47.130877899999994;7.240186199999999;49.93000411987305;1673292396.4110482;-11.00830364227295;8.696484565734863;-39.56948471069336
271;1673292396.5386298;47.1308748;7.240197599999999;49.63300323486328;1673292396.6411572;-39.1596794128418;-25.957494735717773;-31.66357421875
272;1673292396.7804532;47.1308717;7.2402086;48.957000732421875;1673292396.8459346;-55.11105728149414;-99.59037017822266;12.886085510253906
273;1673292397.0131862;47.1308685;7.2402194;47.88600158691406;1673292397.1007128;-41.66835021972656;-155.673095703125;44.50927734375
274;1673292397.2095919;47.1308655;7.2402301;46.470001220703125;1673292397.2745974;-36.201560974121094;-175.6680145263672;53.636043548583984
275;1673292397.4133682;47.1308626;7.2402403;44.698001861572266;1673292397.496101;-50.15576171875;-175.13035583496094;56.375308990478516
276;1673292397.6095273;47.130859699999995;7.24025;42.57400131225586;1673292397.6690695;-78.151611328125;-97.0899887084961;-6.180723667144775
277;1673292397.766258;47.130857;7.2402595;40.10600280761719;1673292397.8341734;-35.78435134887695;5.029209613800049;-79.18962097167969
278;1673292397.9586048;47.130854199999995;7.240269199999999;37.24500274658203;1673292398.0304477;13.168608665466309;36.07792663574219;-70.89469146728516
279;1673292398.1553016;47.130851299999996;7.2402783;33.9890022277832;1673292398.2287323;37.867279052734375;52.92121887207031;-59.87795639038086
280;1673292398.3455782;47.130848199999996;7.2402866999999995;30.37900161743164;1673292398.4171555;37.347774505615234;36.526859283447266;-75.33173370361328
281;1673292398.5418525;47.130845199999996;7.2402945999999995;26.43800163269043;1673292398.617982;1.1396631002426147;7.147791862487793;-101.91857147216797
282;1673292398.742169;47.130842099999995;7.2403018999999995;22.115001678466797;1673292398.817747;-55.92643737792969;-3.866426944732666;-115.41691589355469
283;1673292398.9335575;47.1308392;7.240309399999999;17.405000686645508;1673292399.0059354;-82.936279296875;75.0403823852539;158.7602996826172
284;1673292399.1339543;47.130836599999995;7.2403169;12.379000663757324;1673292399.2287788;-68.21149444580078;52.07893753051758;-173.7682647705078
285;1673292399.3565667;47.1308343;7.240324299999999;7.048000335693359;1673292399.4342911;-17.168821334838867;27.45448112487793;-137.77349853515625
286;1673292399.5595136;47.1308319;7.2403322999999995;1.3440001010894775;1673292399.6426148;19.988664627075195;23.38971710205078;-134.71734619140625
287;1673292399.7555056;47.1308497;7.2403292;-0.5160000324249268;1673292399.839588;14.359227180480957;23.592681884765625;-138.97613525390625
288;1673292399.9539056;47.130874299999995;7.2403249999999995;-1.4440001249313354;1673292400.0203223;25.48496437072754;24.89903450012207;-134.5264892578125
289;1673292400.1458292;47.1309008;7.2403211999999995;-2.43500018119812;1673292400.2170856;24.244909286499023;25.441221237182617;-134.97586059570312
290;1673292400.3462238;47.130929699999996;7.240317;-3.4170000553131104;1673292400.4171371;24.304426193237305;26.419891357421875;-135.00860595703125
291;1673292400.536581;47.1309608;7.240312599999999;-4.4170002937316895;1673292400.61101;24.39104652404785;26.74959373474121;-135.01785278320312
292;1673292400.7440403;47.1309928;7.2403081;-5.240000247955322;1673292400.8140843;24.272232055664062;26.751644134521484;-135.2090301513672
293;1673292400.9384027;47.1310267;7.2403035;-6.095000267028809;1673292401.0129955;24.28070640563965;26.700912475585938;-135.23008728027344
294;1673292401.1619737;47.1310612;7.2402986;-0.8990000486373901;1673292401.2452369;24.1823787689209;26.478759765625;-135.34425354003906
295;1673292401.3571486;47.1310983;7.240293899999999;-0.4690000116825104;1673292401.4440625;24.294527053833008;26.48108673095703;-135.30911254882812
296;1673292401.5700252;47.1311377;7.240289199999999;-0.28300002217292786;1673292401.6722834;24.277759552001953;26.335521697998047;-135.3358917236328
297;1673292401.8251503;47.1311791;7.2402845;-0.2240000069141388;1673292401.892839;24.330821990966797;26.217554092407227;-135.30088806152344
298;1673292402.0304687;47.1312226;7.2402798;-0.22500000894069672;1673292402.0928934;24.330137252807617;26.036035537719727;-135.37571716308594
299;1673292402.215191;47.131268;7.240275199999999;-0.30900001525878906;1673292402.2810152;24.350032806396484;25.87697982788086;-135.39151000976562
300;1673292402.4163575;47.1313153;7.240270499999999;-0.3570000231266022;1673292402.4782674;24.362377166748047;25.696805953979492;-135.4114990234375
301;1673292402.5975256;47.131366299999996;7.2402656;-0.3850000202655792;1673292402.6700597;24.368818283081055;25.499910354614258;-135.43019104003906
302;1673292402.7841682;47.1314152;7.240260999999999;-0.38700002431869507;1673292402.8573027;24.39809799194336;25.348161697387695;-135.4821014404297
303;1673292402.9575243;47.131468;7.240256199999999;-0.39500001072883606;1673292403.039097;24.39805793762207;25.11888885498047;-135.50379943847656
304;1673292403.1720266;47.131522499999996;7.240251499999999;-0.4010000228881836;1673292403.249258;24.434282302856445;24.919227600097656;-135.54737854003906
305;1673292403.4382646;47.1315789;7.2402466;-0.4050000309944153;1673292403.5120215;24.426349639892578;24.71218490600586;-135.6012725830078
306;1673292403.6182165;47.1316373;7.240241999999999;-0.4880000352859497;1673292403.6856618;24.41147232055664;24.513742446899414;-135.66107177734375
307;1673292403.7931314;47.1316973;7.2402371;-0.51500004529953;1673292403.8571692;24.38292121887207;24.331409454345703;-135.73887634277344
308;1673292403.977185;47.131758999999995;7.2402321999999995;-0.5049999952316284;1673292404.0421069;24.442960739135742;24.145877838134766;-135.7471923828125
309;1673292404.172145;47.1318226;7.2402273;-0.48600003123283386;1673292404.2552123;24.390247344970703;23.93581771850586;-135.82102966308594
310;1673292404.3841743;47.131888;7.2402223999999995;-0.4650000333786011;1673292404.4630597;24.436370849609375;23.791576385498047;-135.8401336669922
311;1673292404.58083;47.1319552;7.2402174;-0.4490000307559967;1673292404.6599586;24.403047561645508;23.603166580200195;-135.86752319335938
312;1673292404.7733645;47.1320245;7.2402127;-0.5220000147819519;1673292404.8439972;24.390167236328125;23.42582893371582;-135.92547607421875
313;1673292404.9581318;47.132095299999996;7.2402077;-0.5400000214576721;1673292405.0310519;24.389291763305664;23.24264907836914;-135.98533630371094
314;1673292405.166142;47.132101;7.2402073;-0.5240000486373901;1673292405.2810729;24.2889404296875;23.104707717895508;-136.04542541503906
315;1673292407.005074;47.1308655;7.2403246;-0.5;1673292405.4411263;24.27344512939453;22.962465286254883;-136.13693237304688
316;;;;;1673292405.6293256;24.321672439575195;22.7877197265625;-136.1893310546875
317;;;;;1673292405.8382103;24.302536010742188;22.617416381835938;-136.2711944580078
318;;;;;1673292406.0184522;24.384557723999023;22.51081657409668;-136.2687530517578
319;;;;;1673292406.2214727;24.375598907470703;22.33629608154297;-136.34339904785156
320;;;;;1673292406.4371502;24.483108520507812;21.68430519104004;-136.3739471435547
321;;;;;1673292406.6303084;24.47137451171875;21.516416549682617;-136.4251708984375
322;;;;;1673292406.8415704;24.406770706176758;21.363239288330078;-136.19215393066406
