;pos_time;latitude;longitude;altitude;alt_time;pitch;roll;yaw
0;1673281906.351192;47.1306425;7.2406198999999996;-0.015000000596046448;1673281906.483551;0.0787104144692421;0.12042563408613205;90.37547302246094
1;1673281906.5613198;47.1306425;7.24062;-0.013000000268220901;1673281906.6897354;0.11132968962192535;-0.0506431870162487;90.68193054199219
2;1673281906.7586088;47.1306425;7.24062;-0.010000000707805157;1673281906.882148;-0.15476487576961517;0.014151789247989655;90.49610137939453
3;1673281906.9851873;47.1306425;7.2406198999999996;-0.004000000189989805;1673281907.1542232;-0.11726099997758865;-0.0965726375579834;90.55875396728516
4;1673281907.2225404;47.1306425;7.2406198999999996;-0.003000000026077032;1673281907.3651857;-0.15892116725444794;0.05352909490466118;90.60166931152344
5;1673281907.4565482;47.1306425;7.240619799999999;-0.003000000026077032;1673281907.548962;0.0054720016196370125;0.08343571424484253;90.56947326660156
6;1673281907.6300201;47.130642599999995;7.240619799999999;0.0;1673281907.7404835;0.12736980617046356;0.08635561913251877;90.45814514160156
7;1673281907.8107572;47.130642599999995;7.240619799999999;0.004000000189989805;1673281907.923555;-0.10384277999401093;0.03487057983875275;90.59447479248047
8;1673281908.0119538;47.1306425;7.2406198999999996;0.009000000543892384;1673281908.1662774;0.08551767468452454;-0.08146066218614578;90.76675415039062
9;1673281908.2268288;47.1306425;7.2406198999999996;0.009000000543892384;1673281908.3279538;-0.22742852568626404;-0.09883623570203781;90.56725311279297
10;1673281908.4026656;47.1306425;7.240619799999999;-0.0020000000949949026;1673281908.50084;-0.2760690748691559;-1.0137035846710205;90.64112091064453
11;1673281908.5698402;47.1306425;7.240619799999999;-0.004000000189989805;1673281908.7011926;-0.054749198257923126;-0.5242148637771606;90.50717163085938
12;1673281908.777907;47.1306425;7.240619799999999;-0.006000000052154064;1673281908.903336;-0.26240429282188416;-0.6847970485687256;90.57610321044922
13;1673281908.973248;47.1306425;7.2406198999999996;-0.006000000052154064;1673281909.0977366;-0.18868255615234375;-0.6968882083892822;90.65764617919922
14;1673281909.1782367;47.1306425;7.2406198999999996;-0.006000000052154064;1673281909.300315;-0.21340052783489227;-0.6151357889175415;90.68428802490234
15;1673281909.3786743;47.1306425;7.24062;-0.003000000026077032;1673281909.4884298;-0.3085336685180664;-0.7528271675109863;90.6037826538086
16;1673281909.562064;47.1306425;7.24062;-0.0020000000949949026;1673281909.687369;-0.40988805890083313;-1.2234429121017456;90.44290924072266
17;1673281909.7777576;47.1306425;7.24062;0.0;1673281909.9008331;-0.4910864233970642;-0.8680504560470581;90.45294952392578
18;1673281909.985549;47.1306425;7.24062;0.0;1673281910.1302881;-0.255715012550354;-1.1623244285583496;90.38661193847656
19;1673281910.1995292;47.130642599999995;7.24062;0.0;1673281910.3143191;-0.4962102174758911;-1.0464216470718384;90.64540100097656
20;1673281910.3912203;47.130642599999995;7.24062;0.0010000000474974513;1673281910.5135114;-0.4366086423397064;-0.7304536700248718;90.64178466796875
21;1673281910.5912156;47.130642599999995;7.2406201;0.0010000000474974513;1673281910.7133915;-0.29055044054985046;-0.5863075256347656;90.85509490966797
22;1673281910.7900362;47.130642599999995;7.2406201;0.0020000000949949026;1673281910.895147;-0.6139848828315735;-0.5298481583595276;90.74524688720703
23;1673281910.9643135;47.130642599999995;7.2406201;0.0;1673281911.080132;-0.4826085865497589;-0.5429737567901611;90.86437225341797
24;1673281911.1492805;47.130642599999995;7.2406201999999995;-0.0020000000949949026;1673281911.2742708;-0.6741669774055481;-0.6095901727676392;91.24537658691406
25;1673281911.3490448;47.130642699999996;7.2406203;-0.004000000189989805;1673281911.4791224;-0.2765543758869171;-0.5077799558639526;92.67594909667969
26;1673281911.5622067;47.1306428;7.2406203;-0.005000000353902578;1673281911.6856263;0.08779334276914597;0.23046796023845673;95.17115020751953
27;1673281911.7642725;47.1306431;7.2406204999999995;-0.005000000353902578;1673281911.8802052;1.3485506772994995;1.0060811042785645;95.61769104003906
28;1673281911.9582639;47.1306435;7.240621099999999;0.0020000000949949026;1673281912.0862725;4.582555770874023;3.9188733100891113;92.12804412841797
29;1673281912.1648903;47.130644;7.240621699999999;0.02200000174343586;1673281912.28526;8.906081199645996;8.723072052001953;90.92200469970703
30;1673281912.349084;47.1306447;7.240622699999999;0.03800000250339508;1673281912.475197;12.130096435546875;12.638272285461426;91.26021575927734
31;1673281912.5531583;47.1306455;7.2406239;0.06300000101327896;1673281912.6642287;12.999555587768555;13.804757118225098;91.54752349853516
32;1673281912.7353556;47.1306462;7.240625;0.09700000286102295;1673281912.8761606;14.330443382263184;13.832263946533203;91.68309783935547
33;1673281912.9555078;47.1306467;7.2406261;0.1510000079870224;1673281913.0923715;15.721880912780762;15.159305572509766;91.87516784667969
34;1673281913.1767178;47.1306471;7.240627;0.22600001096725464;1673281913.3062527;16.64427947998047;17.22893524169922;92.05799865722656
35;1673281913.3868139;47.1306473;7.2406276;0.3240000009536743;1673281913.5172248;18.269519805908203;16.571155548095703;91.753662109375
36;1673281913.5910726;47.1306472;7.2406279;0.4390000104904175;1673281913.7048147;20.774822235107422;15.405311584472656;91.27822875976562
37;1673281913.7855365;47.1306468;7.2406274999999996;0.5700000524520874;1673281913.9032161;19.978382110595703;16.75481414794922;90.8661880493164
38;1673281913.9744678;47.1306462;7.2406267;0.7170000076293945;1673281914.1082733;18.16448211669922;15.335309028625488;89.9244384765625
39;1673281914.1860635;47.1306456;7.240625499999999;0.8820000290870667;1673281914.300833;16.516260147094727;10.608267784118652;88.5353012084961
40;1673281914.3652582;47.1306449;7.2406242;1.0630000829696655;1673281914.4874024;14.869441986083984;11.851110458374023;87.93782806396484
41;1673281914.564543;47.1306442;7.2406228;1.2510000467300415;1673281914.7004132;13.63154125213623;12.748457908630371;87.18417358398438
42;1673281914.7794719;47.1306436;7.2406215;1.4380000829696655;1673281914.9132764;12.807560920715332;7.8157243728637695;91.60760498046875
43;1673281914.9919014;47.1306431;7.2406204999999995;1.6250001192092896;1673281915.1183462;12.004196166992188;9.504345893859863;89.36459350585938
44;1673281915.1949975;47.1306428;7.2406198999999996;1.8100000619888306;1673281915.3204632;12.902379989624023;11.360489845275879;88.55274200439453
45;1673281915.3912737;47.130642699999996;7.2406196;1.996000051498413;1673281915.498194;13.06562614440918;7.974933624267578;87.2785873413086
46;1673281915.568035;47.1306428;7.240619499999999;2.186000108718872;1673281915.6974378;14.009259223937988;9.873124122619629;86.61248016357422
47;1673281915.7774694;47.1306429;7.240619499999999;2.376000165939331;1673281915.9024968;14.640118598937988;12.825278282165527;86.36632537841797
48;1673281915.9786353;47.130643;7.2406196;2.564000129699707;1673281916.107561;15.639246940612793;9.092803001403809;85.46704864501953
49;1673281916.176863;47.130643;7.240619799999999;2.76200008392334;1673281916.294109;15.908578872680664;9.306185722351074;85.33551788330078
50;1673281916.3731716;47.130643;7.24062;2.957000255584717;1673281916.4991877;16.316959381103516;12.515010833740234;85.69781494140625
51;1673281916.5827754;47.1306431;7.2406201999999995;3.1550002098083496;1673281916.7111747;16.575153350830078;10.888521194458008;85.57848358154297
52;1673281916.797604;47.130643199999994;7.2406204;3.3570001125335693;1673281916.9269717;16.66231918334961;9.102426528930664;85.36737060546875
53;1673281917.000706;47.130643299999996;7.2406206;3.56000018119812;1673281917.1164858;16.567054748535156;12.310824394226074;85.8050765991211
54;1673281917.1902282;47.130643199999994;7.2406207;3.758000135421753;1673281917.3196075;16.642080307006836;11.556730270385742;85.88899230957031
55;1673281917.3914208;47.130643;7.2406207;3.9580001831054688;1673281917.502332;16.53709602355957;7.916823863983154;85.28006744384766
56;1673281917.5716734;47.1306429;7.2406207;4.156000137329102;1673281917.694749;16.339143753051758;10.7548828125;85.43557739257812
57;1673281917.776747;47.1306428;7.2406207;4.3520002365112305;1673281917.9066925;16.335920333862305;11.734623908996582;85.80774688720703
58;1673281917.9883115;47.1306428;7.2406206;4.551000118255615;1673281918.1118386;16.031404495239258;8.297004699707031;85.44246673583984
59;1673281918.1855595;47.1306428;7.2406204999999995;4.747000217437744;1673281918.310105;15.629621505737305;10.092849731445312;85.492431640625
60;1673281918.383318;47.1306429;7.2406203;4.942000389099121;1673281918.5122874;15.677950859069824;12.676426887512207;85.9581069946289
61;1673281918.5816202;47.1306428;7.2406203;5.135000228881836;1673281918.6939552;15.895597457885742;9.016517639160156;85.48444366455078
62;1673281918.775062;47.1306428;7.2406204;5.333000183105469;1673281918.8894098;15.905077934265137;9.26804256439209;85.3587646484375
63;1673281918.9724104;47.130642699999996;7.2406204;5.527000427246094;1673281919.0975611;16.01377296447754;12.394964218139648;85.79691314697266
64;1673281919.1785653;47.130642699999996;7.2406204;5.7270002365112305;1673281919.3095307;16.36322593688965;9.781233787536621;85.48590087890625
65;1673281919.396947;47.130642699999996;7.2406204999999995;5.931000232696533;1673281919.5106878;16.050827026367188;9.038427352905273;85.33138275146484
66;1673281919.5904229;47.1306428;7.2406204;6.13200044631958;1673281919.7139428;16.037763595581055;12.690340995788574;85.7197494506836
67;1673281919.7832336;47.130642699999996;7.2406204;6.330000400543213;1673281919.9102948;16.26079750061035;10.586504936218262;85.63949584960938
68;1673281919.9776857;47.130642599999995;7.2406204;6.526000499725342;1673281920.1017544;16.116960525512695;8.299698829650879;85.28414916992188
69;1673281920.176937;47.130642599999995;7.2406204;6.7220001220703125;1673281920.3029678;15.902146339416504;11.574341773986816;85.66477966308594
70;1673281920.3839793;47.130642699999996;7.2406203;6.9200005531311035;1673281920.509145;16.05347442626953;11.922126770019531;85.77046966552734
71;1673281920.5813932;47.130642699999996;7.2406203;7.119000434875488;1673281920.709389;15.924341201782227;8.415186882019043;85.38309478759766
72;1673281920.7938643;47.130642699999996;7.2406203;7.316000461578369;1673281920.9418585;15.903310775756836;11.111549377441406;85.64610290527344
73;1673281921.008755;47.130642699999996;7.2406203;7.511000156402588;1673281921.1313438;16.075206756591797;12.124624252319336;85.81048583984375
74;1673281921.2013612;47.130642599999995;7.2406204;7.705000400543213;1673281921.313114;16.115921020507812;8.356264114379883;85.34881591796875
75;1673281921.389799;47.130642599999995;7.2406204;7.90500020980835;1673281921.506497;15.965441703796387;10.193832397460938;85.47647857666016
76;1673281921.5759192;47.130642599999995;7.2406204;8.100000381469727;1673281921.7011461;15.98878002166748;12.091669082641602;85.7981948852539
77;1673281921.774361;47.130642599999995;7.2406204;8.292000770568848;1673281921.9013798;16.23934555053711;8.632804870605469;85.43975830078125
78;1673281921.9843767;47.130642599999995;7.2406204;8.484000205993652;1673281922.1133533;16.200523376464844;9.616462707519531;85.48190307617188
79;1673281922.193972;47.130642699999996;7.2406204999999995;8.679000854492188;1673281922.3224237;16.0535831451416;12.940526962280273;85.85081481933594
80;1673281922.4148111;47.130642699999996;7.2406204999999995;8.878000259399414;1673281922.5296438;16.1737117767334;9.682699203491211;85.59577941894531
81;1673281922.6014192;47.130642699999996;7.2406204999999995;9.079000473022461;1673281922.728815;16.0266170501709;9.081093788146973;85.46001434326172
82;1673281922.8045568;47.130642699999996;7.2406204999999995;9.282999992370605;1673281922.970033;15.935688972473145;12.363455772399902;85.74366760253906
83;1673281923.033043;47.1306428;7.2406204;9.482000350952148;1673281923.1458995;16.122257232666016;10.983377456665039;85.65062713623047
84;1673281923.217728;47.1306429;7.2406204;9.680000305175781;1673281923.328591;16.059202194213867;8.63606071472168;85.31151580810547
85;1673281923.4102237;47.1306429;7.2406204;9.879000663757324;1673281923.5269394;15.972671508789062;12.15755844116211;85.69962310791016
86;1673281923.5967727;47.1306429;7.2406204999999995;10.077000617980957;1673281923.727213;15.98701000213623;11.333781242370605;86.0191879272461
87;1673281923.8059044;47.130642699999996;7.2406204999999995;10.316000938415527;1673281923.936178;16.14455223083496;10.640207290649414;86.29039764404297
88;1673281924.0108857;47.1306425;7.2406203;10.66100025177002;1673281924.1266875;16.784875869750977;12.116768836975098;86.36689758300781
89;1673281924.1984792;47.1306422;7.24062;11.04900074005127;1673281924.3132498;15.429184913635254;12.813034057617188;86.56283569335938
90;1673281924.3913646;47.1306418;7.2406197;11.447000503540039;1673281924.5125678;15.099220275878906;9.024553298950195;86.09363555908203
91;1673281924.589693;47.130641499999996;7.2406194;11.85200023651123;1673281924.7069085;14.58486557006836;7.642265796661377;85.65605926513672
92;1673281924.7933547;47.1306413;7.2406193;12.255000114440918;1673281924.922724;14.575704574584961;10.388798713684082;85.83916473388672
93;1673281924.9920292;47.1306412;7.240619199999999;12.658000946044922;1673281925.1180644;14.777874946594238;8.091845512390137;85.63387298583984
94;1673281925.1922235;47.1306412;7.2406193;13.058000564575195;1673281925.310415;14.868361473083496;6.738953113555908;85.54966735839844
95;1673281925.3904512;47.1306413;7.2406193;13.460000991821289;1673281925.5145001;14.8303804397583;10.774402618408203;85.98128509521484
96;1673281925.5862834;47.130641499999996;7.2406194;13.863000869750977;1673281925.695189;15.025107383728027;10.65849494934082;85.92930603027344
97;1673281925.7703435;47.1306418;7.2406194;14.269001007080078;1673281925.9100037;15.335363388061523;8.455979347229004;85.65373992919922
98;1673281925.9964237;47.130642099999996;7.240619499999999;14.67400074005127;1673281926.1150582;15.378178596496582;11.939753532409668;85.82746887207031
99;1673281926.1921666;47.1306423;7.240619499999999;15.077000617980957;1673281926.306474;15.530022621154785;12.077208518981934;86.02261352539062
100;1673281926.3777263;47.1306423;7.2406196;15.477001190185547;1673281926.5311518;15.521344184875488;8.877856254577637;85.62394714355469
101;1673281926.6331928;47.1306424;7.2406197;15.879000663757324;1673281926.772324;15.590547561645508;10.74862289428711;85.829345703125
102;1673281926.8655972;47.1306423;7.2406197;16.2810001373291;1673281926.9666514;15.567296028137207;12.286314010620117;86.05628967285156
103;1673281927.039413;47.1306423;7.2406197;16.68800163269043;1673281927.1620255;15.695271492004395;9.171646118164062;85.77557373046875
104;1673281927.2328343;47.1306424;7.2406197;17.099000930786133;1673281927.3495252;15.613482475280762;9.468649864196777;85.66682434082031
105;1673281927.424227;47.1306424;7.240619799999999;17.510000228881836;1673281927.5479574;15.587678909301758;12.477194786071777;86.18795013427734
106;1673281927.6226726;47.1306423;7.2406198999999996;17.918001174926758;1673281927.741315;15.591340065002441;9.504751205444336;85.76801300048828
107;1673281927.827856;47.1306422;7.2406198999999996;18.32200050354004;1673281927.940609;15.46837329864502;8.470725059509277;85.51890563964844
108;1673281928.0094845;47.1306423;7.2406198999999996;18.731000900268555;1673281928.1223044;15.410346984863281;11.784759521484375;85.8083724975586
109;1673281928.195473;47.1306423;7.240619799999999;19.136001586914062;1673281928.325395;15.552918434143066;10.600944519042969;85.89617156982422
110;1673281928.402151;47.1306424;7.240619799999999;19.54400062561035;1673281928.5246854;15.547102928161621;8.528433799743652;85.66673278808594
111;1673281928.611131;47.1306425;7.240619799999999;19.953001022338867;1673281928.7326946;15.259750366210938;11.524420738220215;86.01830291748047
112;1673281928.7996106;47.1306424;7.240619799999999;20.361000061035156;1673281928.9104483;15.370844841003418;11.26026725769043;85.9843521118164
113;1673281928.979744;47.1306424;7.240619799999999;20.768001556396484;1673281929.0989244;15.519754409790039;8.159884452819824;85.39916229248047
114;1673281929.177968;47.1306424;7.240619799999999;21.17500114440918;1673281929.3117878;15.449861526489258;10.735923767089844;85.81636810302734
115;1673281929.3879254;47.1306424;7.240619799999999;21.57400131225586;1673281929.511986;15.346732139587402;11.899664878845215;85.95393371582031
116;1673281929.5867965;47.1306424;7.2406197;21.976001739501953;1673281929.7133293;15.496893882751465;8.708104133605957;85.77278900146484
117;1673281929.8231783;47.1306425;7.2406197;22.37900161743164;1673281929.971162;15.377290725708008;9.6798677444458;85.75098419189453
118;1673281930.0683231;47.1306425;7.2406197;22.783000946044922;1673281930.1801217;15.459881782531738;12.255126953125;86.081298828125
119;1673281930.2538614;47.1306425;7.2406197;23.185001373291016;1673281930.3764923;15.598405838012695;9.59941291809082;85.68373107910156
120;1673281930.4698985;47.1306425;7.2406197;23.590002059936523;1673281930.5862398;15.672099113464355;9.057148933410645;85.6067886352539
121;1673281930.6556106;47.130642599999995;7.2406197;23.9950008392334;1673281930.7654963;15.355000495910645;12.335098266601562;86.09183502197266
122;1673281930.8460982;47.130642599999995;7.2406197;24.394001007080078;1673281930.9628787;15.474164962768555;10.72561264038086;85.9781494140625
123;1673281931.04063;47.130642699999996;7.2406196;24.795001983642578;1673281931.1436257;15.570863723754883;8.760748863220215;85.6225814819336
124;1673281931.2134788;47.130642699999996;7.2406196;25.200000762939453;1673281931.3263335;15.337480545043945;11.847201347351074;85.932861328125
125;1673281931.4021142;47.130642699999996;7.2406196;25.604001998901367;1673281931.5267336;15.518339157104492;11.045883178710938;85.92008972167969
126;1673281931.600041;47.130642599999995;7.2406196;26.007001876831055;1673281931.720213;15.437555313110352;8.320720672607422;85.60321807861328
127;1673281931.7982945;47.130642599999995;7.2406196;26.410001754760742;1673281931.9136298;15.441446304321289;10.09764289855957;85.72946166992188
128;1673281932.0177073;47.130642599999995;7.2406196;26.8070011138916;1673281932.1860907;15.451777458190918;11.605770111083984;85.93267822265625
129;1673281932.2628405;47.130642599999995;7.2406196;27.211000442504883;1673281932.3697612;15.6232271194458;8.702107429504395;85.61054229736328
130;1673281932.4396293;47.130642699999996;7.2406196;27.614002227783203;1673281932.5526729;15.267704010009766;10.162484169006348;85.67664337158203
131;1673281932.6255555;47.130642699999996;7.240619499999999;28.016000747680664;1673281932.7530468;15.308245658874512;12.55798625946045;86.1033935546875
132;1673281932.8268929;47.130642599999995;7.240619499999999;28.41600227355957;1673281932.9367805;15.521571159362793;9.391600608825684;85.75756072998047
133;1673281933.03015;47.130642599999995;7.240619499999999;28.819002151489258;1673281933.165326;15.477339744567871;9.268442153930664;85.71720123291016
134;1673281933.2430704;47.130642699999996;7.2406194;29.22300148010254;1673281933.3392553;15.33234977722168;12.239907264709473;85.84612274169922
135;1673281933.3987968;47.130642699999996;7.2406194;29.6200008392334;1673281933.5073001;15.601595878601074;10.372465133666992;85.74398040771484
136;1673281933.5776424;47.130642699999996;7.2406194;30.019001007080078;1673281933.6962814;15.419656753540039;8.890490531921387;85.52448272705078
137;1673281933.7730377;47.1306428;7.2406194;30.41900062561035;1673281933.8917413;15.399152755737305;11.996115684509277;85.99594116210938
138;1673281933.9723382;47.130642699999996;7.2406194;30.82600212097168;1673281934.0950086;15.321080207824707;11.418126106262207;86.0049057006836
139;1673281934.182403;47.130642699999996;7.240619499999999;31.23000144958496;1673281934.3065274;15.604127883911133;8.41710376739502;85.53376770019531
140;1673281934.389486;47.130642699999996;7.2406196;31.636001586914062;1673281934.5154915;15.539523124694824;11.221477508544922;85.78192901611328
141;1673281934.5877464;47.130642699999996;7.2406196;32.03300094604492;1673281934.7176962;15.55013370513916;11.781961441040039;85.84817504882812
142;1673281934.8138807;47.130642699999996;7.2406196;32.435001373291016;1673281934.9384406;15.705192565917969;8.528507232666016;85.63200378417969
143;1673281935.017056;47.130642699999996;7.2406196;32.84000015258789;1673281935.1659648;15.459789276123047;10.740427017211914;85.81891632080078
144;1673281935.2397022;47.130642699999996;7.2406197;33.24100112915039;1673281935.360289;15.577116012573242;12.06209659576416;86.07108306884766
145;1673281935.4379492;47.130642599999995;7.2406197;33.638999938964844;1673281935.5595806;15.524341583251953;8.924911499023438;85.6755599975586
146;1673281935.6362417;47.130642599999995;7.2406197;34.03700256347656;1673281935.7578068;15.53026294708252;9.949469566345215;85.68790435791016
147;1673281935.829606;47.130642699999996;7.2406197;34.43800354003906;1673281935.9580033;15.418363571166992;12.551346778869629;86.11869049072266
148;1673281936.034657;47.130642699999996;7.2406197;34.83300018310547;1673281936.1582017;15.751991271972656;9.66590690612793;85.90357208251953
149;1673281936.2348852;47.1306428;7.240619799999999;35.233001708984375;1673281936.3584177;15.6804780960083;9.498897552490234;85.57991027832031
150;1673281936.431178;47.1306428;7.240619799999999;35.63500213623047;1673281936.5493746;15.567359924316406;12.381052017211914;85.93782806396484
151;1673281936.6274984;47.130642699999996;7.240619799999999;36.03700256347656;1673281936.7451723;15.585222244262695;10.277488708496094;85.70775604248047
152;1673281936.8325698;47.130642699999996;7.240619799999999;36.44200134277344;1673281936.9580877;15.651928901672363;8.535100936889648;85.63016510009766
153;1673281937.02987;47.130642699999996;7.2406197;36.84700012207031;1673281937.154401;15.518084526062012;11.892333984375;86.05484771728516
154;1673281937.2232475;47.130642599999995;7.2406197;37.246002197265625;1673281937.3438797;15.443130493164062;11.194422721862793;86.03219604492188
155;1673281937.423526;47.130642699999996;7.2406197;37.64900207519531;1673281937.5543911;15.507270812988281;8.401750564575195;85.57347869873047
156;1673281937.6266768;47.130642699999996;7.2406197;38.05000305175781;1673281937.7600198;15.323966026306152;11.268339157104492;85.7612533569336
157;1673281937.8357766;47.130642699999996;7.2406197;38.4530029296875;1673281937.9622216;15.42816162109375;11.540431022644043;85.89395141601562
158;1673281938.0408764;47.130642599999995;7.2406197;38.85600280761719;1673281938.1527274;15.44078254699707;8.316353797912598;85.64242553710938
159;1673281938.2284148;47.130642599999995;7.2406197;39.26100158691406;1673281938.346094;15.31261920928955;10.936448097229004;85.843994140625
160;1673281938.4198103;47.130642699999996;7.2406196;39.66600036621094;1673281938.5479276;15.388650894165039;12.305584907531738;86.01014709472656
161;1673281938.6201954;47.1306428;7.2406196;40.0620002746582;1673281938.751504;15.527008056640625;9.110937118530273;85.58952331542969
162;1673281938.8232965;47.1306429;7.2406196;40.4640007019043;1673281938.954617;15.468944549560547;10.42687702178955;85.7488784790039
163;1673281939.0332348;47.1306429;7.2406197;40.867000579833984;1673281939.1636512;15.394376754760742;12.90590763092041;86.09835815429688
164;1673281939.2442334;47.1306429;7.2406197;41.26900100708008;1673281939.364848;15.488287925720215;10.275530815124512;85.78919982910156
165;1673281939.440569;47.1306428;7.240619799999999;41.67100143432617;1673281939.5607123;15.59308910369873;9.375764846801758;85.8144302368164
166;1673281939.6515417;47.1306428;7.2406198999999996;42.073001861572266;1673281939.819654;15.603436470031738;12.490673065185547;85.97944641113281
167;1673281939.8831017;47.1306428;7.2406198999999996;42.46500015258789;1673281939.9910374;15.888628005981445;10.822976112365723;85.7678451538086
168;1673281940.064852;47.1306428;7.2406198999999996;42.86000061035156;1673281940.1913502;15.825285911560059;8.502092361450195;85.494873046875
169;1673281940.257268;47.1306428;7.2406198999999996;43.255001068115234;1673281940.3651667;15.569954872131348;11.098641395568848;85.8301010131836
170;1673281940.4389255;47.130642699999996;7.2406198999999996;43.650001525878906;1673281940.5551903;15.478584289550781;11.465315818786621;85.98670196533203
171;1673281940.6334083;47.130642599999995;7.2406198999999996;44.047000885009766;1673281940.757987;15.414436340332031;8.277256965637207;85.56614685058594
172;1673281940.83481;47.130642599999995;7.240619799999999;44.445003509521484;1673281940.9446309;15.500896453857422;10.613530158996582;85.72100830078125
173;1673281941.0301657;47.130642699999996;7.240619799999999;44.845001220703125;1673281941.1624987;15.619854927062988;12.111418724060059;85.95707702636719
174;1673281941.2695098;47.130642699999996;7.240619799999999;45.237003326416016;1673281941.378434;15.66204833984375;9.000113487243652;85.65713500976562
175;1673281941.4551573;47.1306428;7.240619799999999;45.634002685546875;1673281941.589545;15.448025703430176;10.12002944946289;85.8077392578125
176;1673281941.671169;47.130642699999996;7.240619799999999;46.035003662109375;1673281941.7820754;15.492493629455566;12.689374923706055;86.14686584472656
177;1673281941.864734;47.130642699999996;7.240619799999999;46.43700408935547;1673281941.9814103;15.611960411071777;9.351070404052734;85.63827514648438
178;1673281942.0532484;47.130642699999996;7.240619799999999;46.83700180053711;1673281942.165131;15.675457000732422;9.04948616027832;85.52186584472656
179;1673281942.2398083;47.130642699999996;7.2406197;47.23800277709961;1673281942.3486907;15.291342735290527;12.519245147705078;86.02814483642578
180;1673281942.4205637;47.130642699999996;7.2406197;47.630001068115234;1673281942.5578635;15.529582023620605;10.674691200256348;85.91350555419922
181;1673281942.631631;47.1306428;7.2406197;48.025001525878906;1673281942.7610807;15.44222354888916;9.431138038635254;85.69400787353516
182;1673281942.841759;47.1306429;7.2406197;48.387001037597656;1673281942.9741287;15.587276458740234;12.742587089538574;86.1290054321289
183;1673281943.052847;47.1306429;7.240619799999999;48.698001861572266;1673281943.1793246;15.39995002746582;10.887920379638672;85.82369995117188
184;1673281943.2521532;47.130643;7.2406198999999996;48.967002868652344;1673281943.3688517;15.656525611877441;8.25800895690918;85.15978240966797
185;1673281943.4377697;47.1306431;7.2406201;49.191001892089844;1673281943.55323;16.07811164855957;11.502864837646484;85.1618881225586
186;1673281943.635396;47.130643299999996;7.2406204;49.384002685546875;1673281943.7501848;25.891910552978516;7.484227180480957;82.68563079833984
187;1673281943.8308342;47.1306435;7.2406204;49.51000213623047;1673281943.9524097;16.15415382385254;13.703112602233887;74.91797637939453
188;1673281944.0310266;47.1306438;7.2406203;49.53600311279297;1673281944.1613827;24.46186065673828;11.92265510559082;63.621768951416016
189;1673281944.2341428;47.1306436;7.2406204;49.55900192260742;1673281944.3638597;36.14377212524414;0.36569252610206604;52.50887680053711
190;1673281944.4390335;47.1306429;7.2406198999999996;49.58700180053711;1673281944.563363;22.65266227722168;-2.7163496017456055;43.96964645385742
191;1673281944.6401298;47.1306418;7.2406188;49.63100051879883;1673281944.7639663;24.340290069580078;-6.475334167480469;36.04405212402344
192;1673281944.8420792;47.1306405;7.2406178;49.68000411987305;1673281944.9581838;22.206199645996094;-7.407904148101807;28.097370147705078
193;1673281945.0372179;47.1306392;7.2406166999999995;49.71600341796875;1673281945.1630135;17.182315826416016;-8.757428169250488;19.175537109375
194;1673281945.2351708;47.130638;7.2406156;49.749000549316406;1673281945.3602443;12.676501274108887;-10.590238571166992;9.70704174041748
195;1673281945.4274395;47.1306369;7.2406147999999995;49.78000259399414;1673281945.5431159;8.3407564163208;-12.710091590881348;-0.5854555368423462
196;1673281945.618685;47.130635999999996;7.240614099999999;49.80900192260742;1673281945.7403753;5.607949256896973;-16.07745933532715;-10.59658432006836
197;1673281945.8141212;47.1306355;7.240613499999999;49.832000732421875;1673281945.9393506;3.515296459197998;-18.436243057250977;-20.451406478881836
198;1673281946.0172367;47.1306352;7.2406131;49.855003356933594;1673281946.1422427;1.0800329446792603;-18.90842056274414;-29.558191299438477
199;1673281946.220199;47.1306351;7.2406128999999995;49.87700271606445;1673281946.3543499;-1.9529430866241455;-18.06623077392578;-38.47941970825195
200;1673281946.4321368;47.130635299999994;7.2406125999999995;49.88300323486328;1673281946.5552804;-4.369968891143799;-18.355377197265625;-47.44108963012695
201;1673281946.6404517;47.1306356;7.2406124;49.89500427246094;1673281946.774737;-6.777957916259766;-17.2998104095459;-52.77154541015625
202;1673281946.8611784;47.130635899999994;7.2406121;49.910003662109375;1673281946.9846945;-5.042041778564453;-17.838092803955078;-50.29800796508789
203;1673281947.0672197;47.1306362;7.2406118;49.926002502441406;1673281947.1800146;-1.431185245513916;-20.84507179260254;-47.0463752746582
204;1673281947.25421;47.1306364;7.2406114;49.939002990722656;1673281947.3841038;-0.10742270946502686;-23.130205154418945;-45.93339920043945
205;1673281947.4715033;47.130636599999995;7.2406109;49.94600296020508;1673281947.574606;-0.066502146422863;-22.76112174987793;-45.73756408691406
206;1673281947.6361291;47.130636599999995;7.2406105;49.94400405883789;1673281947.7547784;-0.2859508693218231;-20.661352157592773;-45.410736083984375
207;1673281947.8343542;47.1306367;7.240610299999999;49.952003479003906;1673281947.962309;-0.46344873309135437;-19.2437744140625;-45.072898864746094
208;1673281948.0452704;47.130636599999995;7.240610299999999;49.96200180053711;1673281948.161507;-0.9497860074043274;-19.141517639160156;-45.07527542114258
209;1673281948.2405865;47.1306365;7.2406104;49.97100067138672;1673281948.3705142;-1.4967883825302124;-18.90894317626953;-45.33823776245117
210;1673281948.4427404;47.1306363;7.2406104;49.97900390625;1673281948.5600326;-0.8981395959854126;-21.165748596191406;-45.30580520629883
211;1673281948.652766;47.130635999999996;7.2406104;49.98400115966797;1673281948.7690263;-2.247011661529541;-22.201908111572266;-45.342872619628906
212;1673281948.875996;47.1306358;7.2406104;49.98600387573242;1673281949.0044322;-23.866512298583984;-20.54435157775879;-45.57171630859375
213;1673281949.0821404;47.130635999999996;7.2406096;49.98500061035156;1673281949.2173936;-43.87301254272461;-13.459540367126465;-47.2575569152832
214;1673281949.3106818;47.1306375;7.2406071999999995;50.000003814697266;1673281949.4116795;-55.951663970947266;-8.610862731933594;-48.24912643432617
215;1673281949.4927335;47.1306412;7.240602;50.005001068115234;1673281949.6025927;-53.82999038696289;-6.905162811279297;-49.27345657348633
216;1673281949.674708;47.1306473;7.240593499999999;50.000003814697266;1673281949.8109024;-54.724422454833984;-5.87994909286499;-51.391414642333984
217;1673281949.8864439;47.130655499999996;7.2405819;50.000003814697266;1673281950.0113876;-55.965858459472656;-5.815497398376465;-51.85829162597656
218;1673281950.1093302;47.1306656;7.2405675;49.99700164794922;1673281950.2494638;-56.298458099365234;-6.550671577453613;-50.78557586669922
219;1673281950.323637;47.130677299999995;7.240550799999999;49.98800277709961;1673281950.434425;-53.480018615722656;-5.545971870422363;-50.67509078979492
220;1673281950.4992619;47.1306903;7.240532;49.98400115966797;1673281950.6083987;-53.28400421142578;-6.719475269317627;-49.75437927246094
221;1673281950.6787255;47.1307043;7.2405117;49.970001220703125;1673281950.792633;-52.922332763671875;-7.9535441398620605;-49.12148666381836
222;1673281950.870707;47.130719299999996;7.240490299999999;49.954002380371094;1673281950.9865417;-50.62664794921875;-6.224351406097412;-52.08920669555664
223;1673281951.0604966;47.130735099999995;7.240467799999999;49.93600082397461;1673281951.1716075;-49.28410339355469;-6.519281387329102;-51.8975830078125
224;1673281951.243335;47.1307514;7.2404448;49.9160041809082;1673281951.3635573;-47.68788528442383;-7.408696174621582;-51.32884216308594
225;1673281951.438457;47.1307681;7.2404212999999995;49.90300369262695;1673281951.565508;-47.65114974975586;-8.506422996520996;-51.143245697021484
226;1673281951.6392858;47.130784999999996;7.2403977;49.887001037597656;1673281951.7705615;-48.419918060302734;-9.854548454284668;-51.01102066040039
227;1673281951.8463035;47.1308021;7.240373699999999;49.884002685546875;1673281951.965268;-47.407203674316406;-11.820014953613281;-50.95180130004883
228;1673281952.0306897;47.1308194;7.2403492;49.893001556396484;1673281952.136423;-46.074764251708984;-15.552738189697266;-50.77626419067383
229;1673281952.2107563;47.1308364;7.240324299999999;49.91400146484375;1673281952.344624;-45.895179748535156;-21.466720581054688;-50.543087005615234
230;1673281952.4527543;47.1308529;7.2402989;49.93600082397461;1673281952.5659904;-40.44457244873047;-32.73014450073242;-51.50049591064453
231;1673281952.6437805;47.130868299999996;7.240272699999999;49.945003509521484;1673281952.7674015;-28.385408401489258;-37.823585510253906;-55.24978256225586
232;1673281952.8455536;47.1308815;7.240246399999999;49.93400192260742;1673281952.970423;-2.704620122909546;-40.08918762207031;-59.67677307128906
233;1673281953.044512;47.1308924;7.240221399999999;49.90900421142578;1673281953.1583593;16.017099380493164;-25.833189010620117;-56.45060729980469
234;1673281953.2345622;47.130900999999994;7.2401995999999995;49.87300109863281;1673281953.364702;18.020723342895508;-10.59385871887207;-46.673133850097656
235;1673281953.4425893;47.130907799999996;7.240182;49.83500289916992;1673281953.5555825;19.360733032226562;-6.825961112976074;-43.38187789916992
236;1673281953.629451;47.130913299999996;7.240168499999999;49.810001373291016;1673281953.7625477;31.581106185913086;-13.548747062683105;-46.65678405761719
237;1673281953.8435433;47.1309171;7.2401594;49.83400344848633;1673281953.9728596;40.29862976074219;-18.08735466003418;-46.358619689941406
238;1673281954.0466607;47.130918699999995;7.2401542999999995;49.87800216674805;1673281954.163424;41.827667236328125;-21.29465103149414;-45.147037506103516
239;1673281954.232307;47.1309177;7.2401529;49.913002014160156;1673281954.3568454;45.42226791381836;-27.907751083374023;-45.85219192504883
240;1673281954.4433315;47.1309142;7.2401542999999995;49.957000732421875;1673281954.5875287;42.61615753173828;-34.28379821777344;-44.267967224121094
241;1673281954.6876767;47.1309081;7.240157699999999;50.005001068115234;1673281954.857803;33.572105407714844;-36.95807647705078;-44.970760345458984
242;1673281954.9296262;47.130899899999996;7.240162199999999;50.04600143432617;1673281955.0414855;17.175209045410156;-37.20024108886719;-45.903846740722656
243;1673281955.1123686;47.1308906;7.2401665;50.06900405883789;1673281955.2223248;6.135934829711914;-29.696468353271484;-48.22256088256836
244;1673281955.284788;47.130881099999996;7.240170399999999;50.06800079345703;1673281955.4029815;-1.5900756120681763;-25.319278717041016;-49.90662384033203
245;1673281955.4830167;47.1308722;7.2401734;50.06700134277344;1673281955.6003237;1.0364514589309692;-22.513961791992188;-50.49556350708008
246;1673281955.6784005;47.1308638;7.2401759;50.06500244140625;1673281955.8024678;2.022428274154663;-10.341226577758789;-48.77920913696289
247;1673281955.8834617;47.1308558;7.2401784;49.913002014160156;1673281956.0065613;-6.5026631355285645;26.74658966064453;-48.032676696777344
248;1673281956.077789;47.130848099999994;7.240181;49.39600372314453;1673281956.194554;-15.846726417541504;73.81016540527344;-55.72210693359375
249;1673281956.2643871;47.1308404;7.2401836;48.48800277709961;1673281956.4206464;-17.763076782226562;115.47154235839844;-67.5398178100586
250;1673281956.4909213;47.1308328;7.2401861;47.21600341796875;1673281956.6003778;-14.802388191223145;137.48919677734375;-75.17308807373047
251;1673281956.674552;47.1308255;7.2401886;45.57500076293945;1673281956.7902625;-15.523151397705078;135.6723175048828;-78.98574829101562
252;1673281956.8610702;47.1308185;7.2401912;43.55600357055664;1673281956.9875135;-23.077606201171875;108.70763397216797;-77.55057525634766
253;1673281957.0554013;47.1308116;7.2401938999999995;41.19200134277344;1673281957.1857626;-25.2262020111084;52.247406005859375;-61.25796127319336
254;1673281957.2556376;47.1308047;7.2401966;38.48100280761719;1673281957.372319;-6.851955890655518;-10.712449073791504;-47.182437896728516
255;1673281957.451915;47.130797699999995;7.2401994;35.37300109863281;1673281957.569681;14.600940704345703;-51.55656433105469;-51.6219367980957
256;1673281957.6531787;47.130790999999995;7.2402025;31.884000778198242;1673281957.7718182;26.094619750976562;-58.5217399597168;-54.134300231933594
257;1673281957.84556;47.1307847;7.2402057;28.060001373291016;1673281958.01844;23.549301147460938;-24.005199432373047;-40.98120880126953
258;1673281958.0906684;47.130778799999995;7.2402090999999995;23.887001037597656;1673281958.229352;-4.129458427429199;30.489700317382812;-35.660423278808594
259;1673281958.3148336;47.1307732;7.240212499999999;19.321001052856445;1673281958.4637325;-28.53874969482422;76.68224334716797;-54.93235778808594
260;1673281958.538062;47.130767399999996;7.2402156;14.397000312805176;1673281958.6426008;-40.45329666137695;84.03826904296875;-66.29939270019531
261;1673281958.7251809;47.1307615;7.2402187;9.169000625610352;1673281958.849669;-39.49445343017578;30.707313537597656;-40.28940200805664
262;1673281958.9107533;47.1307553;7.2402216;3.621000289916992;1673281959.035321;-0.7174865007400513;-22.400127410888672;-26.00932502746582
263;1673281959.1032004;47.1307513;7.2402238;0.11400000751018524;1673281959.2101367;1.2538855075836182;8.10517692565918;-30.514554977416992
264;1673281959.2764978;47.1307502;7.2402204999999995;0.3190000057220459;1673281959.387395;1.9396716356277466;4.597914695739746;-31.05109977722168
265;1673281959.4582062;47.1307483;7.2402147999999995;0.4750000238418579;1673281959.5756676;2.0193192958831787;7.842527866363525;-30.512805938720703
266;1673281959.6460254;47.1307469;7.2402108;0.5660000443458557;1673281959.7714918;1.9934512376785278;6.59409761428833;-29.26806640625
267;1673281959.8471794;47.1307475;7.2402123;0.597000002861023;1673281959.9677975;1.9861371517181396;8.050506591796875;-28.354860305786133
268;1673281960.0434601;47.130748399999995;7.2402153;0.6140000224113464;1673281960.1699014;1.978800654411316;7.852258205413818;-27.725860595703125
269;1673281960.2368023;47.1307493;7.2402182999999996;0.625;1673281960.3525496;1.9529606103897095;7.724381923675537;-27.386035919189453
270;1673281960.429181;47.1307499;7.2402209;0.6320000290870667;1673281960.567944;1.955126166343689;7.345995903015137;-27.0380916595459
271;1673281960.65582;47.1307504;7.2402229;0.6620000600814819;1673281960.7931316;1.922179937362671;7.06635046005249;-26.774911880493164
272;1673281960.8795328;47.1307506;7.2402242999999995;0.6770000457763672;1673281961.006593;1.9210383892059326;6.695701599121094;-26.5238094329834
273;1673281961.0846615;47.1307507;7.2402253;0.6860000491142273;1673281961.2004309;1.8758114576339722;6.538377285003662;-26.322328567504883
274;1673281961.2693183;47.1307507;7.240226;0.6920000314712524;1673281961.374341;1.9090102910995483;6.5161027908325195;-26.17074203491211
275;1673281961.4461377;47.1307507;7.2402264999999995;0.6930000185966492;1673281961.5634131;1.881303310394287;6.465173244476318;-26.067846298217773
276;1673281961.6454387;47.1307507;7.240227;0.6940000057220459;1673281961.7650437;1.8844411373138428;6.488654136657715;-25.92945098876953
277;1673281961.8378844;47.1307507;7.2402273;0.6930000185966492;1673281961.9584959;1.8215231895446777;6.5314741134643555;-25.816181182861328
278;1673281962.0517912;47.1307508;7.2402288;0.7040000557899475;1673281962.1723971;1.7688266038894653;6.522994041442871;-25.72635269165039
279;1673281962.2510085;47.1307508;7.2402294;0.7050000429153442;1673281962.3795125;1.7429805994033813;6.436120510101318;-25.660320281982422
280;1673281962.4533434;47.1307507;7.2402296999999995;0.7040000557899475;1673281962.5765035;1.6797218322753906;6.374504566192627;-25.599802017211914
281;1673281962.6526968;47.1307507;7.2402296999999995;0.7000000476837158;1673281962.7771509;1.6380313634872437;6.289245128631592;-25.545516967773438
282;1673281962.8519342;47.1307506;7.2402296999999995;0.6950000524520874;1673281962.9735773;1.6361051797866821;6.201014995574951;-25.489059448242188
283;1673281963.0581043;47.1307506;7.2402296999999995;0.690000057220459;1673281963.1924584;1.6059597730636597;6.197417736053467;-25.42192840576172
284;1673281963.2769077;47.1307506;7.240230899999999;0.6920000314712524;1673281963.3897443;1.538246512413025;6.113366603851318;-25.34326934814453
285;1673281963.460642;47.1307506;7.2402313;0.6890000104904175;1673281963.5779448;1.5106476545333862;5.986297607421875;-25.301298141479492
286;1673281963.6551375;47.1307505;7.2402311;0.6830000281333923;1673281963.7669618;1.472218632698059;5.867930889129639;-25.22690773010254
287;1673281963.8427713;47.1307505;7.2402307;0.675000011920929;1673281963.974107;1.4346592426300049;5.757524490356445;-25.227367401123047
288;1673281964.0537572;47.1307504;7.2402305;0.6660000085830688;1673281964.168526;1.3622281551361084;5.636033058166504;-25.148014068603516
289;1673281964.2442138;47.1307504;7.2402301;0.6540000438690186;1673281964.3668597;1.387566328048706;5.511322498321533;-25.101808547973633
290;1673281964.4572535;47.130750299999995;7.2402298;0.6390000581741333;1673281964.5775151;1.3293771743774414;5.448852062225342;-25.065345764160156
291;1673281964.656713;47.1307504;7.2402305;0.625;1673281964.7821941;1.2213040590286255;5.288053035736084;-25.069238662719727
292;1673281964.8608117;47.1307504;7.240230599999999;0.609000027179718;1673281964.965851;1.2059190273284912;5.21439790725708;-25.033723831176758
293;1673281965.0397248;47.1307504;7.2402304;0.5920000076293945;1673281965.1662335;1.1210724115371704;5.1263427734375;-25.015331268310547
294;1673281965.244009;47.130750299999995;7.2402301;0.5740000009536743;1673281965.402624;1.0959869623184204;5.056653022766113;-24.99831199645996
295;1673281965.4832416;47.130750299999995;7.2402296999999995;0.5530000329017639;1673281965.5917354;1.05830717086792;4.999847888946533;-24.955232620239258
296;1673281965.6669211;47.1307502;7.2402294;0.531000018119812;1673281965.784576;1.0578922033309937;4.550693988800049;-24.903240203857422
297;1673281965.862217;47.130750299999995;7.2402299999999995;0.5160000324249268;1673281965.9720836;1.0418823957443237;4.223893165588379;-24.84734535217285
298;1673281966.047782;47.130750299999995;7.2402299999999995;0.0;1673281966.1732419;1.0046164989471436;3.93796706199646;-24.82281494140625
299;1673281966.243078;47.130750299999995;7.2402299;-0.013000000268220901;;;;
