;pos_time;latitude;longitude;altitude;alt_time;pitch;roll;yaw
0;1667837691.5335011;46.9755343;7.1803558999999995;-0.0430000014603138;1667837691.711132;-0.02195553481578827;-0.7209804654121399;90.5368881225586
1;1667837691.79616;46.9755343;7.1803558999999995;-0.04100000113248825;1667837691.9281514;-0.1702456921339035;-0.8973174691200256;90.50370025634766
2;1667837692.0208752;46.9755343;7.1803558999999995;-0.04000000283122063;1667837692.155565;-0.21345758438110352;-0.8148146867752075;90.40242767333984
3;1667837692.2375448;46.9755343;7.1803558999999995;-0.036000002175569534;1667837692.3507597;-0.11508654803037643;-0.5882312059402466;90.52782440185547
4;1667837692.4259126;46.9755344;7.1803558999999995;-0.03400000184774399;1667837692.5918329;-0.35494330525398254;-0.3955683410167694;90.46544647216797
5;1667837692.6757715;46.9755344;7.1803558999999995;-0.03200000151991844;1667837692.7928886;-0.33036333322525024;-0.628480076789856;90.5709457397461
6;1667837692.886584;46.9755344;7.1803558;-0.03100000135600567;1667837693.0251777;-0.02406873181462288;-0.5981692671775818;90.51207733154297
7;1667837693.1084342;46.975534499999995;7.1803558;-0.03200000151991844;1667837693.2470934;-0.11588440090417862;-0.615748405456543;90.46654510498047
8;1667837693.3281012;46.975534499999995;7.1803558;-0.03700000047683716;1667837693.5076876;-0.09742654114961624;-0.4325803220272064;90.56696319580078
9;1667837693.5935755;46.975534499999995;7.1803558;-0.0020000000949949026;1667837693.737046;0.03301825746893883;-0.6312494874000549;90.51520538330078
10;1667837693.8459024;46.975534499999995;7.1803558;-0.0010000000474974513;1667837693.997974;-0.09063384681940079;-0.7930828332901001;90.54779815673828
11;1667837694.0876129;46.9755344;7.1803557;-0.0010000000474974513;1667837694.212183;0.00880363304167986;-1.03508722782135;90.72236633300781
12;1667837694.3056808;46.975534499999995;7.1803557;0.0010000000474974513;1667837694.5060387;-0.05014015734195709;-0.7870712876319885;90.73600769042969
13;1667837694.591927;46.975534499999995;7.1803558;0.0020000000949949026;1667837694.6984138;-0.09331770986318588;-0.6378052830696106;90.67462921142578
14;1667837694.7753959;46.975534599999996;7.1803558;0.006000000052154064;1667837694.92375;-0.19651876389980316;-0.6077678799629211;90.71321868896484
15;1667837695.0574613;46.9755347;7.1803558;-0.003000000026077032;1667837695.1859317;-0.08919229358434677;-0.3890132009983063;90.59732818603516
16;1667837695.2669358;46.9755347;7.1803558999999995;-0.004000000189989805;1667837695.3928316;-0.010660244151949883;-0.5606757998466492;90.6580810546875
17;1667837695.4878829;46.9755347;7.180356;-0.006000000052154064;1667837695.607404;-0.02818625420331955;-0.46003663539886475;90.70724487304688
18;1667837695.6830692;46.9755347;7.180356;-0.010000000707805157;1667837695.8094647;0.03117607720196247;-0.5028943419456482;90.74071502685547
19;1667837695.89081;46.9755347;7.1803561;-0.01100000087171793;1667837696.0162497;-0.03964758291840553;-0.427420973777771;90.611083984375
20;1667837696.105582;46.9755348;7.1803561;-0.014000000432133675;1667837696.2349312;0.11362942308187485;-0.48611271381378174;90.61209869384766
21;1667837696.3091083;46.9755348;7.180356199999999;-0.015000000596046448;1667837696.4408686;0.18622525036334991;-0.27534082531929016;90.70503234863281
22;1667837696.5326116;46.9755348;7.180356199999999;-0.013000000268220901;1667837696.6653476;0.20450209081172943;-0.03756767138838768;90.66851043701172
23;1667837696.7375724;46.9755347;7.180356199999999;-0.01100000087171793;1667837696.8732355;0.515398383140564;0.5748156905174255;90.75932312011719
24;1667837696.9493623;46.975534599999996;7.1803561;-0.012000000104308128;1667837697.0694165;0.6801544427871704;0.4813874363899231;91.12150573730469
25;1667837697.1504207;46.975534499999995;7.1803561;-0.00800000037997961;1667837697.3075542;1.573482871055603;1.1096644401550293;90.90606689453125
26;1667837697.3924682;46.9755344;7.1803561;0.0;1667837697.5276673;2.596066951751709;1.9487090110778809;90.15188598632812
27;1667837697.604771;46.9755343;7.180356;0.003000000026077032;1667837697.731667;2.5791990756988525;1.166503667831421;88.97411346435547
28;1667837697.807794;46.9755341;7.1803558;0.006000000052154064;1667837697.9434593;-1.1867692470550537;-3.3141744136810303;89.01087951660156
29;1667837698.0293462;46.975533899999995;7.1803555999999995;0.029000001028180122;1667837698.162084;-1.7987678050994873;-0.21958206593990326;88.76963806152344
30;1667837698.2411401;46.975533899999995;7.1803554;0.07400000095367432;1667837698.388514;-1.0277690887451172;-0.05538574233651161;88.50334930419922
31;1667837698.4831936;46.975533999999996;7.1803554;0.13700000941753387;1667837698.6051872;-0.4204576015472412;-4.408970355987549;88.524169921875
32;1667837698.69693;46.9755341;7.1803554;0.2110000103712082;1667837698.819908;0.15378108620643616;-1.2706851959228516;88.53923034667969
33;1667837698.9028678;46.9755344;7.1803555999999995;0.30000001192092896;1667837699.0375547;0.3489481806755066;2.4885733127593994;88.32579803466797
34;1667837699.1185641;46.975534599999996;7.1803557;0.40400001406669617;1667837699.2298293;-0.5125258564949036;-2.3349709510803223;88.82723999023438
35;1667837699.3118134;46.9755347;7.1803558;0.5190000534057617;1667837699.43381;-0.4676395058631897;-1.3874266147613525;89.00602722167969
36;1667837699.518722;46.9755348;7.1803558999999995;0.6450000405311584;1667837699.7558923;-0.15758278965950012;2.5156819820404053;88.69367218017578
37;1667837699.929621;46.975535;7.180356;0.7910000085830688;1667837700.0633333;1.1215604543685913;-0.6140478849411011;88.63424682617188
38;1667837700.145317;46.975535199999996;7.180356;0.9480000734329224;1667837700.2653625;1.32673978805542;-2.1620304584503174;88.75718688964844
39;1667837700.3473465;46.9755354;7.180356;1.1150000095367432;1667837700.4800816;0.9892310500144958;1.8276535272598267;88.47510528564453
40;1667837700.5591383;46.9755356;7.180356;1.2970000505447388;1667837700.6830916;0.44871801137924194;3.0607824325561523;88.38624572753906
41;1667837700.763122;46.975535699999995;7.180356;1.4850000143051147;1667837700.891954;-0.331900954246521;-0.9142471551895142;89.14592742919922
42;1667837700.9905305;46.9755355;7.180356;1.6700000762939453;1667837701.121314;-0.5987758040428162;-1.461724042892456;89.28485870361328
43;1667837701.1945162;46.9755354;7.180356;1.8580000400543213;1667837701.3135877;-0.37952637672424316;2.2498090267181396;88.92808532714844
44;1667837701.646403;46.9755353;7.180356;2.052000045776367;1667837701.7762125;0.6458029747009277;-0.12515589594841003;88.93978118896484
45;1667837701.862101;46.9755353;7.180356;2.244000196456909;1667837701.9841;0.7706035375595093;-2.9400527477264404;88.8063735961914
46;1667837702.0621774;46.975535199999996;7.180356;2.43500018119812;1667837702.188083;0.8652081489562988;1.9175549745559692;88.2681655883789
47;1667837702.2768986;46.9755354;7.180356;2.633000135421753;1667837702.3930418;0.01899336837232113;2.722170352935791;88.5261459350586
48;1667837702.4662538;46.9755354;7.180356;2.8340001106262207;1667837702.597027;-0.22381038963794708;-2.0933821201324463;88.53433227539062
49;1667837702.687794;46.975535199999996;7.1803561;3.0340001583099365;1667837702.818579;-0.3258042633533478;0.16429641842842102;88.19577026367188
50;1667837702.896659;46.975535;7.180356199999999;3.2350001335144043;1667837703.0342736;0.40741828083992004;2.1683950424194336;88.03728485107422
51;1667837703.1035688;46.9755348;7.1803563;3.43500018119812;1667837703.2538745;1.370619535446167;-2.5805768966674805;88.04396057128906
52;1667837703.3592844;46.9755347;7.1803563;3.632000207901001;1667837703.6003566;0.8956913352012634;-2.2844200134277344;88.28587341308594
53;1667837703.6598923;46.975534599999996;7.1803563;3.8330001831054688;1667837703.7613935;0.9199734926223755;2.1161019802093506;88.2685546875
54;1667837703.8287408;46.975534599999996;7.1803563;4.0370001792907715;1667837703.9478095;0.1416390985250473;0.38123977184295654;88.318359375
55;1667837704.0278444;46.975534499999995;7.1803563;4.242000102996826;1667837704.1576507;-0.4463312029838562;-3.8793389797210693;88.61931610107422
56;1667837704.232803;46.9755343;7.1803563;4.447000026702881;1667837704.4387374;-0.21370384097099304;1.0576975345611572;88.17054748535156
57;1667837704.5646453;46.9755342;7.1803563;4.650000095367432;1667837704.6720018;1.0603708028793335;0.644802451133728;88.07157897949219
58;1667837704.7600975;46.9755341;7.1803563;4.8560004234313965;1667837704.9082506;1.216107726097107;-3.8632187843322754;88.28414916992188
59;1667837704.9882834;46.975533999999996;7.1803563;5.062000274658203;1667837705.1160345;0.8113178610801697;-1.3956997394561768;87.97212219238281
60;1667837705.213633;46.975533999999996;7.1803563;5.269000053405762;1667837705.329777;0.5666576623916626;2.2210402488708496;88.1114501953125
61;1667837705.4449449;46.9755342;7.1803563;5.482000350952148;1667837705.6460004;-0.46521350741386414;-1.7017483711242676;88.60762023925781
62;1667837705.7162752;46.9755344;7.1803563;5.695000171661377;1667837705.838276;0.0875541940331459;-1.0812629461288452;88.28035736083984
63;1667837705.9144027;46.9755344;7.180356199999999;5.902000427246094;1667837706.0373769;0.17769810557365417;2.1428415775299072;88.16682434082031
64;1667837706.1154573;46.9755344;7.180356199999999;6.1060004234313965;1667837706.242337;1.118106722831726;-0.31215476989746094;88.16262817382812
65;1667837706.3233466;46.9755344;7.1803563;6.311000347137451;1667837706.448273;1.2042872905731201;-2.837806463241577;88.30992126464844
66;1667837706.558561;46.9755344;7.1803563;6.51800012588501;1667837706.7215538;0.8124503493309021;1.3239068984985352;88.36127471923828
67;1667837706.7996345;46.975534499999995;7.1803563;6.7260003089904785;1667837706.930763;0.6221449971199036;1.8149210214614868;88.1635513305664
68;1667837707.0176609;46.975534599999996;7.180356199999999;6.934000492095947;1667837707.1498442;-0.30229392647743225;-2.5279760360717773;88.73380279541016
69;1667837707.2347536;46.975534499999995;7.180356199999999;7.139000415802002;1667837707.4641163;-0.4692682921886444;-0.26235127449035645;88.47161102294922
70;1667837707.5773318;46.975534499999995;7.1803561;7.339000225067139;1667837707.7090912;-0.06410101801156998;1.9440698623657227;87.92576599121094
71;1667837707.8057156;46.9755344;7.1803561;7.5450005531311035;1667837707.9423535;0.9469168782234192;-2.271196126937866;88.02613830566406
72;1667837708.0223877;46.9755343;7.1803561;7.758000373840332;1667837708.2859056;0.8650292158126831;-2.9886085987091064;88.0503158569336
73;1667837708.363986;46.9755343;7.1803561;7.9710001945495605;1667837708.5133133;0.4848707318305969;2.5520055294036865;88.06452941894531
74;1667837708.5884652;46.975534499999995;7.1803561;8.187000274658203;1667837708.7085145;-0.12910038232803345;-0.6573631763458252;88.48783874511719
75;1667837708.7856174;46.975534599999996;7.180356;8.402000427246094;1667837708.9076185;-0.3803030848503113;-2.0251967906951904;88.4373779296875
76;1667837709.0471847;46.975534599999996;7.180356;8.61400032043457;1667837709.1887069;-0.11571308225393295;2.1429643630981445;88.41251373291016
77;1667837709.271667;46.975534599999996;7.180356;8.821000099182129;1667837709.3917148;1.1407747268676758;0.6300560235977173;88.0506591796875
78;1667837709.4854097;46.975534599999996;7.1803561;9.027000427246094;1667837709.604485;1.3370248079299927;-3.3823795318603516;88.17240905761719
79;1667837709.688558;46.975534499999995;7.180356199999999;9.231000900268555;1667837709.9062054;0.514950692653656;1.6076830625534058;88.07209777832031
80;1667837710.0945766;46.975534599999996;7.180356199999999;9.434000015258789;1667837710.2195003;0.13796858489513397;0.9813578128814697;88.15166473388672
81;1667837710.3502848;46.9755347;7.180356199999999;9.63900089263916;1667837710.542563;0.058629341423511505;-1.4806253910064697;88.608642578125
82;1667837710.6192715;46.9755348;7.180356199999999;9.850000381469727;1667837710.7454948;-0.24959418177604675;-0.1533486545085907;88.5327377319336
83;1667837710.8274822;46.9755348;7.1803561;10.054000854492188;1667837710.9543595;0.35407763719558716;2.765273094177246;88.1722412109375
84;1667837711.04415;46.9755347;7.1803561;10.276000022888184;1667837711.1973827;1.191178560256958;-1.0065101385116577;87.94438171386719
85;1667837711.282295;46.975534599999996;7.180356199999999;10.57800006866455;1667837711.412242;0.8536751866340637;-3.0221657752990723;88.05497741699219
86;1667837711.504961;46.975534499999995;7.180356199999999;10.949000358581543;1667837711.634766;0.8181080222129822;0.4813910126686096;88.17823791503906
87;1667837711.7313998;46.975534599999996;7.180356199999999;11.346000671386719;1667837711.8617415;0.5160224437713623;1.6564608812332153;88.37237548828125
88;1667837711.9525065;46.9755348;7.1803563;11.754000663757324;1667837712.106717;0.19276344776153564;-1.8754150867462158;88.5866928100586
89;1667837712.185771;46.9755349;7.1803563;12.16100025177002;1667837712.3122923;-0.007317239884287119;0.6095758080482483;88.36314392089844
90;1667837712.3923194;46.975535;7.1803563;12.565000534057617;1667837712.5406768;0.1755196899175644;3.3924195766448975;87.9921875
91;1667837712.6383233;46.975535099999995;7.1803563;12.975000381469727;1667837712.7661786;0.7922715544700623;-1.0482172966003418;88.27392578125
92;1667837712.9057508;46.975535;7.180356499999999;13.390000343322754;1667837713.0599575;1.2903660535812378;-1.3489691019058228;88.19986724853516
93;1667837713.1419394;46.9755349;7.180356499999999;13.805000305175781;1667837713.2746742;1.325673222541809;2.473763942718506;88.29176330566406
94;1667837713.3605628;46.9755349;7.1803566;14.215001106262207;1667837713.4923332;0.8663763403892517;-0.9305643439292908;88.49940490722656
95;1667837713.6045635;46.9755349;7.1803566;14.618000984191895;1667837713.735931;-0.13885843753814697;-0.3435608744621277;88.30205535888672
96;1667837713.8188877;46.9755349;7.180356499999999;15.019001007080078;1667837713.9360077;-0.09608735889196396;2.1941654682159424;87.93319702148438
97;1667837714.0209262;46.9755349;7.180356499999999;15.421000480651855;1667837714.1526806;0.9351947903633118;-0.9453535079956055;88.29151153564453
98;1667837714.2385702;46.9755348;7.1803566;15.820000648498535;1667837714.425961;1.1044950485229492;-2.8492438793182373;88.28675842285156
99;1667837714.5313668;46.9755347;7.1803566;16.21700096130371;1667837714.666057;1.5283949375152588;0.9521176218986511;88.224609375
100;1667837714.7480414;46.9755347;7.1803566;16.61600112915039;1667837714.88468;0.673165500164032;-0.20452147722244263;88.43820190429688
101;1667837714.9632814;46.9755348;7.180356499999999;17.011001586914062;1667837715.091427;0.25544095039367676;-2.13093900680542;88.50900268554688
102;1667837715.223186;46.9755348;7.1803564;17.402999877929688;1667837715.376941;-0.21886086463928223;1.1111029386520386;88.23058319091797
103;1667837715.4589293;46.9755348;7.1803564;17.793001174926758;1667837715.6053264;0.09218747168779373;1.814685344696045;88.05292510986328
104;1667837715.7068288;46.9755348;7.1803563;18.1820011138916;1667837715.8346887;0.37116608023643494;-1.757184386253357;88.28223419189453
105;1667837715.9508312;46.9755348;7.1803563;18.571001052856445;1667837716.112845;1.1890734434127808;-1.5221506357192993;88.40818786621094
106;1667837716.190928;46.9755347;7.1803564;18.963001251220703;1667837716.3170984;1.0534344911575317;2.980903387069702;88.30776977539062
107;1667837716.3971348;46.9755348;7.1803564;19.354000091552734;1667837716.5482295;0.48771432042121887;-1.1687334775924683;88.47688293457031
108;1667837716.6275425;46.9755349;7.1803563;19.744001388549805;1667837716.7422342;0.2491726279258728;-1.6232225894927979;88.38846588134766
109;1667837716.8251922;46.9755349;7.1803563;20.131000518798828;1667837716.9779613;-0.14381255209445953;3.0483763217926025;88.03040313720703
110;1667837717.1590383;46.975535;7.1803563;20.519001007080078;1667837717.2836597;0.12297633290290833;0.5439983606338501;88.13182067871094
111;1667837717.4847143;46.9755349;7.1803563;20.91200065612793;1667837717.6262429;0.4086189866065979;-2.457587957382202;88.56700134277344
112;1667837717.8126507;46.9755348;7.1803563;21.3070011138916;1667837717.9805253;1.0690703392028809;1.3593283891677856;88.27388000488281
113;1667837718.0644598;46.9755347;7.1803563;21.700000762939453;1667837718.234284;0.9387743473052979;-0.23032329976558685;88.25218963623047
114;1667837718.3230991;46.9755347;7.180356199999999;22.091001510620117;1667837718.4588187;1.0565528869628906;-2.5560832023620605;88.33946990966797
115;1667837718.5486116;46.9755348;7.180356199999999;22.483001708984375;1667837718.66671;-0.258206307888031;0.48766571283340454;88.18257141113281
116;1667837718.79066;46.9755349;7.180356;22.876001358032227;1667837718.9233954;-0.27584537863731384;2.285749673843384;87.92938232421875
117;1667837719.001475;46.9755349;7.1803558999999995;23.267000198364258;1667837719.1351871;-0.566116988658905;-1.6666622161865234;88.4864730834961
118;1667837719.2171714;46.9755349;7.1803558999999995;23.66200065612793;1667837719.390899;0.2523142397403717;-1.3116440773010254;88.57920837402344
119;1667837719.4943554;46.9755347;7.1803558999999995;24.0570011138916;1667837719.6173325;0.32355788350105286;2.0963001251220703;88.33106231689453
120;1667837719.6973631;46.9755347;7.1803558999999995;24.452001571655273;1667837719.8369324;0.9849913716316223;-1.3314398527145386;88.34049987792969
121;1667837719.9218423;46.975534599999996;7.1803558999999995;24.84600067138672;1667837720.075079;0.5284020900726318;-2.83439564704895;88.33399963378906
122;1667837720.146324;46.975534499999995;7.1803558999999995;25.242000579833984;1667837720.2810125;0.01870569959282875;1.5101115703582764;88.08280181884766
123;1667837720.3512824;46.975534599999996;7.1803558999999995;25.637001037597656;1667837720.4898765;-0.4774601459503174;0.4293356239795685;88.26852416992188
124;1667837720.6059914;46.9755347;7.1803558;26.032001495361328;1667837720.8226628;-0.2876088321208954;-2.0791587829589844;88.581787109375
125;1667837720.9105017;46.9755347;7.1803557;26.424001693725586;1667837721.0422654;0.057757843285799026;0.7620197534561157;88.49663543701172
126;1667837721.1593823;46.9755347;7.1803557;26.815000534057617;1667837721.3038344;0.7334687113761902;2.849327325820923;88.16597747802734
127;1667837721.3887415;46.9755347;7.1803557;27.21000099182129;1667837721.530024;0.6684092879295349;-2.444258689880371;88.30506896972656
128;1667837721.6110349;46.975534599999996;7.1803557;27.612001419067383;1667837721.7388873;0.2679978907108307;-0.7376304268836975;88.13593292236328
129;1667837721.8169684;46.975534599999996;7.1803557;28.012001037597656;1667837722.0147054;-0.016661284491419792;2.6336638927459717;88.09998321533203
130;1667837722.0996156;46.975534599999996;7.1803558;28.410001754760742;1667837722.221615;-0.19066821038722992;-1.6922333240509033;88.46710205078125
131;1667837722.3114076;46.975534599999996;7.1803558;28.8070011138916;1667837722.4373143;-0.3535301387310028;-2.5569615364074707;88.5858383178711
132;1667837722.5290542;46.975534599999996;7.1803558;29.200000762939453;1667837722.6666727;0.09480620920658112;1.774041771888733;88.18866729736328
133;1667837722.7447557;46.9755347;7.1803558999999995;29.59200096130371;1667837722.9249482;1.1123028993606567;-0.7575599551200867;88.12320709228516
134;1667837723.120148;46.9755348;7.1803558999999995;29.992000579833984;1667837723.2480042;0.8007871508598328;-1.5234159231185913;88.4112319946289
135;1667837723.330962;46.9755348;7.1803558999999995;30.393001556396484;1667837723.5628006;0.6834467649459839;1.805037021636963;88.10804748535156
136;1667837723.6457622;46.9755348;7.180356;30.793001174926758;1667837723.7784984;0.33070260286331177;1.91657292842865;88.20563507080078
137;1667837723.872192;46.9755349;7.180356;31.189001083374023;1667837723.9815037;0.0227290540933609;-1.9451103210449219;88.48546600341797
138;1667837724.0664155;46.9755349;7.180356;31.584001541137695;1667837724.244047;-0.23666495084762573;1.390015721321106;88.21234130859375
139;1667837724.3387206;46.975535;7.1803561;31.983001708984375;1667837724.4548666;0.16270022094249725;2.460850477218628;88.02037048339844
140;1667837724.5378292;46.975535;7.1803561;32.380001068115234;1667837724.6703906;0.4901692569255829;-1.227858543395996;88.30824279785156
141;1667837724.7572515;46.9755348;7.180356199999999;32.772003173828125;1667837724.8909664;0.8223330974578857;-2.056103467941284;88.44033813476562
142;1667837724.9573317;46.9755347;7.180356199999999;33.16200256347656;1667837725.1398454;1.300809383392334;2.9410316944122314;88.19715881347656
143;1667837725.221827;46.975534599999996;7.180356199999999;33.551002502441406;1667837725.3535879;0.560471773147583;-1.0365062952041626;88.41947174072266
144;1667837725.4511883;46.975534499999995;7.180356199999999;33.93400192260742;1667837725.5819712;0.0032395371235907078;-3.231471300125122;88.3922119140625
145;1667837725.6639552;46.975534599999996;7.180356199999999;34.320003509521484;1667837725.7937648;-0.22237731516361237;1.4626964330673218;88.0371322631836
146;1667837725.874771;46.9755347;7.1803561;34.7130012512207;1667837726.0319068;-0.2903977632522583;1.4223119020462036;88.13615417480469
147;1667837726.142195;46.9755348;7.1803561;35.10700225830078;1667837726.2817628;0.1834237426519394;-2.0327558517456055;88.45719146728516
148;1667837726.356918;46.9755347;7.1803561;35.50300216674805;1667837726.4935575;0.710975706577301;0.9166702628135681;88.45533752441406
149;1667837726.5726154;46.9755347;7.1803561;35.900001525878906;1667837726.7356026;0.9527360796928406;2.2208096981048584;88.3075180053711
150;1667837726.8292983;46.9755347;7.1803561;36.290000915527344;1667837726.9620354;0.7636410593986511;-1.5009491443634033;88.41825866699219
151;1667837727.0576825;46.9755347;7.1803561;36.68300247192383;1667837727.1767557;-0.002137462142854929;-0.34456753730773926;88.17241668701172
152;1667837727.2577665;46.9755347;7.1803561;37.079002380371094;1667837727.5234628;-0.1445884257555008;2.3933401107788086;87.962646484375
153;1667837727.6015499;46.9755347;7.180356;37.47500228881836;1667837727.7372067;-0.38124972581863403;-0.7126746773719788;88.26488494873047
154;1667837727.8270001;46.9755347;7.1803558999999995;37.87200164794922;1667837727.9782813;0.3245890140533447;-1.4674335718154907;88.50717163085938
155;1667837728.0505056;46.975534599999996;7.1803558999999995;38.268001556396484;1667837728.1832397;0.5458084344863892;2.4880385398864746;88.2255859375
156;1667837728.2740107;46.975534499999995;7.1803558999999995;38.66200256347656;1667837728.4008906;0.8807273507118225;-0.12057417631149292;88.44135284423828
157;1667837728.5424109;46.9755344;7.1803558999999995;39.057003021240234;1667837728.6683145;0.5455767512321472;-3.0098907947540283;88.29059600830078
158;1667837728.7351437;46.9755343;7.1803558;39.45800018310547;1667837728.8532379;-0.25734347105026245;1.7291818857192993;88.09339904785156
159;1667837728.9435189;46.9755343;7.1803558;39.85700225830078;1667837729.1904423;-0.41150641441345215;1.1595509052276611;88.14038848876953
160;1667837729.2655957;46.9755343;7.1803557;40.25300216674805;1667837729.3875964;-0.36765676736831665;-2.4327712059020996;88.52296447753906
161;1667837729.4656746;46.9755343;7.1803557;40.65300369262695;1667837729.5881944;0.06938990205526352;0.0771699920296669;88.50714874267578
162;1667837729.681893;46.9755342;7.1803557;41.047000885009766;1667837729.8546455;0.5281842350959778;1.980966329574585;88.25139617919922
163;1667837729.9374151;46.9755341;7.1803557;41.44200134277344;1667837730.1628735;0.7636215090751648;-1.5782124996185303;88.21803283691406
164;1667837730.2790213;46.975533999999996;7.1803557;41.84000015258789;1667837730.4117515;0.6544972658157349;-2.9214072227478027;88.28413391113281
165;1667837730.513255;46.975533999999996;7.1803555999999995;42.24100112915039;1667837730.646414;0.015848172828555107;2.4630768299102783;88.09485626220703
166;1667837730.735288;46.9755341;7.1803555999999995;42.64400100708008;1667837730.9070644;-0.26319536566734314;0.23965515196323395;88.37960052490234
167;1667837730.990023;46.9755341;7.1803555999999995;43.04300308227539;1667837731.1093729;-0.6183820962905884;-2.6014115810394287;88.60755157470703
168;1667837731.1874514;46.9755341;7.1803555999999995;43.43800354003906;1667837731.3231194;-0.0655292198061943;1.4536035060882568;88.31573486328125
169;1667837731.4021714;46.9755341;7.1803555999999995;43.83500289916992;1667837731.579804;0.936372697353363;1.5787184238433838;88.10282135009766
170;1667837731.6627645;46.9755341;7.1803557;44.23800277709961;1667837731.827248;1.012861728668213;-3.5616416931152344;88.23696899414062
171;1667837731.8975806;46.9755341;7.1803558;44.6400032043457;1667837732.0195847;0.6980226039886475;0.31629520654678345;88.08496856689453
172;1667837732.10547;46.9755341;7.1803558;45.04300308227539;1667837732.2401578;0.31858155131340027;1.6441770792007446;88.1699447631836
173;1667837732.34752;46.9755342;7.1803558;45.44600296020508;1667837732.5071802;-0.05085492506623268;-1.914273977279663;88.54334259033203
174;1667837732.586238;46.9755343;7.1803558;45.84800338745117;1667837732.7176254;-0.3137117326259613;0.940592348575592;88.25283813476562
175;1667837732.792779;46.9755343;7.1803557;46.24500274658203;1667837733.053368;0.08376097679138184;2.857100248336792;88.16497039794922
176;1667837733.5280092;46.9755342;7.1803558;46.643001556396484;1667837733.6539114;0.4989072382450104;-1.5244101285934448;88.07181549072266
177;1667837733.7310145;46.9755342;7.1803558;47.040000915527344;1667837733.9076712;0.5358549952507019;-0.9825692772865295;88.21611022949219
178;1667837733.9818456;46.9755341;7.1803558999999995;47.43600082397461;1667837734.0989654;1.114004373550415;1.9260543584823608;88.18309783935547
179;1667837734.1926837;46.9755342;7.180356;47.8380012512207;1667837734.3390844;0.7478711009025574;0.38354408740997314;88.45941925048828
180;1667837734.4113092;46.9755344;7.1803561;48.23800277709961;1667837734.5485277;0.34781643748283386;-2.0650882720947266;88.54055786132812
181;1667837734.6227024;46.9755344;7.1803561;48.63600158691406;1667837734.7427561;0.19072957336902618;0.2178206592798233;88.30388641357422
182;1667837734.8696322;46.9755344;7.180356;49.03200149536133;1667837734.9911668;-0.04212327301502228;2.3305089473724365;88.08112335205078
183;1667837735.078037;46.9755344;7.180356;49.428001403808594;1667837735.210793;-0.11712069064378738;-1.634252667427063;88.422119140625
184;1667837735.2792501;46.9755344;7.180356;49.8280029296875;1667837735.40125;-0.16060884296894073;-1.8451484441757202;88.57013702392578
185;1667837735.5086107;46.9755344;7.180356;50.22700119018555;1667837735.644875;0.03110937587916851;2.3743886947631836;88.06877899169922
186;1667837736.0622163;46.9755344;7.180356;50.62600326538086;1667837736.39308;0.7750104069709778;0.30598026514053345;88.19924926757812
187;1667837736.4828782;46.975534499999995;7.1803561;51.02100372314453;1667837736.606827;0.6772519946098328;-1.843234896659851;88.23938751220703
188;1667837736.726892;46.975534499999995;7.1803561;51.41400146484375;1667837736.8518198;1.0293231010437012;0.981791615486145;88.160888671875
189;1667837736.9328265;46.975534499999995;7.1803561;51.80800247192383;1667837737.0606844;0.8067689538002014;1.9321680068969727;88.15348052978516
190;1667837737.171947;46.975534499999995;7.180356;52.20600128173828;1667837737.31737;0.16811999678611755;-1.7544008493423462;88.5768814086914
191;1667837737.388622;46.9755344;7.180356;52.60200119018555;1667837737.5194035;-0.2588096559047699;-0.4500040113925934;88.31922149658203
192;1667837737.627743;46.9755344;7.1803558999999995;53.000003814697266;1667837737.768284;0.21328359842300415;2.6959216594696045;88.04595184326172
193;1667837737.8434358;46.9755344;7.1803558999999995;53.397003173828125;1667837737.9605572;0.464455783367157;-2.4467101097106934;88.19064331054688
194;1667837738.065965;46.9755344;7.1803558;53.7920036315918;1667837738.196748;0.6876960396766663;-1.3975532054901123;88.36823272705078
195;1667837738.5243223;46.975534499999995;7.1803558;54.18400192260742;1667837738.690241;0.9834902882575989;2.866734027862549;88.32701110839844
196;1667837738.7634418;46.975534499999995;7.1803558;54.57600402832031;1667837738.892274;0.4643169343471527;-0.5665913820266724;88.44084930419922
197;1667837738.9644997;46.975534499999995;7.1803557;54.970001220703125;1667837739.1177304;-0.09306243062019348;-2.2270195484161377;88.43907928466797
198;1667837739.1958134;46.975534499999995;7.1803557;55.368003845214844;1667837739.3197596;-0.5402457118034363;1.9294676780700684;88.09797668457031
199;1667837739.4007697;46.975534499999995;7.1803557;55.7650032043457;1667837739.6359854;-0.05603695660829544;1.4519507884979248;87.96121978759766
200;1667837739.7218716;46.975534499999995;7.1803557;56.15900421142578;1667837739.8555834;0.5106456875801086;-2.3968000411987305;88.42770385742188
201;1667837739.9805133;46.975534499999995;7.1803557;56.55000305175781;1667837740.090802;0.7647824287414551;0.8632458448410034;88.32664489746094
202;1667837740.167907;46.975534499999995;7.1803557;56.92500305175781;1667837740.283072;0.8285770416259766;2.299219846725464;88.14259338378906
203;1667837740.3640814;46.975534499999995;7.1803557;57.25300216674805;1667837740.5358603;0.2896767854690552;-2.434382915496826;88.5326156616211
204;1667837740.60808;46.9755344;7.1803557;57.53300094604492;1667837740.743746;-0.050096575170755386;-0.294589638710022;88.2676010131836
205;1667837740.8237772;46.9755344;7.1803557;57.768001556396484;1667837740.9633465;-0.05589432641863823;2.7930796146392822;88.00836944580078
206;1667837741.0443532;46.9755344;7.1803557;57.96400451660156;1667837741.1614711;0.22822752594947815;-2.3629188537597656;88.42323303222656
207;1667837741.238584;46.975534499999995;7.1803557;58.130001068115234;1667837741.3566735;0.5205023288726807;-0.6342831254005432;88.51060485839844
208;1667837741.4572096;46.975534599999996;7.1803557;58.272003173828125;1667837741.6123867;6.454031944274902;-3.675126552581787;86.89437866210938
209;1667837741.699248;46.9755348;7.1803555999999995;58.39400100708008;1667837741.8300338;21.2685489654541;-24.473827362060547;74.8520278930664
210;1667837741.9208019;46.9755355;7.180354299999999;58.509002685546875;1667837742.0759854;23.78887176513672;-42.363616943359375;64.05657196044922
211;1667837742.1530898;46.9755377;7.1803504;58.6140022277832;1667837742.271184;14.533737182617188;-51.77169418334961;56.43518829345703
212;1667837742.3473144;46.975541899999996;7.1803434;58.672000885009766;1667837742.474192;-4.183834075927734;-49.023475646972656;46.12077713012695
213;1667837742.5747228;46.9755482;7.1803336;58.71600341796875;1667837742.728928;-19.738544464111328;-49.64047622680664;36.01179885864258
214;1667837742.807985;46.9755566;7.1803216;58.76000213623047;1667837742.9212017;-34.13425827026367;-46.55128860473633;25.031728744506836
215;1667837742.9973347;46.975567;7.1803075;58.794002532958984;1667837743.1564171;-44.31169509887695;-39.22673797607422;10.953084945678711
216;1667837743.2462077;46.975579499999995;7.1802914;58.820003509521484;1667837743.3808963;-53.179893493652344;-34.50121307373047;-2.045603036880493
217;1667837743.46776;46.9755938;7.1802731;58.83400344848633;1667837743.609279;-56.41244125366211;-25.408916473388672;-11.54440689086914
218;1667837743.6883376;46.9756096;7.180252599999999;58.81900405883789;1667837743.8630395;-51.415016174316406;-18.552576065063477;-17.462127685546875
219;1667837743.9372196;46.9756267;7.1802307;58.785003662109375;1667837744.0719054;-49.37918472290039;-12.6386079788208;-24.143089294433594
220;1667837744.1509626;46.9756445;7.1802079;58.74400329589844;1667837744.2700355;-48.763675689697266;-7.217593669891357;-30.830923080444336
221;1667837744.4310715;46.9756627;7.180184499999999;58.70500183105469;1667837744.5911372;-48.111427307128906;-3.8861443996429443;-36.869964599609375
222;1667837744.6770253;46.9756814;7.1801607;58.66800308227539;1667837744.8226564;-46.29666519165039;-0.352213054895401;-43.42668533325195
223;1667837744.908316;46.9757003;7.180136399999999;58.630001068115234;1667837745.120268;-45.05862045288086;6.573521614074707;-46.15956115722656
224;1667837745.207342;46.975719299999994;7.1801121;58.60600280761719;1667837745.3322544;-46.04568862915039;5.182506561279297;-42.576515197753906
225;1667837745.4035008;46.9757386;7.1800881;58.60100173950195;1667837745.5342858;-47.08396530151367;3.4207980632781982;-40.417991638183594
226;1667837745.6162694;46.975758;7.1800643;58.61000442504883;1667837745.7470565;-48.37894821166992;2.684929609298706;-39.93327713012695
227;1667837745.8632033;46.975777799999996;7.1800406;58.62800216674805;1667837745.9803183;-49.18478775024414;1.131058931350708;-39.41143798828125
228;1667837746.068158;46.975797799999995;7.1800169;58.65500259399414;1667837746.1999147;-48.96059799194336;-0.1711612045764923;-39.151180267333984
229;1667837746.2799478;46.975818;7.1799931;58.677001953125;1667837746.4273245;-48.27738571166992;-0.6757761836051941;-39.197025299072266
230;1667837746.5122387;46.9758384;7.179969;58.69200134277344;1667837746.651807;-47.59995651245117;-0.7611461877822876;-39.41636657714844
231;1667837746.7289093;46.975858699999996;7.1799447999999995;58.70900344848633;1667837746.8518853;-47.21817398071289;-0.6466737985610962;-39.68806838989258
232;1667837746.9631484;46.975879;7.1799205;58.72700119018555;1667837747.0851479;-47.538883209228516;-0.5080785155296326;-39.91221618652344
233;1667837747.2657118;46.975899299999995;7.1798961;58.743003845214844;1667837747.3906362;-47.94870376586914;-0.38197141885757446;-40.10909652709961
234;1667837747.4862835;46.9759196;7.1798715;58.763004302978516;1667837747.6271791;-47.95038604736328;-0.31538495421409607;-40.21916198730469
235;1667837747.7259235;46.9759399;7.1798468;58.785003662109375;1667837747.8677752;-48.16303634643555;-0.28843018412590027;-40.31101989746094
236;1667837747.961487;46.975960199999996;7.179822;58.80600357055664;1667837748.0874696;-48.222496032714844;-0.19756244122982025;-40.374351501464844
237;1667837748.158548;46.9759804;7.1797971;58.82400131225586;1667837748.2963285;-47.98296356201172;-0.04199405759572983;-40.481964111328125
238;1667837748.3929536;46.9760007;7.1797721;58.83900451660156;1667837748.5520437;-47.8712272644043;0.03208273649215698;-40.52090072631836
239;1667837748.634027;46.976020999999996;7.179747;58.846004486083984;1667837748.7570026;-47.461883544921875;0.0644206702709198;-40.52785873413086
240;1667837748.8594809;46.9760413;7.179721799999999;58.85200119018555;1667837748.9912431;-47.244163513183594;0.059835489839315414;-40.511138916015625
241;1667837749.0595624;46.9760615;7.1796966;58.86100387573242;1667837749.1854641;-47.53327941894531;0.1758594959974289;-40.53385543823242
242;1667837749.29673;46.976081799999996;7.179671399999999;58.871002197265625;1667837749.418728;-47.994266510009766;0.14877791702747345;-40.51819610595703
243;1667837749.5212116;46.9761021;7.179646099999999;58.881004333496094;1667837749.675417;-48.0252571105957;0.14981327950954437;-40.503910064697266
244;1667837749.7447147;46.9761224;7.1796209;58.8910026550293;1667837749.8637855;-47.90920639038086;0.05741225183010101;-40.45552444458008
245;1667837749.936987;46.976142599999996;7.1795956;58.9010009765625;1667837750.0843606;-47.86591339111328;0.13701258599758148;-40.44134521484375
246;1667837750.163418;46.9761629;7.1795702;58.913002014160156;1667837750.274681;-48.08438491821289;0.23880308866500854;-40.45987319946289
247;1667837750.402538;46.9761831;7.1795449;58.923004150390625;1667837750.5401537;-48.0945930480957;0.26325586438179016;-40.448150634765625
248;1667837750.6162794;46.976203399999996;7.1795195;58.928001403808594;1667837750.7792735;-47.730403900146484;0.26975804567337036;-40.42330551147461
249;1667837750.8563778;46.9762237;7.1794942;58.93300247192383;1667837750.9754477;-47.6075553894043;0.2909216284751892;-40.40364074707031
250;1667837751.0837836;46.9762439;7.1794687999999995;58.941001892089844;1667837751.2321372;-47.724727630615234;0.6495254039764404;-40.48402786254883
251;1667837751.3053386;46.976264199999996;7.1794435;58.94700241088867;1667837751.4946811;-48.35460662841797;-1.4760212898254395;-39.88140869140625
252;1667837751.6576753;46.9762845;7.1794180999999995;58.95600128173828;1667837751.7894318;-47.841705322265625;0.9546029567718506;-40.87418746948242
253;1667837751.8850796;46.9763048;7.179392699999999;58.965003967285156;1667837752.0100107;-47.774330139160156;0.9318090677261353;-40.49675750732422
254;1667837752.084186;46.9763251;7.1793672;58.97700119018555;1667837752.2120407;-47.69211959838867;0.4487444758415222;-40.276023864746094
255;1667837752.3447757;46.9763454;7.1793419;58.99400329589844;1667837752.457993;-38.89328384399414;1.9903531074523926;-40.60334777832031
256;1667837752.5516908;46.9763656;7.1793168;59.02900314331055;1667837752.7318583;-25.725812911987305;0.6810027956962585;-40.069854736328125
257;1667837752.831731;46.976385099999995;7.1792928;59.05400466918945;1667837752.9576354;-10.47287654876709;0.5782805681228638;-40.592681884765625
258;1667837753.0298564;46.976403399999995;7.1792703;59.06200408935547;1667837753.1584017;0.7754814028739929;0.6200271248817444;-40.97780227661133
259;1667837753.2443714;46.976419799999995;7.179250199999999;59.057003021240234;1667837753.4940002;9.189141273498535;1.1947370767593384;-41.157466888427734
260;1667837753.6684978;46.976434;7.1792329;59.035003662109375;1667837753.8418298;12.733345031738281;-5.537136077880859;-37.05680847167969
261;1667837753.9516988;46.976445899999995;7.1792183;58.98400115966797;1667837754.2568588;20.634742736816406;1.570613145828247;-38.72911071777344
262;1667837754.3505588;46.9764554;7.1792067;58.913002014160156;1667837754.54478;11.996999740600586;-1.610667109489441;-40.296390533447266
263;1667837754.6326177;46.9764628;7.1791975;58.86100387573242;1667837754.7614522;5.795382976531982;4.520928859710693;-41.66714859008789
264;1667837754.8473372;46.9764688;7.1791901;58.81700134277344;1667837754.9830017;-2.6759777069091797;0.7142125368118286;-40.754085540771484
265;1667837755.0893853;46.976473899999995;7.179183999999999;58.802001953125;1667837755.203578;-8.935150146484375;-3.099898338317871;-40.4618034362793
266;1667837755.2855635;46.9764784;7.179178599999999;58.807003021240234;1667837755.4456258;-10.126768112182617;-5.019309997558594;-40.43537139892578
267;1667837755.546155;46.9764827;7.1791734;58.84100341796875;1667837755.6710858;-8.14796257019043;-2.910853862762451;-40.90421676635742
268;1667837755.7423296;46.976486799999996;7.1791681;58.888004302978516;1667837755.9521775;-5.278086185455322;-1.022140622138977;-41.494876861572266
269;1667837756.0312252;46.9764907;7.179163;58.93300247192383;1667837756.1832438;-4.403910160064697;-1.0503157377243042;-41.95833969116211
270;1667837756.2568707;46.9764942;7.179157999999999;58.971004486083984;1667837756.394486;-3.7329163551330566;4.027022838592529;-42.0905876159668
271;1667837756.514071;46.9764974;7.1791534;59.000003814697266;1667837756.695337;-3.2649905681610107;0.15897615253925323;-41.083030700683594
272;1667837756.869925;46.9765003;7.1791493;59.0260009765625;1667837757.005589;-1.7195695638656616;0.24427708983421326;-40.846656799316406
273;1667837757.1515322;46.9765029;7.179145699999999;59.048004150390625;1667837757.2940423;1.3386914730072021;-2.7950499057769775;-40.42775344848633
274;1667837757.3729036;46.9765054;7.1791426;59.0680046081543;1667837757.708024;3.9538583755493164;0.3669341504573822;-40.13921356201172
275;1667837757.7831614;46.9765075;7.1791398;59.083003997802734;1667837757.9331105;3.8509175777435303;2.218576192855835;-39.84336853027344
276;1667837758.0131462;46.9765093;7.1791377;59.092002868652344;1667837758.132218;1.3243085145950317;3.093273639678955;-39.6456413269043
277;1667837758.1995602;46.9765108;7.179136;59.099002838134766;1667837758.370362;-1.9621083736419678;-0.12928307056427002;-39.032203674316406
278;1667837758.442581;46.9765119;7.179134599999999;59.103004455566406;1667837758.6719434;-1.5242267847061157;-0.9022727608680725;-39.44612121582031
279;1667837758.8642135;46.976513;7.179133299999999;59.10600280761719;1667837758.9969494;0.5567561984062195;-2.349318265914917;-39.35762405395508
280;1667837759.0916245;46.9765139;7.1791322;59.108001708984375;1667837759.3307424;1.7169475555419922;-5.108363628387451;-39.47104263305664
281;1667837759.4127362;46.976514699999996;7.179131099999999;59.108001708984375;1667837759.5806003;1.3473589420318604;5.763336658477783;-39.54293441772461
282;1667837759.6645339;46.9765154;7.17913;59.105003356933594;1667837759.8011756;-0.660368800163269;0.39298078417778015;-39.725982666015625
283;1667837759.8753512;46.976516;7.179129199999999;59.103004455566406;1667837760.0529828;-12.480364799499512;-0.3843238055706024;-40.5086669921875
284;1667837760.127163;46.9765166;7.1791282999999995;59.108001708984375;1667837760.2511117;-35.48146438598633;0.08620638400316238;-46.21607971191406
285;1667837760.3252883;46.976517799999996;7.1791262;59.11000442504883;1667837760.4502156;-47.501800537109375;1.036117434501648;-50.7998161315918
286;1667837760.68153;46.9765206;7.1791221;59.07400131225586;1667837760.7976704;-38.687496185302734;-3.150965452194214;-49.94491195678711
287;1667837760.8894172;46.9765248;7.179115599999999;59.00700378417969;1667837761.0211735;-30.24839973449707;-4.547189712524414;-49.033687591552734
288;1667837761.0992553;46.976529799999994;7.1791070999999995;58.95000457763672;1667837761.2163725;-35.048492431640625;-1.513104796409607;-48.9177131652832
289;1667837761.325687;46.9765355;7.179097;58.941001892089844;1667837761.5482128;-45.233428955078125;1.259647011756897;-49.05833053588867
290;1667837761.6370287;46.976542099999996;7.179085;58.961002349853516;1667837761.7844062;-49.501129150390625;0.28284165263175964;-48.73045349121094
291;1667837761.8497963;46.976549999999996;7.1790709999999995;58.9890022277832;1667837761.972775;-53.45380783081055;-0.24316976964473724;-48.81011962890625
292;1667837762.0772078;46.9765593;7.1790547;59.02800369262695;1667837762.2011569;-57.82979965209961;0.8266993165016174;-49.511444091796875
293;1667837762.2782626;46.9765704;7.1790357;59.08200454711914;1667837762.4109983;-58.14763641357422;0.7986024022102356;-49.70125198364258
294;1667837762.5359266;46.976583;7.179014199999999;59.125003814697266;1667837762.6471908;-55.360660552978516;-0.9814607501029968;-49.330745697021484
295;1667837762.7252696;46.976596799999996;7.1789906;59.15400314331055;1667837762.8726475;-55.721981048583984;0.5755032300949097;-49.29720687866211
296;1667837762.9507241;46.9766115;7.1789654999999994;59.17100143432617;1667837763.0717504;-53.864200592041016;0.39809805154800415;-49.38612365722656
297;1667837763.1849651;46.976627;7.1789391;59.178001403808594;1667837763.3196592;-51.15802001953125;-0.014623095281422138;-49.25514221191406
298;1667837763.3996835;46.976642999999996;7.178911899999999;59.18300247192383;1667837763.572439;-50.96381378173828;0.12283938378095627;-49.35474395751953
299;1667837763.6612556;46.976659299999994;7.178884;59.185001373291016;1667837763.78618;-49.27616500854492;0.1941106766462326;-49.43470764160156
300;1667837763.8964682;46.9766759;7.1788558;59.18400192260742;1667837764.0321324;-47.39060592651367;0.11503686755895615;-49.402427673339844
301;1667837764.1199744;46.9766926;7.178827399999999;59.18400192260742;1667837764.2390456;-46.560482025146484;0.03237837925553322;-49.529476165771484
302;1667837764.319078;46.9767094;7.1787988;59.18300247192383;1667837764.4937818;-45.78382110595703;0.09330735355615616;-49.631507873535156
303;1667837764.5718606;46.976726199999995;7.1787702;59.178001403808594;1667837764.6958117;-45.37181091308594;-0.04701627418398857;-49.581756591796875
304;1667837764.8051238;46.976743;7.1787415999999995;59.173004150390625;1667837765.035462;-44.56733703613281;-0.13879916071891785;-49.51945877075195
305;1667837765.1145163;46.9767596;7.1787132;59.16200256347656;1667837765.2765317;-31.127065658569336;1.7622686624526978;-50.17262649536133
306;1667837765.3633962;46.9767759;7.1786854;59.1410026550293;1667837765.5068693;-24.055116653442383;-0.9233253002166748;-48.87845230102539
307;1667837765.5839763;46.976791399999996;7.1786591;59.118003845214844;1667837765.7655096;-18.14785385131836;-0.37281209230422974;-49.81824493408203
308;1667837765.8494458;46.976805999999996;7.1786343;59.09100341796875;1667837765.976325;-10.669740676879883;-1.5170823335647583;-49.48381805419922
309;1667837766.1588361;46.9768194;7.178611399999999;59.05900192260742;1667837766.2866933;-5.07463264465332;-1.7027003765106201;-49.54581832885742
310;1667837766.4174793;46.976831399999995;7.1785907;59.03000259399414;1667837766.557045;0.11346925795078278;-2.62518048286438;-49.19357681274414
311;1667837766.6380532;46.976842;7.1785723;59.01000213623047;1667837766.7922604;3.817230701446533;-3.6023213863372803;-48.535133361816406
312;1667837766.8644853;46.9768512;7.1785562999999994;58.99500274658203;1667837766.992341;3.162440538406372;-1.652119755744934;-47.45550537109375
313;1667837767.079204;46.976859;7.1785426;58.98800277709961;1667837767.2197506;3.8859376907348633;3.5348944664001465;-48.602352142333984
314;1667837767.2949004;46.9768656;7.1785308;58.98500442504883;1667837767.4227562;5.56705904006958;2.324949264526367;-49.29767608642578
315;1667837767.5145004;46.9768712;7.178520799999999;58.98100280761719;1667837767.6618793;3.8202149868011475;0.8200611472129822;-49.611820220947266
316;1667837767.7389822;46.976876;7.1785125;58.98200225830078;1667837767.86196;2.689887762069702;0.3500725328922272;-49.63336944580078
317;1667837767.9829793;46.9768802;7.178505299999999;58.98400115966797;1667837768.119624;-0.8944535851478577;-2.067936658859253;-48.99081802368164
318;1667837768.194771;46.976883799999996;7.1784992;58.9900016784668;1667837768.352885;-4.167934417724609;-1.765044093132019;-48.647491455078125
319;1667837768.428035;46.9768869;7.1784938;58.99900436401367;1667837768.5695555;-5.3919677734375;-0.6788546442985535;-48.47539520263672
320;1667837768.6378753;46.976889799999995;7.178488799999999;59.00700378417969;1667837768.7862277;-5.070279598236084;2.124403238296509;-48.6624755859375
321;1667837768.859431;46.9768925;7.1784843;59.013004302978516;1667837768.9794748;-3.357499361038208;3.020752191543579;-48.84682083129883
322;1667837769.0614614;46.9768949;7.1784801;59.0160026550293;1667837769.2137163;-0.4617933928966522;0.6723838448524475;-49.008602142333984
323;1667837769.2947252;46.976897099999995;7.1784763;59.01700210571289;1667837769.425511;1.1291309595108032;2.3781521320343018;-48.90182113647461
324;1667837769.5250607;46.9768992;7.178472999999999;59.01400375366211;1667837769.784675;2.1318135261535645;0.2881132662296295;-48.4560546875
325;1667837769.851045;46.976901;7.17847;59.009002685546875;1667837770.004275;1.2724276781082153;-3.227811336517334;-48.319644927978516
326;1667837770.0784507;46.976902599999995;7.1784675;59.00200271606445;1667837770.200456;-0.4114457368850708;-0.8994291424751282;-48.30587387084961
327;1667837770.2687716;46.976903799999995;7.1784653;58.99400329589844;1667837770.4239554;-2.6430349349975586;0.8137786984443665;-48.45890808105469
328;1667837770.5176532;46.9769049;7.1784634;58.98400115966797;1667837770.6562445;-1.2216839790344238;-0.2896818518638611;-48.3915901184082
329;1667837770.7616513;46.976905699999996;7.1784617;58.97600173950195;1667837770.9187884;0.4416762888431549;3.9653942584991455;-48.423221588134766
330;1667837770.9910126;46.9769065;7.1784602;58.97200393676758;1667837771.113011;1.6688199043273926;4.5067243576049805;-47.61621856689453
331;1667837771.1930456;46.9769072;7.1784589;58.971004486083984;1667837771.358963;1.6439170837402344;-1.0000758171081543;-46.806636810302734
332;1667837771.4311886;46.9769079;7.1784577999999994;58.97200393676758;1667837771.6995895;2.3538496494293213;0.6083899140357971;-46.12627410888672
333;1667837771.7561955;46.9769085;7.178457;58.974002838134766;1667837771.8489158;4.2392473220825195;2.9459803104400635;-45.06765365600586
334;1667837771.909428;46.976909;7.1784566;58.98200225830078;1667837772.0724201;4.471635818481445;10.564093589782715;-40.151920318603516
335;1667837772.140738;46.9769095;7.178457;58.99900436401367;1667837772.2598128;0.28818610310554504;14.408257484436035;-27.319549560546875
336;1667837772.3349626;46.9769102;7.1784586;59.04500198364258;1667837772.450132;-5.693994998931885;13.38212776184082;-12.011940956115723
337;1667837772.577988;46.976911199999996;7.1784612999999995;59.20700454711914;1667837772.7117028;-11.476579666137695;13.79232406616211;-1.6179269552230835
338;1667837772.7946591;46.9769128;7.1784649;59.4530029296875;1667837772.9254467;-19.243183135986328;16.37345314025879;7.295767784118652
339;1667837773.004498;46.9769151;7.1784697;59.75200271606445;1667837773.1274748;-29.994394302368164;17.290550231933594;17.386415481567383
340;1667837773.240691;46.9769185;7.178476;60.092002868652344;1667837773.356838;-41.50566864013672;13.179671287536621;27.419775009155273
341;1667837773.4358912;46.9769234;7.178484699999999;60.45900344848633;1667837773.600834;-49.8956413269043;5.548707485198975;37.02847671508789
342;1667837773.719908;46.9769301;7.178496099999999;60.83500289916992;1667837773.8370273;-57.669921875;-2.364163875579834;45.61785888671875
343;1667837773.929746;46.9769393;7.1785106;61.20000457763672;1667837774.0966442;-54.1683235168457;-1.7626723051071167;38.18707275390625
344;1667837774.1620355;46.9769509;7.1785276;61.535003662109375;1667837774.2811105;-48.521968841552734;9.580780029296875;24.869848251342773
345;1667837774.3533318;46.9769642;7.178545799999999;61.85700225830078;1667837774.488018;-46.76228332519531;15.535889625549316;24.77814483642578
346;1667837774.55829;46.976978599999995;7.1785653;62.17500305175781;1667837774.7203083;-45.09184646606445;6.831654071807861;37.93558883666992
347;1667837774.9086754;46.9769936;7.178585999999999;62.496002197265625;1667837775.030676;-44.12434387207031;-0.47928786277770996;48.14885711669922
348;1667837775.1165657;46.9770089;7.1786078;62.82400131225586;1667837775.2844348;-41.74324417114258;-3.3240807056427;49.32332229614258
349;1667837775.3586109;46.9770245;7.17863;63.16100311279297;1667837775.4942753;-40.33564758300781;-1.7790226936340332;46.887550354003906
350;1667837775.5664976;46.9770402;7.1786524;63.506004333496094;1667837775.704116;-39.17190933227539;-1.0773959159851074;45.78672790527344
351;1667837775.7724352;46.977055899999996;7.178674999999999;63.86000442504883;1667837775.9442093;-37.91814422607422;-0.37884455919265747;45.3651008605957
352;1667837776.023267;46.977071699999996;7.178697499999999;64.22200012207031;1667837776.153077;-37.236209869384766;-0.028014879673719406;45.26264572143555
353;1667837776.2448194;46.9770873;7.1787199;64.59100341796875;1667837776.3629136;-37.11458206176758;0.22466382384300232;45.21078872680664
354;1667837776.4976022;46.9771028;7.1787423;64.96300506591797;1667837776.6254575;-37.192596435546875;0.2138565182685852;45.224571228027344
355;1667837776.7025647;46.9771181;7.1787645;65.34000396728516;1667837776.8138256;-37.63203430175781;0.11186031997203827;45.23081970214844
356;1667837776.8899548;46.9771333;7.1787866;65.71800231933594;1667837777.0578265;-22.612720489501953;0.003317520720884204;45.273658752441406
357;1667837777.1339536;46.977148;7.1788080999999995;66.0790023803711;1667837777.2530253;-15.411208152770996;0.6184390187263489;45.03310775756836
358;1667837777.3291533;46.9771619;7.1788283999999996;66.41300201416016;1667837777.5653453;-9.347702026367188;0.3863716721534729;45.38678741455078
359;1667837777.6492813;46.9771747;7.178846999999999;66.71300506591797;1667837777.7751853;-3.054565906524658;0.2023501843214035;45.335670471191406
360;1667837777.8688827;46.9771862;7.178863799999999;66.98200225830078;1667837778.0133324;1.192412257194519;-0.19346784055233002;45.5643310546875
361;1667837778.0894585;46.9771964;7.1788786;67.22000122070312;1667837778.2124345;4.2485671043396;-0.36869940161705017;45.220863342285156
362;1667837778.2895389;46.9772051;7.1788913;67.43400573730469;1667837778.4622893;5.7411789894104;-2.3819222450256348;45.124549865722656
363;1667837778.5530565;46.9772125;7.1789022;67.62800598144531;1667837778.6848192;5.123086929321289;-2.0694994926452637;46.50773620605469
364;1667837778.7609468;46.977218799999996;7.1789112;67.80400085449219;1667837778.9258888;5.266180515289307;0.7120007276535034;46.92737579345703
365;1667837779.0166602;46.977224299999996;7.1789188;67.96200561523438;1667837779.154273;4.504478931427002;-1.1925380229949951;46.907203674316406
366;1667837779.2557795;46.9772289;7.1789252;68.10100555419922;1667837779.3728979;3.514221429824829;0.7755551934242249;46.7877311706543
367;1667837779.4421937;46.977232699999995;7.1789308;68.21800231933594;1667837779.5641925;0.47212618589401245;1.4920148849487305;47.229827880859375
368;1667837779.6442268;46.977236;7.1789356;68.31800079345703;1667837779.820883;-1.9514539241790771;1.959248661994934;47.551307678222656
369;1667837779.9038408;46.977238799999995;7.178939799999999;68.40400695800781;1667837780.0277941;-3.9101269245147705;1.600026249885559;47.6098747253418
370;1667837780.145889;46.977241199999995;7.1789437;68.48100280761719;1667837780.2717936;-4.72867488861084;1.8653846979141235;47.17975616455078
371;1667837780.3508503;46.9772434;7.1789472;68.55000305175781;1667837780.4874897;-4.487527847290039;-0.5570814609527588;47.048065185546875
372;1667837780.5997317;46.9772454;7.1789504;68.60700225830078;1667837780.7178268;-4.0763750076293945;-0.634473979473114;46.7258415222168
373;1667837780.7910259;46.9772472;7.178953399999999;68.65400695800781;1667837780.914981;-2.2472898960113525;-1.4312267303466797;46.51036071777344
374;1667837780.989152;46.977249;7.1789559999999994;68.69300079345703;1667837781.1443398;-0.5990489721298218;-2.226870536804199;46.41968536376953
375;1667837781.223392;46.9772506;7.1789584;68.72900390625;1667837781.3532007;1.3292325735092163;-1.2552181482315063;46.49985885620117
376;1667837781.4381146;46.9772521;7.178960399999999;68.76000213623047;1667837781.579632;1.9856138229370117;0.231116384267807;46.88011169433594
377;1667837781.673329;46.977253499999996;7.1789621;68.78500366210938;1667837781.8236315;1.6794382333755493;0.8610302805900574;47.691864013671875
378;1667837781.8958564;46.977254699999996;7.1789635;68.80500030517578;1667837782.0207872;1.0103496313095093;2.2732369899749756;49.04780578613281
379;1667837782.0998397;46.9772557;7.178964799999999;68.82400512695312;1667837782.2150083;-0.11620251089334488;2.9185194969177246;50.517826080322266
380;1667837782.2891865;46.9772566;7.1789659;68.84300231933594;1667837782.459012;-1.4105983972549438;0.6474614143371582;51.71187210083008
381;1667837782.54685;46.9772573;7.1789670999999995;68.86199951171875;1667837782.679584;-2.0573694705963135;0.4073082208633423;51.87888717651367
382;1667837782.7547379;46.977258;7.1789681;68.87300109863281;1667837782.9177332;-4.283438205718994;4.97896671295166;51.989864349365234
383;1667837783.013379;46.9772585;7.178969299999999;68.8810043334961;1667837783.1646557;-8.068757057189941;27.667377471923828;59.117347717285156
384;1667837783.5121117;46.9772585;7.178971499999999;68.89300537109375;1667837783.6682715;-16.726043701171875;32.62343215942383;73.54257202148438
385;1667837783.7502556;46.977257099999996;7.1789754;68.9070053100586;1667837783.873234;-37.22441482543945;36.85161590576172;84.09046936035156
386;1667837783.952288;46.9772536;7.1789819999999995;68.9330062866211;1667837784.082098;-50.782291412353516;28.6314640045166;96.2238998413086
387;1667837784.1757932;46.9772475;7.178992099999999;68.97200012207031;1667837784.3202395;-58.44096755981445;19.003114700317383;106.93378448486328
388;1667837784.3992963;46.9772393;7.1790059;69.01000213623047;1667837784.5378897;-59.320823669433594;15.742036819458008;115.86131286621094
389;1667837784.617922;46.977229;7.1790233;69.03900146484375;1667837784.7457762;-60.125892639160156;8.294179916381836;123.90534973144531
390;1667837784.8238573;46.9772167;7.1790433;69.04800415039062;1667837784.9419546;-60.0115966796875;0.5323240756988525;130.99627685546875
391;1667837785.0258904;46.977202899999995;7.1790657;69.03400421142578;1667837785.1869297;-56.237239837646484;-6.993858337402344;136.77267456054688
392;1667837785.3704152;46.9771879;7.1790901;69.00200653076172;1667837785.5154488;-53.174373626708984;-10.59900951385498;135.63424682617188
393;1667837785.6054978;46.977172599999996;7.179116199999999;68.95700073242188;1667837785.7362814;-49.16844177246094;-3.1289377212524414;131.41014099121094
394;1667837785.824121;46.977157;7.1791434999999995;68.91100311279297;1667837786.004681;-49.05458450317383;-2.289203643798828;130.77688598632812
395;1667837786.0769079;46.9771413;7.1791713999999995;68.875;1667837786.2018394;-49.745975494384766;-0.750918984413147;130.23953247070312
396;1667837786.2915213;46.9771254;7.1791998999999995;68.85000610351562;1667837786.417425;-49.91304397583008;0.7225062251091003;130.03773498535156
397;1667837786.5238092;46.9771092;7.1792289;68.83100128173828;1667837786.6692357;-49.229488372802734;1.3134047985076904;130.0684051513672
398;1667837786.7844012;46.9770927;7.1792582;68.81800079345703;1667837787.0147371;-48.2806396484375;1.2562904357910156;130.36715698242188
399;1667837787.0986779;46.977075899999996;7.1792875;68.81200408935547;1667837787.3270566;-48.263214111328125;1.0389574766159058;130.62203979492188
400;1667837787.4129474;46.9770591;7.179316699999999;68.81100463867188;1667837787.5778883;-48.52738952636719;0.7408983111381531;130.81549072265625
401;1667837787.6940463;46.977042;7.1793461;68.81000518798828;1667837787.8140829;-48.46840286254883;0.5263488292694092;131.0178680419922
402;1667837787.8950899;46.977024899999996;7.179375599999999;68.81100463867188;1667837788.0356321;-45.25736999511719;1.9441310167312622;130.65032958984375
403;1667837788.1166408;46.977007699999994;7.179405;68.8270034790039;1667837788.2337615;-33.29072952270508;-0.6417744755744934;132.3416748046875
404;1667837788.313794;46.976990699999995;7.1794338;68.86100006103516;1667837788.5031414;-16.32235336303711;-0.33999258279800415;130.88475036621094
405;1667837788.584146;46.9769746;7.179461;68.88200378417969;1667837788.718832;-1.4266574382781982;-1.3467968702316284;130.84048461914062
406;1667837788.7988665;46.97696;7.1794857;68.89100646972656;1667837788.9179363;8.447546005249023;-1.0158108472824097;131.0313262939453
407;1667837788.9911382;46.9769473;7.1795072;68.88500213623047;1667837789.1063077;13.454143524169922;-1.3000882863998413;131.32485961914062
408;1667837789.210736;46.9769368;7.1795253;68.87000274658203;1667837789.337617;17.2827205657959;-1.7831403017044067;131.8141326904297
409;1667837789.4254582;46.976928199999996;7.1795401;68.85400390625;1667837789.5542874;15.35423755645752;2.326348304748535;131.54530334472656
410;1667837789.6255379;46.976921499999996;7.1795518;68.84100341796875;1667837789.7865794;6.53684663772583;0.5566276907920837;131.8266143798828
411;1667837789.8714886;46.9769163;7.179561;68.83900451660156;1667837789.9915369;4.256886005401611;-0.011597531847655773;131.93426513671875
412;1667837790.0705934;46.976912;7.179568499999999;68.85900115966797;1667837790.1896682;-1.6694295406341553;0.005574359092861414;131.96951293945312
413;1667837790.2833605;46.9769083;7.179574799999999;68.88899993896484;1667837790.403407;-5.9103169441223145;1.6566195487976074;132.07742309570312
414;1667837790.497104;46.9769049;7.1795805999999995;68.91900634765625;1667837790.6220329;-9.443982124328613;1.5046882629394531;131.97018432617188
415;1667837790.695233;46.9769017;7.179585899999999;68.94200134277344;1667837790.848463;-11.660725593566895;1.4720847606658936;131.58755493164062
416;1667837790.924594;46.9768986;7.179590999999999;68.96000671386719;1667837791.056353;-10.332015037536621;0.035315681248903275;131.3271484375
417;1667837791.1344333;46.9768955;7.179596;68.96900177001953;1667837791.257409;-8.19253158569336;-0.00455936323851347;130.9592742919922
418;1667837791.3384166;46.9768925;7.179600799999999;68.97100067138672;1667837791.5111704;-2.4414947032928467;-1.4516868591308594;130.66879272460938
419;1667837791.5843723;46.9768896;7.1796054;68.97400665283203;1667837791.706369;0.07914981245994568;-0.6168807744979858;130.32395935058594
