;pos_time;latitude;longitude;altitude;alt_time;pitch;roll;yaw
0;1673430125.188113;47.1306424;7.240619199999999;-0.01600000075995922;1673430125.1920166;0.1470576673746109;0.0467781238257885;90.30082702636719
1;1673430125.3858023;47.1306424;7.2406191;-0.012000000104308128;1673430125.3897245;0.2535286545753479;-0.22955533862113953;90.30464935302734
2;1673430125.6189713;47.1306424;7.240619;-0.01100000087171793;1673430125.620937;0.0659787505865097;-0.24958723783493042;90.55326843261719
3;1673430125.8221676;47.1306424;7.2406191;-0.010000000707805157;1673430125.8241193;0.1502636820077896;-0.19785498082637787;90.61761474609375
4;1673430126.0137162;47.1306423;7.2406191;-0.00800000037997961;1673430126.0175717;-0.016292894259095192;-0.10475209355354309;90.40284729003906
5;1673430126.2095404;47.1306423;7.2406191;-0.00800000037997961;1673430126.212469;0.0012595761800184846;-0.1266898363828659;90.39037322998047
6;1673430126.3990452;47.1306423;7.240619199999999;-0.010000000707805157;1673430126.4019961;0.14437128603458405;-0.17425601184368134;90.4124755859375
7;1673430126.6164215;47.1306423;7.2406193;-0.010000000707805157;1673430126.6193182;0.14265954494476318;-0.04092425853013992;90.40457153320312
8;1673430126.8120844;47.1306423;7.2406193;-0.01100000087171793;1673430126.8155544;0.011725736781954765;-0.05357234179973602;90.38524627685547
9;1673430127.0082686;47.1306423;7.2406193;0.0010000000474974513;1673430127.0111969;-0.1456189900636673;0.30539289116859436;90.50315856933594
10;1673430127.1881618;47.1306423;7.2406194;0.004000000189989805;1673430127.1901138;-0.28197041153907776;0.4591754972934723;90.53845977783203
11;1673430127.3916028;47.1306423;7.2406194;0.006000000052154064;1673430127.3964648;-0.00145924580283463;0.3238030970096588;90.53450012207031
12;1673430127.593468;47.1306423;7.2406194;0.00800000037997961;1673430127.5963962;-0.05490846559405327;0.2532694637775421;90.39717102050781
13;1673430127.8006067;47.1306423;7.2406194;0.010000000707805157;1673430127.8045027;-0.13124699890613556;0.22136566042900085;90.48306274414062
14;1673430128.0205991;47.1306424;7.2406194;0.00800000037997961;1673430128.0244539;-0.14355742931365967;0.5331414341926575;90.36935424804688
15;1673430128.2292013;47.1306424;7.2406194;0.005000000353902578;1673430128.2311542;-0.06572852283716202;0.8362422585487366;90.40769958496094
16;1673430128.4267929;47.1306424;7.240619499999999;0.005000000353902578;1673430128.4297216;-0.09514302760362625;0.6557839512825012;90.4490737915039
17;1673430128.6169653;47.1306425;7.240619499999999;0.0010000000474974513;1673430128.6189294;-0.05129136145114899;0.8476182818412781;90.47811126708984
18;1673430128.809258;47.1306425;7.2406196;0.0020000000949949026;1673430128.8112023;-0.024043038487434387;0.8514332175254822;90.29370880126953
19;1673430129.0086818;47.1306425;7.2406197;0.003000000026077032;1673430129.0135589;0.021285269409418106;0.4942113161087036;90.31346130371094
20;1673430129.2070794;47.1306425;7.2406197;0.003000000026077032;1673430129.2100086;0.2849454879760742;0.9063780307769775;90.39096069335938
21;1673430129.4004896;47.1306425;7.240619799999999;0.004000000189989805;1673430129.403407;0.11882711201906204;0.23703940212726593;90.30146026611328
22;1673430129.6031895;47.1306425;7.240619799999999;0.006000000052154064;1673430129.6070936;0.30498868227005005;-0.01420401968061924;90.53904724121094
23;1673430129.7866404;47.1306425;7.240619799999999;0.0010000000474974513;1673430129.7905505;0.48979172110557556;0.25293147563934326;90.86580657958984
24;1673430130.014149;47.1306424;7.2406198999999996;-0.006000000052154064;1673430130.0161011;0.47633442282676697;0.3365550935268402;91.48187255859375
25;1673430130.1860445;47.1306423;7.2406198999999996;-0.00800000037997961;1673430130.188969;1.026220440864563;0.16037054359912872;92.67098999023438
26;1673430130.4020987;47.130642099999996;7.2406198999999996;-0.004000000189989805;1673430130.4069798;2.7150042057037354;-0.19190458953380585;95.1710205078125
27;1673430130.585671;47.1306419;7.2406197;0.0;1673430130.5886006;2.3681230545043945;-2.7226719856262207;102.0811996459961
28;1673430130.7917168;47.130641499999996;7.240619499999999;0.010000000707805157;1673430130.794645;4.045665264129639;-6.46338415145874;108.9222183227539
29;1673430130.9968932;47.1306413;7.240619199999999;0.02800000086426735;1673430131.0007875;3.5612282752990723;-12.316117286682129;108.04766845703125
30;1673430131.187594;47.1306411;7.240618899999999;0.05400000140070915;1673430131.189547;0.6524341702461243;-13.458579063415527;104.20399475097656
31;1673430131.3940673;47.1306412;7.2406187;0.09700000286102295;1673430131.3969977;-0.42950594425201416;-10.996566772460938;101.20220184326172
32;1673430131.5886195;47.130641499999996;7.2406185999999995;0.1600000113248825;1673430131.5934987;-1.017128348350525;-12.256007194519043;99.53314208984375
33;1673430131.795623;47.1306418;7.2406185999999995;0.24300001561641693;1673430131.799532;-0.6132956147193909;-10.008967399597168;98.20552062988281
34;1673430132.0225499;47.130642099999996;7.2406185999999995;0.3460000157356262;1673430132.0264542;-0.7350859642028809;-6.829000473022461;97.36649322509766
35;1673430132.2695444;47.1306423;7.2406185999999995;0.4660000205039978;1673430132.272472;-1.123815655708313;-10.719982147216797;96.79922485351562
36;1673430132.476588;47.1306424;7.2406187;0.597000002861023;1673430132.4795015;-1.6333684921264648;-9.491059303283691;95.87364959716797
37;1673430132.6809335;47.1306424;7.2406188;0.7390000224113464;1673430132.6819131;-1.4716262817382812;-7.34766960144043;94.89073944091797
38;1673430132.860561;47.1306425;7.240619;0.8940000534057617;1673430132.862521;-1.170001745223999;-11.586250305175781;94.4088134765625
39;1673430133.0310323;47.130642599999995;7.240619199999999;1.065000057220459;1673430133.032985;-0.35192298889160156;-10.961135864257812;93.88602447509766
40;1673430133.215016;47.130642699999996;7.2406193;1.249000072479248;1673430133.217945;-0.2772495448589325;-7.174585819244385;93.55213928222656
41;1673430133.393209;47.130642699999996;7.2406194;1.437000036239624;1673430133.3951848;-0.228681743144989;-10.422196388244629;93.58064270019531
42;1673430133.6057029;47.130642699999996;7.2406193;1.6260000467300415;1673430133.6086476;-0.35403868556022644;-11.599174499511719;95.15837097167969
43;1673430133.819714;47.130642699999996;7.2406193;1.8160001039505005;1673430133.822643;-1.2677631378173828;-7.495250225067139;94.50434875488281
44;1673430134.015448;47.1306428;7.240619199999999;2.005000114440918;1673430134.0193892;-1.8073533773422241;-9.70817756652832;94.29987335205078
45;1673430134.2219024;47.1306429;7.2406191;2.197000026702881;1673430134.2238464;-1.5416396856307983;-12.23298168182373;94.31090545654297
46;1673430134.407935;47.1306429;7.2406191;2.392000198364258;1673430134.4098868;-1.2304600477218628;-6.810349464416504;93.97578430175781
47;1673430134.6589758;47.1306428;7.2406191;2.5890002250671387;1673430134.6609302;-1.0100992918014526;-8.828021049499512;94.10792541503906
48;1673430134.8493965;47.130642699999996;7.2406191;2.7870001792907715;1673430134.8513598;-0.740337073802948;-12.950672149658203;94.30307006835938
49;1673430135.0875149;47.130642599999995;7.2406191;2.9860000610351562;1673430135.0894682;-1.2843290567398071;-8.140175819396973;93.97032165527344
50;1673430135.2636237;47.130642599999995;7.2406191;3.17900013923645;1673430135.2675276;-1.840328574180603;-8.643291473388672;94.09579467773438
51;1673430135.4428024;47.130642699999996;7.2406191;3.373000144958496;1673430135.4457314;-1.519372582435608;-12.16297721862793;94.50566101074219
52;1673430135.631829;47.130642699999996;7.2406191;3.567000150680542;1673430135.6337674;-1.3944116830825806;-7.770274639129639;94.25325775146484
53;1673430135.8214955;47.1306425;7.240619199999999;3.764000177383423;1673430135.8254073;-1.1516525745391846;-7.711634159088135;94.27134704589844
54;1673430136.0190308;47.1306423;7.240619199999999;3.9640002250671387;1673430136.0219586;-0.5075933933258057;-12.442059516906738;94.51782989501953
55;1673430136.2232594;47.130642099999996;7.2406193;4.169000148773193;1673430136.2281392;-0.41931629180908203;-11.208658218383789;94.23175048828125
56;1673430136.4258144;47.130641999999995;7.2406193;4.37000036239624;1673430136.427768;-0.5050337314605713;-7.739714622497559;94.23014831542969
57;1673430136.6183548;47.130641999999995;7.2406193;4.564000129699707;1673430136.6212687;-1.102541208267212;-11.723785400390625;94.56847381591797
58;1673430136.8071556;47.130641999999995;7.2406193;4.755000114440918;1673430136.812035;-1.074146032333374;-10.901755332946777;94.36880493164062
59;1673430137.0002522;47.1306419;7.2406193;4.953000068664551;1673430137.0031798;-1.2773199081420898;-7.555306434631348;93.9914779663086
60;1673430137.2223291;47.1306417;7.240619199999999;5.154000282287598;1673430137.2252536;-1.3378891944885254;-11.747549057006836;94.22953033447266
61;1673430137.425216;47.1306416;7.240619199999999;5.355000019073486;1673430137.42814;-1.1104118824005127;-12.94179916381836;94.42488861083984
62;1673430137.6207428;47.1306417;7.2406191;5.552000045776367;1673430137.6226861;-0.9297429919242859;-7.682722568511963;94.23936462402344
63;1673430137.8112104;47.1306418;7.2406191;5.744000434875488;1673430137.8141377;-0.9603763222694397;-9.92280101776123;94.3846435546875
64;1673430138.0287287;47.130641999999995;7.2406191;5.936000347137451;1673430138.0316734;-0.9032829403877258;-12.048068046569824;94.30477905273438
65;1673430138.2214022;47.130642099999996;7.240619;6.135000228881836;1673430138.223338;-1.3748986721038818;-7.16077184677124;94.15099334716797
66;1673430138.4276779;47.130641999999995;7.240619;6.337000370025635;1673430138.4296231;-1.8037234544754028;-9.468660354614258;94.31106567382812
67;1673430138.6368573;47.1306419;7.240619;6.539000511169434;1673430138.6397972;-1.7515088319778442;-12.310834884643555;94.53992462158203
68;1673430138.8449001;47.1306418;7.240619;6.737000465393066;1673430138.847827;-1.5690076351165771;-8.00859260559082;94.17676544189453
69;1673430139.0438156;47.1306417;7.240619;6.935000419616699;1673430139.0486963;-1.463624119758606;-9.076740264892578;94.13902282714844
70;1673430139.2758517;47.1306417;7.240619;7.133000373840332;1673430139.2787821;-0.9001513123512268;-13.367925643920898;94.36859893798828
71;1673430139.5174103;47.1306416;7.240619;7.332000255584717;1673430139.5203378;-0.914779543876648;-8.490679740905762;94.27957153320312
72;1673430139.7303348;47.130641499999996;7.240619;7.534000396728516;1673430139.7322867;-1.2442013025283813;-9.652377128601074;94.29681396484375
73;1673430139.8834944;47.130641399999995;7.240619;7.7330002784729;1673430139.8854582;-1.5656421184539795;-13.011290550231934;94.58126831054688
74;1673430140.076126;47.130641399999995;7.240619;7.931000232696533;1673430140.0780902;-1.956546664237976;-9.898266792297363;94.30655670166016
75;1673430140.2737465;47.130641499999996;7.240619;8.133000373840332;1673430140.276674;-1.799553632736206;-8.512739181518555;94.047607421875
76;1673430140.4674184;47.1306416;7.240619;8.335000038146973;1673430140.4693618;-1.3557884693145752;-12.986007690429688;94.3526611328125
77;1673430140.6550522;47.1306417;7.240619;8.532999992370605;1673430140.6569924;-1.0230419635772705;-10.00599479675293;94.36079406738281
78;1673430140.834863;47.1306417;7.240619;8.733000755310059;1673430140.8377917;-1.0691757202148438;-7.713903427124023;94.24665832519531
79;1673430141.024783;47.1306417;7.240619;8.932000160217285;1673430141.0276988;-1.252500295639038;-11.616876602172852;94.530029296875
80;1673430141.2102556;47.1306417;7.240619;9.131999969482422;1673430141.2131639;-1.8455957174301147;-10.454684257507324;94.33203125
81;1673430141.393363;47.1306417;7.240619;9.333000183105469;1673430141.3978164;-1.868900179862976;-7.662790298461914;94.02682495117188
82;1673430141.5877986;47.1306417;7.2406191;9.535000801086426;1673430141.590319;-1.63441002368927;-11.783015251159668;94.39366149902344
83;1673430141.8;47.1306417;7.2406191;9.735000610351562;1673430141.805863;-0.9388711452484131;-11.173973083496094;94.40267944335938
84;1673430142.0002418;47.1306416;7.240619199999999;9.934000015258789;1673430142.0031698;-0.992643415927887;-8.051468849182129;94.15596771240234
85;1673430142.1950464;47.1306416;7.240619199999999;10.133000373840332;1673430142.1980352;-1.07417893409729;-11.77135181427002;94.26699829101562
86;1673430142.3947394;47.1306416;7.240619199999999;10.38900089263916;1673430142.3972268;-1.400093674659729;-12.356389999389648;94.16059112548828
87;1673430142.6135643;47.1306419;7.2406193;10.742000579833984;1673430142.6164756;-2.123446226119995;-9.566441535949707;93.96849060058594
88;1673430142.8079505;47.1306422;7.240619499999999;11.121000289916992;1673430142.811857;-1.607475996017456;-9.67094612121582;94.17017364501953
89;1673430143.004558;47.130642599999995;7.2406196;11.51200008392334;1673430143.0074193;-1.0445687770843506;-11.40311050415039;94.45545196533203
90;1673430143.2262464;47.1306428;7.2406196;11.910000801086426;1673430143.2311141;-0.9056261777877808;-7.400805950164795;94.29463195800781
91;1673430143.424461;47.1306429;7.2406197;12.308000564575195;1673430143.4264116;-1.0425773859024048;-7.232978820800781;94.2599105834961
92;1673430143.612437;47.1306429;7.2406197;12.708000183105469;1673430143.6153543;-1.0467910766601562;-10.751591682434082;94.4365234375
93;1673430143.8069715;47.1306429;7.2406196;13.107000350952148;1673430143.8099003;-1.2489302158355713;-7.706286907196045;94.22711181640625
94;1673430144.0083537;47.1306428;7.2406196;13.506000518798828;1673430144.0102925;-1.4525814056396484;-6.957468032836914;94.23406982421875
95;1673430144.2221458;47.130642699999996;7.2406196;13.91100025177002;1673430144.2250757;-1.3635727167129517;-11.875452995300293;94.56927490234375
96;1673430144.433371;47.1306425;7.240619499999999;14.315000534057617;1673430144.436306;-1.1732945442199707;-9.489461898803711;94.3250503540039
97;1673430144.6335697;47.1306423;7.2406194;14.715001106262207;1673430144.6375995;-1.357215404510498;-7.934272766113281;94.0225830078125
98;1673430144.82762;47.1306422;7.2406194;15.118000984191895;1673430144.830554;-1.4153718948364258;-12.27653694152832;94.20330047607422
99;1673430145.028753;47.1306422;7.2406194;15.523000717163086;1673430145.0316815;-1.2678354978561401;-11.264836311340332;94.1920166015625
100;1673430145.2379546;47.1306422;7.2406194;15.929000854492188;1673430145.242843;-1.5369601249694824;-7.275913238525391;94.08707427978516
101;1673430145.432541;47.1306422;7.2406194;16.336999893188477;1673430145.4354877;-1.5952813625335693;-11.15125846862793;94.42112731933594
102;1673430145.6320288;47.1306423;7.2406194;16.743000030517578;1673430145.6339817;-1.2485322952270508;-11.052164077758789;94.62065124511719
103;1673430145.8280106;47.1306422;7.2406194;17.150001525878906;1673430145.8309386;-1.3771508932113647;-7.434097766876221;94.36077880859375
104;1673430146.0225534;47.1306422;7.2406194;17.5570011138916;1673430146.0274477;-1.2478200197219849;-10.244626998901367;94.34066009521484
105;1673430146.231808;47.1306422;7.2406194;17.96500015258789;1673430146.2376637;-1.2936699390411377;-12.36789321899414;94.31503295898438
106;1673430146.4248466;47.1306423;7.2406194;18.376001358032227;1673430146.4267993;-1.404369592666626;-7.4393134117126465;94.11213684082031
107;1673430146.6175795;47.1306424;7.2406194;18.78700065612793;1673430146.6205287;-1.5921827554702759;-8.837058067321777;94.21678161621094
108;1673430146.8156521;47.1306424;7.2406194;19.201000213623047;1673430146.8185828;-1.3257050514221191;-12.107644081115723;94.45549011230469
109;1673430147.015205;47.1306423;7.2406194;19.615001678466797;1673430147.0181346;-1.3352746963500977;-8.593618392944336;94.3089370727539
110;1673430147.2102304;47.1306423;7.2406194;20.027000427246094;1673430147.2131453;-1.4077632427215576;-8.268367767333984;94.23715209960938
111;1673430147.4251049;47.1306423;7.2406194;20.44300079345703;1673430147.4270575;-1.2796995639801025;-11.965224266052246;94.60791778564453
112;1673430147.6384883;47.1306424;7.2406194;20.85900115966797;1673430147.6433678;-1.0884393453598022;-9.715871810913086;94.36933898925781
113;1673430147.8416862;47.1306425;7.2406194;21.2760009765625;1673430147.8436384;-1.3562155961990356;-7.167418479919434;94.17933654785156
114;1673430148.037661;47.1306425;7.2406194;21.694000244140625;1673430148.0416286;-1.2136512994766235;-11.791563034057617;94.40245056152344
115;1673430148.2359135;47.1306425;7.2406194;22.104001998901367;1673430148.2398164;-1.4322677850723267;-10.542969703674316;94.19415283203125
116;1673430148.430431;47.1306424;7.2406193;22.511001586914062;1673430148.4353113;-1.4524563550949097;-7.150054931640625;94.05828094482422
117;1673430148.6351995;47.1306424;7.2406193;22.918001174926758;1673430148.6381273;-1.3736249208450317;-10.888938903808594;94.3831787109375
118;1673430148.8461733;47.1306424;7.2406193;23.32400131225586;1673430148.849115;-1.1589101552963257;-11.613935470581055;94.32171630859375
119;1673430149.0588458;47.1306425;7.2406193;23.72800064086914;1673430149.0617528;-1.546441912651062;-6.841989994049072;94.20680236816406
120;1673430149.2539845;47.130642599999995;7.240619199999999;24.131000518798828;1673430149.2568972;-1.565789818763733;-10.202245712280273;94.53140258789062
121;1673430149.4394035;47.130642599999995;7.2406191;24.535001754760742;1673430149.4423394;-1.5656242370605469;-11.549818992614746;94.51652526855469
122;1673430149.6370535;47.130642599999995;7.2406191;24.931001663208008;1673430149.6409574;-1.5865041017532349;-7.406413555145264;94.2409439086914
123;1673430149.8511002;47.130642599999995;7.2406191;25.32600212097168;1673430149.8550243;-1.5638113021850586;-9.303363800048828;94.34607696533203
124;1673430150.0424669;47.130642599999995;7.2406191;25.722002029418945;1673430150.045381;-1.472969889640808;-11.844526290893555;94.43637084960938
125;1673430150.243742;47.130642699999996;7.2406191;26.119001388549805;1673430150.2466643;-1.7117328643798828;-7.4866509437561035;94.11066436767578
126;1673430150.466486;47.1306428;7.240619199999999;26.519001007080078;1673430150.4694703;-1.661088228225708;-8.332666397094727;94.04190826416016
127;1673430150.678449;47.130642699999996;7.240619199999999;26.91900062561035;1673430150.6833305;-1.2727729082107544;-12.00816535949707;94.41394805908203
128;1673430150.8627734;47.130642599999995;7.2406193;27.31100082397461;1673430150.8647256;-1.2521675825119019;-8.666238784790039;94.21133422851562
129;1673430151.057127;47.1306425;7.2406193;27.70600128173828;1673430151.0600457;-1.2813160419464111;-7.927738666534424;94.21728515625
130;1673430151.2474174;47.1306425;7.2406193;28.104001998901367;1673430151.2503464;-1.1487866640090942;-11.66776180267334;94.48635864257812
131;1673430151.4516385;47.130642599999995;7.2406193;28.501001358032227;1673430151.452615;-1.2100720405578613;-9.451187133789062;94.41316223144531
132;1673430151.6550725;47.130642699999996;7.2406193;28.902000427246094;1673430151.6580017;-1.5194956064224243;-7.043790340423584;94.2597885131836
133;1673430151.8404694;47.130642699999996;7.2406193;29.309001922607422;1673430151.8424225;-1.5210068225860596;-11.302563667297363;94.50122833251953
134;1673430152.0362525;47.130642599999995;7.240619199999999;29.71700096130371;1673430152.0391812;-1.4828910827636719;-10.191051483154297;94.41585540771484
135;1673430152.2315962;47.1306425;7.240619199999999;30.117000579833984;1673430152.2346573;-1.7963114976882935;-7.22606897354126;94.0989990234375
136;1673430152.437586;47.1306424;7.240619199999999;30.511001586914062;1673430152.4395385;-1.5464084148406982;-10.49892520904541;94.09994506835938
137;1673430152.6366174;47.1306424;7.240619199999999;30.905000686645508;1673430152.6395566;-1.2066749334335327;-11.476824760437012;94.241455078125
138;1673430152.8399565;47.1306425;7.240619199999999;31.30000114440918;1673430152.8428893;-1.5947868824005127;-7.1353373527526855;94.17133331298828
139;1673430153.0452175;47.1306424;7.240619199999999;31.697002410888672;1673430153.0481615;-1.608513355255127;-9.877046585083008;94.39824676513672
140;1673430153.2200303;47.1306424;7.240619199999999;32.09300231933594;1673430153.2239301;-1.3642998933792114;-11.583283424377441;94.7260971069336
141;1673430153.4410877;47.1306423;7.240619199999999;32.48500061035156;1673430153.4469483;-1.3836055994033813;-7.986117362976074;94.28727722167969
142;1673430153.6515741;47.1306423;7.240619199999999;32.880001068115234;1673430153.6545022;-1.3970439434051514;-8.88007926940918;94.24638366699219
143;1673430153.8441617;47.1306423;7.2406193;33.277000427246094;1673430153.8471045;-1.529901146888733;-12.516207695007324;94.42980194091797
144;1673430154.054171;47.1306423;7.2406193;33.67500305175781;1673430154.0561235;-1.5610605478286743;-7.739288806915283;94.06950378417969
145;1673430154.2546184;47.1306424;7.2406193;34.077003479003906;1673430154.2565775;-1.6079468727111816;-8.500036239624023;94.2197036743164
146;1673430154.4475358;47.1306424;7.2406193;34.480003356933594;1673430154.452409;-1.2589490413665771;-12.046977043151855;94.49834442138672
147;1673430154.6524723;47.1306424;7.2406193;34.880001068115234;1673430154.6553612;-1.2812745571136475;-8.566996574401855;94.26428985595703
148;1673430154.861138;47.1306424;7.2406193;35.272003173828125;1673430154.86408;-1.5319817066192627;-7.809626579284668;94.1434326171875
149;1673430155.0606267;47.1306424;7.2406193;35.66400146484375;1673430155.0635169;-1.5494499206542969;-12.172513961791992;94.48765563964844
150;1673430155.2416174;47.1306425;7.2406194;36.0620002746582;1673430155.244547;-1.337449312210083;-9.450310707092285;94.38446044921875
151;1673430155.4318466;47.1306425;7.2406194;36.46900177001953;1673430155.43479;-1.4295217990875244;-7.192378997802734;94.21983337402344
152;1673430155.635335;47.1306425;7.240619499999999;36.87700271606445;1673430155.638313;-1.2903803586959839;-11.952526092529297;94.39218139648438
153;1673430155.830969;47.1306425;7.240619499999999;37.28200149536133;1673430155.8339143;-1.1814054250717163;-10.024794578552246;94.27608489990234
154;1673430156.04166;47.1306425;7.2406194;37.678001403808594;1673430156.0455644;-1.554628610610962;-7.033764362335205;94.03388977050781
155;1673430156.24399;47.1306425;7.2406194;38.0780029296875;1673430156.246919;-1.4779977798461914;-10.314080238342285;94.38341522216797
156;1673430156.4393668;47.130642599999995;7.2406194;38.480003356933594;1673430156.4422953;-1.3673824071884155;-10.716730117797852;94.34969329833984
157;1673430156.64747;47.130642599999995;7.2406194;38.88300323486328;1673430156.6504438;-1.7277698516845703;-6.513731002807617;94.1281509399414
158;1673430156.844113;47.130642699999996;7.2406194;39.28600311279297;1673430156.846069;-1.545941710472107;-10.248995780944824;94.51821899414062
159;1673430157.0544193;47.130642599999995;7.2406194;39.689002990722656;1673430157.0574276;-1.4534984827041626;-11.523425102233887;94.59181213378906
160;1673430157.3197217;47.130642599999995;7.2406194;40.09000015258789;1673430157.3226824;-1.3646504878997803;-7.501763820648193;94.0692367553711
161;1673430157.5311594;47.130642599999995;7.2406194;40.483001708984375;1673430157.5331197;-1.4511241912841797;-8.955214500427246;94.20409393310547
162;1673430157.7463589;47.130642599999995;7.2406194;40.87700271606445;1673430157.748325;-1.3984979391098022;-11.715276718139648;94.3928451538086
163;1673430157.924821;47.130642599999995;7.2406194;41.277000427246094;1673430157.9257972;-1.6457570791244507;-7.196928024291992;94.04800415039062
164;1673430158.1174426;47.130642599999995;7.2406193;41.682003021240234;1673430158.1203694;-1.7457020282745361;-8.873944282531738;94.25503540039062
165;1673430158.3640494;47.1306425;7.2406193;42.086002349853516;1673430158.366011;-1.287320613861084;-12.075185775756836;94.50871276855469
166;1673430158.5351014;47.1306424;7.2406193;42.48800277709961;1673430158.5370536;-1.2262526750564575;-8.424091339111328;94.34004974365234
167;1673430158.7360132;47.1306425;7.2406193;42.88200378417969;1673430158.7379534;-1.3297961950302124;-8.134323120117188;94.31987762451172
168;1673430158.9267151;47.1306425;7.2406193;43.2760009765625;1673430158.9296684;-1.3817436695098877;-12.205193519592285;94.43358612060547
169;1673430159.1002324;47.1306425;7.2406194;43.68100357055664;1673430159.1031613;-1.4421026706695557;-7.885190010070801;94.0748291015625
170;1673430159.2836957;47.1306425;7.2406193;44.0880012512207;1673430159.2863119;-1.5603551864624023;-7.830941200256348;94.04513549804688
171;1673430159.4807801;47.1306424;7.2406193;44.496002197265625;1673430159.4827335;-1.519798755645752;-11.913108825683594;94.40184020996094
172;1673430159.707391;47.1306424;7.2406193;44.902000427246094;1673430159.7093592;-1.4551928043365479;-9.767165184020996;94.47369384765625
173;1673430159.8863735;47.1306423;7.240619199999999;45.303001403808594;1673430159.8902798;-1.6376255750656128;-7.479450225830078;94.17162322998047
174;1673430160.0620487;47.1306424;7.240619199999999;45.69700241088867;1673430160.0649772;-1.5376912355422974;-11.14954662322998;94.46839141845703
175;1673430160.2506015;47.1306424;7.240619199999999;46.090003967285156;1673430160.2545204;-1.3390690088272095;-10.566362380981445;94.4683609008789
176;1673430160.4498124;47.1306424;7.240619199999999;46.48800277709961;1673430160.4536889;-1.6345025300979614;-7.090007305145264;94.14669799804688
177;1673430160.6681108;47.1306423;7.240619199999999;46.88600158691406;1673430160.6700702;-1.6113386154174805;-10.60176944732666;94.3906021118164
178;1673430160.8644745;47.1306423;7.240619199999999;47.284000396728516;1673430160.868379;-1.6253952980041504;-11.093230247497559;94.3769302368164
179;1673430161.0679135;47.1306423;7.240619199999999;47.682003021240234;1673430161.0698807;-1.7302061319351196;-7.261484622955322;93.95707702636719
180;1673430161.2824483;47.1306423;7.240619199999999;48.06800079345703;1673430161.2873297;-1.6804571151733398;-9.955707550048828;94.16339874267578
181;1673430161.4837024;47.1306423;7.240619199999999;48.41400146484375;1673430161.486632;-1.6815708875656128;-11.49811840057373;94.41250610351562
182;1673430161.6794713;47.1306423;7.240619199999999;48.7140007019043;1673430161.6833856;-1.8084990978240967;-7.222885608673096;94.2181625366211
183;1673430161.8625886;47.1306422;7.240619199999999;48.96900177001953;1673430161.8645294;-1.7495442628860474;-9.349334716796875;94.44233703613281
184;1673430162.047219;47.130641999999995;7.240619199999999;49.17900085449219;1673430162.0511236;-1.4390710592269897;-12.04367733001709;94.59163665771484
185;1673430162.2504537;47.1306419;7.2406191;49.35100173950195;1673430162.2543635;2.2071480751037598;-5.349720478057861;94.17671203613281
186;1673430162.4526687;47.130641399999995;7.2406185;49.496002197265625;1673430162.4546216;19.826553344726562;18.896574020385742;101.98877716064453
187;1673430162.6529346;47.130639699999996;7.2406158;49.62300109863281;1673430162.6558638;26.958541870117188;40.8989372253418;114.08191680908203
188;1673430162.8555086;47.1306357;7.240609699999999;49.72800064086914;1673430162.8584383;24.829004287719727;52.730987548828125;122.46360778808594
189;1673430163.0577836;47.130629;7.240599899999999;49.803001403808594;1673430163.060727;9.235756874084473;57.1032829284668;131.99684143066406
190;1673430163.2602453;47.1306194;7.2405865;49.85700225830078;1673430163.2641282;-8.082005500793457;54.41826248168945;142.44541931152344
191;1673430163.462188;47.130607499999996;7.2405705;49.8900032043457;1673430163.4651296;-22.62334442138672;48.89145278930664;153.30767822265625
192;1673430163.6674335;47.130593499999996;7.2405523;49.91200256347656;1673430163.6693697;-36.10710144042969;45.4499626159668;164.63087463378906
193;1673430163.8668363;47.130577699999996;7.240532;49.926002502441406;1673430163.8707416;-45.88438034057617;42.09992980957031;177.6416473388672
194;1673430164.063479;47.1305603;7.240509299999999;49.92000198364258;1673430164.0693357;-53.54981994628906;34.053367614746094;-169.68417358398438
195;1673430164.250782;47.1305415;7.240484599999999;49.875003814697266;1673430164.2567928;-50.344783782958984;25.23469352722168;-161.32119750976562
196;1673430164.458774;47.1305219;7.240458299999999;49.80800247192383;1673430164.4636538;-46.94414520263672;20.316904067993164;-155.9859619140625
197;1673430164.652927;47.1305018;7.2404310999999995;49.73600387573242;1673430164.6568308;-47.307334899902344;15.523473739624023;-149.2429656982422
198;1673430164.8623073;47.1304814;7.240403;49.6670036315918;1673430164.8671858;-45.29818344116211;9.407084465026855;-141.80484008789062
199;1673430165.0653725;47.130460899999996;7.240374399999999;49.61600112915039;1673430165.0673242;-45.10169219970703;8.43050479888916;-135.96360778808594
200;1673430165.273591;47.1304406;7.2403454;49.5890007019043;1673430165.2765129;-45.10176086425781;-0.0080508878454566;-129.31932067871094
201;1673430165.470626;47.1304203;7.2403162;49.573001861572266;1673430165.4735708;-46.39217758178711;-2.1993463039398193;-131.37417602539062
202;1673430165.6659958;47.1303996;7.2402869999999995;49.56500244140625;1673430165.6689258;-47.28427505493164;-1.1815581321716309;-134.1755828857422
203;1673430165.8661819;47.1303785;7.2402579;49.56800079345703;1673430165.8701034;-47.437095642089844;-0.45355287194252014;-135.11370849609375
204;1673430166.0572424;47.1303571;7.2402289;49.58500289916992;1673430166.0621102;-47.65179443359375;1.254058837890625;-135.9961700439453
205;1673430166.2734475;47.1303354;7.2401998;49.612003326416016;1673430166.2763746;-47.71706771850586;2.414815664291382;-136.3697509765625
206;1673430166.462162;47.130313699999995;7.2401709;49.63800048828125;1673430166.4651468;-48.34877014160156;3.247204303741455;-136.54559326171875
207;1673430166.659235;47.1302917;7.2401417;49.665000915527344;1673430166.6621742;-48.60329055786133;3.842367172241211;-136.66497802734375
208;1673430166.8643808;47.1302697;7.2401121999999996;49.69700241088867;1673430166.8673093;-48.25645065307617;3.8741986751556396;-136.54306030273438
209;1673430167.0566576;47.130247499999996;7.2400826;49.72800064086914;1673430167.060577;-48.61565399169922;3.8344943523406982;-136.42311096191406
210;1673430167.2462687;47.1302253;7.2400527;49.762001037597656;1673430167.2491977;-48.62995910644531;3.852587938308716;-136.33380126953125
211;1673430167.4446383;47.130203099999996;7.240022799999999;49.78900146484375;1673430167.450507;-48.652442932128906;3.7729544639587402;-136.21530151367188
212;1673430167.6580038;47.1301808;7.2399926;49.810001373291016;1673430167.660934;-48.443092346191406;3.5802435874938965;-136.096923828125
213;1673430167.8523476;47.130158599999994;7.2399625;49.82400131225586;1673430167.8552613;-48.17381286621094;3.50187611579895;-136.03192138671875
214;1673430168.06394;47.1301363;7.239932199999999;49.836002349853516;1673430168.066868;-47.77385711669922;3.458097457885742;-136.01121520996094
215;1673430168.2717872;47.130114;7.239901799999999;49.849002838134766;1673430168.2747166;-47.64400100708008;3.4798617362976074;-136.03724670410156
216;1673430168.487894;47.130091799999995;7.2398715;49.86300277709961;1673430168.4908218;-48.00906753540039;3.4234275817871094;-136.02044677734375
217;1673430168.6902683;47.1300695;7.2398411;49.87700271606445;1673430168.694174;-48.311702728271484;3.399430274963379;-136.00782775878906
218;1673430168.8931854;47.1300472;7.239810599999999;49.88800048828125;1673430168.8961;-48.38580322265625;3.3651270866394043;-136.00076293945312
219;1673430169.0893378;47.130024899999995;7.2397801;49.8900032043457;1673430169.0922647;-48.139747619628906;3.34904146194458;-135.9766082763672
220;1673430169.2890573;47.1300026;7.2397496;49.89400100708008;1673430169.2920022;-47.69542694091797;3.2028391361236572;-135.9398193359375
221;1673430169.4679127;47.1299803;7.239719099999999;49.90400314331055;1673430169.470863;-47.83879470825195;3.329622268676758;-136.0399932861328
222;1673430169.6788619;47.129957999999995;7.2396885;49.915000915527344;1673430169.6817915;-48.50397872924805;3.3162996768951416;-136.02320861816406
223;1673430169.8910134;47.1299357;7.2396579999999995;49.922000885009766;1673430169.8939397;-48.649070739746094;3.269906759262085;-135.9806671142578
224;1673430170.084224;47.1299133;7.2396274;49.926002502441406;1673430170.0881443;-48.31071853637695;3.211564064025879;-135.96617126464844
225;1673430170.3017151;47.129891;7.2395969;49.93000411987305;1673430170.3046455;-48.11690902709961;3.1410412788391113;-135.9705047607422
226;1673430170.4945784;47.1298688;7.2395663;49.92900085449219;1673430170.496524;-48.17634582519531;3.172671318054199;-135.9800567626953
227;1673430170.686069;47.1298465;7.2395358;49.92500305175781;1673430170.6899588;-48.01340866088867;3.1908316612243652;-135.97422790527344
228;1673430170.88014;47.1298241;7.239505299999999;49.922000885009766;1673430170.8830693;-47.846473693847656;3.1436984539031982;-135.9691162109375
229;1673430171.0775425;47.129801799999996;7.2394747;49.919002532958984;1673430171.079495;-47.95675277709961;3.2737462520599365;-136.0140838623047
230;1673430171.277582;47.1297795;7.2394441;49.91400146484375;1673430171.2814865;-48.195228576660156;3.2053234577178955;-135.94644165039062
231;1673430171.4642644;47.1297572;7.2394136;49.91100311279297;1673430171.4671922;-48.08197784423828;3.1192467212677;-135.93284606933594
232;1673430171.6628246;47.129734899999995;7.239382999999999;49.90900421142578;1673430171.6657531;-48.064064025878906;3.165921926498413;-135.94334411621094
233;1673430171.8626738;47.1297125;7.239352599999999;49.906002044677734;1673430171.8656058;-48.0882453918457;3.1702253818511963;-135.91189575195312
234;1673430172.077269;47.1296902;7.2393221;49.90300369262695;1673430172.0792234;-48.103668212890625;3.191526412963867;-135.8953399658203
235;1673430172.2739475;47.1296679;7.2392916;49.9010009765625;1673430172.2768753;-48.07265853881836;3.170290231704712;-135.8653564453125
236;1673430172.472456;47.129645599999996;7.239261099999999;49.89900207519531;1673430172.474409;-48.02595520019531;3.083181619644165;-135.81785583496094
237;1673430172.6872673;47.1296233;7.2392306;49.900001525878906;1673430172.690195;-47.943328857421875;3.0772347450256348;-135.8253173828125
238;1673430172.899393;47.129601;7.2392001;49.90300369262695;1673430172.903298;-48.09321212768555;3.1311452388763428;-135.82203674316406
239;1673430173.0898893;47.129578699999996;7.239169599999999;49.90800094604492;1673430173.0918403;-48.29043960571289;3.1163887977600098;-135.7756805419922
240;1673430173.2674024;47.1295564;7.2391391;49.91200256347656;1673430173.2693548;-48.223087310791016;3.084643602371216;-135.74769592285156
241;1673430173.463051;47.1295341;7.2391086;49.91200256347656;1673430173.4659798;-48.03664016723633;3.0098588466644287;-135.69932556152344
242;1673430173.665607;47.129511799999996;7.2390780999999995;49.915000915527344;1673430173.6675599;-47.743263244628906;2.977449655532837;-135.64971923828125
243;1673430173.87273;47.1294895;7.239047599999999;49.923004150390625;1673430173.8767414;-47.91722869873047;3.1241676807403564;-135.70391845703125
244;1673430174.0588403;47.1294672;7.2390171;49.932003021240234;1673430174.06372;-48.36744689941406;3.097290515899658;-135.62828063964844
245;1673430174.2867742;47.129444899999996;7.238986499999999;49.939002990722656;1673430174.2896688;-48.545223236083984;2.999530553817749;-135.55392456054688
246;1673430174.4762836;47.1294226;7.2389559;49.94600296020508;1673430174.480188;-48.26620864868164;3.0856986045837402;-135.54318237304688
247;1673430174.6669874;47.1294003;7.238925399999999;49.952003479003906;1673430174.6709006;-48.095924377441406;5.053918361663818;-136.05641174316406
248;1673430174.8670251;47.129377999999996;7.2388946999999995;49.954002380371094;1673430174.869951;-48.06947708129883;5.1465044021606445;-135.40927124023438
249;1673430175.0783837;47.129356;7.238863899999999;49.957000732421875;1673430175.0813117;-47.5235595703125;3.436237335205078;-134.78848266601562
250;1673430175.2879987;47.129334;7.238833;49.9640007019043;1673430175.2909245;-47.423614501953125;5.465270519256592;-135.3673553466797
251;1673430175.486562;47.1293121;7.238802;49.98400115966797;1673430175.488522;-40.63972473144531;4.40030574798584;-134.38636779785156
252;1673430175.6859875;47.1292907;7.2387714999999995;50.01300048828125;1673430175.6879418;-27.06032943725586;5.6050333976745605;-135.51319885253906
253;1673430175.88507;47.129270399999996;7.238742299999999;50.025001525878906;1673430175.8880036;-8.872883796691895;5.767511367797852;-135.77285766601562
254;1673430176.0786667;47.129251599999996;7.2387156;50.02700424194336;1673430176.081595;5.375792980194092;5.535716533660889;-136.47227478027344
255;1673430176.2713358;47.129235;7.2386919999999995;50.012001037597656;1673430176.275344;16.34928321838379;5.746854305267334;-136.64239501953125
256;1673430176.4716594;47.1292208;7.2386721;49.958003997802734;1673430176.4745834;23.85955810546875;5.597654342651367;-137.61648559570312
257;1673430176.6757643;47.1292088;7.238655499999999;49.86100387573242;1673430176.6787066;16.386150360107422;2.30759596824646;-137.26112365722656
258;1673430176.8811707;47.1291991;7.2386421;49.79300308227539;1673430176.8831277;22.183074951171875;7.916377544403076;-137.51119995117188
259;1673430177.0864632;47.129191399999996;7.2386311999999995;49.750003814697266;1673430177.0893993;23.70166778564453;10.624988555908203;-138.10215759277344
260;1673430177.2905593;47.1291856;7.238622599999999;49.74100112915039;1673430177.2934906;17.384313583374023;10.81277847290039;-137.8603057861328
261;1673430177.4923494;47.1291812;7.238615599999999;49.75700378417969;1673430177.495285;8.972902297973633;7.875068664550781;-136.97817993164062
262;1673430177.7051642;47.1291775;7.2386097;49.78900146484375;1673430177.7061412;1.90961492061615;3.0941579341888428;-136.02667236328125
263;1673430177.8951848;47.1291742;7.2386042999999995;49.8390007019043;1673430177.8990884;-2.499643325805664;2.4351444244384766;-135.42283630371094
264;1673430178.0858827;47.1291708;7.2385993;49.887001037597656;1673430178.0917218;-1.8474093675613403;1.5021783113479614;-135.6334686279297
265;1673430178.2772176;47.1291673;7.2385943;49.92900085449219;1673430178.2801468;-0.9212629199028015;2.986520528793335;-136.15943908691406
266;1673430178.4746757;47.1291638;7.2385893999999995;49.9640007019043;1673430178.477603;0.8135724067687988;4.4983673095703125;-136.7288055419922
267;1673430178.6856244;47.129160399999996;7.2385848;49.9890022277832;1673430178.6875782;2.4587485790252686;4.8920183181762695;-136.9811553955078
268;1673430178.8889935;47.1291571;7.238580499999999;50.00700378417969;1673430178.8928971;3.838010787963867;4.978087425231934;-137.16722106933594
269;1673430179.0862205;47.129154;7.2385765;50.03000259399414;1673430179.089149;-3.5534112453460693;7.241353988647461;-137.6020050048828
270;1673430179.275737;47.1291508;7.2385722999999995;50.0780029296875;1673430179.2767322;-20.61988639831543;4.420338153839111;-137.37985229492188
271;1673430179.476799;47.1291467;7.2385668;50.19200134277344;1673430179.4797065;-17.80169677734375;-1.2533493041992188;-136.1368408203125
272;1673430179.681695;47.1291418;7.2385607;50.3900032043457;1673430179.6836467;-16.117692947387695;-0.3723066747188568;-136.41148376464844
273;1673430179.8697233;47.1291361;7.238553899999999;50.69000244140625;1673430179.875579;-22.666025161743164;1.8292876482009888;-136.5758056640625
274;1673430180.071888;47.1291294;7.2385459;51.03600311279297;1673430180.0738256;-37.391231536865234;5.99070405960083;-136.79847717285156
275;1673430180.2799292;47.1291215;7.2385359;51.38600158691406;1673430180.283846;-40.2457389831543;8.468247413635254;-136.24053955078125
276;1673430180.474665;47.129112299999996;7.2385233;51.74900436401367;1673430180.477599;-37.497982025146484;9.283154487609863;-136.2291259765625
277;1673430180.678143;47.1291022;7.2385088;52.134002685546875;1673430180.6810718;-30.43324089050293;9.396965026855469;-136.83888244628906
278;1673430180.8796778;47.129091599999995;7.238493399999999;52.52100372314453;1673430180.8826053;-23.79768180847168;7.936310768127441;-137.11412048339844
279;1673430181.0654578;47.1290808;7.2384775999999995;52.910003662109375;1673430181.0693634;-17.942066192626953;5.713552474975586;-137.14105224609375
280;1673430181.2599154;47.1290701;7.238461999999999;53.30400085449219;1673430181.2629943;-13.90565013885498;3.478588581085205;-137.41001892089844
281;1673430181.4630153;47.1290596;7.238447;53.69700241088867;1673430181.4669204;-11.53610897064209;1.7762607336044312;-137.40199279785156
282;1673430181.6748064;47.1290495;7.2384327;54.0880012512207;1673430181.6777349;-11.083536148071289;1.5154250860214233;-137.44497680664062
283;1673430181.8810716;47.1290398;7.2384191;54.47900390625;1673430181.884977;-11.953347206115723;2.698690414428711;-137.78880310058594
284;1673430182.090427;47.1290303;7.2384059999999995;54.87200164794922;1673430182.094333;-13.69661808013916;4.773758888244629;-137.83470153808594
285;1673430182.2809272;47.129020999999995;7.238393299999999;55.2660026550293;1673430182.282863;-16.27110481262207;6.72289514541626;-137.91624450683594
286;1673430182.4793892;47.1290118;7.238380599999999;55.66100311279297;1673430182.48233;-18.286163330078125;6.213335037231445;-137.78509521484375
287;1673430182.676239;47.1290025;7.2383679;56.05500411987305;1673430182.6791666;-20.01680564880371;4.650507926940918;-137.57008361816406
288;1673430182.8752038;47.128993099999995;7.2383551;56.452003479003906;1673430182.8781319;-20.915159225463867;2.9926271438598633;-137.23765563964844
289;1673430183.0952005;47.1289835;7.2383422;56.84700393676758;1673430183.097166;-21.275081634521484;2.021315574645996;-136.72518920898438
290;1673430183.2919555;47.1289738;7.2383292;57.246002197265625;1673430183.2948842;-21.32813835144043;2.5807230472564697;-136.68212890625
291;1673430183.5026925;47.128963899999995;7.2383159;57.64600372314453;1673430183.5066009;-20.85806655883789;3.5829927921295166;-136.72264099121094
292;1673430183.696195;47.128954;7.238302399999999;58.04600143432617;1673430183.6991236;-20.38396453857422;4.697206020355225;-136.87535095214844
293;1673430183.9219892;47.128944;7.238288799999999;58.445003509521484;1673430183.955356;-19.592945098876953;5.824027061462402;-137.11480712890625
294;1673430184.126017;47.128934;7.2382751;58.84300231933594;1673430184.1308968;-19.259267807006836;6.101112365722656;-137.37684631347656
295;1673430184.3486078;47.1289239;7.2382614;59.2400016784668;1673430184.3505588;-18.86361312866211;7.296309947967529;-137.3202667236328
296;1673430184.543018;47.1289139;7.2382477;59.63900375366211;1673430184.5469205;-18.757251739501953;7.880673408508301;-137.43702697753906
297;1673430184.7126458;47.128904;7.238233999999999;60.03700256347656;1673430184.7145972;-18.668867111206055;6.143031120300293;-137.38800048828125
298;1673430184.9518569;47.1288941;7.238220399999999;60.43700408935547;1673430184.9538112;-18.851470947265625;5.047313213348389;-137.3454132080078
299;1673430185.1590214;47.1288841;7.238207;60.83900451660156;1673430185.1609733;-18.98357391357422;4.950649261474609;-137.09884643554688
300;1673430185.3302765;47.128873999999996;7.2381937;61.2390022277832;1673430185.3322294;-19.113601684570312;4.217898368835449;-136.74349975585938
301;1673430185.5071309;47.1288641;7.2381803;61.63900375366211;1673430185.51006;-19.17491340637207;4.313283920288086;-136.75856018066406
302;1673430185.7044556;47.1288542;7.2381668999999995;62.035003662109375;1673430185.7073834;-19.57255744934082;3.957582950592041;-136.58120727539062
303;1673430185.8881066;47.1288443;7.2381534;62.43000411987305;1673430185.8910341;-19.65836524963379;3.515062093734741;-136.49072265625
304;1673430186.0855424;47.128834499999996;7.2381398;62.82500457763672;1673430186.0884724;-19.593706130981445;2.853217840194702;-136.46926879882812
305;1673430186.2829597;47.128824699999996;7.2381262;63.220001220703125;1673430186.286864;-19.83049964904785;2.8517398834228516;-136.46469116210938
306;1673430186.4794703;47.1288148;7.2381125;63.61600112915039;1673430186.4824007;-19.807573318481445;3.3941195011138916;-136.56260681152344
307;1673430186.683708;47.128805;7.2380987;64.01399993896484;1673430186.6866493;-19.555164337158203;3.781726121902466;-136.8926544189453
308;1673430186.8786204;47.1287951;7.238085;64.41100311279297;1673430186.8844776;-19.531339645385742;4.663111686706543;-136.896484375
309;1673430187.0840058;47.128785199999996;7.2380713;64.8080062866211;1673430187.0869336;-19.38166046142578;5.8233642578125;-137.0294952392578
310;1673430187.2869515;47.1287753;7.238057599999999;65.20500183105469;1673430187.288903;-19.29125213623047;5.664583683013916;-137.33233642578125
311;1673430187.4760675;47.1287655;7.2380438;65.60100555419922;1673430187.4799714;-19.308481216430664;6.666884422302246;-137.3973388671875
312;1673430187.6784236;47.1287557;7.2380299;66.0009994506836;1673430187.681351;-19.310623168945312;6.418053150177002;-137.30047607421875
313;1673430187.8810174;47.1287459;7.238016099999999;66.40299987792969;1673430187.883945;-19.22145652770996;6.145764350891113;-137.3251190185547
314;1673430188.078431;47.1287361;7.2380023;66.8070068359375;1673430188.0823278;-19.269508361816406;5.9035162925720215;-137.2547149658203
315;1673430188.2704804;47.128726199999996;7.2379887;67.21000671386719;1673430188.2739537;-19.24224090576172;6.057056903839111;-137.1895294189453
316;1673430188.4742615;47.128716399999995;7.2379751;67.61000061035156;1673430188.479143;-19.565038681030273;6.210587024688721;-137.0374755859375
317;1673430188.6804802;47.1287064;7.237961599999999;68.00900268554688;1673430188.6843834;-19.609037399291992;6.648399829864502;-137.19650268554688
318;1673430188.876002;47.1286965;7.2379481;68.41000366210938;1673430188.8789244;-19.655677795410156;6.724956512451172;-137.03277587890625
319;1673430189.0840712;47.1286865;7.2379346;68.81300354003906;1673430189.0889516;-19.750282287597656;6.977578163146973;-137.07733154296875
320;1673430189.2933323;47.1286765;7.237921099999999;69.21500396728516;1673430189.2962584;-19.731849670410156;7.042726516723633;-137.28717041015625
321;1673430189.4908025;47.128666599999995;7.2379074999999995;69.61400604248047;1673430189.4937172;-19.678375244140625;6.747150421142578;-137.28343200683594
322;1673430189.6960363;47.1286567;7.2378938999999995;70.01100158691406;1673430189.698964;-19.896589279174805;6.430626392364502;-137.19371032714844
323;1673430189.8798664;47.1286468;7.237880199999999;70.406005859375;1673430189.882806;-19.849454879760742;6.312883377075195;-137.1363067626953
324;1673430190.0771341;47.128636799999995;7.2378667;70.79700469970703;1673430190.079087;-20.0742130279541;6.136427879333496;-137.02493286132812
325;1673430190.2857127;47.1286268;7.2378532;71.19400024414062;1673430190.2886393;-20.012109756469727;6.298988342285156;-137.00460815429688
326;1673430190.4997172;47.128616799999996;7.2378396;71.59400177001953;1673430190.504598;-19.959476470947266;6.194214820861816;-136.88836669921875
327;1673430190.6971643;47.1286068;7.237826;71.99500274658203;1673430190.7000937;-19.874717712402344;6.03641939163208;-136.87225341796875
328;1673430190.9018505;47.1285969;7.237812399999999;72.39400482177734;1673430190.9047885;-19.787397384643555;5.265136241912842;-136.78121948242188
329;1673430191.0901484;47.128586999999996;7.2377987;72.79100036621094;1673430191.0930753;-19.998628616333008;5.060457706451416;-136.6886749267578
330;1673430191.3039267;47.128577199999995;7.237784899999999;73.18900299072266;1673430191.304903;-20.019014358520508;4.505025386810303;-136.68936157226562
331;1673430191.5081613;47.1285673;7.2377712999999995;73.58300018310547;1673430191.5110884;-19.999523162841797;4.563418388366699;-136.83836364746094
332;1673430191.7021978;47.1285573;7.2377576999999995;73.9800033569336;1673430191.705126;-20.06432342529297;4.79801607131958;-136.6778106689453
333;1673430191.8961158;47.1285473;7.2377441;74.38400268554688;1673430191.898069;-20.06271743774414;5.076051235198975;-136.6702117919922
334;1673430192.1057627;47.1285373;7.2377305;74.78700256347656;1673430192.1077025;-19.8443546295166;4.875155448913574;-136.5388946533203
335;1673430192.350719;47.128527399999996;7.237716799999999;75.18600463867188;1673430192.3526514;-19.923648834228516;4.489482879638672;-136.39280700683594
336;1673430192.5415845;47.1285175;7.2377031;75.58300018310547;1673430192.5455089;-19.882930755615234;4.264464378356934;-136.61956787109375
337;1673430192.7204356;47.1285076;7.2376894;75.98700714111328;1673430192.72238;-20.043128967285156;4.0938029289245605;-136.7165069580078
338;1673430192.9052281;47.128497599999996;7.2376757;76.38800048828125;1673430192.9071798;-20.210859298706055;4.042661666870117;-136.64915466308594
339;1673430193.1240633;47.1284877;7.237661999999999;76.78500366210938;1673430193.1279497;-20.295347213745117;4.034275531768799;-136.65011596679688
340;1673430193.3052185;47.1284778;7.2376483;77.1810073852539;1673430193.3071706;-20.65540313720703;4.336355686187744;-136.67466735839844
341;1673430193.526309;47.1284679;7.2376344999999995;77.5780029296875;1673430193.5292401;-20.451990127563477;4.456966400146484;-136.6371612548828
342;1673430193.7719085;47.128457999999995;7.2376207;77.9780044555664;1673430193.7738624;-19.75732421875;4.52047872543335;-136.67935180664062
343;1673430193.9524562;47.1284481;7.237606899999999;78.37600708007812;1673430193.9544275;-19.189311981201172;4.989452362060547;-136.8144989013672
344;1673430194.140807;47.1284381;7.2375932;78.77400207519531;1673430194.1427739;-18.80063247680664;5.184426307678223;-136.9799346923828
345;1673430194.3425546;47.128428199999995;7.2375793999999996;79.17200469970703;1673430194.3464632;-19.672117233276367;4.551565647125244;-137.0257110595703
346;1673430194.5360346;47.1284183;7.2375656;79.56900024414062;1673430194.537974;-20.6093807220459;4.482445240020752;-137.02247619628906
347;1673430194.7656374;47.1284083;7.2375519;79.96600341796875;1673430194.7675898;-20.704259872436523;4.808527946472168;-136.9859161376953
348;1673430195.0095258;47.1283983;7.2375381999999995;80.36200714111328;1673430195.0114784;-20.25688362121582;5.062864303588867;-136.97430419921875
349;1673430195.185079;47.1283884;7.237524499999999;80.75800323486328;1673430195.1958058;-19.167232513427734;5.128079414367676;-136.92088317871094
350;1673430195.3659265;47.1283785;7.237510899999999;81.15900421142578;1673430195.3688586;-18.590835571289062;5.014444351196289;-136.87388610839844
351;1673430195.5573614;47.128368699999996;7.2374974;81.56100463867188;1673430195.5593255;-19.108444213867188;4.964739799499512;-136.8883056640625
352;1673430195.7247558;47.1283588;7.2374838;81.96600341796875;1673430195.72768;-20.155500411987305;4.8556437492370605;-136.97230529785156
353;1673430195.935668;47.128349;7.2374702;82.3740005493164;1673430195.9376335;-20.94729232788086;4.700669288635254;-136.90420532226562
354;1673430196.1931758;47.1283391;7.2374564999999995;82.77900695800781;1673430196.1951494;-21.239704132080078;4.815774917602539;-136.96636962890625
355;1673430196.3607;47.128329199999996;7.237442799999999;83.17900085449219;1673430196.3636637;-20.68036460876465;5.10267972946167;-137.0078887939453
356;1673430196.5370867;47.1283193;7.237429199999999;83.57600402832031;1673430196.5399852;-19.635459899902344;5.065816402435303;-136.9827880859375
357;1673430196.7171006;47.1283094;7.237415599999999;83.97300720214844;1673430196.7190504;-19.074064254760742;5.046632766723633;-136.9197235107422
358;1673430196.9132214;47.1282995;7.2374019999999994;84.37200164794922;1673430196.9151795;-19.1136417388916;4.938949108123779;-136.8883514404297
359;1673430197.095999;47.128289599999995;7.2373883999999995;84.7760009765625;1673430197.0999017;-20.103778839111328;4.782686233520508;-136.90591430664062
360;1673430197.292646;47.1282798;7.2373747999999996;85.1780014038086;1673430197.2955747;-21.033382415771484;5.0135674476623535;-136.9936981201172
361;1673430197.5095325;47.1282699;7.2373612;85.5770034790039;1673430197.512462;-21.152572631835938;4.919297695159912;-136.9545440673828
362;1673430197.7050457;47.128259899999996;7.237347499999999;85.97200775146484;1673430197.7089612;-20.926637649536133;5.072065353393555;-137.01785278320312
363;1673430197.8858082;47.128250099999995;7.237333899999999;86.36700439453125;1673430197.888767;-19.7495059967041;5.213298797607422;-136.9932403564453
364;1673430198.0992336;47.1282402;7.2373202;86.75900268554688;1673430198.10216;-19.27063751220703;4.873207092285156;-136.90509033203125
365;1673430198.3142564;47.1282303;7.237306599999999;87.1500015258789;1673430198.3171718;-19.172351837158203;4.971871376037598;-136.90655517578125
366;1673430198.5178342;47.1282204;7.2372929;87.54300689697266;1673430198.5217385;-20.066123962402344;4.791996002197266;-136.92539978027344
367;1673430198.7103317;47.128210499999994;7.2372793;87.93800354003906;1673430198.7122962;-20.986373901367188;4.822391510009766;-137.02505493164062
368;1673430198.8891702;47.1282005;7.2372656;88.33500671386719;1673430198.8920982;-20.932392120361328;4.935873031616211;-136.99078369140625
369;1673430199.089527;47.128190599999996;7.237252;88.73300170898438;1673430199.0914788;-20.576187133789062;5.21555757522583;-137.00331115722656
370;1673430199.3037636;47.1281806;7.2372383;89.1290054321289;1673430199.30668;-19.645597457885742;5.232624530792236;-136.97256469726562
371;1673430199.5117645;47.1281707;7.2372247;89.5260009765625;1673430199.5137327;-19.102558135986328;5.082601547241211;-136.9458770751953
372;1673430199.7118921;47.128160799999996;7.237210999999999;89.92400360107422;1673430199.7148206;-18.972532272338867;4.993754863739014;-136.93325805664062
373;1673430199.895487;47.1281509;7.2371973999999994;90.31900787353516;1673430199.8984141;-19.6132755279541;4.817577838897705;-136.9505157470703
374;1673430200.1151443;47.128141;7.2371837;90.71700286865234;1673430200.1180518;-20.725025177001953;4.8193359375;-136.98570251464844
375;1673430200.3104146;47.1281311;7.237170099999999;91.11700439453125;1673430200.3123672;-21.08527183532715;4.949968338012695;-137.0267791748047
376;1673430200.4931955;47.1281211;7.237156499999999;91.51800537109375;1673430200.4961238;-20.662498474121094;5.20927095413208;-137.08212280273438
377;1673430200.6872485;47.1281112;7.2371428;91.91700744628906;1673430200.6907175;-19.63558006286621;5.047720432281494;-136.86935424804688
378;1673430200.887273;47.1281013;7.2371292;92.31400299072266;1673430200.8902013;-18.985427856445312;5.119880199432373;-136.88290405273438
379;1673430201.0868897;47.1280913;7.2371155;92.71100616455078;1673430201.090794;-18.907211303710938;4.887528419494629;-136.9295654296875
380;1673430201.2961552;47.1280814;7.2371018;93.10700225830078;1673430201.3000605;-19.496253967285156;4.778435230255127;-136.93515014648438
381;1673430201.5005267;47.1280715;7.2370882;93.49800109863281;1673430201.5034523;-20.70000648498535;4.783082485198975;-137.01560974121094
382;1673430201.7056181;47.128061599999995;7.2370747;93.89000701904297;1673430201.7104714;-20.993938446044922;5.017390727996826;-137.05804443359375
383;1673430201.8988864;47.1280516;7.2370611;94.28600311279297;1673430201.9018157;-20.535860061645508;5.129673004150391;-137.02357482910156
384;1673430202.104405;47.1280417;7.2370474;94.6820068359375;1673430202.108309;-19.48017120361328;5.074764728546143;-136.92015075683594
385;1673430202.3041449;47.1280317;7.2370338;95.08000183105469;1673430202.308053;-18.99910545349121;4.860498428344727;-136.85704040527344
386;1673430202.5094292;47.1280218;7.2370202;95.4780044555664;1673430202.5113823;-18.894725799560547;4.768378257751465;-136.85972595214844
387;1673430202.701611;47.128011799999996;7.2370066;95.87300109863281;1673430202.7074747;-19.53421401977539;4.827444076538086;-136.87844848632812
388;1673430202.9057775;47.1280019;7.236993;96.27000427246094;1673430202.908693;-20.517417907714844;4.711114406585693;-136.94337463378906
389;1673430203.1015923;47.1279919;7.2369794;96.66500091552734;1673430203.1045296;-21.05145263671875;4.749598979949951;-137.04966735839844
390;1673430203.2882738;47.127981899999995;7.2369658;97.06000518798828;1673430203.2921662;-20.336729049682617;5.149785995483398;-137.12928771972656
391;1673430203.4874077;47.127972;7.236952199999999;97.45600128173828;1673430203.4893668;-19.004453659057617;4.9668426513671875;-136.88992309570312
392;1673430203.6973941;47.127962;7.236938599999999;97.85400390625;1673430203.6993365;-18.69752311706543;5.055949687957764;-136.82940673828125
393;1673430203.9043963;47.127952099999995;7.236924999999999;98.25100708007812;1673430203.9073217;-18.703636169433594;4.729204177856445;-136.8262176513672
394;1673430204.1160765;47.1279421;7.2369115;98.6500015258789;1673430204.1170669;-19.443227767944336;4.780829906463623;-136.81399536132812
395;1673430204.3219545;47.1279323;7.236898;99.04900360107422;1673430204.3248823;-20.389612197875977;4.752542495727539;-136.9062042236328
396;1673430204.5357516;47.127922299999994;7.2368844999999995;99.44700622558594;1673430204.5386887;-21.119352340698242;4.952569007873535;-136.93470764160156
397;1673430204.72685;47.1279123;7.2368708999999996;99.84400177001953;1673430204.72978;-20.72158432006836;5.153092861175537;-136.96841430664062
398;1673430204.918563;47.127902299999995;7.2368573;100.24100494384766;1673430204.9234304;-19.138242721557617;5.3459343910217285;-136.97341918945312
399;1673430205.1349041;47.1278923;7.2368437;100.64000701904297;1673430205.137821;-18.508060455322266;5.28839635848999;-136.83570861816406
400;1673430205.3329139;47.1278824;7.2368302;101.03900146484375;1673430205.335851;-18.51116943359375;5.085691452026367;-136.7985076904297
401;1673430205.5228236;47.127872499999995;7.2368166;101.44000244140625;1673430205.5257523;-19.11806869506836;4.881636142730713;-136.798828125
402;1673430205.7105556;47.1278626;7.2368030999999995;101.84100341796875;1673430205.7125068;-20.071561813354492;4.8306355476379395;-136.84510803222656
403;1673430205.897236;47.1278527;7.2367894999999995;102.24200439453125;1673430205.8992174;-20.876981735229492;4.943718910217285;-136.89955139160156
404;1673430206.0826962;47.127842699999995;7.2367759;102.64100646972656;1673430206.0856543;-20.684999465942383;5.153357028961182;-136.8947296142578
405;1673430206.2781153;47.1278328;7.2367623;103.04000854492188;1673430206.2820196;-19.782447814941406;5.187346458435059;-136.84959411621094
406;1673430206.4738824;47.1278229;7.2367487;103.44200134277344;1673430206.477785;-18.51157569885254;5.097458362579346;-136.7913818359375
407;1673430206.686931;47.127812999999996;7.2367351;103.84300231933594;1673430206.689859;-18.325889587402344;5.017746448516846;-136.74375915527344
408;1673430206.8749259;47.127803199999995;7.2367216;104.24600219726562;1673430206.8788311;-19.499839782714844;4.6413068771362305;-136.7450714111328
409;1673430207.0879462;47.1277933;7.236707999999999;104.64800262451172;1673430207.091866;-20.37369728088379;4.586366653442383;-136.84901428222656
410;1673430207.2867107;47.1277834;7.236694399999999;105.04900360107422;1673430207.2906315;-20.89293098449707;4.786552429199219;-136.88734436035156
411;1673430207.5010598;47.127773399999995;7.236680799999999;105.45000457763672;1673430207.5049658;-20.908878326416016;5.088006973266602;-136.89901733398438
412;1673430207.7074614;47.1277635;7.236667199999999;105.84800720214844;1673430207.7113645;-20.325634002685547;5.2368621826171875;-136.9371795654297
413;1673430207.9005513;47.1277535;7.2366535999999995;106.24400329589844;1673430207.9030378;-18.968732833862305;5.2759246826171875;-136.83238220214844
414;1673430208.1089756;47.127743699999996;7.236639899999999;106.64200592041016;1673430208.1128793;-18.68642234802246;5.190645694732666;-136.83380126953125
415;1673430208.301274;47.127733799999994;7.236626299999999;107.04000854492188;1673430208.3037665;-18.9603214263916;4.762234210968018;-136.7541961669922
416;1673430208.5149312;47.1277239;7.236612699999999;107.44200134277344;1673430208.5178587;-20.190492630004883;4.641139030456543;-136.794677734375
417;1673430208.7277617;47.127714;7.236599099999999;107.84400177001953;1673430208.7297218;-20.89527702331543;4.791997909545898;-136.8294219970703
418;1673430208.9335194;47.127704099999995;7.2365854999999994;108.24300384521484;1673430208.9354715;-21.09532356262207;4.87883186340332;-136.8061981201172
