;pos_time;latitude;longitude;altitude;alt_time;pitch;roll;yaw
0;1673435256.195929;47.130642599999995;7.24062;-0.030000001192092896;1673435256.2593784;0.03197269141674042;0.038623977452516556;90.47950744628906
1;1673435256.3960798;47.130642599999995;7.24062;-0.030000001192092896;1673435256.4618008;-0.12647239863872528;0.10309035331010818;90.62191009521484
2;1673435256.6013706;47.130642599999995;7.24062;-0.029000001028180122;1673435256.6633158;-0.1125129908323288;-0.38845157623291016;90.57625579833984
3;1673435256.7998424;47.1306425;7.24062;-0.026000000536441803;1673435256.8641994;0.04037833958864212;-0.055986303836107254;90.37323760986328
4;1673435257.00022;47.1306425;7.24062;-0.024000000208616257;1673435257.0626228;-0.14982180297374725;-0.35877323150634766;90.62433624267578
5;1673435257.1974463;47.1306425;7.2406201;-0.02200000174343586;1673435257.2589371;-0.2166919708251953;-0.11073406040668488;90.60011291503906
6;1673435257.3947346;47.1306425;7.2406201;-0.02200000174343586;1673435257.4591732;0.1348680555820465;-0.18176387250423431;90.47891998291016
7;1673435257.5949721;47.1306424;7.24062;-0.024000000208616257;1673435257.6554675;0.10892282426357269;-0.1894499808549881;90.4599609375
8;1673435257.7911825;47.1306424;7.2406201;-0.024000000208616257;1673435257.8546295;-0.2843628525733948;-0.09191425889730453;90.41415405273438
9;1673435257.991316;47.1306424;7.2406201;0.0020000000949949026;1673435258.054791;-0.20515906810760498;0.8555880188941956;90.49482727050781
10;1673435258.1897116;47.1306424;7.2406201;0.0020000000949949026;1673435258.251243;-0.07419002801179886;0.4355584383010864;90.71111297607422
11;1673435258.3863027;47.1306424;7.2406201999999995;-0.0010000000474974513;1673435258.45019;-0.17318743467330933;0.6308252215385437;90.47145080566406
12;1673435258.5860708;47.1306423;7.2406201999999995;-0.0020000000949949026;1673435258.6480205;-0.22301608324050903;0.5145869255065918;90.5478286743164
13;1673435258.7848248;47.1306423;7.2406201999999995;-0.004000000189989805;1673435258.8467002;-0.12832830846309662;0.5910659432411194;90.50311279296875
14;1673435258.9824553;47.1306422;7.2406201999999995;-0.006000000052154064;1673435259.046883;-0.22379115223884583;0.9360790848731995;90.61421966552734
15;1673435259.1856627;47.1306422;7.2406201999999995;-0.010000000707805157;1673435259.2474718;-0.3438107669353485;1.266136646270752;90.56293487548828
16;1673435259.385119;47.1306423;7.2406201;-0.013000000268220901;1673435259.4469159;-0.10900123417377472;1.2209622859954834;90.34786224365234
17;1673435259.5827005;47.1306423;7.2406201;-0.0010000000474974513;1673435259.6465747;-0.3466028571128845;1.1923061609268188;90.47429656982422
18;1673435259.7840052;47.1306423;7.2406201;0.0;1673435259.8468003;-0.2603585422039032;0.9348175525665283;90.4700927734375
19;1673435259.9844265;47.1306422;7.2406201999999995;0.0;1673435260.0469959;-0.35406506061553955;0.6858912110328674;90.36418914794922
20;1673435260.1835907;47.1306422;7.2406203;0.003000000026077032;1673435260.252145;-0.48134496808052063;-0.0001608619641046971;90.22505950927734
21;1673435260.3868864;47.1306422;7.2406203;0.0020000000949949026;1673435260.4504292;-0.2818993330001831;0.517272412776947;89.8515853881836
22;1673435260.5875385;47.1306422;7.2406203;0.005000000353902578;1673435260.6512592;-0.5002043843269348;0.4790616035461426;90.20536041259766
23;1673435260.7873766;47.130642099999996;7.2406203;0.009000000543892384;1673435260.8499625;-0.31604111194610596;0.37352582812309265;90.28072357177734
24;1673435260.9867644;47.130641999999995;7.2406203;0.00800000037997961;1673435261.049237;-0.470145046710968;0.34178605675697327;90.30555725097656
25;1673435261.1842363;47.1306418;7.2406204;0.014000000432133675;1673435261.2467024;0.1701977401971817;-0.2795456349849701;87.97598266601562
26;1673435261.3836195;47.130641399999995;7.2406206;0.023000001907348633;1673435261.4453006;0.5536361336708069;-3.0241446495056152;88.56962585449219
27;1673435261.5816963;47.1306407;7.240621099999999;0.036000002175569534;1673435261.6440246;2.7888755798339844;-6.349203586578369;90.71240997314453
28;1673435261.7805684;47.1306399;7.240621699999999;0.05300000309944153;1673435261.842216;7.005524158477783;-10.24862003326416;91.38411712646484
29;1673435261.977623;47.130638999999995;7.2406225;0.07300000637769699;1673435262.0404217;10.026637077331543;-13.775984764099121;90.7025146484375
30;1673435262.178254;47.130637899999996;7.2406234;0.10300000756978989;1673435262.239747;9.918519973754883;-15.39486312866211;90.08793640136719
31;1673435262.4088542;47.130637;7.2406242999999995;0.14400000870227814;1673435262.4835923;10.437234878540039;-17.1491756439209;89.56243896484375
32;1673435262.643303;47.1306361;7.240625199999999;0.20100000500679016;1673435262.7065504;11.207282066345215;-18.26106071472168;89.26009368896484
33;1673435262.8427598;47.1306355;7.2406261;0.27000001072883606;1673435262.90645;12.640110969543457;-19.112932205200195;89.12565612792969
34;1673435263.046074;47.1306352;7.2406267;0.35200002789497375;1673435263.1130042;14.11927604675293;-20.59654998779297;88.91992950439453
35;1673435263.253254;47.1306352;7.240627099999999;0.445000022649765;1673435263.3176715;15.371346473693848;-22.44073486328125;88.92344665527344
36;1673435263.457834;47.1306355;7.240627099999999;0.5490000247955322;1673435263.5204697;16.83137321472168;-23.57077980041504;88.98702239990234
37;1673435263.6614285;47.1306362;7.2406266;0.6600000262260437;1673435263.7232192;16.601552963256836;-21.279834747314453;89.35285186767578
38;1673435263.8630626;47.1306373;7.2406257;0.7780000567436218;1673435263.9295692;15.016985893249512;-19.6842041015625;89.74032592773438
39;1673435264.06127;47.130638499999996;7.2406245;0.9050000309944153;1673435264.1253643;13.274579048156738;-18.57822036743164;90.17172241210938
40;1673435264.2666802;47.130639699999996;7.2406231;1.040000081062317;1673435264.3295074;11.32254695892334;-12.556510925292969;91.30900573730469
41;1673435264.4668064;47.130640799999995;7.2406219;1.1890000104904175;1673435264.5317986;10.047699928283691;-12.025286674499512;92.23736572265625
42;1673435264.6670518;47.1306418;7.240620799999999;1.3470001220703125;1673435264.7330897;9.549403190612793;-13.571514129638672;92.97956848144531
43;1673435264.8662884;47.1306424;7.2406201;1.5160000324249268;1673435264.9250236;9.362256050109863;-10.238749504089355;94.10059356689453
44;1673435265.0590668;47.130642699999996;7.2406196;1.6970000267028809;1673435265.1226857;9.7051362991333;-11.043889999389648;96.90290832519531
45;1673435265.261008;47.130642699999996;7.2406193;1.8840000629425049;1673435265.324583;9.949625968933105;-15.189436912536621;96.92035675048828
46;1673435265.4608202;47.130642599999995;7.2406193;2.070000171661377;1673435265.5224426;11.117277145385742;-12.530854225158691;97.61083221435547
47;1673435265.6633694;47.1306424;7.2406194;2.254000186920166;1673435265.7264104;11.856992721557617;-12.81790542602539;97.99592590332031
48;1673435265.8628738;47.1306423;7.2406197;2.438000202178955;1673435265.9287186;12.825132369995117;-15.671892166137695;98.06498718261719
49;1673435266.0704706;47.1306423;7.2406201;2.626000165939331;1673435266.1316555;13.596197128295898;-13.938331604003906;98.55455780029297
50;1673435266.2678869;47.1306422;7.2406203;2.819000244140625;1673435266.3344681;13.869009017944336;-12.117345809936523;99.0417251586914
51;1673435266.4677851;47.130641999999995;7.2406204;3.014000177383423;1673435266.5301127;13.878910064697266;-16.213191986083984;98.5516128540039
52;1673435266.664397;47.1306419;7.2406204999999995;3.2110002040863037;1673435266.7280993;14.016803741455078;-14.700439453125;98.68721771240234
53;1673435266.8611724;47.1306419;7.2406204999999995;3.4110002517700195;1673435266.9228983;13.945972442626953;-12.197124481201172;98.90411376953125
54;1673435267.061467;47.1306419;7.2406204999999995;3.6060001850128174;1673435267.1258767;13.598474502563477;-14.64698314666748;98.89716339111328
55;1673435267.2653244;47.1306419;7.2406204999999995;3.8010001182556152;1673435267.326887;13.71844482421875;-15.19768238067627;98.84355926513672
56;1673435267.4622104;47.1306419;7.2406204;3.997000217437744;1673435267.5245373;13.813746452331543;-11.939821243286133;99.02030944824219
57;1673435267.6658406;47.1306419;7.2406204;4.195000171661377;1673435267.7395372;13.303815841674805;-14.374162673950195;98.90235900878906
58;1673435267.8719954;47.1306418;7.2406201999999995;4.394999980926514;1673435267.9383507;13.063164710998535;-15.834259033203125;98.652099609375
59;1673435268.0694554;47.1306417;7.2406201;4.5920000076293945;1673435268.1309125;13.093754768371582;-12.731446266174316;98.83824920654297
60;1673435268.2676513;47.1306417;7.24062;4.788000106811523;1673435268.330213;12.99999713897705;-13.709233283996582;98.68295288085938
61;1673435268.4649472;47.1306418;7.24062;4.9830002784729;1673435268.5264137;12.960677146911621;-15.995888710021973;98.50392150878906
62;1673435268.6655684;47.1306418;7.24062;5.179000377655029;1673435268.729323;13.111126899719238;-12.698646545410156;98.84896850585938
63;1673435268.8652067;47.1306418;7.24062;5.375000476837158;1673435268.927634;13.158624649047852;-12.57805061340332;99.034423828125
64;1673435269.064657;47.1306417;7.24062;5.574000358581543;1673435269.128799;13.205179214477539;-16.571189880371094;98.71324157714844
65;1673435269.2685251;47.1306417;7.2406198999999996;5.773000240325928;1673435269.3311775;13.437433242797852;-13.70528793334961;98.89266204833984
66;1673435269.469845;47.1306416;7.24062;5.9730000495910645;1673435269.5365994;13.346680641174316;-12.540088653564453;98.98356628417969
67;1673435269.6747093;47.1306417;7.24062;6.174000263214111;1673435269.737132;13.024232864379883;-15.650252342224121;98.7714614868164
68;1673435269.8673081;47.1306417;7.24062;6.381000518798828;1673435269.9309027;13.436237335205078;-14.523317337036133;98.68721008300781
69;1673435270.0670078;47.1306417;7.24062;6.585000514984131;1673435270.129927;13.317273139953613;-12.020438194274902;98.84965515136719
70;1673435270.2642758;47.1306417;7.2406201;6.785000324249268;1673435270.3300464;13.200294494628906;-15.409746170043945;98.61663055419922
71;1673435270.4692066;47.1306416;7.2406201;6.9860005378723145;1673435270.5338233;13.38326358795166;-15.172063827514648;98.67012023925781
72;1673435270.6651723;47.1306416;7.2406201;7.184000492095947;1673435270.7252457;13.382861137390137;-12.20708179473877;99.0877456665039
73;1673435270.8633738;47.1306417;7.2406201;7.381000518798828;1673435270.926377;13.294596672058105;-14.441404342651367;98.7844467163086
74;1673435271.065742;47.1306417;7.2406201;7.578000545501709;1673435271.1285663;13.383597373962402;-15.611884117126465;98.70899200439453
75;1673435271.266595;47.1306417;7.2406201;7.772000312805176;1673435271.3332937;13.375955581665039;-12.313698768615723;98.87322235107422
76;1673435271.4651062;47.1306417;7.2406201;7.966000556945801;1673435271.5276499;13.259581565856934;-13.655701637268066;98.90130615234375
77;1673435271.6650069;47.1306417;7.2406201;8.164999961853027;1673435271.7276175;13.089999198913574;-15.929402351379395;98.6919174194336
78;1673435271.8649578;47.1306417;7.2406201;8.36400032043457;1673435271.9246502;13.278928756713867;-13.536797523498535;98.84626770019531
79;1673435272.057462;47.1306418;7.2406201999999995;8.562000274658203;1673435272.1224484;13.372532844543457;-12.328507423400879;98.89647674560547
80;1673435272.2632725;47.1306418;7.2406201999999995;8.759000778198242;1673435272.327131;13.232075691223145;-15.670894622802734;98.78280639648438
81;1673435272.4676974;47.1306418;7.2406201999999995;8.959000587463379;1673435272.5304122;13.53841495513916;-13.99155044555664;98.84368133544922
82;1673435272.672561;47.1306418;7.2406201999999995;9.159000396728516;1673435272.7346032;13.129159927368164;-12.021286964416504;98.9769515991211
83;1673435272.8727574;47.1306418;7.2406201;9.361000061035156;1673435272.9339175;13.044323921203613;-16.24151611328125;98.5201644897461
84;1673435273.0759509;47.1306417;7.2406201999999995;9.5600004196167;1673435273.1410964;13.204002380371094;-14.795209884643555;98.61888885498047
85;1673435273.2791252;47.1306417;7.2406201999999995;9.758000373840332;1673435273.338293;13.41809368133545;-12.245314598083496;98.84678649902344
86;1673435273.4756553;47.1306417;7.2406203;9.957000732421875;1673435273.5411303;13.42674732208252;-14.665454864501953;98.74724578857422
87;1673435273.6809907;47.1306418;7.2406204;10.160000801086426;1673435273.7477589;13.3855619430542;-15.236518859863281;98.4403305053711
88;1673435273.8803475;47.1306419;7.2406204;10.440000534057617;1673435273.940901;13.61185359954834;-13.825023651123047;98.2538070678711
89;1673435274.0801973;47.1306422;7.2406201999999995;10.819000244140625;1673435274.1421587;13.90264892578125;-15.419771194458008;98.44371032714844
90;1673435274.278021;47.1306425;7.2406198999999996;11.210000991821289;1673435274.3410335;12.686408042907715;-16.521652221679688;98.1709976196289
91;1673435274.4808903;47.1306429;7.2406197;11.604000091552734;1673435274.542698;12.46895980834961;-12.893799781799316;98.49760437011719
92;1673435274.6837919;47.130643299999996;7.2406196;11.997000694274902;1673435274.7461991;12.226189613342285;-11.277727127075195;98.59810638427734
93;1673435274.884634;47.1306436;7.2406196;12.392000198364258;1673435274.9435995;12.101263046264648;-12.946660041809082;98.48030090332031
94;1673435275.0770385;47.1306438;7.240619499999999;12.789000511169434;1673435275.1415024;12.204345703125;-11.360461235046387;98.6601333618164
95;1673435275.2755988;47.1306438;7.240619499999999;13.1850004196167;1673435275.339229;12.177841186523438;-9.759130477905273;98.94142150878906
96;1673435275.4902873;47.1306436;7.240619499999999;13.584000587463379;1673435275.541265;12.171463012695312;-14.212203025817871;98.46768951416016
97;1673435275.6802628;47.1306434;7.240619499999999;13.983000755310059;1673435275.74239;12.444192886352539;-13.558818817138672;98.58077239990234
98;1673435275.8842304;47.1306431;7.2406196;14.384000778198242;1673435275.9459279;12.797144889831543;-11.666232109069824;98.63404846191406
99;1673435276.0782871;47.130643;7.2406196;14.78700065612793;1673435276.1397123;12.74111557006836;-14.598795890808105;98.54706573486328
100;1673435276.2690997;47.1306428;7.2406197;15.195000648498535;1673435276.3283243;13.17663860321045;-15.249658584594727;98.49321746826172
101;1673435276.4631252;47.130642699999996;7.2406197;15.60400104522705;1673435276.523791;13.17711067199707;-12.322074890136719;98.87757873535156
102;1673435276.6576464;47.130642599999995;7.2406197;16.011001586914062;1673435276.7192347;12.97761344909668;-14.148887634277344;98.79582977294922
103;1673435276.8557568;47.1306425;7.2406197;16.41900062561035;1673435276.9183466;12.957381248474121;-15.614547729492188;98.41522979736328
104;1673435277.0521932;47.130642599999995;7.240619799999999;16.825000762939453;1673435277.1144958;13.140827178955078;-12.502017974853516;98.76305389404297
105;1673435277.2471895;47.130642599999995;7.240619799999999;17.231000900268555;1673435277.3099687;13.127796173095703;-12.671692848205566;98.7553482055664
106;1673435277.4453826;47.130642699999996;7.240619799999999;17.638999938964844;1673435277.50755;12.737653732299805;-14.855307579040527;98.55728912353516
107;1673435277.6399138;47.1306428;7.240619799999999;18.049001693725586;1673435277.702939;12.976881980895996;-12.350525856018066;98.65927124023438
108;1673435277.8381922;47.1306428;7.240619799999999;18.454999923706055;1673435277.902208;12.735031127929688;-11.74197006225586;98.78755187988281
109;1673435278.036517;47.1306428;7.240619799999999;18.868000030517578;1673435278.0979993;12.528058052062988;-15.117168426513672;98.5081787109375
110;1673435278.2320132;47.1306428;7.2406197;19.279001235961914;1673435278.2954679;12.706439018249512;-13.203164100646973;98.66030883789062
111;1673435278.450321;47.1306428;7.240619799999999;19.68800163269043;1673435278.5212662;12.898344039916992;-11.724079132080078;98.72560119628906
112;1673435278.6686287;47.1306428;7.2406198999999996;20.09600067138672;1673435278.7394876;12.780487060546875;-14.555045127868652;98.62731170654297
113;1673435278.8864298;47.1306429;7.2406198999999996;20.505001068115234;1673435278.954425;13.039971351623535;-14.262187957763672;98.63357543945312
114;1673435279.0986435;47.1306429;7.2406198999999996;20.916000366210938;1673435279.1654456;12.97525405883789;-11.315603256225586;98.91488647460938
115;1673435279.3040645;47.1306428;7.2406198999999996;21.32200050354004;1673435279.3698509;12.928343772888184;-14.241756439208984;98.6650161743164
116;1673435279.5077174;47.130642699999996;7.24062;21.729000091552734;1673435279.5753858;13.045029640197754;-14.811086654663086;98.5975570678711
117;1673435279.7193935;47.1306428;7.24062;22.132001876831055;1673435279.7742574;13.210933685302734;-11.669635772705078;98.95698547363281
118;1673435279.8984623;47.1306428;7.24062;22.535001754760742;1673435279.9541204;13.072508811950684;-13.425718307495117;98.48566436767578
119;1673435280.0842724;47.1306429;7.24062;22.939001083374023;1673435280.1515467;13.048420906066895;-15.003722190856934;98.39944458007812
120;1673435280.2832713;47.1306429;7.24062;23.343000411987305;1673435280.345779;13.221977233886719;-12.133210182189941;98.60594177246094
121;1673435280.4853783;47.1306428;7.2406198999999996;23.74100112915039;1673435280.551112;12.924993515014648;-12.801916122436523;98.7937240600586
122;1673435280.6869102;47.1306428;7.2406198999999996;24.143001556396484;1673435280.7509053;12.680527687072754;-15.427204132080078;98.37611389160156
123;1673435280.8851895;47.1306428;7.240619799999999;24.545001983642578;1673435280.9482584;12.879189491271973;-12.508186340332031;98.70252227783203
124;1673435281.0913074;47.1306429;7.240619799999999;24.946001052856445;1673435281.159357;12.809931755065918;-11.644089698791504;98.64034271240234
125;1673435281.3013487;47.1306429;7.240619799999999;25.349000930786133;1673435281.3616443;12.764446258544922;-14.5947265625;98.57962036132812
126;1673435281.5078633;47.130643;7.240619799999999;25.755001068115234;1673435281.5726626;13.04343032836914;-13.359929084777832;98.60386657714844
127;1673435281.714868;47.1306429;7.240619799999999;26.158000946044922;1673435281.776253;12.940945625305176;-11.32436466217041;98.78351593017578
128;1673435281.9117265;47.1306429;7.240619799999999;26.5570011138916;1673435281.972542;12.877121925354004;-14.525630950927734;98.6094970703125
129;1673435282.1035507;47.1306428;7.240619799999999;26.959001541137695;1673435282.1655555;12.927096366882324;-14.102584838867188;98.78893280029297
130;1673435282.301554;47.1306428;7.240619799999999;27.367000579833984;1673435282.3626153;13.048432350158691;-11.542230606079102;98.78096008300781
131;1673435282.5024064;47.1306429;7.2406197;27.775001525878906;1673435282.5644243;12.865701675415039;-14.009501457214355;98.77281951904297
132;1673435282.7041392;47.1306429;7.2406197;28.181001663208008;1673435282.769577;12.972103118896484;-14.690526962280273;98.6015853881836
133;1673435282.9066982;47.1306428;7.2406197;28.58700180053711;1673435282.9666924;13.243398666381836;-11.372064590454102;98.78678131103516
134;1673435283.0960145;47.1306428;7.2406197;28.985000610351562;1673435283.1561246;12.937230110168457;-13.565839767456055;98.71586608886719
135;1673435283.2925906;47.130642699999996;7.2406197;29.382001876831055;1673435283.3543148;12.960290908813477;-15.10144329071045;98.48371887207031
136;1673435283.491334;47.130642699999996;7.2406197;29.786001205444336;1673435283.5584605;13.061287879943848;-11.986700057983398;98.8150634765625
137;1673435283.6910138;47.130642699999996;7.2406197;30.190000534057617;1673435283.7530625;12.980748176574707;-12.810688018798828;98.57598876953125
138;1673435283.8861537;47.130642699999996;7.240619799999999;30.595001220703125;1673435283.9481392;12.98266887664795;-15.067896842956543;98.31842041015625
139;1673435284.0796015;47.130642699999996;7.240619799999999;31.000001907348633;1673435284.1414008;12.985223770141602;-12.39902400970459;98.62913513183594
140;1673435284.2745261;47.130642599999995;7.240619799999999;31.40300178527832;1673435284.3377388;13.010268211364746;-11.971220970153809;98.91011810302734
141;1673435284.4742596;47.130642599999995;7.240619799999999;31.797000885009766;1673435284.5374842;12.875988006591797;-15.110033988952637;98.49746704101562
142;1673435284.6793997;47.130642599999995;7.240619799999999;32.19300079345703;1673435284.7424078;13.222311973571777;-12.942961692810059;98.77338409423828
143;1673435284.8788128;47.130642599999995;7.2406198999999996;32.59400177001953;1673435284.941991;13.1065034866333;-11.544779777526855;98.80208587646484
144;1673435285.0786788;47.130642599999995;7.2406198999999996;32.99700164794922;1673435285.1398218;12.810261726379395;-14.351143836975098;98.60161590576172
145;1673435285.274884;47.130642599999995;7.2406198999999996;33.402000427246094;1673435285.3383698;13.123791694641113;-13.736503601074219;98.58419799804688
146;1673435285.4796047;47.130642599999995;7.2406198999999996;33.80800247192383;1673435285.547937;13.15782642364502;-11.473807334899902;98.90692138671875
147;1673435285.6749563;47.1306425;7.2406198999999996;34.20600128173828;1673435285.7367005;12.91961669921875;-14.518865585327148;98.59102630615234
148;1673435285.8697908;47.1306425;7.2406198999999996;34.60300064086914;1673435285.933073;13.035653114318848;-14.418217658996582;98.54399108886719
149;1673435286.0671275;47.1306425;7.24062;35.00200271606445;1673435286.131328;13.363983154296875;-11.864752769470215;98.6946029663086
150;1673435286.2660096;47.130642599999995;7.24062;35.40400314331055;1673435286.3265748;12.856664657592773;-13.773189544677734;98.52245330810547
151;1673435286.4607236;47.130642699999996;7.24062;35.80900192260742;1673435286.5234563;13.099647521972656;-14.826408386230469;98.43978118896484
152;1673435286.6593676;47.130642699999996;7.24062;36.21600341796875;1673435286.7230494;13.113290786743164;-11.657135009765625;98.70088958740234
153;1673435286.8573015;47.130642699999996;7.24062;36.624000549316406;1673435286.919659;12.986599922180176;-12.74399185180664;98.67202758789062
154;1673435287.0538776;47.130642699999996;7.24062;37.02400207519531;1673435287.1159618;13.039316177368164;-15.092636108398438;98.4217300415039
155;1673435287.251039;47.1306428;7.24062;37.42500305175781;1673435287.3151565;13.170262336730957;-11.885574340820312;98.88534545898438
156;1673435287.4514651;47.1306428;7.2406201;37.829002380371094;1673435287.5130095;13.161364555358887;-11.760156631469727;98.90171813964844
157;1673435287.6474168;47.1306428;7.2406201;38.23500061035156;1673435287.710389;12.97722053527832;-14.684361457824707;98.6214599609375
158;1673435287.848031;47.1306428;7.2406201;38.638999938964844;1673435287.911158;13.255048751831055;-12.539294242858887;98.6420669555664
159;1673435288.0464587;47.130642699999996;7.2406201;39.04300308227539;1673435288.106966;13.209593772888184;-11.476912498474121;98.8705825805664
160;1673435288.2428372;47.130642699999996;7.2406201;39.43800354003906;1673435288.3053148;12.909585952758789;-14.920065879821777;98.5783920288086
161;1673435288.4508533;47.130642599999995;7.2406201;39.836002349853516;1673435288.514303;13.11587142944336;-13.490601539611816;98.6563491821289
162;1673435288.6481402;47.130642699999996;7.2406201;40.236000061035156;1673435288.709831;13.450592041015625;-11.470208168029785;98.75849151611328
163;1673435288.8475738;47.130642699999996;7.2406201;40.63800048828125;1673435288.9090781;13.071919441223145;-14.00783920288086;98.57921600341797
164;1673435289.0459552;47.130642699999996;7.2406201;41.044002532958984;1673435289.1113956;13.213522911071777;-13.961207389831543;98.62413787841797
165;1673435289.248201;47.130642699999996;7.2406201;41.452003479003906;1673435289.3097038;13.196417808532715;-11.18908977508545;98.92302703857422
166;1673435289.4496334;47.130642599999995;7.2406201;41.85700225830078;1673435289.5132709;13.155014991760254;-13.829102516174316;98.54851531982422
167;1673435289.646133;47.130642599999995;7.2406201;42.25100326538086;1673435289.7095828;13.144157409667969;-14.43734073638916;98.59699249267578
168;1673435289.846367;47.130642599999995;7.2406201;42.650001525878906;1673435289.9078639;13.422677993774414;-11.312650680541992;98.71466064453125
169;1673435290.0429733;47.130642699999996;7.2406201;43.053001403808594;1673435290.1064394;13.148951530456543;-12.577117919921875;98.64094543457031
170;1673435290.2579987;47.130642699999996;7.2406201;43.461002349853516;1673435290.3202984;13.278108596801758;-14.84471321105957;98.52582550048828
171;1673435290.4557664;47.130642599999995;7.2406201;43.86900329589844;1673435290.5193832;13.28713321685791;-12.2208890914917;98.77070617675781
172;1673435290.6536584;47.130642599999995;7.24062;44.275001525878906;1673435290.7151525;13.12580680847168;-12.080193519592285;98.8225326538086
173;1673435290.8519127;47.130642599999995;7.24062;44.67100143432617;1673435290.9140394;13.030535697937012;-15.121685981750488;98.4468002319336
174;1673435291.0590954;47.130642599999995;7.24062;45.06800079345703;1673435291.125062;13.309709548950195;-12.905658721923828;98.79279327392578
175;1673435291.2690868;47.130642599999995;7.24062;45.46800231933594;1673435291.3431685;13.360079765319824;-11.598002433776855;98.83991241455078
176;1673435291.4845893;47.130642599999995;7.2406198999999996;45.871002197265625;1673435291.5545743;13.086734771728516;-14.349413871765137;98.67288970947266
177;1673435291.702651;47.130642599999995;7.2406198999999996;46.27400207519531;1673435291.768149;13.199865341186523;-13.48426628112793;98.60200500488281
178;1673435291.9074876;47.130642599999995;7.2406198999999996;46.67500305175781;1673435291.9730458;13.198421478271484;-11.475295066833496;98.83863067626953
179;1673435292.1202474;47.130642599999995;7.240619799999999;47.073001861572266;1673435292.181727;12.989517211914062;-14.131166458129883;98.52168273925781
180;1673435292.3219676;47.130642599999995;7.240619799999999;47.4640007019043;1673435292.3906424;13.086602210998535;-14.030505180358887;98.6435775756836
181;1673435292.5260346;47.130642699999996;7.240619799999999;47.858001708984375;1673435292.5884082;13.331368446350098;-11.029370307922363;98.7252426147461
182;1673435292.725441;47.130642699999996;7.240619799999999;48.24800109863281;1673435292.7850685;13.134683609008789;-14.105753898620605;98.5872802734375
183;1673435292.9135704;47.130642599999995;7.2406198999999996;48.59100341796875;1673435292.9727519;13.189538955688477;-14.898326873779297;98.25243377685547
184;1673435293.102786;47.1306425;7.2406198999999996;48.88300323486328;1673435293.164905;13.203834533691406;-11.669400215148926;98.73568725585938
185;1673435293.2984297;47.1306424;7.2406201;49.12700271606445;1673435293.3596709;13.359417915344238;-13.364212036132812;98.5784912109375
186;1673435293.4923248;47.1306422;7.2406203;49.320003509521484;1673435293.555728;17.333040237426758;-10.2810640335083;98.89570617675781
187;1673435293.689014;47.1306419;7.2406201999999995;49.48600387573242;1673435293.7552602;31.188697814941406;15.897069931030273;107.62547302246094
188;1673435293.888801;47.1306406;7.2406187;49.63600158691406;1673435293.9517112;35.611236572265625;39.46088790893555;118.66805267333984
189;1673435294.0975106;47.1306373;7.2406143;49.76400375366211;1673435294.1706445;33.05220413208008;52.2175178527832;125.76737976074219
190;1673435294.3127916;47.130631199999996;7.240606199999999;49.85700225830078;1673435294.3774557;19.257192611694336;56.7354736328125;134.05442810058594
191;1673435294.5231185;47.1306224;7.240594799999999;49.922000885009766;1673435294.58519;1.9553041458129883;55.78614807128906;147.18222045898438
192;1673435294.727642;47.1306113;7.2405805999999995;49.96600341796875;1673435294.7952428;-16.657155990600586;50.3411750793457;158.8650360107422
193;1673435294.9298694;47.1305985;7.240564699999999;49.9890022277832;1673435294.9942865;-32.15810775756836;42.80550765991211;171.98362731933594
194;1673435295.1427476;47.1305841;7.240547299999999;50.000003814697266;1673435295.2054923;-42.68153381347656;39.664833068847656;-176.6681671142578
195;1673435295.3340974;47.130568;7.240528299999999;50.00100326538086;1673435295.3971083;-50.4343376159668;36.24689483642578;-165.625732421875
196;1673435295.5347507;47.1305505;7.2405075;49.98200225830078;1673435295.5966773;-50.86707305908203;28.44683074951172;-154.77813720703125
197;1673435295.7329717;47.130532099999996;7.2404851;49.93700408935547;1673435295.797451;-45.852481842041016;22.536157608032227;-149.14883422851562
198;1673435295.932526;47.130513199999996;7.240462;49.88200378417969;1673435295.9959855;-46.49052429199219;19.72768783569336;-143.8433074951172
199;1673435296.1389787;47.1304942;7.2404382;49.8280029296875;1673435296.2025595;-47.65255355834961;15.939565658569336;-136.71380615234375
200;1673435296.337031;47.130475;7.2404138;49.785003662109375;1673435296.3989062;-46.446685791015625;10.389918327331543;-129.1791229248047
201;1673435296.538066;47.1304557;7.240388899999999;49.75300216674805;1673435296.5999045;-45.26327896118164;6.376056671142578;-127.87561798095703
202;1673435296.7375338;47.1304364;7.240364;49.72600173950195;1673435296.79733;-42.89138412475586;6.735129356384277;-131.672607421875
203;1673435296.9336603;47.130417;7.240339199999999;49.715003967285156;1673435296.9962766;-45.689456939697266;8.496094703674316;-133.55612182617188
204;1673435297.138531;47.1303974;7.2403146;49.720001220703125;1673435297.2019923;-48.23991394042969;10.039327621459961;-134.0896759033203
205;1673435297.3417442;47.130377499999994;7.2402899;49.73600387573242;1673435297.4045498;-48.553932189941406;11.096921920776367;-134.24526977539062
206;1673435297.5436277;47.130357499999995;7.2402649;49.746002197265625;1673435297.6092703;-48.073211669921875;11.697173118591309;-134.16934204101562
207;1673435297.7453487;47.130337499999996;7.2402396;49.76000213623047;1673435297.8129022;-47.107059478759766;12.039816856384277;-134.20346069335938
208;1673435297.9436104;47.130317399999996;7.2402142;49.781002044677734;1673435298.0013797;-47.43159103393555;12.56747817993164;-134.197998046875
209;1673435298.1340284;47.130297299999995;7.2401884999999995;49.80600357055664;1673435298.194512;-48.299346923828125;12.94784927368164;-134.12217712402344
210;1673435298.3317344;47.130277199999995;7.240162499999999;49.827003479003906;1673435298.394089;-48.081573486328125;12.885371208190918;-133.99134826660156
211;1673435298.534203;47.130257199999996;7.240136199999999;49.84800338745117;1673435298.5979366;-47.50981140136719;12.705388069152832;-133.89735412597656
212;1673435298.7309241;47.130237199999996;7.2401098;49.85300064086914;1673435298.794574;-46.80225372314453;12.545134544372559;-133.83847045898438
213;1673435298.930133;47.1302173;7.240083299999999;49.85600280761719;1673435298.9936447;-45.95090103149414;12.368860244750977;-133.941650390625
214;1673435299.120899;47.1301975;7.2400566;49.862003326416016;1673435299.1884434;-46.49348831176758;12.523383140563965;-134.0940704345703
215;1673435299.3230402;47.1301778;7.24003;49.87000274658203;1673435299.3863924;-47.11740493774414;12.63040828704834;-134.05950927734375
216;1673435299.5486343;47.130158099999996;7.2400033;49.875003814697266;1673435299.6141126;-47.07535934448242;12.434468269348145;-133.96900939941406
217;1673435299.746057;47.1301385;7.239976599999999;49.87900161743164;1673435299.8048463;-46.753841400146484;12.315351486206055;-134.00205993652344
218;1673435299.938744;47.1301189;7.2399499;49.88200378417969;1673435300.0002325;-46.65743637084961;12.250513076782227;-134.04013061523438
219;1673435300.1360335;47.1300994;7.2399232;49.87700271606445;1673435300.1996295;-46.68531799316406;12.216713905334473;-133.9967803955078
220;1673435300.3221939;47.1300798;7.2398964999999995;49.868003845214844;1673435300.3832583;-46.23353576660156;12.122536659240723;-134.0122528076172
221;1673435300.5155795;47.1300603;7.239869799999999;49.86600112915039;1673435300.5829275;-46.16315460205078;12.114795684814453;-134.0973358154297
222;1673435300.7267318;47.130040799999996;7.2398431;49.871002197265625;1673435300.79448;-47.09577941894531;12.321365356445312;-134.14907836914062
223;1673435300.9415674;47.130021299999996;7.2398164;49.87300109863281;1673435300.9973168;-47.68990707397461;12.37402057647705;-134.03868103027344
224;1673435301.1274097;47.130001899999996;7.239789699999999;49.87000274658203;1673435301.1879601;-46.984432220458984;12.070413589477539;-133.9237518310547
225;1673435301.317475;47.129982399999996;7.239763;49.86100387573242;1673435301.3876078;-46.132198333740234;11.87600326538086;-133.94345092773438
226;1673435301.5415666;47.129962899999995;7.2397363;49.85200119018555;1673435301.6014361;-46.018821716308594;11.883475303649902;-134.03656005859375
227;1673435301.7386162;47.129943399999995;7.239709599999999;49.849002838134766;1673435301.800868;-46.65962600708008;12.080965042114258;-134.0502471923828
228;1673435301.9337897;47.129923999999995;7.239682999999999;49.84800338745117;1673435302.0001657;-47.23878860473633;12.183860778808594;-133.9810028076172
229;1673435302.133826;47.129904499999995;7.239656399999999;49.84300231933594;1673435302.2156518;-46.979637145996094;12.051421165466309;-133.89175415039062
230;1673435302.3420444;47.129885099999996;7.2396297999999994;49.8390007019043;1673435302.4017751;-46.64471435546875;11.976903915405273;-133.88845825195312
231;1673435302.533546;47.129865699999996;7.2396031999999995;49.8390007019043;1673435302.594364;-46.81947708129883;11.995637893676758;-133.88238525390625
232;1673435302.7464576;47.129846199999996;7.2395765999999995;49.840003967285156;1673435302.8092482;-47.205352783203125;12.10550594329834;-133.853759765625
233;1673435302.9516447;47.129826699999995;7.2395499;49.84400177001953;1673435303.017037;-47.28825378417969;12.05453872680664;-133.74893188476562
234;1673435303.1396132;47.129807199999995;7.2395232;49.845001220703125;1673435303.1969721;-47.12609100341797;11.963272094726562;-133.6936492919922
235;1673435303.324277;47.1297877;7.239496399999999;49.84300231933594;1673435303.3906133;-46.84652328491211;11.841320037841797;-133.66061401367188
236;1673435303.5291877;47.1297682;7.2394696;49.840003967285156;1673435303.5935385;-46.588775634765625;11.719069480895996;-133.6356658935547
237;1673435303.734275;47.1297487;7.2394428;49.836002349853516;1673435303.7990217;-46.4837532043457;11.672544479370117;-133.64613342285156
238;1673435303.95301;47.1297292;7.239415999999999;49.83400344848633;1673435304.013559;-46.6418571472168;11.687004089355469;-133.6428680419922
239;1673435304.1524792;47.1297098;7.2393893;49.836002349853516;1673435304.2190113;-47.03940200805664;11.748703002929688;-133.5822296142578
240;1673435304.3572624;47.1296903;7.2393626;49.84400177001953;1673435304.424048;-47.295963287353516;11.770137786865234;-133.51744079589844
241;1673435304.5554745;47.1296708;7.2393358;49.85000228881836;1673435304.6171143;-47.3069953918457;11.66734790802002;-133.4008331298828
242;1673435304.7587283;47.1296513;7.2393091;49.85400390625;1673435304.8225546;-46.89765930175781;11.508572578430176;-133.30508422851562
243;1673435304.9586575;47.1296317;7.239282299999999;49.858001708984375;1673435305.0204375;-46.651329040527344;11.455376625061035;-133.29222106933594
244;1673435305.1480224;47.1296122;7.2392555;49.8650016784668;1673435305.2088842;-47.01407241821289;11.517885208129883;-133.25189208984375
245;1673435305.341836;47.129592699999996;7.2392287;49.87200164794922;1673435305.4061773;-47.45690155029297;11.50577449798584;-133.1056671142578
246;1673435305.5388916;47.129573199999996;7.239201899999999;49.87900161743164;1673435305.6048343;-47.34133529663086;11.366974830627441;-132.99948120117188
247;1673435305.74849;47.129553699999995;7.2391751;49.88300323486328;1673435305.8121955;-47.014957427978516;11.243271827697754;-132.90658569335938
248;1673435305.9358778;47.1295341;7.2391482;49.88800048828125;1673435305.9989972;-47.029720306396484;11.152216911315918;-132.81466674804688
249;1673435306.1432433;47.1295145;7.2391213;49.8910026550293;1673435306.2068236;-47.049468994140625;11.088088989257812;-132.71295166015625
250;1673435306.346932;47.129495;7.2390944;49.89400100708008;1673435306.4099448;-47.23143768310547;11.003389358520508;-132.5579376220703
251;1673435306.5449767;47.1294754;7.2390675;49.89800262451172;1673435306.6080656;-47.271602630615234;10.855087280273438;-132.4213409423828
252;1673435306.7448702;47.129455799999995;7.2390406;49.90200424194336;1673435306.8023255;-47.20722961425781;10.760746955871582;-132.24510192871094
253;1673435306.9371126;47.129436299999995;7.2390137;49.906002044677734;1673435307.001723;-47.18693923950195;10.618931770324707;-132.08642578125
254;1673435307.146185;47.1294167;7.238986799999999;49.906002044677734;1673435307.205559;-47.059043884277344;11.436964988708496;-132.09886169433594
255;1673435307.3459702;47.1293972;7.238959899999999;49.90900421142578;1673435307.4083862;-46.59149932861328;14.24666690826416;-132.23590087890625
256;1673435307.5453992;47.1293778;7.238932699999999;49.9160041809082;1673435307.608064;-46.63942337036133;15.0599365234375;-131.29310607910156
257;1673435307.7506638;47.1293587;7.238905399999999;49.922000885009766;1673435307.8113456;-47.31058120727539;14.077836036682129;-130.44493103027344
258;1673435307.9440715;47.1293399;7.2388778;49.92900085449219;1673435308.0067456;-46.913082122802734;15.214252471923828;-130.3781280517578
259;1673435308.1468444;47.129321399999995;7.2388499;49.93600082397461;1673435308.209272;-46.22052001953125;16.491975784301758;-129.98446655273438
260;1673435308.336807;47.129303199999995;7.238821799999999;49.94300079345703;1673435308.399134;-45.75446701049805;17.404664993286133;-129.37771606445312
261;1673435308.5422566;47.129285499999995;7.2387934;49.95500183105469;1673435308.6238203;-44.74443817138672;19.26791763305664;-128.961181640625
262;1673435308.7501888;47.1292683;7.238764799999999;49.974002838134766;1673435308.8061616;-36.997100830078125;17.866844177246094;-128.1776885986328
263;1673435308.9389448;47.1292518;7.2387364;50.00400161743164;1673435309.0020719;-20.872661590576172;19.04277992248535;-130.18948364257812
264;1673435309.1375046;47.129236299999995;7.2387095;50.03300094604492;1673435309.2018366;-4.050656318664551;17.013286590576172;-133.14285278320312
265;1673435309.347736;47.1292222;7.238684999999999;50.052001953125;1673435309.4100196;7.68157434463501;15.262068748474121;-135.83627319335938
266;1673435309.5534632;47.129209499999995;7.238663799999999;50.06500244140625;1673435309.616943;17.001461029052734;14.691097259521484;-136.2294158935547
267;1673435309.761531;47.129198599999995;7.2386463;50.06300354003906;1673435309.821185;21.558481216430664;13.925080299377441;-136.7801513671875
268;1673435309.958937;47.1291893;7.238632399999999;50.04600143432617;1673435310.0140243;21.531524658203125;12.359435081481934;-137.03424072265625
269;1673435310.13777;47.1291818;7.2386216999999995;50.03400421142578;1673435310.198508;16.432401657104492;22.34146499633789;-137.36317443847656
270;1673435310.3295007;47.1291758;7.2386135;50.03200149536133;1673435310.388611;11.009541511535645;19.04942512512207;-135.8551788330078
271;1673435310.541307;47.1291711;7.238607;50.038002014160156;1673435310.608988;4.840152740478516;19.5472412109375;-135.3759002685547
272;1673435310.756487;47.1291672;7.2386018;50.048004150390625;1673435310.8181117;0.8009476661682129;17.88475799560547;-134.17054748535156
273;1673435310.9662583;47.129163899999995;7.2385974;50.05600357055664;1673435311.0312197;-1.9742228984832764;19.16606330871582;-133.0366668701172
274;1673435311.1739123;47.1291608;7.2385934;50.064002990722656;1673435311.2375932;-3.3480191230773926;19.932697296142578;-131.51759338378906
275;1673435311.3806994;47.129157899999996;7.2385896999999995;50.07100296020508;1673435311.4415054;-4.520981788635254;22.478370666503906;-130.65847778320312
276;1673435311.57051;47.1291551;7.2385861;50.07400131225586;1673435311.6336913;-4.872213840484619;22.600603103637695;-129.44589233398438
277;1673435311.7697008;47.1291525;7.238582399999999;50.0780029296875;1673435311.833205;-13.416494369506836;20.11783218383789;-131.82403564453125
278;1673435311.9729927;47.129149999999996;7.2385784;50.125003814697266;1673435312.0337608;-34.295127868652344;18.848148345947266;-140.0120391845703
279;1673435312.1718104;47.1291465;7.2385727;50.220001220703125;1673435312.2285523;-32.86463165283203;9.676397323608398;-137.798583984375
280;1673435312.36635;47.129141399999995;7.2385654;50.37800216674805;1673435312.4329326;-25.83455467224121;7.98038387298584;-136.60594177246094
281;1673435312.5753012;47.129135;7.2385575;50.608001708984375;1673435312.6383858;-23.311023712158203;7.271606922149658;-135.33538818359375
282;1673435312.7747355;47.1291276;7.2385496;50.923004150390625;1673435312.8375585;-30.72389030456543;15.706174850463867;-135.7576446533203
283;1673435312.9718108;47.1291194;7.2385407;51.27000427246094;1673435313.0383785;-40.3687858581543;24.887269973754883;-135.74244689941406
284;1673435313.1746647;47.1291107;7.2385288999999995;51.64400100708008;1673435313.2386193;-35.508323669433594;23.325258255004883;-134.7841339111328
285;1673435313.3768723;47.1291015;7.238514899999999;52.03400421142578;1673435313.4339128;-32.77085494995117;22.64573097229004;-135.60911560058594
286;1673435313.5686295;47.1290921;7.238499699999999;52.427001953125;1673435313.628503;-28.398616790771484;19.960128784179688;-136.15618896484375
287;1673435313.7706149;47.129082499999996;7.238484;52.82100296020508;1673435313.837978;-24.4034423828125;17.370441436767578;-136.4059295654297
288;1673435313.9834905;47.129072799999996;7.2384682;53.215003967285156;1673435314.053784;-21.694602966308594;14.19113540649414;-136.5231170654297
289;1673435314.1901524;47.1290629;7.2384527;53.60900115966797;1673435314.2548282;-19.931678771972656;11.89125919342041;-136.5873260498047
290;1673435314.396226;47.1290531;7.2384379999999995;54.00200271606445;1673435314.4557116;-19.062822341918945;11.613801956176758;-136.8160400390625
291;1673435314.5915022;47.1290432;7.2384239;54.3910026550293;1673435314.6500585;-18.70929527282715;13.013513565063477;-137.1302947998047
292;1673435314.7781262;47.129033299999996;7.238410399999999;54.78000259399414;1673435314.8405888;-19.362606048583984;14.8034029006958;-137.32786560058594
293;1673435314.9853144;47.1290234;7.2383973;55.17000198364258;1673435315.0497432;-20.178205490112305;17.743606567382812;-137.68881225585938
294;1673435315.1976588;47.1290135;7.2383844999999996;55.56300354003906;1673435315.2555282;-21.290441513061523;18.923999786376953;-137.74856567382812
295;1673435315.3881671;47.1290038;7.2383717999999995;55.95700454711914;1673435315.4535685;-22.774822235107422;18.131752014160156;-137.34384155273438
296;1673435315.5945106;47.128994;7.238359;56.35400390625;1673435315.6624134;-23.819320678710938;16.67491912841797;-136.889404296875
297;1673435315.79027;47.1289843;7.238346099999999;56.75100326538086;1673435315.8571446;-24.613176345825195;16.358476638793945;-136.67359924316406
298;1673435315.9948432;47.1289746;7.2383329;57.150001525878906;1673435316.0583246;-24.525217056274414;16.389535903930664;-136.53909301757812
299;1673435316.203705;47.1289649;7.238319499999999;57.552001953125;1673435316.2656696;-24.25981903076172;17.19590187072754;-136.75473022460938
300;1673435316.413727;47.1289551;7.2383058;57.95500183105469;1673435316.4749222;-23.87656593322754;18.217470169067383;-136.90252685546875
301;1673435316.5920537;47.1289453;7.2382921;58.35700225830078;1673435316.646349;-23.57118034362793;18.810626983642578;-137.2261962890625
302;1673435316.7923205;47.1289355;7.2382784;58.75800323486328;1673435316.852156;-23.145341873168945;18.105146408081055;-136.9483642578125
303;1673435316.9825618;47.128925599999995;7.2382648;59.156002044677734;1673435317.0430753;-23.330156326293945;16.88022232055664;-136.75315856933594
304;1673435317.1762905;47.128915799999994;7.238251099999999;59.553001403808594;1673435317.2405307;-23.69043731689453;15.25580883026123;-136.55084228515625
305;1673435317.3907597;47.128906;7.2382373;59.94900131225586;1673435317.455329;-23.748254776000977;14.635250091552734;-136.5777587890625
306;1673435317.6067696;47.1288962;7.238223499999999;60.346004486083984;1673435317.6647286;-23.376041412353516;14.824328422546387;-136.60806274414062
307;1673435317.797558;47.1288863;7.2382098;60.746002197265625;1673435317.8689454;-23.28815269470215;15.567708015441895;-136.7035369873047
308;1673435318.0125363;47.1288765;7.2381961;61.14500427246094;1673435318.077041;-23.068378448486328;16.81683349609375;-136.83714294433594
309;1673435318.2498553;47.1288665;7.2381823999999995;61.54300308227539;1673435318.31133;-23.063085556030273;17.401151657104492;-136.9519500732422
310;1673435318.4365466;47.1288566;7.2381687999999995;61.94000244140625;1673435318.5022237;-22.988929748535156;18.62725830078125;-137.25119018554688
311;1673435318.63354;47.1288467;7.2381552;62.33900451660156;1673435318.6985087;-23.21773338317871;18.631885528564453;-137.28440856933594
312;1673435318.8330212;47.128836799999995;7.2381416;62.73400115966797;1673435318.8887405;-23.39820098876953;18.572463989257812;-137.2117156982422
313;1673435319.0175526;47.1288269;7.238128;63.12800216674805;1673435319.0871985;-23.39552116394043;18.135517120361328;-137.06092834472656
314;1673435319.2146807;47.128817;7.2381144;63.52900314331055;1673435319.2715933;-23.5362548828125;17.58936309814453;-136.87535095214844
315;1673435319.4179983;47.128806999999995;7.2381008;63.932003021240234;1673435319.4817457;-23.53971290588379;17.14824676513672;-136.78997802734375
316;1673435319.6068702;47.1287971;7.2380872;64.33200073242188;1673435319.668455;-23.656639099121094;16.780149459838867;-136.79965209960938
317;1673435319.8138478;47.1287872;7.2380736;64.73200225830078;1673435319.876791;-23.92002296447754;15.816970825195312;-136.6302032470703
318;1673435320.020897;47.128777299999996;7.2380599;65.13200378417969;1673435320.0806372;-23.611339569091797;15.315118789672852;-136.5699462890625
319;1673435320.2082329;47.1287674;7.2380463;65.5320053100586;1673435320.2729096;-23.578872680664062;15.33161735534668;-136.61424255371094
320;1673435320.4143734;47.1287576;7.2380327;65.93400573730469;1673435320.4812803;-23.7315616607666;15.37818717956543;-136.63890075683594
321;1673435320.6199832;47.1287477;7.2380191;66.33500671386719;1673435320.7180433;-23.769113540649414;15.868304252624512;-136.7355499267578
322;1673435320.8533702;47.128737799999996;7.2380055;66.73400115966797;1673435320.911919;-23.64124870300293;16.430912017822266;-136.74253845214844
323;1673435321.0535007;47.1287279;7.2379919;67.1290054321289;1673435321.1116228;-23.80150032043457;16.779966354370117;-136.89585876464844
324;1673435321.2486103;47.1287179;7.237978399999999;67.52300262451172;1673435321.3180792;-23.4807186126709;17.75868034362793;-137.02536010742188
325;1673435321.455177;47.128707899999995;7.237964799999999;67.91800689697266;1673435321.5098188;-23.49114227294922;18.51832389831543;-137.10926818847656
326;1673435321.6399112;47.1286979;7.2379513;68.31600189208984;1673435321.7198012;-23.558616638183594;18.682939529418945;-137.12252807617188
327;1673435321.8723786;47.128687899999996;7.2379377;68.71700286865234;1673435321.9182968;-23.521230697631836;18.540184020996094;-137.0248260498047
328;1673435322.0391338;47.128678;7.237924;69.11800384521484;1673435322.096432;-23.722761154174805;18.443506240844727;-137.09909057617188
329;1673435322.2435029;47.1286681;7.2379104;69.51600646972656;1673435322.2983665;-23.88617515563965;17.86396598815918;-136.95367431640625
330;1673435322.425302;47.1286582;7.237896699999999;69.91000366210938;1673435322.4960487;-24.000104904174805;17.49774169921875;-136.88858032226562
331;1673435322.6669137;47.128648299999995;7.2378829;70.30400085449219;1673435322.7406602;-24.073575973510742;17.079509735107422;-136.81878662109375
332;1673435322.8555691;47.1286385;7.237869099999999;70.69600677490234;1673435322.9220812;-24.308719635009766;16.6440372467041;-136.7143096923828
333;1673435323.0367117;47.1286286;7.2378553;71.09200286865234;1673435323.0866847;-24.222171783447266;16.45498275756836;-136.7476043701172
334;1673435323.2371643;47.1286187;7.2378415;71.49400329589844;1673435323.3090997;-24.238840103149414;16.23375129699707;-136.7285919189453
335;1673435323.437731;47.1286087;7.2378278;71.89700317382812;1673435323.5091863;-24.018665313720703;16.28194236755371;-136.6698455810547
336;1673435323.6263916;47.1285988;7.2378141;72.29600524902344;1673435323.6884718;-24.034454345703125;16.214452743530273;-136.6807098388672
337;1673435323.8222604;47.128588799999996;7.237800399999999;72.69600677490234;1673435323.88875;-23.979703903198242;16.23807144165039;-136.64695739746094
338;1673435324.0194936;47.1285789;7.2377867;73.09700012207031;1673435324.0839987;-23.88401985168457;16.235937118530273;-136.6709747314453
339;1673435324.2209861;47.1285689;7.237773;73.49700164794922;1673435324.2882867;-23.69236946105957;16.279958724975586;-136.7269744873047
340;1673435324.426978;47.128558899999994;7.237759199999999;73.89600372314453;1673435324.4898014;-23.719648361206055;16.369474411010742;-136.79995727539062
341;1673435324.6324184;47.128549;7.2377455;74.29600524902344;1673435324.697301;-23.563404083251953;16.458192825317383;-136.78860473632812
342;1673435324.830416;47.1285391;7.2377318;74.69600677490234;1673435324.8986182;-23.612462997436523;16.861007690429688;-136.9068145751953
343;1673435325.0623195;47.128529199999996;7.2377180999999995;75.09300231933594;1673435325.1216125;-23.68193817138672;17.21617317199707;-136.96316528320312
344;1673435325.2617397;47.1285192;7.2377044999999995;75.49700164794922;1673435325.3540418;-23.648483276367188;17.541336059570312;-136.9508819580078
345;1673435325.5138876;47.1285093;7.237690799999999;75.89900207519531;1673435325.5696895;-23.732532501220703;17.691438674926758;-136.93075561523438
346;1673435325.6886823;47.128499299999994;7.237677199999999;76.29800415039062;1673435325.755397;-23.962547302246094;17.711124420166016;-136.9311981201172
347;1673435325.8682318;47.1284894;7.2376635;76.69500732421875;1673435325.91758;-23.94622802734375;17.76886749267578;-136.9273681640625
348;1673435326.029451;47.1284795;7.2376498;77.09300231933594;1673435326.0846875;-24.03815269470215;17.688825607299805;-136.92921447753906
349;1673435326.2121062;47.128469599999995;7.2376361;77.48800659179688;1673435326.272647;-24.18509292602539;17.539213180541992;-136.9333038330078
350;1673435326.4091237;47.1284597;7.237622399999999;77.8810043334961;1673435326.4767182;-24.25511932373047;17.4429931640625;-136.92156982421875
351;1673435326.615656;47.1284499;7.2376086;78.27800750732422;1673435326.682491;-24.09634017944336;17.288867950439453;-136.89859008789062
352;1673435326.8224595;47.1284399;7.2375948;78.677001953125;1673435326.8890011;-24.208507537841797;17.218008041381836;-136.92428588867188
353;1673435327.0410633;47.128429999999994;7.237581;79.08000183105469;1673435327.1097856;-23.882083892822266;17.226213455200195;-136.88465881347656
354;1673435327.2407956;47.1284201;7.2375672;79.48600006103516;1673435327.300426;-23.899057388305664;17.258399963378906;-136.92483520507812
355;1673435327.4283626;47.1284102;7.2375535;79.88800048828125;1673435327.4844224;-23.772916793823242;17.192567825317383;-136.92813110351562
356;1673435327.6245747;47.128400299999996;7.2375397999999995;80.28500366210938;1673435327.7169304;-23.816965103149414;17.269678115844727;-136.93946838378906
357;1673435327.8549254;47.1283904;7.2375262;80.6820068359375;1673435327.9073958;-23.930498123168945;17.19267463684082;-136.94166564941406
358;1673435328.0561304;47.1283805;7.237512499999999;81.0790023803711;1673435328.1108103;-23.8647403717041;17.165836334228516;-136.9259490966797
359;1673435328.270846;47.1283706;7.2374988;81.47600555419922;1673435328.3310606;-23.936344146728516;17.157432556152344;-136.97425842285156
360;1673435328.4457588;47.128360799999996;7.2374852;81.8740005493164;1673435328.5150652;-23.95328140258789;17.131349563598633;-136.94329833984375
361;1673435328.673582;47.1283509;7.2374716;82.27200317382812;1673435328.727701;-23.890077590942383;17.345918655395508;-136.9533233642578
362;1673435328.8481238;47.128341;7.237457999999999;82.67000579833984;1673435328.906255;-24.02596664428711;17.207612991333008;-136.94525146484375
363;1673435329.0294654;47.128330999999996;7.237444399999999;83.06700134277344;1673435329.0919604;-24.056068420410156;17.21811866760254;-136.93975830078125
364;1673435329.250762;47.1283211;7.2374307;83.46200561523438;1673435329.3089995;-23.98411750793457;17.240005493164062;-136.92222595214844
365;1673435329.4309597;47.1283112;7.237417;83.85700225830078;1673435329.5017602;-24.065250396728516;17.16360092163086;-136.9485626220703
366;1673435329.649901;47.1283013;7.2374034;84.25100708007812;1673435329.7151425;-23.791257858276367;17.32965850830078;-136.9335174560547
367;1673435329.8469346;47.128291399999995;7.2373897;84.64700317382812;1673435329.913671;-23.905513763427734;17.336746215820312;-136.95895385742188
368;1673435330.0466332;47.1282814;7.2373761;85.04300689697266;1673435330.1035812;-23.911352157592773;17.37495994567871;-136.94337463378906
369;1673435330.2295065;47.1282715;7.2373625;85.43500518798828;1673435330.2920911;-23.89419174194336;17.386194229125977;-136.95724487304688
370;1673435330.470977;47.128261599999995;7.2373489;85.8290023803711;1673435330.5539265;-23.874488830566406;17.38271713256836;-136.93801879882812
371;1673435330.6979477;47.1282517;7.2373353;86.22300720214844;1673435330.7644305;-23.908971786499023;17.33646011352539;-136.95559692382812
372;1673435330.8914864;47.1282418;7.2373216;86.61800384521484;1673435330.950166;-23.99485969543457;17.324066162109375;-136.9634552001953
373;1673435331.0748;47.128231899999996;7.237308;87.01200103759766;1673435331.1348078;-23.938579559326172;17.317480087280273;-136.9378204345703
374;1673435331.2745366;47.128222;7.2372944;87.4070053100586;1673435331.330017;-24.05440330505371;17.317306518554688;-136.9694366455078
375;1673435331.4580467;47.1282121;7.2372808;87.8030014038086;1673435331.5138848;-24.07972526550293;17.363000869750977;-136.9756317138672
376;1673435331.6451027;47.1282022;7.2372672;88.20100402832031;1673435331.7081254;-24.079547882080078;17.275558471679688;-136.93963623046875
377;1673435331.8378506;47.128192299999995;7.2372536;88.59600067138672;1673435331.9083123;-24.153480529785156;17.271556854248047;-136.950927734375
378;1673435332.0554407;47.1281824;7.23724;88.99100494384766;1673435332.1253102;-24.01764678955078;17.29026985168457;-136.94667053222656
379;1673435332.261542;47.1281724;7.2372263;89.38200378417969;1673435332.3183453;-24.058761596679688;17.376373291015625;-136.9681854248047
380;1673435332.4653814;47.128162499999995;7.2372127;89.7750015258789;1673435332.5262387;-23.872817993164062;17.335416793823242;-136.9390106201172
381;1673435332.647158;47.1281525;7.2371989999999995;90.16900634765625;1673435332.7137816;-23.81497573852539;17.33597755432129;-136.94989013671875
382;1673435332.8460715;47.1281426;7.2371855;90.56200408935547;1673435332.902163;-23.96792984008789;17.376699447631836;-136.95932006835938
383;1673435333.0341518;47.128132699999995;7.2371719;90.9530029296875;1673435333.0968406;-23.972614288330078;17.355072021484375;-136.95216369628906
384;1673435333.261501;47.1281227;7.2371582;91.34300231933594;1673435333.3299851;-23.935306549072266;17.257211685180664;-136.93115234375
385;1673435333.4772558;47.1281128;7.2371446;91.73200225830078;1673435333.546478;-23.989675521850586;17.26244354248047;-136.9520263671875
386;1673435333.6644542;47.128102899999995;7.237131;92.12300109863281;1673435333.7251925;-24.01739501953125;17.274293899536133;-136.96731567382812
387;1673435333.8519263;47.128093;7.2371174;92.51300811767578;1673435333.919007;-23.900054931640625;17.285425186157227;-136.95970153808594
388;1673435334.0455558;47.1280831;7.2371038;92.90400695800781;1673435334.1166656;-23.985889434814453;17.32081413269043;-136.9494171142578
389;1673435334.2561214;47.128073099999995;7.2370902;93.29400634765625;1673435334.3074877;-23.982133865356445;17.14853286743164;-136.9364776611328
390;1673435334.446725;47.1280631;7.2370766;93.6810073852539;1673435334.506311;-23.918413162231445;17.180288314819336;-136.93284606933594
391;1673435334.6484425;47.1280532;7.237063;94.07000732421875;1673435334.710613;-23.871187210083008;17.242021560668945;-136.9408416748047
392;1673435334.8581069;47.1280432;7.2370494;94.46100616455078;1673435334.9167478;-23.76858139038086;17.32465171813965;-136.93516540527344
393;1673435335.0492759;47.1280332;7.237035799999999;94.85200500488281;1673435335.109525;-23.792715072631836;17.28903579711914;-136.91734313964844
394;1673435335.2596705;47.128023299999995;7.237022199999999;95.24500274658203;1673435335.3169198;-23.798566818237305;17.28297996520996;-136.9347381591797
395;1673435335.4621475;47.1280134;7.2370087;95.63900756835938;1673435335.5172226;-24.06739616394043;17.203107833862305;-136.9482879638672
396;1673435335.6506107;47.1280034;7.2369951;96.03400421142578;1673435335.7259693;-23.92634391784668;17.294422149658203;-136.91604614257812
397;1673435335.8638673;47.127993499999995;7.2369816;96.427001953125;1673435335.9328322;-23.98589324951172;17.339263916015625;-136.91493225097656
398;1673435336.0690734;47.1279835;7.2369680999999995;96.82100677490234;1673435336.1263752;-23.92620849609375;17.49868392944336;-136.89927673339844
399;1673435336.2669492;47.127973499999996;7.2369544999999995;97.21500396728516;1673435336.3285434;-23.913095474243164;17.526487350463867;-136.90185546875
400;1673435336.4526925;47.1279635;7.2369409;97.60900115966797;1673435336.517684;-23.848644256591797;17.608325958251953;-136.89492797851562
401;1673435336.6779513;47.1279536;7.2369273;98.0050048828125;1673435336.7456448;-23.904489517211914;17.4110050201416;-136.8844757080078
402;1673435336.8852694;47.127943699999996;7.2369137;98.40400695800781;1673435336.9519963;-23.836687088012695;17.3980712890625;-136.8999786376953
403;1673435337.0926743;47.1279338;7.2369001;98.802001953125;1673435337.1530027;-23.911100387573242;17.305017471313477;-136.88479614257812
404;1673435337.285133;47.1279238;7.2368866;99.19800567626953;1673435337.350469;-24.02761459350586;17.388248443603516;-136.90023803710938
405;1673435337.486449;47.127913899999996;7.236873;99.59500122070312;1673435337.5455565;-23.807355880737305;17.50213623046875;-136.88870239257812
406;1673435337.6632535;47.1279039;7.236859399999999;99.99300384521484;1673435337.718057;-23.903779983520508;17.409183502197266;-136.87501525878906
407;1673435337.839758;47.1278941;7.236845799999999;100.39300537109375;1673435337.9006286;-23.92569351196289;17.347875595092773;-136.8798828125
408;1673435338.0327337;47.1278842;7.236832199999999;100.79300689697266;1673435338.096412;-23.976633071899414;17.326021194458008;-136.89187622070312
409;1673435338.2484088;47.127874299999995;7.236818599999999;101.19000244140625;1673435338.3211162;-24.051658630371094;17.24833869934082;-136.880615234375
410;1673435338.4597452;47.1278643;7.2368049999999995;101.58700561523438;1673435338.529389;-23.992610931396484;17.276220321655273;-136.88182067871094
411;1673435338.662579;47.1278544;7.2367913999999995;101.9850082397461;1673435338.718524;-23.84088706970215;17.346492767333984;-136.85877990722656
412;1673435338.8578334;47.1278444;7.2367778;102.38400268554688;1673435338.9227526;-23.914358139038086;17.455730438232422;-136.87086486816406
413;1673435339.076316;47.1278345;7.2367643;102.7820053100586;1673435339.1326394;-23.972339630126953;17.46017074584961;-136.86659240722656
414;1673435339.2797544;47.1278246;7.2367507;103.17900848388672;1673435339.3516579;-23.962818145751953;17.321544647216797;-136.82875061035156
415;1673435339.495656;47.127814699999995;7.236737;103.57400512695312;1673435339.5572662;-24.02511215209961;17.283069610595703;-136.8697509765625
416;1673435339.7134225;47.1278048;7.2367234;103.96900177001953;1673435339.7711473;-24.055814743041992;17.306407928466797;-136.8573760986328
417;1673435339.8949547;47.1277949;7.2367097;104.36700439453125;1673435339.9464517;-23.982336044311523;17.31136703491211;-136.85769653320312
