;pos_time;latitude;longitude;altitude;alt_time;pitch;roll;yaw
0;1673431853.3592217;47.1306425;7.2406201;-0.01900000125169754;1673431853.4170244;0.4038110673427582;-0.2312733381986618;90.53001403808594
1;1673431853.540398;47.130642599999995;7.2406201;-0.020000001415610313;1673431853.6000793;-0.04145081713795662;-0.4761313796043396;90.3124008178711
2;1673431853.7648075;47.1306425;7.2406198999999996;-0.023000001907348633;1673431853.8539603;0.011835410259664059;-0.12503491342067719;90.26959228515625
3;1673431853.9822743;47.1306425;7.2406198999999996;-0.02800000086426735;1673431854.038899;0.00018049098434858024;0.006018766202032566;90.22688293457031
4;1673431854.1647916;47.1306425;7.2406198999999996;-0.029000001028180122;1673431854.2325072;0.04117649048566818;-0.5659958124160767;90.33072662353516
5;1673431854.3952365;47.1306425;7.2406198999999996;-0.02800000086426735;1673431854.4548686;0.0469425693154335;-0.15408742427825928;90.17811584472656
6;1673431854.5933375;47.1306425;7.2406198999999996;-0.027000000700354576;1673431854.6549141;-0.1169058158993721;-0.4200391471385956;90.29850006103516
7;1673431854.7852025;47.1306425;7.2406198999999996;-0.030000001192092896;1673431854.8432481;0.04376879334449768;-0.26721033453941345;90.4196548461914
8;1673431854.9798667;47.1306425;7.2406198999999996;-0.032999999821186066;1673431855.0445309;-0.04689434915781021;-0.3904205858707428;90.41948699951172
9;1673431855.1688328;47.1306424;7.24062;-0.03200000151991844;1673431855.2245367;-0.07361951470375061;-0.3580324649810791;90.46227264404297
10;1673431855.3506863;47.1306424;7.2406198999999996;-0.03100000135600567;1673431855.414156;-0.28064796328544617;-0.2712506353855133;90.30997467041016
11;1673431855.5558584;47.1306424;7.24062;-0.030000001192092896;1673431855.6165602;-0.2263830602169037;-0.24714528024196625;90.17169189453125
12;1673431855.7493384;47.1306424;7.2406201;-0.029000001028180122;1673431855.8152678;-0.25150105357170105;-0.2712182104587555;90.20220947265625
13;1673431855.942113;47.1306424;7.2406201999999995;-0.021000001579523087;1673431856.0012536;-0.11712877452373505;-0.23801390826702118;90.2257308959961
14;1673431856.1711836;47.1306424;7.2406201999999995;0.003000000026077032;1673431856.2340286;-0.007064122706651688;-0.9554903507232666;90.30937194824219
15;1673431856.3751972;47.1306424;7.2406201999999995;0.005000000353902578;1673431856.4436243;0.025700613856315613;-0.7763395309448242;90.3856201171875
16;1673431856.57574;47.1306424;7.2406201999999995;0.004000000189989805;1673431856.6333318;-0.11911147832870483;-0.6817745566368103;90.11735534667969
17;1673431856.75468;47.1306424;7.2406201;0.005000000353902578;1673431856.8210785;-0.25459519028663635;-0.7107706665992737;90.28450775146484
18;1673431856.96707;47.1306425;7.2406201;0.007000000216066837;1673431857.0269387;-0.2206210494041443;-0.5722106099128723;90.20895385742188
19;1673431857.1784315;47.1306424;7.2406201999999995;0.009000000543892384;1673431857.2429695;-0.2627069354057312;-0.8839219808578491;90.3576889038086
20;1673431857.375676;47.1306424;7.2406203;0.009000000543892384;1673431857.4345927;0.15264223515987396;-0.9812665581703186;90.4236831665039
21;1673431857.569754;47.1306424;7.2406203;0.007000000216066837;1673431857.6425505;0.09253218024969101;-0.511969804763794;90.3578872680664
22;1673431857.7890325;47.1306424;7.2406203;-0.0010000000474974513;1673431857.8570385;-0.13601523637771606;-1.182761549949646;90.2072525024414
23;1673431857.9808307;47.1306424;7.2406201999999995;-0.003000000026077032;1673431858.0546184;0.1300887167453766;-0.9435284733772278;90.2857666015625
24;1673431858.1871493;47.1306424;7.2406201999999995;-0.006000000052154064;1673431858.2467897;-0.11218319833278656;-0.6550949811935425;90.3237075805664
25;1673431858.3787653;47.1306424;7.2406201;-0.004000000189989805;1673431858.441238;0.11610464751720428;-0.643139660358429;90.188232421875
26;1673431858.5699594;47.1306424;7.2406201;0.0010000000474974513;1673431858.632166;-0.0549977570772171;-0.5649942755699158;90.41364288330078
27;1673431858.7737193;47.1306424;7.2406201;0.005000000353902578;1673431858.833245;0.06341510266065598;-0.4905407428741455;90.6102294921875
28;1673431858.9688725;47.1306424;7.2406201;0.010000000707805157;1673431859.0300004;-0.1324847787618637;-0.5228114724159241;90.6543960571289
29;1673431859.1647797;47.1306424;7.2406201;0.012000000104308128;1673431859.2276857;-0.3318457007408142;-0.6894060373306274;90.51045989990234
30;1673431859.3619945;47.1306425;7.24062;0.014000000432133675;1673431859.422585;-0.038019340485334396;-0.46067991852760315;90.76760864257812
31;1673431859.5614157;47.130642599999995;7.24062;0.01600000075995922;1673431859.6194286;-0.18878702819347382;-0.09065365791320801;91.90190887451172
32;1673431859.7656195;47.1306429;7.24062;0.02500000037252903;1673431859.827367;-0.44996893405914307;3.5997493267059326;94.64527893066406
33;1673431859.9636393;47.130643199999994;7.2406201;0.03800000250339508;1673431860.0312164;-1.2386744022369385;7.951870441436768;94.53675079345703
34;1673431860.1657286;47.1306435;7.2406201999999995;0.06200000271201134;1673431860.2340643;0.923795759677887;12.554789543151855;93.64213562011719
35;1673431860.3602316;47.1306438;7.2406204999999995;0.10400000214576721;1673431860.4428103;2.110710382461548;11.555946350097656;92.73767852783203
36;1673431860.5878787;47.130643899999995;7.2406207;0.16200000047683716;1673431860.727812;3.238664388656616;8.33064079284668;91.6864013671875
37;1673431860.8347194;47.1306438;7.240620799999999;0.23800000548362732;1673431860.885523;3.544074296951294;10.475303649902344;90.38762664794922
38;1673431861.0154996;47.1306437;7.240620799999999;0.33400002121925354;1673431861.0731936;2.4310452938079834;12.033429145812988;89.49699401855469
39;1673431861.2015848;47.1306437;7.2406207;0.43800002336502075;1673431861.2649543;2.0441482067108154;8.2027006149292;89.1666488647461
40;1673431861.3976579;47.1306436;7.2406206;0.5550000071525574;1673431861.456417;2.1363906860351562;10.169074058532715;88.68167114257812
41;1673431861.591942;47.1306435;7.2406204999999995;0.6850000619888306;1673431861.6584356;2.808748722076416;12.520724296569824;88.29023742675781
42;1673431861.7920437;47.130643199999994;7.2406204;0.8280000686645508;1673431861.8590055;2.9059267044067383;7.514609336853027;87.92465209960938
43;1673431861.9965472;47.1306428;7.2406203;0.984000027179718;1673431862.0521395;2.918708562850952;7.294878959655762;87.18818664550781
44;1673431862.1713192;47.1306425;7.2406201;1.152999997138977;1673431862.243959;1.9844914674758911;10.281455993652344;86.8410415649414
45;1673431862.371655;47.1306423;7.2406198999999996;1.3380000591278076;1673431862.4546828;1.6756130456924438;6.660964488983154;86.99080657958984
46;1673431862.575327;47.1306423;7.2406198999999996;1.527000069618225;1673431862.6410303;1.4630979299545288;7.886782169342041;88.13404083251953
47;1673431862.781281;47.1306423;7.2406198999999996;1.7230000495910645;1673431862.845849;1.9279394149780273;11.65910816192627;87.63603210449219
48;1673431862.9954011;47.1306423;7.24062;1.9160001277923584;1673431863.0533738;2.3533949851989746;8.50637435913086;87.27597045898438
49;1673431863.1710768;47.1306422;7.24062;2.1100001335144043;1673431863.2264605;2.9109394550323486;6.439548492431641;87.11890411376953
50;1673431863.3581367;47.1306422;7.2406201;2.309000015258789;1673431863.4239008;3.036978244781494;11.211531639099121;86.96247863769531
51;1673431863.5749025;47.1306422;7.2406201;2.515000104904175;1673431863.66456;2.38661789894104;8.449146270751953;86.99658203125
52;1673431863.7978876;47.1306423;7.24062;2.7160000801086426;1673431863.856541;2.030355930328369;7.586796283721924;86.91263580322266
53;1673431863.9894114;47.1306423;7.24062;2.9140000343322754;1673431864.0509589;1.9432196617126465;11.532873153686523;86.44094848632812
54;1673431864.2006166;47.1306424;7.24062;3.114000082015991;1673431864.2626276;2.2897555828094482;9.15890884399414;86.42439270019531
55;1673431864.3961258;47.1306423;7.2406201;3.313000202178955;1673431864.4561734;2.7657930850982666;6.138891696929932;86.82608032226562
56;1673431864.6011589;47.1306423;7.2406201999999995;3.511000156402588;1673431864.6554549;2.9907150268554688;10.896273612976074;86.93829345703125
57;1673431864.7803833;47.1306423;7.2406201999999995;3.7130000591278076;1673431864.835539;2.9042091369628906;10.051447868347168;87.07150268554688
58;1673431864.9640195;47.1306424;7.2406201999999995;3.9120001792907715;1673431865.0279107;2.6968166828155518;7.133944988250732;87.02980041503906
59;1673431865.1690407;47.1306425;7.2406201999999995;4.109000205993652;1673431865.2396574;2.346527338027954;11.054590225219727;86.47428894042969
60;1673431865.3887227;47.1306425;7.2406203;4.306000232696533;1673431865.4513977;2.326507568359375;10.059690475463867;86.41584014892578
61;1673431865.588175;47.1306424;7.2406203;4.505000114440918;1673431865.6509538;2.3666064739227295;5.752001762390137;86.7763442993164
62;1673431865.7872174;47.1306423;7.2406204;4.708000183105469;1673431865.8510573;2.6869330406188965;10.820818901062012;86.85066223144531
63;1673431865.9801857;47.1306424;7.2406204;4.9160003662109375;1673431866.0450683;3.204874277114868;10.989213943481445;87.00550842285156
64;1673431866.1928205;47.1306424;7.2406203;5.12000036239624;1673431866.2503905;3.1817126274108887;6.812598705291748;86.84658813476562
65;1673431866.3822806;47.1306424;7.2406203;5.325000286102295;1673431866.4415748;2.4918267726898193;9.416857719421387;86.50508880615234
66;1673431866.573537;47.1306423;7.2406201999999995;5.525000095367432;1673431866.6360848;1.9931474924087524;10.40784740447998;86.4448013305664
67;1673431866.77691;47.1306423;7.2406201;5.729000091552734;1673431866.839536;1.7198195457458496;6.276409149169922;86.96688842773438
68;1673431866.9976795;47.1306423;7.24062;5.934000492095947;1673431867.0657327;1.6284887790679932;9.35269546508789;87.1913070678711
69;1673431867.1928413;47.1306425;7.24062;6.14300012588501;1673431867.2545404;2.440840721130371;12.10306167602539;86.84973907470703
70;1673431867.3901818;47.130642599999995;7.2406198999999996;6.353000164031982;1673431867.4564586;2.838582754135132;7.767341136932373;86.68537139892578
71;1673431867.5845108;47.130642699999996;7.2406198999999996;6.557000160217285;1673431867.6468427;2.646446943283081;8.784079551696777;86.71220397949219
72;1673431867.7827353;47.130642699999996;7.2406198999999996;6.756000518798828;1673431867.8471966;2.457667827606201;11.6722993850708;86.84326171875
73;1673431867.9844472;47.130642699999996;7.2406198999999996;6.958000183105469;1673431868.045408;1.6912020444869995;7.820335865020752;87.10234832763672
74;1673431868.178015;47.130642599999995;7.2406198999999996;7.160000324249268;1673431868.2471051;1.5615483522415161;8.046448707580566;87.2073974609375
75;1673431868.3753319;47.130642599999995;7.2406198999999996;7.363000392913818;1673431868.4397676;2.2813961505889893;12.378766059875488;86.82331848144531
76;1673431868.5780928;47.130642699999996;7.2406198999999996;7.563000202178955;1673431868.648634;2.60396671295166;8.829986572265625;86.69911193847656
77;1673431868.8069117;47.130642699999996;7.24062;7.762000560760498;1673431868.886318;2.6971914768218994;7.273823261260986;86.92291259765625
78;1673431869.0171144;47.130642599999995;7.24062;7.962000370025635;1673431869.0758507;2.6876721382141113;10.6763334274292;86.86898803710938
79;1673431869.1932623;47.130642599999995;7.24062;8.163000106811523;1673431869.2479541;2.2373056411743164;8.921941757202148;87.01024627685547
80;1673431869.390934;47.130642599999995;7.24062;8.369000434875488;1673431869.4553533;1.7499134540557861;7.319037437438965;87.17709350585938
81;1673431869.6362455;47.130642599999995;7.2406201;8.576000213623047;1673431869.6986916;2.006528615951538;11.999275207519531;86.73585510253906
82;1673431869.8234644;47.130642699999996;7.2406201;8.782000541687012;1673431869.8768313;2.116640329360962;9.81683349609375;86.68335723876953
83;1673431870.0111356;47.130642699999996;7.2406201;8.982000350952148;1673431870.0731783;2.3491714000701904;6.4954681396484375;86.76529693603516
84;1673431870.1908607;47.130642699999996;7.2406201;9.182000160217285;1673431870.2489316;2.6248114109039307;10.647604942321777;86.85836029052734
85;1673431870.3982155;47.130642599999995;7.2406201;9.381000518798828;1673431870.4751933;2.7323317527770996;10.804975509643555;87.01913452148438
86;1673431870.6149337;47.130642599999995;7.2406201;9.585000038146973;1673431870.678395;2.1921603679656982;6.96616268157959;87.03179931640625
87;1673431870.8245733;47.130642599999995;7.2406201;9.790000915527344;1673431870.8853061;1.8047702312469482;10.595038414001465;86.68372344970703
88;1673431871.043354;47.130642599999995;7.2406201999999995;9.992000579833984;1673431871.0974038;1.825856328010559;10.700831413269043;86.51050567626953
89;1673431871.2218518;47.130642699999996;7.2406201999999995;10.199000358581543;1673431871.282784;1.8792363405227661;7.197160243988037;86.93218231201172
90;1673431871.4004083;47.130642599999995;7.2406203;10.495000839233398;1673431871.464038;2.6198532581329346;10.394000053405762;87.26109313964844
91;1673431871.6166644;47.1306424;7.2406203;10.862000465393066;1673431871.6932602;3.044588327407837;13.12761116027832;87.10408782958984
92;1673431871.8631368;47.130641999999995;7.2406203;11.249000549316406;1673431871.9497669;3.0031144618988037;8.1867094039917;86.74552917480469
93;1673431872.0455663;47.1306416;7.2406203;11.645000457763672;1673431872.101742;2.2936458587646484;6.062665939331055;86.6380386352539
94;1673431872.2248435;47.130641399999995;7.2406201999999995;12.04900074005127;1673431872.3115206;1.9355621337890625;9.556397438049316;86.5673828125
95;1673431872.446606;47.130641399999995;7.2406201999999995;12.454000473022461;1673431872.4987178;2.036900281906128;6.98710298538208;86.78167724609375
96;1673431872.6382818;47.130641499999996;7.2406201999999995;12.860000610351562;1673431872.6938524;1.888223648071289;5.696720600128174;87.0075454711914
97;1673431872.8126662;47.130641499999996;7.2406201999999995;13.269001007080078;1673431872.8764174;2.2248547077178955;10.012892723083496;87.00189971923828
98;1673431873.0203514;47.1306416;7.2406201999999995;13.67400074005127;1673431873.078894;2.4712414741516113;9.924088478088379;87.08623504638672
99;1673431873.2248545;47.1306417;7.2406201999999995;14.082000732421875;1673431873.2888699;2.4766647815704346;6.395878791809082;87.18690490722656
100;1673431873.4206905;47.1306418;7.2406203;14.496000289916992;1673431873.477503;2.359853744506836;10.005413055419922;86.92134094238281
101;1673431873.5982568;47.130641999999995;7.2406203;14.908000946044922;1673431873.6868134;2.376478433609009;10.832423210144043;86.8065185546875
102;1673431873.8389254;47.1306422;7.2406203;15.316000938415527;1673431873.895138;2.3178327083587646;7.827455043792725;86.92902374267578
103;1673431874.0257716;47.1306423;7.2406203;15.723000526428223;1673431874.0868278;2.290090322494507;9.6580171585083;86.91985321044922
104;1673431874.219425;47.1306423;7.2406203;16.128000259399414;1673431874.2794428;2.412794351577759;11.908024787902832;86.83966827392578
105;1673431874.4136038;47.1306422;7.2406203;16.532001495361328;1673431874.4636207;2.2763590812683105;7.438710689544678;87.03855895996094
106;1673431874.5936632;47.130642099999996;7.2406203;16.94099998474121;1673431874.6524985;2.4040110111236572;8.052125930786133;87.01296997070312
107;1673431874.79199;47.1306422;7.2406203;17.352001190185547;1673431874.8624954;2.505408763885498;11.25832748413086;86.91373443603516
108;1673431874.9810648;47.1306422;7.2406203;17.762001037597656;1673431875.046123;2.6511504650115967;9.006597518920898;86.81068420410156
109;1673431875.2007217;47.1306423;7.2406204;18.171001434326172;1673431875.260246;2.4987268447875977;7.283381938934326;86.79045104980469
110;1673431875.3862672;47.1306422;7.2406204;18.580001831054688;1673431875.4586062;2.3231844902038574;10.225088119506836;86.59129333496094
111;1673431875.592494;47.1306422;7.2406204;18.983001708984375;1673431875.6630557;2.4126012325286865;8.159770011901855;86.68389892578125
112;1673431875.7924485;47.1306422;7.2406204;19.38800048828125;1673431875.854073;2.397350788116455;6.202523231506348;87.00151824951172
113;1673431875.9862375;47.1306423;7.2406204;19.796001434326172;1673431876.049209;2.3414266109466553;11.169516563415527;86.97467041015625
114;1673431876.1884582;47.1306425;7.2406204;20.20400047302246;1673431876.248037;2.6577649116516113;10.280869483947754;87.04093170166016
115;1673431876.390642;47.130642599999995;7.2406204;20.612001419067383;1673431876.4454846;2.5293004512786865;7.714433670043945;87.11402130126953
116;1673431876.576707;47.130642599999995;7.2406204;21.01500129699707;1673431876.6385462;2.4236741065979004;10.066067695617676;86.74861907958984
117;1673431876.782091;47.130642599999995;7.2406204;21.41900062561035;1673431876.8399732;2.5767035484313965;11.027885437011719;86.6968002319336
118;1673431876.9711757;47.130642599999995;7.2406203;21.816001892089844;1673431877.0356777;2.5673933029174805;6.6198015213012695;86.88896942138672
119;1673431877.1819663;47.130642699999996;7.2406203;22.21900177001953;1673431877.2456782;2.3546931743621826;8.922011375427246;86.78353881835938
120;1673431877.3945417;47.1306428;7.2406201999999995;22.61800193786621;1673431877.4543924;2.395418405532837;11.346134185791016;86.82447814941406
121;1673431877.5957837;47.1306428;7.2406201999999995;23.01500129699707;1673431877.6673093;2.2916791439056396;8.25867748260498;86.99141693115234
122;1673431877.8068447;47.1306428;7.2406201999999995;23.413002014160156;1673431877.8628128;2.3377845287323;8.737092018127441;87.0280990600586
123;1673431877.9915214;47.1306428;7.2406201;23.809001922607422;1673431878.0570073;2.2469558715820312;12.12877368927002;86.91525268554688
124;1673431878.194119;47.130642699999996;7.2406201;24.198001861572266;1673431878.2586792;2.2787179946899414;7.9282050132751465;86.96875
125;1673431878.3997278;47.130642599999995;7.2406201;24.595001220703125;1673431878.4631848;2.178879737854004;7.5940704345703125;86.76006317138672
126;1673431878.5913334;47.130642599999995;7.2406201;24.994001388549805;1673431878.6570454;2.423794746398926;11.336729049682617;86.6523208618164
127;1673431878.8002315;47.130642599999995;7.2406201;25.391000747680664;1673431878.8630636;2.5854332447052;8.63602066040039;86.86235809326172
128;1673431879.0055242;47.130642599999995;7.2406201;25.786001205444336;1673431879.059042;2.4171652793884277;7.045740604400635;86.98282623291016
129;1673431879.189604;47.130642599999995;7.24062;26.1820011138916;1673431879.2523108;2.259481906890869;10.493276596069336;86.85529327392578
130;1673431879.3946037;47.130642599999995;7.24062;26.580001831054688;1673431879.452269;2.2706778049468994;9.934885025024414;87.03093719482422
131;1673431879.5842001;47.130642699999996;7.2406198999999996;26.97100067138672;1673431879.6466987;2.091671943664551;7.243914604187012;87.14901733398438
132;1673431879.827183;47.130642699999996;7.2406198999999996;27.36800193786621;1673431879.888015;2.079477310180664;11.223143577575684;86.87369537353516
133;1673431880.011566;47.1306428;7.240619799999999;27.76700210571289;1673431880.0691786;2.2922213077545166;11.31511116027832;86.77375793457031
134;1673431880.2166128;47.1306428;7.240619799999999;28.163002014160156;1673431880.2744448;2.3910114765167236;7.526463508605957;86.74662780761719
135;1673431880.410575;47.130642699999996;7.2406198999999996;28.559001922607422;1673431880.474495;2.1821980476379395;8.413633346557617;86.70941162109375
136;1673431880.616032;47.130642599999995;7.2406198999999996;28.953001022338867;1673431880.6840866;2.3350818157196045;11.12192440032959;86.68791961669922
137;1673431880.8163686;47.1306425;7.2406198999999996;29.340002059936523;1673431880.8760712;2.50117564201355;7.368007183074951;86.97410583496094
138;1673431881.0225267;47.1306425;7.24062;29.731000900268555;1673431881.0774565;2.3087375164031982;8.196074485778809;87.1014633178711
139;1673431881.2042568;47.1306425;7.24062;30.124000549316406;1673431881.2672257;2.2969579696655273;12.224946975708008;87.02604675292969
140;1673431881.4085257;47.130642599999995;7.24062;30.51700210571289;1673431881.465272;2.276594400405884;9.009510040283203;87.042724609375
141;1673431881.5943425;47.1306425;7.24062;30.910001754760742;1673431881.6528986;2.3076581954956055;8.038290977478027;86.97760009765625
142;1673431881.7988865;47.1306424;7.24062;31.304000854492188;1673431881.8643274;2.273023843765259;11.500965118408203;86.76942443847656
143;1673431882.0046768;47.1306424;7.2406201;31.70100212097168;1673431882.0673466;2.416640281677246;8.658754348754883;86.77100372314453
144;1673431882.215713;47.1306424;7.2406201;32.09700012207031;1673431882.2727108;2.322803258895874;6.552657127380371;86.81755065917969
145;1673431882.4061098;47.1306424;7.2406201;32.50100326538086;1673431882.4746988;2.3092455863952637;11.057124137878418;86.85840606689453
146;1673431882.6171267;47.1306425;7.2406201;32.90400314331055;1673431882.6761384;2.3536481857299805;10.06529712677002;86.94962310791016
147;1673431882.814124;47.130642599999995;7.2406201;33.30400085449219;1673431882.8732572;2.145181655883789;7.400730609893799;87.1069107055664
148;1673431883.0032825;47.1306425;7.2406201;33.7030029296875;1673431883.0701613;2.2776894569396973;10.57804012298584;86.92982482910156
149;1673431883.2098665;47.1306425;7.2406201;34.10000228881836;1673431883.2707005;2.403761386871338;10.778804779052734;86.78621673583984
150;1673431883.3973596;47.1306425;7.2406201999999995;34.49400329589844;1673431883.4549952;2.4614622592926025;6.712588310241699;86.8599624633789
151;1673431883.5918167;47.1306425;7.2406201999999995;34.897003173828125;1673431883.6528246;2.332319736480713;9.397805213928223;86.711181640625
152;1673431883.7952392;47.1306425;7.2406201999999995;35.29899978637695;1673431883.8631723;2.4041225910186768;10.383939743041992;86.6814956665039
153;1673431884.001926;47.130642599999995;7.2406201999999995;35.698001861572266;1673431884.0587974;2.3752691745758057;7.185721397399902;86.92749786376953
154;1673431884.1962433;47.130642599999995;7.2406201999999995;36.09700012207031;1673431884.2645621;2.1165685653686523;9.195845603942871;87.0169448852539
155;1673431884.3917797;47.130642699999996;7.2406201999999995;36.499000549316406;1673431884.4515846;2.428551197052002;12.13076400756836;86.94544982910156
156;1673431884.6023521;47.130642699999996;7.2406201999999995;36.900001525878906;1673431884.6662347;2.418306350708008;8.229774475097656;87.02660369873047
157;1673431884.7985802;47.1306428;7.2406201999999995;37.29100036621094;1673431884.8629992;2.1733224391937256;8.877425193786621;86.91278076171875
158;1673431885.00669;47.1306428;7.2406201999999995;37.68400192260742;1673431885.094256;2.3191685676574707;11.84200668334961;86.76695251464844
159;1673431885.226758;47.1306428;7.2406201999999995;38.08100128173828;1673431885.2895231;2.338763475418091;8.460004806518555;86.80256652832031
160;1673431885.4625309;47.1306428;7.2406201999999995;38.47600173950195;1673431885.5265749;2.2377352714538574;7.291418552398682;86.92499542236328
161;1673431885.6520863;47.130642699999996;7.2406201999999995;38.87300109863281;1673431885.7030294;2.401390552520752;11.88121509552002;86.95480346679688
162;1673431885.8250716;47.130642699999996;7.2406201999999995;39.26700210571289;1673431885.8729243;2.4208481311798096;8.496698379516602;87.01323699951172
163;1673431886.0166135;47.130642699999996;7.2406201999999995;39.65700149536133;1673431886.0733845;2.317119598388672;7.638864517211914;86.96783447265625
164;1673431886.2155738;47.130642699999996;7.2406201999999995;40.04900360107422;1673431886.2900443;2.261995553970337;11.717050552368164;86.868896484375
165;1673431886.4363768;47.130642699999996;7.2406201999999995;40.44000244140625;1673431886.4946792;2.5280768871307373;9.836761474609375;86.83332061767578
166;1673431886.6268241;47.130642599999995;7.2406203;40.832000732421875;1673431886.6875248;2.4003992080688477;6.882260322570801;86.85948944091797
167;1673431886.8210926;47.1306425;7.2406201999999995;41.22600173950195;1673431886.8826559;2.250629425048828;10.642794609069824;86.79859161376953
168;1673431887.0209887;47.1306425;7.2406201999999995;41.62200164794922;1673431887.0866094;2.3084805011749268;10.007254600524902;86.88285827636719
169;1673431887.2463849;47.1306425;7.2406201999999995;42.0150032043457;1673431887.3046248;2.3253650665283203;6.860872268676758;86.96070861816406
170;1673431887.487851;47.130642599999995;7.2406201;42.40700149536133;1673431887.5423837;2.322690725326538;10.120895385742188;86.89028930664062
171;1673431887.6621134;47.130642599999995;7.2406201;42.80500030517578;1673431887.7139568;2.4055094718933105;11.440559387207031;86.9814224243164
172;1673431887.8434956;47.130642599999995;7.24062;43.204002380371094;1673431887.9074655;2.2257044315338135;7.596654415130615;86.97168731689453
173;1673431888.0340512;47.1306425;7.24062;43.60400390625;1673431888.0949018;2.1827962398529053;8.904114723205566;86.75262451171875
174;1673431888.2458682;47.1306425;7.24062;44.005001068115234;1673431888.2938213;2.3755064010620117;11.326621055603027;86.69287872314453
175;1673431888.4246325;47.1306425;7.24062;44.402000427246094;1673431888.4871058;2.3251712322235107;6.990389347076416;86.82232666015625
176;1673431888.6182637;47.130642599999995;7.24062;44.79300308227539;1673431888.6838102;2.1497952938079834;8.324983596801758;86.86238861083984
177;1673431888.810664;47.1306428;7.24062;45.18600082397461;1673431888.8653796;2.2731704711914062;11.83345890045166;86.8918228149414
178;1673431889.0210419;47.1306428;7.24062;45.58100128173828;1673431889.0828564;2.107914447784424;8.668323516845703;86.99217987060547
179;1673431889.2150297;47.130642699999996;7.24062;45.974002838134766;1673431889.275763;2.084805727005005;8.301946640014648;87.11605834960938
180;1673431889.3941462;47.130642699999996;7.24062;46.368003845214844;1673431889.4525874;2.2377395629882812;12.416958808898926;86.92250061035156
181;1673431889.5936983;47.130642699999996;7.24062;46.7660026550293;1673431889.6641521;2.430661678314209;9.103189468383789;86.81988525390625
182;1673431889.8138442;47.130642599999995;7.24062;47.16400146484375;1673431889.8758562;2.2577505111694336;7.427583694458008;86.7517318725586
183;1673431890.0002615;47.130642599999995;7.24062;47.55400085449219;1673431890.065887;2.231130599975586;10.774386405944824;86.74282836914062
184;1673431890.2091427;47.130642599999995;7.24062;47.94400405883789;1673431890.2698615;2.184941291809082;9.092825889587402;86.98512268066406
185;1673431890.402997;47.1306425;7.24062;48.303001403808594;1673431890.465382;2.079906463623047;7.113155841827393;86.86761474609375
186;1673431890.6369963;47.1306425;7.24062;48.6150016784668;1673431890.695614;2.1506218910217285;9.824138641357422;86.70464324951172
187;1673431890.8283265;47.130642599999995;7.24062;48.88300323486328;1673431890.8834805;2.332728147506714;9.476689338684082;86.8253402709961
188;1673431891.0259178;47.1306428;7.24062;49.11000061035156;1673431891.0866032;2.1881730556488037;6.9501142501831055;86.8804702758789
189;1673431891.2113101;47.1306431;7.24062;49.2920036315918;1673431891.2722075;6.658085823059082;13.961069107055664;87.10795593261719
190;1673431891.4275825;47.130643199999994;7.240619799999999;49.454002380371094;1673431891.4863293;22.35367202758789;31.03706169128418;96.23210144042969
191;1673431891.6429796;47.1306424;7.2406181;49.59700393676758;1673431891.7051725;28.95969581604004;46.12955093383789;108.01963806152344
192;1673431891.841388;47.1306399;7.2406136;49.7130012512207;1673431891.900381;26.171051025390625;54.389076232910156;116.50585174560547
193;1673431892.0291607;47.1306352;7.2406055;49.80600357055664;1673431892.0890536;9.788629531860352;58.64512634277344;126.19466400146484
194;1673431892.2225623;47.1306285;7.2405943;49.86000061035156;1673431892.2914727;-7.185548305511475;56.597862243652344;136.19235229492188
195;1673431892.41628;47.13062;7.2405805999999995;49.8900032043457;1673431892.4758122;-20.23151206970215;51.70807647705078;145.7444305419922
196;1673431892.6242483;47.1306102;7.240564999999999;49.89800262451172;1673431892.6839612;-32.48725128173828;44.28390121459961;157.91517639160156
197;1673431892.8157716;47.1305991;7.240547899999999;49.897003173828125;1673431892.8792658;-45.40640640258789;41.855438232421875;170.40744018554688
198;1673431893.0082855;47.130586699999995;7.2405291;49.87900161743164;1673431893.0719776;-50.51176834106445;33.819549560546875;-176.0782928466797
199;1673431893.2145972;47.1305735;7.2405086999999995;49.829002380371094;1673431893.2802448;-44.85282897949219;23.343658447265625;-168.95526123046875
200;1673431893.4241788;47.1305597;7.2404873;49.76300048828125;1673431893.4867585;-45.18666458129883;18.749120712280273;-164.2281494140625
201;1673431893.6555917;47.1305456;7.2404654;49.7030029296875;1673431893.7101367;-47.433170318603516;13.802847862243652;-156.7144317626953
202;1673431893.8281705;47.1305313;7.2404432;49.66100311279297;1673431893.8852408;-46.95016098022461;8.765545845031738;-148.83489990234375
203;1673431894.011019;47.130516799999995;7.2404204;49.63200378417969;1673431894.070946;-47.09888458251953;4.65750789642334;-142.42933654785156
204;1673431894.2223644;47.130502199999995;7.2403971;49.612003326416016;1673431894.2846239;-47.56513214111328;-0.23787491023540497;-135.84054565429688
205;1673431894.4244072;47.1304875;7.2403736;49.599002838134766;1673431894.4771426;-46.9763298034668;-8.325908660888672;-131.60043334960938
206;1673431894.6105776;47.1304727;7.2403502;49.59300231933594;1673431894.6751776;-47.02952194213867;-9.4625825881958;-134.48216247558594
207;1673431894.823721;47.1304576;7.2403271;49.59700393676758;1673431894.8824763;-47.03529357910156;-8.040349006652832;-137.1829376220703
208;1673431895.00891;47.130442099999996;7.2403046;49.60700225830078;1673431895.068157;-47.975502014160156;-7.049715042114258;-138.24497985839844
209;1673431895.2008054;47.130426199999995;7.2402826;49.617000579833984;1673431895.2623374;-47.87021255493164;-5.215336799621582;-139.24517822265625
210;1673431895.4055293;47.1304101;7.2402608;49.634002685546875;1673431895.4679515;-48.62565231323242;-3.936295509338379;-139.82638549804688
211;1673431895.6042314;47.1303938;7.240239099999999;49.65800094604492;1673431895.67002;-49.443912506103516;-3.1968064308166504;-140.0267333984375
212;1673431895.8159115;47.1303772;7.2402175;49.68300247192383;1673431895.886503;-49.36943435668945;-2.709293842315674;-139.99166870117188
213;1673431896.0187654;47.130360499999995;7.2401957999999995;49.702003479003906;1673431896.0826383;-48.918216705322266;-2.546664237976074;-139.82225036621094
214;1673431896.2180874;47.1303437;7.240174;49.715003967285156;1673431896.281894;-48.034690856933594;-2.515913724899292;-139.57188415527344
215;1673431896.421243;47.1303268;7.2401522;49.717002868652344;1673431896.479086;-47.2730598449707;-2.6436588764190674;-139.2928924560547
216;1673431896.6165166;47.1303099;7.2401303;49.72100067138672;1673431896.6803374;-47.280784606933594;-2.841856002807617;-139.11343383789062
217;1673431896.826676;47.130293099999996;7.2401083999999996;49.72800064086914;1673431896.893488;-47.669578552246094;-3.0339584350585938;-138.93380737304688
218;1673431897.0261643;47.1302762;7.2400864;49.7390022277832;1673431897.0946238;-48.22152328491211;-3.130234718322754;-138.80929565429688
219;1673431897.2243373;47.1302594;7.2400644;49.74700164794922;1673431897.2840025;-48.2806510925293;-3.047208786010742;-138.7529296875
220;1673431897.405741;47.1302425;7.2400424;49.75200271606445;1673431897.4650156;-47.87044143676758;-3.109461784362793;-138.6198272705078
221;1673431897.596554;47.1302257;7.240020299999999;49.75600051879883;1673431897.6619718;-47.75138854980469;-3.1220650672912598;-138.5384063720703
222;1673431897.811082;47.1302088;7.2399982;49.75400161743164;1673431897.8744915;-47.5522346496582;-3.1784520149230957;-138.40394592285156
223;1673431898.0037596;47.130192;7.2399759999999995;49.75400161743164;1673431898.0701487;-47.56075668334961;-3.1597931385040283;-138.36521911621094
224;1673431898.2194867;47.1301753;7.2399539;49.75800323486328;1673431898.2800488;-47.71711349487305;-3.239016532897949;-138.2762908935547
225;1673431898.4157152;47.130158599999994;7.2399317;49.77000045776367;1673431898.4900496;-48.28234100341797;-3.3153772354125977;-138.23768615722656
226;1673431898.692276;47.1301418;7.2399094999999996;49.78200149536133;1673431898.7461174;-48.6962890625;-3.3137340545654297;-138.18495178222656
227;1673431898.8746152;47.1301251;7.2398872;49.788002014160156;1673431898.934616;-48.35836410522461;-3.236574649810791;-138.18905639648438
228;1673431899.0637321;47.130108299999996;7.239864799999999;49.78600311279297;1673431899.1268346;-47.73736572265625;-3.162217617034912;-138.1571502685547
229;1673431899.2639327;47.1300916;7.2398425;49.78400421142578;1673431899.3224397;-47.63459014892578;-3.1012659072875977;-138.1294403076172
230;1673431899.4471986;47.1300749;7.239820099999999;49.785003662109375;1673431899.511952;-47.85082244873047;-3.331151247024536;-137.97366333007812
231;1673431899.6459165;47.1300582;7.2397977;49.78700256347656;1673431899.698567;-48.1529655456543;-3.2220137119293213;-138.04258728027344
232;1673431899.8384905;47.1300415;7.2397751999999995;49.788002014160156;1673431899.9034665;-48.164485931396484;-3.2719295024871826;-138.00267028808594
233;1673431900.0308783;47.1300248;7.2397526999999995;49.78400421142578;1673431900.0908394;-47.85150909423828;-3.2300665378570557;-138.00726318359375
234;1673431900.2251604;47.1300082;7.2397301999999994;49.78000259399414;1673431900.2903757;-47.67980194091797;-3.2709226608276367;-137.95509338378906
235;1673431900.5311954;47.129991499999996;7.239707699999999;49.77800369262695;1673431900.605751;-47.70932388305664;-3.2655510902404785;-137.95901489257812
236;1673431900.728326;47.1299749;7.239685199999999;49.77800369262695;1673431900.786902;-47.84184265136719;-3.313460111618042;-137.92431640625
237;1673431900.9057002;47.1299583;7.239662699999999;49.78000259399414;1673431900.961243;-47.996341705322266;-3.256932020187378;-137.95909118652344
238;1673431901.087511;47.129941599999995;7.2396401;49.781002044677734;1673431901.1386468;-48.021507263183594;-3.2234256267547607;-137.952880859375
239;1673431901.2603714;47.129925;7.2396175;49.785003662109375;1673431901.3199167;-47.92933654785156;-3.2325432300567627;-137.94378662109375
240;1673431901.4530783;47.1299084;7.239594899999999;49.78600311279297;1673431901.5234296;-47.89120864868164;-3.1956355571746826;-137.96546936035156
241;1673431901.6791887;47.129891799999996;7.2395723;49.788002014160156;1673431901.7354429;-47.66212463378906;-3.219451665878296;-137.94078063964844
242;1673431901.869985;47.1298752;7.2395496999999995;49.7910041809082;1673431901.9309912;-47.6862907409668;-3.2570221424102783;-137.92344665527344
243;1673431902.055314;47.1298587;7.239527;49.79900360107422;1673431902.1294062;-48.01521682739258;-3.238485813140869;-137.95114135742188
244;1673431902.2796097;47.1298421;7.2395043999999995;49.80400085449219;1673431902.3355706;-48.06611251831055;-3.207876443862915;-137.9617156982422
245;1673431902.4682841;47.129825499999995;7.2394817;49.80900192260742;1673431902.5300746;-48.02970504760742;-3.1780009269714355;-138.000244140625
246;1673431902.6416407;47.1298089;7.239459;49.814002990722656;1673431902.7028923;-47.887916564941406;-3.126065254211426;-138.0113067626953
247;1673431902.8528054;47.1297923;7.2394364;49.82500076293945;1673431902.910497;-48.09980392456055;-3.1640825271606445;-137.9875946044922
248;1673431903.0571134;47.129775699999996;7.2394137;49.832000732421875;1673431903.1111171;-48.18513107299805;-3.1552042961120605;-138.02706909179688
249;1673431903.2444205;47.129759;7.2393909;49.83500289916992;1673431903.3039834;-48.05551528930664;-3.065908432006836;-138.034423828125
250;1673431903.4751437;47.1297424;7.2393681999999995;49.836002349853516;1673431903.5464814;-47.7779541015625;-3.1274356842041016;-138.03314208984375
251;1673431903.7193153;47.129725799999996;7.2393453999999995;49.836002349853516;1673431903.7704215;-47.57609939575195;-3.0181806087493896;-138.06300354003906
252;1673431903.9001153;47.1297091;7.2393228;49.84300231933594;1673431903.9948251;-47.818077087402344;-3.0683321952819824;-138.04754638671875
253;1673431904.0958312;47.1296926;7.2393000999999995;49.84700393676758;1673431904.1559186;-47.9974365234375;-3.089057445526123;-138.0493927001953
254;1673431904.2847986;47.129675999999996;7.2392772999999995;49.85100173950195;1673431904.3421242;-47.88447952270508;-3.0687763690948486;-138.0887908935547
255;1673431904.4649675;47.1296593;7.2392546;49.855003356933594;1673431904.5217428;-47.734745025634766;-2.9718105792999268;-138.10508728027344
256;1673431904.655295;47.1296427;7.2392318;49.86000061035156;1673431904.7112327;-47.73488998413086;-2.9330554008483887;-138.12718200683594
257;1673431904.8335125;47.129625999999995;7.239209;49.8650016784668;1673431904.8910716;-47.83388900756836;-3.0032742023468018;-138.09002685546875
258;1673431905.0323539;47.1296094;7.2391863;49.87200164794922;1673431905.0950758;-47.945518493652344;-2.9453582763671875;-138.13809204101562
259;1673431905.2331064;47.1295928;7.2391635999999995;49.880001068115234;1673431905.2995872;-47.955989837646484;-2.988861083984375;-138.12930297851562
260;1673431905.4458182;47.129576199999995;7.2391407999999995;49.88900375366211;1673431905.5074532;-47.934593200683594;-2.9100704193115234;-138.20001220703125
261;1673431905.6409729;47.1295596;7.2391179999999995;49.89500427246094;1673431905.699825;-47.891685485839844;-2.944596529006958;-138.19422912597656
262;1673431905.8319433;47.129543;7.2390951999999995;49.89900207519531;1673431905.8895738;-47.755435943603516;-2.8587899208068848;-138.25830078125
263;1673431906.022;47.129526299999995;7.239072299999999;49.906002044677734;1673431906.089352;-47.76655578613281;-2.825212240219116;-138.2860107421875
264;1673431906.227379;47.1295097;7.239049499999999;49.9160041809082;1673431906.2912467;-47.97944259643555;-2.7775509357452393;-138.3225555419922
265;1673431906.4363358;47.129493;7.239026699999999;49.932003021240234;1673431906.504157;-48.26713943481445;-2.794394016265869;-138.32728576660156
266;1673431906.642426;47.129476399999994;7.239003899999999;49.94600296020508;1673431906.7061543;-48.53738784790039;-2.7270045280456543;-138.4025421142578
267;1673431906.8524134;47.1294597;7.238981;49.952003479003906;1673431906.914889;-48.259979248046875;-2.7162888050079346;-138.4449920654297
268;1673431907.0369024;47.129442999999995;7.2389581;49.9530029296875;1673431907.094497;-47.636531829833984;-2.9192965030670166;-138.42503356933594
269;1673431907.2242656;47.1294263;7.238935199999999;49.9530029296875;1673431907.290867;-47.34596252441406;-3.168471336364746;-138.49777221679688
270;1673431907.427549;47.129409599999995;7.238912399999999;49.95600128173828;1673431907.4951417;-47.97805404663086;-2.648878812789917;-138.6626739501953
271;1673431907.6364853;47.1293929;7.238889599999999;49.961002349853516;1673431907.7022808;-47.854793548583984;-4.17209005355835;-138.3673095703125
272;1673431907.8449101;47.129376099999995;7.2388669;49.96900177001953;1673431907.90566;-48.32081985473633;-3.6123032569885254;-138.8595733642578
273;1673431908.0430148;47.129359199999996;7.2388442;49.97100067138672;1673431908.107816;-48.322959899902344;-3.723562717437744;-138.89776611328125
274;1673431908.2392542;47.1293423;7.2388216;49.97200393676758;1673431908.301037;-47.84627914428711;-3.931858777999878;-139.01681518554688
275;1673431908.4341974;47.1293254;7.2387992;49.97200393676758;1673431908.497896;-47.68729019165039;-3.8278934955596924;-139.13449096679688
276;1673431908.6311193;47.1293084;7.238776799999999;49.97300338745117;1673431908.698187;-47.5956916809082;-4.4419989585876465;-139.1234130859375
277;1673431908.8352752;47.1292914;7.238754699999999;49.97500228881836;1673431908.8959339;-47.79963302612305;-4.506083965301514;-139.2897491455078
278;1673431909.0367956;47.1292743;7.2387327;49.980003356933594;1673431909.0926104;-45.628623962402344;-4.827816009521484;-139.42236328125
279;1673431909.239152;47.1292572;7.2387109;50.00400161743164;1673431909.3040035;-36.33097457885742;-4.556521892547607;-139.33645629882812
280;1673431909.457377;47.129240499999995;7.2386897999999995;50.038002014160156;1673431909.5159667;-21.14344596862793;-5.068023681640625;-138.07403564453125
281;1673431909.6639254;47.129224799999996;7.238670099999999;50.05800247192383;1673431909.7275362;-7.828427791595459;-3.2922134399414062;-137.546630859375
282;1673431909.8712502;47.129210699999994;7.2386523;50.06700134277344;1673431909.9330134;1.1212964057922363;-2.1229171752929688;-137.0693817138672
283;1673431910.0626748;47.129198699999996;7.238637;50.06800079345703;1673431910.1153774;8.41821575164795;-0.17000049352645874;-137.4698944091797
284;1673431910.2458174;47.129188899999995;7.2386241;50.04900360107422;1673431910.3075316;8.721341133117676;-0.1000058501958847;-138.85366821289062
285;1673431910.4385705;47.1291813;7.2386137999999995;50.0410041809082;1673431910.5110154;6.940359592437744;-6.796058654785156;-137.23898315429688
286;1673431910.65783;47.129175499999995;7.2386057;50.03700256347656;1673431910.7203584;3.719426155090332;-3.6099836826324463;-137.04666137695312
287;1673431910.8528907;47.129171199999995;7.2385996;50.04500198364258;1673431910.9173765;-1.4960423707962036;-6.911623954772949;-137.0033416748047
288;1673431911.0601394;47.129167599999995;7.2385947999999996;50.05900192260742;1673431911.1210217;-6.705307960510254;-8.651527404785156;-137.19540405273438
289;1673431911.2526572;47.129164599999996;7.2385909999999996;50.070003509521484;1673431911.3219945;-11.828096389770508;-5.87715482711792;-137.87562561035156
290;1673431911.4637423;47.1291619;7.2385877;50.0780029296875;1673431911.5223327;-14.340099334716797;-4.698706150054932;-137.82496643066406
291;1673431911.6540968;47.1291594;7.2385847;50.08500289916992;1673431911.7186768;-14.286049842834473;-1.785393476486206;-137.618896484375
292;1673431911.8624878;47.129157;7.2385817999999995;50.092002868652344;1673431911.9192572;-12.726828575134277;-1.11909019947052;-137.04273986816406
293;1673431912.0681052;47.129154799999995;7.2385788;50.108001708984375;1673431912.121868;-28.43073081970215;-0.9541156888008118;-137.1822509765625
294;1673431912.2618756;47.1291523;7.238575;50.16800308227539;1673431912.3333974;-30.626293182373047;-0.9146740436553955;-138.10377502441406
295;1673431912.4600847;47.129149;7.2385699;50.281002044677734;1673431912.5225646;-20.446470260620117;-1.0296742916107178;-138.10897827148438
296;1673431912.677313;47.1291456;7.2385642;50.461002349853516;1673431912.744346;-16.02039909362793;1.8282451629638672;-138.1761016845703
297;1673431912.8640032;47.1291423;7.2385582;50.71800231933594;1673431912.9236612;-14.519349098205566;0.3631536066532135;-137.9456787109375
298;1673431913.0551717;47.129139099999996;7.238551999999999;51.03900146484375;1673431913.1236405;-34.70177459716797;-5.352943420410156;-137.56288146972656
299;1673431913.2540963;47.1291351;7.2385448;51.41100311279297;1673431913.3150797;-50.823299407958984;-10.585131645202637;-137.2896270751953
300;1673431913.4624696;47.129129299999995;7.238536;51.76900100708008;1673431913.5171266;-48.34599685668945;-7.474212646484375;-137.57518005371094
301;1673431913.6605299;47.1291218;7.2385259;52.10400390625;1673431913.72113;-45.773109436035156;-7.065138816833496;-137.1390380859375
302;1673431913.851111;47.1291131;7.2385145;52.42000198364258;1673431913.908709;-42.19301223754883;-4.738107681274414;-137.83285522460938
303;1673431914.0352376;47.1291034;7.2385022;52.72500228881836;1673431914.0984023;-38.364593505859375;-3.928800106048584;-137.31039428710938
304;1673431914.2509947;47.1290932;7.2384892999999995;53.02700424194336;1673431914.3189435;-35.33168411254883;-3.3238863945007324;-137.3787078857422
305;1673431914.4756405;47.1290828;7.2384759999999995;53.33700180053711;1673431914.5375338;-33.62846374511719;-3.638146162033081;-136.82875061035156
306;1673431914.6749244;47.1290724;7.2384625;53.65900421142578;1673431914.7335076;-32.69802474975586;-3.351525068283081;-136.82028198242188
307;1673431914.8567946;47.1290621;7.2384488;53.99700164794922;1673431914.9163926;-31.629976272583008;-3.833294153213501;-136.59661865234375
308;1673431915.0503592;47.1290518;7.238435099999999;54.34400177001953;1673431915.1110299;-31.13959503173828;-3.8995349407196045;-136.6287841796875
309;1673431915.250497;47.129041799999996;7.2384214;54.70100402832031;1673431915.317832;-30.980432510375977;-3.9968082904815674;-136.71942138671875
310;1673431915.4557526;47.1290318;7.2384078;55.066001892089844;1673431915.5182242;-31.245222091674805;-3.6103224754333496;-136.9108123779297
311;1673431915.6555994;47.129022;7.2383944;55.43700408935547;1673431915.7178223;-31.525876998901367;-3.455092668533325;-137.01516723632812
312;1673431915.8576746;47.1290122;7.238380899999999;55.81500244140625;1673431915.918278;-32.023197174072266;-3.4371747970581055;-137.03717041015625
313;1673431916.0560296;47.1290026;7.238367599999999;56.19600296020508;1673431916.1225395;-32.60508728027344;-3.8806686401367188;-136.99156188964844
314;1673431916.259552;47.1289929;7.238354299999999;56.58200454711914;1673431916.3230934;-32.756675720214844;-4.6340107917785645;-136.79873657226562
315;1673431916.4643402;47.128983299999994;7.2383409;56.970001220703125;1673431916.5229115;-32.96040725708008;-5.158420085906982;-136.75888061523438
316;1673431916.6866348;47.128973599999995;7.2383275;57.36100387573242;1673431916.7451751;-32.92749786376953;-5.150374412536621;-136.73919677734375
317;1673431916.9213474;47.1289638;7.238314099999999;57.75200271606445;1673431916.971584;-32.66197204589844;-4.873456001281738;-136.80335998535156
318;1673431917.0835977;47.128954;7.2383006;58.14200210571289;1673431917.1434321;-32.72633743286133;-4.329659461975098;-136.94863891601562
319;1673431917.277293;47.1289443;7.2382873;58.531002044677734;1673431917.3408022;-32.69282531738281;-4.151828289031982;-137.00186157226562
320;1673431917.4653707;47.1289345;7.238273899999999;58.92000198364258;1673431917.5269682;-32.786399841308594;-3.806006669998169;-137.1062774658203
321;1673431917.7256281;47.1289247;7.2382605;59.311004638671875;1673431917.7765787;-32.808250427246094;-3.663161277770996;-137.0845489501953
322;1673431917.8892782;47.1289149;7.2382472;59.702003479003906;1673431917.9630613;-33.118690490722656;-3.9759881496429443;-136.94369506835938
323;1673431918.0833695;47.1289051;7.2382338;60.092002868652344;1673431918.1375053;-33.00395965576172;-4.353364944458008;-136.84767150878906
324;1673431918.2725577;47.128895299999996;7.238220399999999;60.47900390625;1673431918.3438075;-33.059818267822266;-4.612167835235596;-136.75856018066406
325;1673431918.485686;47.128885499999996;7.2382069;60.868003845214844;1673431918.5406222;-33.11361312866211;-4.84082555770874;-136.74005126953125
326;1673431918.6607492;47.128875699999995;7.2381934999999995;61.259002685546875;1673431918.7188778;-33.041778564453125;-4.292112350463867;-136.91807556152344
327;1673431918.8520217;47.1288658;7.238180099999999;61.65400314331055;1673431918.9176111;-32.942501068115234;-3.8414859771728516;-137.06375122070312
328;1673431919.0745754;47.1288559;7.2381666;62.05000305175781;1673431919.1323366;-32.890228271484375;-3.4211859703063965;-137.1185760498047
329;1673431919.2844439;47.128845999999996;7.238153199999999;62.44700241088867;1673431919.345049;-32.97125244140625;-3.1604130268096924;-137.15333557128906
330;1673431919.4782887;47.1288361;7.2381397;62.84400177001953;1673431919.5485597;-33.05585479736328;-3.5384361743927;-137.0509796142578
331;1673431919.7058258;47.1288263;7.2381262;63.2400016784668;1673431919.757265;-32.98977279663086;-4.140539646148682;-136.82711791992188
332;1673431919.9224553;47.1288165;7.238112699999999;63.634002685546875;1673431919.9738984;-33.01164627075195;-4.670762062072754;-136.74314880371094
333;1673431920.0937295;47.1288066;7.2380990999999995;64.02899932861328;1673431920.1590078;-32.985130310058594;-4.666540145874023;-136.7066192626953
334;1673431920.3019705;47.128796699999995;7.2380854999999995;64.42400360107422;1673431920.3767962;-32.94631576538086;-4.480917453765869;-136.7786407470703
335;1673431920.5325942;47.1287868;7.238072;64.81999969482422;1673431920.586921;-33.05110168457031;-4.02362585067749;-136.9259033203125
336;1673431920.7379322;47.1287769;7.2380584;65.22000122070312;1673431920.7971368;-33.15238571166992;-3.689673900604248;-137.00914001464844
337;1673431920.9620028;47.128766999999996;7.2380448;65.62100219726562;1673431921.0181394;-33.14902114868164;-3.531643867492676;-137.07081604003906
338;1673431921.1486504;47.128757199999995;7.2380312;66.01700592041016;1673431921.2028582;-33.03550338745117;-4.001596927642822;-136.9853057861328
339;1673431921.338649;47.1287473;7.2380176;66.41300201416016;1673431921.3969374;-32.987857818603516;-4.519187927246094;-136.84619140625
340;1673431921.5444975;47.1287374;7.238004;66.81200408935547;1673431921.6386561;-32.87866973876953;-4.8521013259887695;-136.71038818359375
341;1673431921.7800121;47.1287275;7.237990399999999;67.21000671386719;1673431921.8305974;-32.86207962036133;-4.865521430969238;-136.72108459472656
342;1673431921.945649;47.128717699999996;7.237976799999999;67.61000061035156;1673431922.006194;-32.91667556762695;-4.515606880187988;-136.8448028564453
343;1673431922.1473343;47.1287078;7.2379633;68.01100158691406;1673431922.2088683;-32.95729064941406;-3.9923415184020996;-136.9428253173828
344;1673431922.330068;47.1286979;7.2379498;68.40800476074219;1673431922.3788524;-33.03572463989258;-3.735517740249634;-137.0245819091797
345;1673431922.4975696;47.1286881;7.2379362;68.802001953125;1673431922.556454;-33.17266845703125;-3.662289619445801;-137.0307159423828
346;1673431922.671435;47.128678199999996;7.2379226;69.19700622558594;1673431922.7311072;-33.2022819519043;-3.821261405944824;-136.97866821289062
347;1673431922.8718283;47.1286683;7.237908999999999;69.59300231933594;1673431922.934301;-33.149925231933594;-4.288619518280029;-136.867919921875
348;1673431923.0845313;47.1286584;7.237895399999999;69.99000549316406;1673431923.139335;-33.16877746582031;-4.68170166015625;-136.7416534423828
349;1673431923.2782965;47.1286485;7.237881799999999;70.38700103759766;1673431923.3391027;-32.956886291503906;-4.85820198059082;-136.7265625
350;1673431923.4732068;47.128638599999995;7.237868199999999;70.78300476074219;1673431923.5353816;-32.9047966003418;-4.85836124420166;-136.76959228515625
351;1673431923.6882083;47.1286287;7.2378545;71.177001953125;1673431923.7500992;-32.85284423828125;-4.550014495849609;-136.8694305419922
352;1673431923.882672;47.1286189;7.2378409999999995;71.57100677490234;1673431923.9398654;-32.98100662231445;-4.090281963348389;-137.00094604492188
353;1673431924.0732331;47.128609;7.2378274;71.96700286865234;1673431924.1356888;-33.023773193359375;-3.8795166015625;-137.0513916015625
354;1673431924.2695231;47.128599099999995;7.2378139;72.36500549316406;1673431924.3261445;-33.0618782043457;-3.6162595748901367;-137.06085205078125
355;1673431924.459016;47.128589299999994;7.237800399999999;72.75900268554688;1673431924.524428;-33.17676544189453;-3.34739351272583;-137.1167755126953
356;1673431924.6841683;47.1285794;7.2377869;73.15400695800781;1673431924.7516556;-33.26993942260742;-3.4173946380615234;-137.0922088623047
357;1673431924.8937535;47.1285695;7.2377733;73.54800415039062;1673431924.9508252;-33.225067138671875;-3.4962193965911865;-137.0102081298828
358;1673431925.102339;47.128559599999996;7.2377597;73.94100189208984;1673431925.1571608;-33.120826721191406;-3.758152484893799;-136.97496032714844
359;1673431925.2840507;47.1285497;7.2377461;74.33500671386719;1673431925.3437753;-33.11195373535156;-4.110721111297607;-136.8655242919922
360;1673431925.5161283;47.1285398;7.2377324;74.73200225830078;1673431925.5683236;-33.0342903137207;-4.1287522315979;-136.84744262695312
361;1673431925.694988;47.1285299;7.237718699999999;75.13400268554688;1673431925.751876;-33.091941833496094;-4.560883522033691;-136.79270935058594
362;1673431925.8856225;47.128520099999996;7.2377050999999994;75.53400421142578;1673431925.9492562;-33.1024169921875;-4.757976531982422;-136.74981689453125
363;1673431926.0913763;47.1285102;7.2376914;75.93000030517578;1673431926.1536355;-33.090641021728516;-4.662508487701416;-136.76007080078125
364;1673431926.293553;47.1285004;7.237677799999999;76.33100128173828;1673431926.3597596;-33.1920051574707;-4.7909626960754395;-136.79449462890625
365;1673431926.4985034;47.1284905;7.237664199999999;76.72700500488281;1673431926.5635839;-33.182212829589844;-4.310949802398682;-136.8867645263672
366;1673431926.700712;47.128480599999996;7.237650599999999;77.12000274658203;1673431926.7604074;-33.31768798828125;-4.17181921005249;-136.93177795410156
367;1673431926.9046416;47.1284707;7.237636999999999;77.51200103759766;1673431926.9743946;-33.31715774536133;-4.01515007019043;-136.9652557373047
368;1673431927.099423;47.1284608;7.2376235;77.9020004272461;1673431927.1655216;-33.287288665771484;-3.800748109817505;-136.9962921142578
369;1673431927.3072731;47.128450799999996;7.2376097999999995;78.29400634765625;1673431927.3651943;-33.30292892456055;-3.7109930515289307;-137.02847290039062
370;1673431927.4908211;47.1284409;7.2375962;78.68500518798828;1673431927.5521479;-33.35130310058594;-3.6514103412628174;-137.0443572998047
371;1673431927.682208;47.1284309;7.237582499999999;79.08000183105469;1673431927.7435226;-33.180267333984375;-3.9360110759735107;-136.9552764892578
372;1673431927.9149842;47.128420999999996;7.2375687;79.47700500488281;1673431927.9739773;-33.10408401489258;-4.082343101501465;-136.9208984375
373;1673431928.0998092;47.128411;7.2375549999999995;79.87800598144531;1673431928.1583734;-33.12031936645508;-4.22119140625;-136.90567016601562
374;1673431928.2872274;47.128401;7.237541299999999;80.281005859375;1673431928.3683312;-33.03461837768555;-4.327349662780762;-136.8840789794922
375;1673431928.539251;47.128391099999995;7.2375276;80.68500518798828;1673431928.60378;-32.961769104003906;-4.451196193695068;-136.85470581054688
376;1673431928.7996526;47.1283811;7.237513799999999;81.0840072631836;1673431928.8581765;-32.96752166748047;-4.433510780334473;-136.87942504882812
377;1673431928.9950168;47.1283712;7.2375001999999995;81.48500061035156;1673431929.0576682;-32.948604583740234;-4.398494243621826;-136.89596557617188
378;1673431929.1785934;47.128361299999995;7.2374865999999995;81.88400268554688;1673431929.2235513;-33.036521911621094;-4.150750160217285;-136.94273376464844
379;1673431929.3385994;47.1283513;7.237472899999999;82.2800064086914;1673431929.3916945;-33.038780212402344;-4.121100902557373;-136.95591735839844
380;1673431929.5222464;47.1283414;7.237459299999999;82.6780014038086;1673431929.5821671;-33.09228515625;-4.071582794189453;-136.95681762695312
381;1673431929.7353776;47.128331499999994;7.237445699999999;83.07400512695312;1673431929.790971;-33.202476501464844;-4.125870704650879;-136.96188354492188
382;1673431929.9275997;47.1283215;7.237432;83.47200775146484;1673431929.9794345;-33.15630340576172;-4.0032854080200195;-136.99026489257812
383;1673431930.1043565;47.128311599999996;7.237418399999999;83.86800384521484;1673431930.161924;-33.08460998535156;-4.163401126861572;-136.96279907226562
384;1673431930.302302;47.128301699999994;7.2374047;84.26300048828125;1673431930.363842;-33.18137741088867;-4.148831844329834;-136.96282958984375
385;1673431930.4883971;47.1282917;7.2373911;84.6570053100586;1673431930.5484982;-33.067325592041016;-4.14665412902832;-136.94952392578125
386;1673431930.6869304;47.128281699999995;7.2373775;85.0510025024414;1673431930.752369;-33.031280517578125;-4.230100631713867;-136.9292755126953
387;1673431930.8940234;47.1282717;7.2373638;85.44600677490234;1673431930.9595332;-33.03541564941406;-4.288575649261475;-136.9051055908203
388;1673431931.091395;47.128261699999996;7.2373502;85.84200286865234;1673431931.1489625;-32.88978958129883;-4.476426124572754;-136.8810272216797
389;1673431931.2963252;47.1282517;7.2373366;86.23900604248047;1673431931.3627262;-32.976680755615234;-4.377809047698975;-136.86862182617188
390;1673431931.50759;47.1282418;7.237323;86.63300323486328;1673431931.5731194;-32.9399299621582;-4.3509721755981445;-136.88461303710938
391;1673431931.7086701;47.128231799999995;7.2373094;87.02900695800781;1673431931.766074;-32.985443115234375;-4.3139166831970215;-136.92953491210938
392;1673431931.9040875;47.1282219;7.2372958;87.427001953125;1673431931.9667304;-32.91073989868164;-4.219634532928467;-136.8946990966797
393;1673431932.109153;47.1282119;7.2372822999999995;87.82500457763672;1673431932.1715744;-33.06743240356445;-4.101168632507324;-136.9423828125
394;1673431932.2983775;47.128201999999995;7.2372688;88.22500610351562;1673431932.3627386;-33.05954360961914;-4.162713050842285;-136.8885040283203
395;1673431932.5146222;47.128192;7.2372552;88.62700653076172;1673431932.5791638;-33.04328536987305;-4.098968505859375;-136.90093994140625
396;1673431932.719497;47.128181999999995;7.237241699999999;89.02800750732422;1673431932.7783751;-33.07394027709961;-4.122434616088867;-136.8589324951172
397;1673431932.9116406;47.1281721;7.237228099999999;89.43000793457031;1673431932.9728718;-33.05202102661133;-4.1287946701049805;-136.9099578857422
398;1673431933.0991764;47.1281622;7.237214499999999;89.83200073242188;1673431933.1695833;-33.11823654174805;-4.187911033630371;-136.87205505371094
399;1673431933.304944;47.128152199999995;7.2372008999999995;90.23200225830078;1673431933.367431;-33.02096176147461;-4.098916053771973;-136.88731384277344
400;1673431933.5048246;47.1281422;7.2371872999999995;90.6290054321289;1673431933.5627635;-32.96260070800781;-4.182764530181885;-136.8557891845703
401;1673431933.7022152;47.128132199999996;7.2371737;91.02800750732422;1673431933.7661226;-32.944515228271484;-4.169658184051514;-136.8666534423828
402;1673431933.907451;47.1281223;7.2371601;91.4280014038086;1673431933.970264;-32.8145866394043;-4.167271614074707;-136.82919311523438
403;1673431934.1011658;47.1281123;7.2371465;91.83100128173828;1673431934.1610892;-32.90890884399414;-4.1186347007751465;-136.85043334960938
404;1673431934.2951863;47.128102399999996;7.2371327999999995;92.23200225830078;1673431934.3576715;-32.78208541870117;-4.194638729095459;-136.88446044921875
405;1673431934.4880905;47.1280925;7.2371193;92.6310043334961;1673431934.5530498;-32.944820404052734;-4.19126558303833;-136.8738250732422
406;1673431934.6884484;47.1280826;7.2371057;93.03300476074219;1673431934.7558918;-32.952083587646484;-4.158372402191162;-136.87705993652344
407;1673431934.8899913;47.128072599999996;7.2370921;93.43400573730469;1673431934.9530501;-32.900733947753906;-4.181590557098389;-136.84658813476562
408;1673431935.0945199;47.1280627;7.2370785;93.83500671386719;1673431935.1581216;-32.91553497314453;-4.27841854095459;-136.82830810546875
409;1673431935.298939;47.1280528;7.2370649;94.23600769042969;1673431935.3600993;-32.91580581665039;-4.319906234741211;-136.83778381347656
410;1673431935.5160909;47.128043;7.2370512;94.63500213623047;1673431935.5836132;-33.0308952331543;-4.391628742218018;-136.8766326904297
411;1673431935.729532;47.128033099999996;7.2370376;95.03500366210938;1673431935.784422;-32.98921203613281;-4.319145679473877;-136.87025451660156
412;1673431935.908984;47.1280232;7.237024;95.4330062866211;1673431935.967409;-33.07756042480469;-4.3531365394592285;-136.85507202148438
413;1673431936.1132042;47.1280133;7.2370104;95.83100128173828;1673431936.1678712;-33.078121185302734;-4.296992778778076;-136.81072998046875
414;1673431936.3093321;47.1280034;7.2369968;96.22900390625;1673431936.3889048;-33.146484375;-4.335226535797119;-136.84996032714844
415;1673431936.5131524;47.127993499999995;7.2369832;96.6300048828125;1673431936.5711727;-33.094844818115234;-4.336903095245361;-136.83795166015625
416;1673431936.705345;47.1279835;7.2369696;97.02900695800781;1673431936.771719;-33.052955627441406;-4.252687931060791;-136.8560333251953
417;1673431936.912426;47.1279737;7.2369559;97.4280014038086;1673431936.9731991;-33.03062057495117;-4.491913318634033;-136.83920288085938
