;pos_time;latitude;longitude;altitude;alt_time;pitch;roll;yaw
0;1673433281.526433;47.1306425;7.240619799999999;-0.02800000086426735;1673433281.5904038;-0.07818583399057388;-0.26337265968322754;90.62564086914062
1;1673433281.7285545;47.1306425;7.2406198999999996;-0.027000000700354576;1673433281.7897825;-0.06972704082727432;-0.24753116071224213;90.52393341064453
2;1673433281.9358478;47.1306424;7.24062;-0.027000000700354576;1673433281.998119;-0.03741646558046341;-0.24843864142894745;90.6268310546875
3;1673433282.1318946;47.1306424;7.24062;-0.026000000536441803;1673433282.1973403;-0.1422363966703415;-0.16601808369159698;90.53990936279297
4;1673433282.3562431;47.1306424;7.2406198999999996;-0.024000000208616257;1673433282.4240036;0.024566788226366043;-0.30126965045928955;90.72632598876953
5;1673433282.5591345;47.1306423;7.240619799999999;-0.024000000208616257;1673433282.6224186;-0.21414366364479065;-0.2005704939365387;90.60462188720703
6;1673433282.751648;47.1306423;7.2406197;-0.026000000536441803;1673433282.8128178;-0.018049374222755432;-0.37679266929626465;90.66712951660156
7;1673433282.9490895;47.1306423;7.2406197;-0.026000000536441803;1673433283.0103047;-0.22462274134159088;-0.21852119266986847;90.5945816040039
8;1673433283.1451283;47.1306423;7.2406196;-0.02800000086426735;1673433283.2047145;-0.25760501623153687;-0.3722589313983917;90.6866226196289
9;1673433283.3500092;47.1306424;7.2406196;0.0;1673433283.4130306;-0.11083055287599564;-0.710978627204895;90.62005615234375
10;1673433283.5442686;47.1306423;7.2406196;0.0010000000474974513;1673433283.6070178;0.11744389683008194;-0.6098204851150513;90.6633071899414
11;1673433283.746485;47.1306423;7.2406197;0.0010000000474974513;1673433283.8062668;0.22483140230178833;-0.7386537194252014;90.70054626464844
12;1673433283.9481227;47.1306423;7.2406197;0.0010000000474974513;1673433284.0065541;-0.31949350237846375;-0.6118621826171875;90.67166137695312
13;1673433284.1382124;47.1306423;7.2406197;0.0020000000949949026;1673433284.2022588;-0.2374766767024994;-0.39575716853141785;90.48187255859375
14;1673433284.3483887;47.1306422;7.2406197;0.004000000189989805;1673433284.4093122;-0.1118195503950119;-0.7203232049942017;90.41722106933594
15;1673433284.5484166;47.1306423;7.240619799999999;0.004000000189989805;1673433284.610211;-0.0033217661548405886;-1.2826669216156006;90.5726089477539
16;1673433284.7470644;47.1306423;7.240619799999999;0.006000000052154064;1673433284.8225622;0.2810162603855133;-0.6299943327903748;90.77730560302734
17;1673433284.9640179;47.1306423;7.240619799999999;0.0;1673433285.0242267;-0.11873074620962143;-0.4966474175453186;90.30077362060547
18;1673433285.154328;47.1306423;7.240619799999999;-0.004000000189989805;1673433285.2149508;-0.12000024318695068;-0.7699556350708008;90.41545867919922
19;1673433285.3511527;47.1306423;7.240619799999999;-0.00800000037997961;1673433285.4144378;0.05643825605511665;-0.9443614482879639;90.48728942871094
20;1673433285.54578;47.1306424;7.2406198999999996;-0.009000000543892384;1673433285.6108894;-0.03468460962176323;0.1178777739405632;90.39337158203125
21;1673433285.7460766;47.1306424;7.2406198999999996;-0.009000000543892384;1673433285.8090804;0.2041587084531784;-0.3502587676048279;90.27789306640625
22;1673433285.9403536;47.1306424;7.2406198999999996;-0.003000000026077032;1673433286.0035665;0.06442417949438095;-0.09940937906503677;90.32886505126953
23;1673433286.1428392;47.1306424;7.2406198999999996;0.0;1673433286.2087808;0.1714903712272644;-0.2995280623435974;89.92363739013672
24;1673433286.348372;47.1306425;7.2406198999999996;-0.0010000000474974513;1673433286.4099057;0.41746553778648376;-0.603545606136322;90.0512924194336
25;1673433286.5434432;47.1306425;7.2406198999999996;-0.003000000026077032;1673433286.6060297;1.0591987371444702;-0.20091314613819122;89.35667419433594
26;1673433286.7443383;47.130642599999995;7.240619799999999;-0.004000000189989805;1673433286.8085096;1.0717658996582031;0.5951052308082581;86.1020278930664
27;1673433286.9478502;47.1306428;7.2406196;0.0;1673433287.0103874;0.037955790758132935;3.898176908493042;77.66546630859375
28;1673433287.1445212;47.1306429;7.2406193;0.013000000268220901;1673433287.2111268;-1.6460741758346558;7.847438812255859;77.17549133300781
29;1673433287.3543327;47.1306431;7.240618899999999;0.04000000283122063;1673433287.418365;-3.3895626068115234;10.253314971923828;80.1110610961914
30;1673433287.5518055;47.130643199999994;7.2406185;0.08400000631809235;1673433287.6220648;-4.351858615875244;12.245586395263672;81.79674530029297
31;1673433287.7801445;47.130643199999994;7.2406182999999995;0.14100000262260437;1673433287.8368897;-5.364749431610107;8.192632675170898;83.30104064941406
32;1673433287.9659202;47.130643199999994;7.2406181;0.21800000965595245;1673433288.0310113;-6.526926517486572;7.340449810028076;84.56828308105469
33;1673433288.1597953;47.130643199999994;7.2406181;0.3110000193119049;1673433288.2156608;-6.580408096313477;11.749946594238281;84.89356994628906
34;1673433288.3694365;47.130643;7.2406182999999995;0.41600000858306885;1673433288.432491;-5.970241069793701;8.618703842163086;85.98271179199219
35;1673433288.5642736;47.130642699999996;7.2406185999999995;0.5320000052452087;1673433288.6231961;-5.353114128112793;4.969781875610352;87.06909942626953
36;1673433288.7645555;47.1306424;7.240618899999999;0.6650000214576721;1673433288.8223064;-4.175004482269287;9.505699157714844;87.23245239257812
37;1673433288.9600303;47.1306422;7.240619199999999;0.8090000152587891;1673433289.020652;-4.050732135772705;8.030009269714355;87.77084350585938
38;1673433289.1738317;47.1306419;7.2406194;0.968000054359436;1673433289.2393558;-4.628838062286377;4.342840671539307;88.41863250732422
39;1673433289.395152;47.1306419;7.240619499999999;1.1420000791549683;1673433289.467676;-4.7583770751953125;7.677316665649414;88.12617492675781
40;1673433289.6173835;47.1306419;7.2406196;1.3270000219345093;1673433289.6760592;-4.688638210296631;9.277217864990234;88.13668823242188
41;1673433289.8175695;47.1306419;7.2406196;1.5150001049041748;1673433289.8790603;-4.776239395141602;4.527879238128662;88.2101058959961
42;1673433290.024072;47.1306419;7.2406196;1.7070001363754272;1673433290.0819886;-4.6770124435424805;7.552793502807617;88.10614776611328
43;1673433290.210647;47.130641999999995;7.2406196;1.9000000953674316;1673433290.263456;-4.542148113250732;10.010703086853027;88.144287109375
44;1673433290.3913128;47.130642099999996;7.240619499999999;2.0950000286102295;1673433290.4461584;-4.806506156921387;5.421968936920166;88.6789779663086
45;1673433290.5845492;47.1306422;7.2406194;2.2980000972747803;1673433290.650372;-5.455745697021484;8.164753913879395;88.49958038330078
46;1673433290.7995672;47.1306424;7.2406193;2.502000093460083;1673433290.8564456;-5.4212188720703125;10.932092666625977;88.23835754394531
47;1673433290.99663;47.1306424;7.2406193;2.704000234603882;1673433291.0571842;-5.637073993682861;6.21848726272583;88.92517852783203
48;1673433291.1760051;47.1306423;7.2406193;2.9020001888275146;1673433291.232464;-5.51340913772583;6.725034713745117;88.86998748779297
49;1673433291.36411;47.1306423;7.2406193;3.1030001640319824;1673433291.427142;-5.321776390075684;10.943973541259766;88.39610290527344
50;1673433291.6078575;47.1306422;7.2406194;3.2990002632141113;1673433291.697041;-5.2463698387146;5.935316562652588;88.92725372314453
51;1673433291.8388436;47.1306422;7.2406194;3.497000217437744;1673433291.8897674;-5.108084678649902;6.684109687805176;88.90579223632812
52;1673433292.018395;47.1306423;7.2406194;3.700000286102295;1673433292.074368;-4.976391315460205;11.002761840820312;88.56413269042969
53;1673433292.1967497;47.1306422;7.240619499999999;3.9010002613067627;1673433292.2485783;-5.203405857086182;7.003939628601074;88.88982391357422
54;1673433292.363803;47.130642099999996;7.240619499999999;4.100000381469727;1673433292.4220276;-5.352797508239746;5.09272575378418;89.04016876220703
55;1673433292.564992;47.130641999999995;7.2406196;4.302000045776367;1673433292.6350117;-5.106542587280273;10.119942665100098;88.37326049804688
56;1673433292.7905955;47.130642099999996;7.2406197;4.50600004196167;1673433292.8532426;-5.074982643127441;7.8373823165893555;88.6069564819336
57;1673433292.994901;47.1306422;7.2406197;4.705000400543213;1673433293.0580142;-5.138211250305176;5.747034549713135;89.0438003540039
58;1673433293.1993177;47.1306423;7.2406196;4.908000469207764;1673433293.259904;-4.786768436431885;10.33966064453125;88.59857177734375
59;1673433293.4077532;47.1306423;7.2406196;5.110000133514404;1673433293.4631524;-5.034480571746826;9.139934539794922;88.60881042480469
60;1673433293.592095;47.1306423;7.2406196;5.312000274658203;1673433293.6567852;-5.3773417472839355;5.178342342376709;88.98652648925781
61;1673433293.7773788;47.1306422;7.240619499999999;5.517000198364258;1673433293.8347673;-5.666746139526367;8.290496826171875;88.44486236572266
62;1673433293.9597983;47.1306422;7.240619499999999;5.724000453948975;1673433294.0162132;-5.566555500030518;10.559075355529785;88.21505737304688
63;1673433294.161649;47.1306422;7.240619499999999;5.930000305175781;1673433294.2264292;-5.680279731750488;5.689280986785889;88.89958953857422
64;1673433294.3742356;47.1306423;7.2406194;6.140000343322754;1673433294.4378664;-5.430995464324951;8.240838050842285;88.75582122802734
65;1673433294.5795624;47.1306423;7.2406194;6.3460001945495605;1673433294.6383343;-5.1688361167907715;11.061737060546875;88.36695861816406
66;1673433294.763034;47.1306423;7.2406194;6.553000450134277;1673433294.8377435;-5.309295177459717;5.763924598693848;88.79283142089844
67;1673433294.9749293;47.130642099999996;7.2406194;6.758000373840332;1673433295.035357;-5.419807434082031;6.86730432510376;88.59587097167969
68;1673433295.1578782;47.130642099999996;7.2406194;6.962000370025635;1673433295.2242293;-5.268820285797119;10.750247955322266;88.339599609375
69;1673433295.3763418;47.130642099999996;7.240619499999999;7.163000106811523;1673433295.4395869;-5.429549694061279;6.355257511138916;88.8229751586914
70;1673433295.5632675;47.1306422;7.240619499999999;7.3610005378723145;1673433295.619018;-5.527026653289795;7.1969709396362305;88.77806854248047
71;1673433295.7628603;47.1306423;7.2406196;7.557000160217285;1673433295.8382862;-5.016519546508789;11.280348777770996;88.27130126953125
72;1673433295.9899406;47.1306422;7.2406196;7.754000186920166;1673433296.0469053;-4.869000434875488;6.790844440460205;88.69922637939453
73;1673433296.169248;47.130642099999996;7.2406197;7.953000545501709;1673433296.2301202;-5.00248908996582;5.74630069732666;88.72496795654297
74;1673433296.3603292;47.130642099999996;7.2406197;8.153000831604004;1673433296.4223714;-4.9407548904418945;10.81765079498291;88.22187805175781
75;1673433296.5619917;47.130642099999996;7.2406197;8.35300064086914;1673433296.627717;-4.765971660614014;7.252925395965576;88.73342895507812
76;1673433296.767772;47.130642099999996;7.2406197;8.553000450134277;1673433296.8319223;-5.338944435119629;6.205323219299316;88.81505584716797
77;1673433296.970674;47.1306422;7.2406197;8.755000114440918;1673433297.0303895;-5.365179061889648;10.535627365112305;88.26014709472656
78;1673433297.164692;47.1306422;7.240619799999999;8.952000617980957;1673433297.2208807;-5.182247161865234;8.216443061828613;88.59674072265625
79;1673433297.3493395;47.130642099999996;7.240619799999999;9.152000427246094;1673433297.4364822;-5.288653373718262;5.332066059112549;88.94837951660156
80;1673433297.607321;47.130642099999996;7.2406198999999996;9.358000755310059;1673433297.6768732;-4.937068939208984;10.424592971801758;88.5544662475586
81;1673433297.798396;47.130642099999996;7.2406198999999996;9.562000274658203;1673433297.8537037;-4.577559947967529;9.141979217529297;88.72386932373047
82;1673433297.9856153;47.130642099999996;7.240619799999999;9.761000633239746;1673433298.0397542;-4.904605865478516;5.355484962463379;88.90120697021484
83;1673433298.185189;47.130642099999996;7.240619799999999;9.956000328063965;1673433298.245904;-5.172213077545166;9.503236770629883;88.3875503540039
84;1673433298.4345498;47.130642099999996;7.240619799999999;10.153000831604004;1673433298.4854598;-5.345016956329346;9.158706665039062;88.5389175415039
85;1673433298.6131928;47.130641999999995;7.240619799999999;10.414000511169434;1673433298.670208;-6.209810733795166;6.916107654571533;88.74503326416016
86;1673433298.8175626;47.1306419;7.24062;10.76400089263916;1673433298.8713865;-5.963319301605225;9.158000946044922;88.93572235107422
87;1673433298.9865909;47.1306417;7.2406201999999995;11.144000053405762;1673433299.041478;-4.778596878051758;10.152189254760742;88.6722640991211
88;1673433299.15969;47.1306416;7.2406204;11.540000915527344;1673433299.2179177;-4.525984287261963;5.582531452178955;88.92102813720703
89;1673433299.3617547;47.130641499999996;7.2406206;11.937000274658203;1673433299.419905;-4.375148296356201;6.113238334655762;88.63749694824219
90;1673433299.5601816;47.130641499999996;7.2406207;12.333000183105469;1673433299.6279259;-4.117588043212891;9.718182563781738;88.28433990478516
91;1673433299.7681384;47.130641399999995;7.2406207;12.730000495910645;1673433299.8283734;-4.215220928192139;5.1959404945373535;88.84012603759766
92;1673433299.9608452;47.130641399999995;7.2406207;13.132000923156738;1673433300.0342588;-4.3941569328308105;5.319581508636475;88.86450958251953
93;1673433300.1578755;47.130641499999996;7.2406206;13.541000366210938;1673433300.2206619;-4.384879112243652;9.772661209106445;88.51994323730469
94;1673433300.3726964;47.1306417;7.2406204;13.942000389099121;1673433300.4345481;-4.625166893005371;7.6728386878967285;88.7918930053711
95;1673433300.5882516;47.1306418;7.2406201999999995;14.3410005569458;1673433300.6613948;-5.118190288543701;5.7245635986328125;88.89061737060547
96;1673433300.8261545;47.1306419;7.24062;14.733000755310059;1673433300.8819897;-5.353940010070801;9.959892272949219;88.3914566040039
97;1673433301.0104055;47.1306419;7.2406198999999996;15.121000289916992;1673433301.0689654;-5.472805500030518;8.957415580749512;88.59335327148438
98;1673433301.207086;47.1306419;7.2406197;15.508000373840332;1673433301.2701411;-5.871078014373779;4.935743808746338;88.98001098632812
99;1673433301.40939;47.1306419;7.2406197;15.903000831604004;1673433301.4641998;-5.437337398529053;8.729578971862793;88.59861755371094
100;1673433301.5846848;47.1306419;7.2406197;16.296001434326172;1673433301.647806;-4.978816986083984;9.49634075164795;88.49385833740234
101;1673433301.770051;47.130641999999995;7.2406197;16.69099998474121;1673433301.8350346;-5.125092506408691;5.6345648765563965;88.9683609008789
102;1673433301.9680161;47.130641999999995;7.2406197;17.086999893188477;1673433302.0427287;-5.089280605316162;8.42244815826416;88.44845581054688
103;1673433302.1822445;47.130641999999995;7.240619799999999;17.485000610351562;1673433302.2374413;-4.995739459991455;9.887473106384277;88.34746551513672
104;1673433302.3864126;47.1306419;7.240619799999999;17.881000518798828;1673433302.4528458;-5.047291278839111;5.340004920959473;88.91847229003906
105;1673433302.5880258;47.1306419;7.240619799999999;18.277000427246094;1673433302.6521647;-5.357050895690918;7.652962684631348;88.83401489257812
106;1673433302.7914062;47.130641999999995;7.240619799999999;18.67500114440918;1673433302.8514824;-4.897477149963379;10.269619941711426;88.57694244384766
107;1673433302.9791622;47.130642099999996;7.240619799999999;19.07000160217285;1673433303.0458627;-5.0669732093811035;5.7227630615234375;88.8437728881836
108;1673433303.2042773;47.130641999999995;7.2406198999999996;19.461000442504883;1673433303.2663176;-5.058337688446045;6.422264099121094;88.7444076538086
109;1673433303.3891492;47.130641999999995;7.2406198999999996;19.849000930786133;1673433303.455645;-4.947428226470947;10.503047943115234;88.37805938720703
110;1673433303.5774176;47.130641999999995;7.2406198999999996;20.24100112915039;1673433303.6366127;-5.082780838012695;5.878878593444824;88.80587005615234
111;1673433303.7664554;47.130641999999995;7.2406198999999996;20.64000129699707;1673433303.8301427;-5.2495293617248535;6.39538049697876;88.8355712890625
112;1673433303.9781735;47.130642099999996;7.2406198999999996;21.038000106811523;1673433304.0442286;-4.875280380249023;10.337631225585938;88.39420318603516
113;1673433304.1922688;47.1306422;7.2406198999999996;21.435001373291016;1673433304.258207;-4.853610992431641;7.158505439758301;88.69788360595703
114;1673433304.391252;47.1306423;7.2406198999999996;21.830001831054688;1673433304.4528244;-4.970025539398193;6.237789154052734;88.773681640625
115;1673433304.580449;47.1306423;7.2406198999999996;22.225000381469727;1673433304.651703;-4.892196178436279;10.64600944519043;88.35126495361328
116;1673433304.7826612;47.1306423;7.2406198999999996;22.623001098632812;1673433304.841462;-4.91299295425415;7.658334732055664;88.68862915039062
117;1673433304.9751997;47.1306423;7.2406198999999996;23.022001266479492;1673433305.0453894;-5.2107696533203125;5.609461307525635;88.86931610107422
118;1673433305.1793723;47.1306424;7.2406198999999996;23.426000595092773;1673433305.2436655;-4.98448371887207;10.3526029586792;88.4188232421875
119;1673433305.39547;47.1306425;7.2406198999999996;23.828001022338867;1673433305.4677153;-4.876522541046143;9.238446235656738;88.4759521484375
120;1673433305.6125915;47.130642599999995;7.240619799999999;24.22800064086914;1673433305.6976497;-5.0144829750061035;5.737523078918457;88.82670593261719
121;1673433305.859669;47.1306425;7.240619799999999;24.62700080871582;1673433305.9204144;-5.311704158782959;8.081536293029785;88.591064453125
122;1673433306.0754662;47.1306425;7.2406197;25.0260009765625;1673433306.1296914;-5.055780410766602;9.710352897644043;88.54007720947266
123;1673433306.2316124;47.1306424;7.2406196;25.43000030517578;1673433306.2858455;-5.242410182952881;5.529352188110352;88.95970153808594
124;1673433306.4755583;47.1306424;7.2406196;25.836000442504883;1673433306.5486057;-5.438121795654297;7.473134994506836;88.77559661865234
125;1673433306.6526806;47.1306425;7.240619499999999;26.240001678466797;1673433306.7112234;-5.24186897277832;10.221707344055176;88.36590576171875
126;1673433306.8324418;47.130642599999995;7.240619499999999;26.63800048828125;1673433306.8903186;-5.275523662567139;6.298036575317383;88.74288940429688
127;1673433307.0259526;47.130642599999995;7.2406196;27.033000946044922;1673433307.0828824;-5.232004165649414;7.006406307220459;88.69343566894531
128;1673433307.2141697;47.130642599999995;7.2406196;27.429000854492188;1673433307.2726028;-4.965868949890137;11.053657531738281;88.3560791015625
129;1673433307.4088721;47.1306425;7.2406196;27.832000732421875;1673433307.46821;-4.979246616363525;6.373981952667236;88.77657318115234
130;1673433307.59171;47.130642599999995;7.2406196;28.239002227783203;1673433307.6439912;-5.025794982910156;6.442050457000732;88.82200622558594
131;1673433307.7882519;47.130642699999996;7.2406196;28.644001007080078;1673433307.8598895;-5.0061540603637695;11.172724723815918;88.36676788330078
132;1673433307.9846132;47.1306428;7.2406196;29.046001434326172;1673433308.0405023;-4.898078441619873;8.3712739944458;88.69097137451172
133;1673433308.1781728;47.1306428;7.2406196;29.45100212097168;1673433308.2382078;-5.269596099853516;5.792675495147705;88.7906265258789
134;1673433308.3795204;47.130642699999996;7.2406196;29.85700225830078;1673433308.4553068;-5.130948066711426;10.164551734924316;88.37784576416016
135;1673433308.5825365;47.130642599999995;7.2406196;30.256000518798828;1673433308.645273;-5.151589870452881;9.119335174560547;88.57783508300781
136;1673433308.7830539;47.1306425;7.240619499999999;30.654001235961914;1673433308.842418;-5.2446722984313965;5.253366947174072;88.98603057861328
137;1673433308.975574;47.1306425;7.240619499999999;31.054000854492188;1673433309.0420816;-4.930707931518555;9.55937385559082;88.48766326904297
138;1673433309.1868613;47.1306425;7.240619499999999;31.452001571655273;1673433309.2458787;-4.775663375854492;9.494885444641113;88.3773422241211
139;1673433309.3882527;47.1306425;7.240619499999999;31.85000228881836;1673433309.4559608;-5.165452480316162;5.527618885040283;88.82710266113281
140;1673433309.5974674;47.1306425;7.240619499999999;32.24700164794922;1673433309.6654017;-5.343917369842529;8.131019592285156;88.54801177978516
141;1673433309.8099077;47.1306424;7.240619499999999;32.638999938964844;1673433309.8694823;-5.173130035400391;10.219833374023438;88.37715148925781
142;1673433309.998239;47.1306424;7.2406196;33.03499984741211;1673433310.0507946;-5.128630638122559;5.718849182128906;88.96002960205078
143;1673433310.1815054;47.1306424;7.2406196;33.435001373291016;1673433310.237317;-5.360804080963135;7.430979251861572;88.89124298095703
144;1673433310.3651214;47.130642599999995;7.2406196;33.836002349853516;1673433310.426767;-4.751885890960693;10.87055492401123;88.43792724609375
145;1673433310.572319;47.130642599999995;7.2406196;34.237003326416016;1673433310.6360652;-4.831085681915283;7.309414386749268;88.70331573486328
146;1673433310.78726;47.130642599999995;7.2406197;34.637001037597656;1673433310.8517716;-5.023619174957275;6.362791538238525;88.71430969238281
147;1673433311.0040667;47.130642599999995;7.2406197;35.03600311279297;1673433311.0617344;-5.187080383300781;10.952919960021973;88.31793975830078
148;1673433311.2111557;47.1306425;7.2406197;35.42900085449219;1673433311.2688956;-5.17689323425293;7.556514263153076;88.7767562866211
149;1673433311.4025822;47.1306425;7.2406197;35.82500076293945;1673433311.4712777;-5.385475158691406;5.694643020629883;88.92236328125
150;1673433311.6083636;47.130642599999995;7.2406197;36.22700119018555;1673433311.6782475;-4.742013454437256;10.17846393585205;88.35014343261719
151;1673433311.8071709;47.130642599999995;7.2406197;36.63199996948242;1673433311.8739822;-4.683105945587158;9.33578109741211;88.42918395996094
152;1673433312.005224;47.130642599999995;7.2406197;37.038002014160156;1673433312.0613441;-4.933556079864502;5.553426265716553;88.8130874633789
153;1673433312.225628;47.130642599999995;7.2406197;37.44300079345703;1673433312.289383;-5.210091590881348;8.872949600219727;88.44810485839844
154;1673433312.4360192;47.1306425;7.2406196;37.84100341796875;1673433312.4916708;-5.21999979019165;9.683438301086426;88.57722473144531
155;1673433312.621629;47.1306425;7.2406196;38.24500274658203;1673433312.6907384;-5.294551849365234;5.464068412780762;89.09476470947266
156;1673433312.808473;47.130642599999995;7.2406196;38.65300369262695;1673433312.869698;-5.185550689697266;8.61661148071289;88.74723052978516
157;1673433312.9898639;47.130642699999996;7.2406197;39.05800247192383;1673433313.062567;-4.788027763366699;10.561919212341309;88.36856842041016
158;1673433313.2014177;47.130642699999996;7.2406197;39.45900344848633;1673433313.2637227;-4.693274021148682;6.131076335906982;88.79043579101562
159;1673433313.3950586;47.130642699999996;7.2406197;39.86000061035156;1673433313.4596255;-5.167213439941406;7.54718017578125;88.5838623046875
160;1673433313.5960195;47.1306428;7.2406196;40.26100158691406;1673433313.6539738;-5.117564678192139;11.195839881896973;88.38774871826172
161;1673433313.7941844;47.130642699999996;7.2406196;40.656002044677734;1673433313.8539717;-5.36173677444458;6.433675289154053;89.03386688232422
162;1673433313.9873648;47.1306428;7.2406196;41.053001403808594;1673433314.05456;-5.349220275878906;7.112332344055176;88.87918090820312
163;1673433314.2019827;47.1306428;7.2406196;41.45100021362305;1673433314.2619877;-4.8930583000183105;10.729191780090332;88.29364776611328
164;1673433314.4180121;47.1306429;7.2406196;41.85000228881836;1673433314.4778874;-4.769706726074219;7.934113025665283;88.45384216308594
165;1673433314.6147919;47.1306428;7.2406196;42.246002197265625;1673433314.67008;-5.028495788574219;6.144519329071045;88.65240478515625
166;1673433314.805615;47.1306428;7.2406196;42.643001556396484;1673433314.8701487;-5.153085231781006;10.721324920654297;88.33695220947266
167;1673433314.992376;47.130642699999996;7.2406196;43.03900146484375;1673433315.0607061;-5.101688385009766;8.545499801635742;88.70555114746094
168;1673433315.2080164;47.130642599999995;7.2406196;43.44000244140625;1673433315.2951179;-5.453719139099121;5.75661039352417;89.02531433105469
169;1673433315.4581783;47.130642699999996;7.2406196;43.84300231933594;1673433315.5479908;-5.1354289054870605;9.745946884155273;88.559814453125
170;1673433315.680832;47.130642699999996;7.2406196;44.24700164794922;1673433315.7375631;-4.616477012634277;9.367000579833984;88.386962890625
171;1673433315.8427515;47.130642699999996;7.2406196;44.650001525878906;1673433315.89359;-4.912298202514648;5.532857418060303;88.7042236328125
172;1673433316.004141;47.130642699999996;7.240619499999999;45.05600357055664;1673433316.0665827;-5.2527594566345215;9.001456260681152;88.3501205444336
173;1673433316.1982694;47.130642699999996;7.240619499999999;45.458003997802734;1673433316.2595584;-5.1469902992248535;10.025060653686523;88.50794219970703
174;1673433316.3941762;47.130642699999996;7.240619499999999;45.85300064086914;1673433316.4535449;-5.32914400100708;6.01578950881958;88.96708679199219
175;1673433316.5792098;47.130642699999996;7.240619499999999;46.25300216674805;1673433316.6433778;-5.475929260253906;7.816603660583496;88.84256744384766
176;1673433316.793528;47.1306428;7.240619499999999;46.6510009765625;1673433316.8582013;-4.890571594238281;10.883158683776855;88.4402084350586
177;1673433316.9975455;47.1306428;7.240619499999999;47.04800033569336;1673433317.057137;-4.752407550811768;6.97918176651001;88.7981948852539
178;1673433317.2107856;47.130642699999996;7.240619499999999;47.445003509521484;1673433317.2649653;-5.133526802062988;6.506588459014893;88.63993835449219
179;1673433317.3847756;47.130642599999995;7.240619499999999;47.845001220703125;1673433317.4420083;-5.134148120880127;11.02650260925293;88.26441192626953
180;1673433317.5749958;47.130642599999995;7.240619499999999;48.21900177001953;1673433317.6386895;-5.289001941680908;6.892529487609863;88.76327514648438
181;1673433317.7959826;47.130642599999995;7.240619499999999;48.54600143432617;1673433317.8698094;-5.5039448738098145;6.9558000564575195;88.82401275634766
182;1673433318.0116706;47.130642699999996;7.240619499999999;48.823001861572266;1673433318.0741796;-5.157445430755615;10.477132797241211;88.47460174560547
183;1673433318.2073693;47.130642699999996;7.2406194;49.05400085449219;1673433318.2666051;-5.290560722351074;7.795655727386475;88.78123474121094
184;1673433318.4122527;47.1306428;7.2406193;49.246002197265625;1673433318.474769;-5.592814922332764;6.200260639190674;88.88983917236328
185;1673433318.6155064;47.1306428;7.240619199999999;49.40300369262695;1673433318.6754258;8.260839462280273;22.995447158813477;92.91059875488281
186;1673433318.8023996;47.1306424;7.2406182;49.540000915527344;1673433318.8620234;19.811100006103516;41.43275451660156;105.28990173339844
187;1673433318.9924877;47.1306406;7.2406147;49.65900421142578;1673433319.0582242;21.196048736572266;53.85317611694336;114.99740600585938
188;1673433319.1960113;47.1306365;7.2406077;49.749000549316406;1673433319.2551825;10.302288055419922;59.209171295166016;123.0804672241211
189;1673433319.4039867;47.1306301;7.2405971;49.79500198364258;1673433319.4669893;-5.712472438812256;55.0394287109375;133.29934692382812
190;1673433319.6004841;47.1306218;7.2405836;49.8280029296875;1673433319.6555762;-18.79526138305664;50.978050231933594;143.57131958007812
191;1673433319.8130245;47.1306118;7.240567599999999;49.85300064086914;1673433319.8884897;-33.3125;48.45685577392578;153.555908203125
192;1673433320.0084214;47.1306003;7.240549499999999;49.867000579833984;1673433320.0670338;-45.19625473022461;43.431724548339844;167.045654296875
193;1673433320.1986322;47.1305872;7.2405289999999995;49.86300277709961;1673433320.2636201;-51.4614372253418;35.29816436767578;-179.38763427734375
194;1673433320.4183512;47.1305729;7.240506399999999;49.81800079345703;1673433320.4804165;-46.2987174987793;23.702707290649414;-171.8350830078125
195;1673433320.6036932;47.130558;7.2404825;49.74400329589844;1673433320.6611974;-45.917564392089844;18.80646514892578;-167.0602264404297
196;1673433320.7849905;47.1305426;7.2404578;49.67100143432617;1673433320.8431125;-47.0865478515625;12.289278984069824;-158.71165466308594
197;1673433321.0668056;47.1305268;7.2404326;49.618003845214844;1673433321.1176858;-47.05201721191406;7.398800373077393;-151.36744689941406
198;1673433321.244943;47.130510799999996;7.2404069;49.58100128173828;1673433321.2918503;-45.69975662231445;1.9472099542617798;-144.42640686035156
199;1673433321.4087198;47.1304947;7.240380999999999;49.56300354003906;1673433321.470788;-47.676692962646484;-1.9806281328201294;-138.38385009765625
200;1673433321.607413;47.130478499999995;7.2403550999999995;49.56300354003906;1673433321.6665292;-48.082420349121094;-9.338728904724121;-132.6364288330078
201;1673433321.8088133;47.130462099999995;7.2403287999999995;49.566001892089844;1673433321.8708794;-47.32086944580078;-12.291643142700195;-134.67279052734375
202;1673433322.0260158;47.1304452;7.240302799999999;49.57200241088867;1673433322.0755017;-46.737274169921875;-10.284856796264648;-138.1740264892578
203;1673433322.2030294;47.130427999999995;7.2402773;49.582000732421875;1673433322.269934;-46.710086822509766;-9.282386779785156;-139.4385528564453
204;1673433322.4023368;47.130410499999996;7.240252399999999;49.60000228881836;1673433322.4657564;-47.95370864868164;-8.394044876098633;-140.0328369140625
205;1673433322.6116033;47.130392699999994;7.2402277999999995;49.62800216674805;1673433322.6688046;-49.63109588623047;-7.0784912109375;-140.59437561035156
206;1673433322.805943;47.130374499999995;7.2402036;49.65400314331055;1673433322.8746662;-49.64082336425781;-5.589369773864746;-140.98207092285156
207;1673433323.02433;47.1303561;7.240179299999999;49.678001403808594;1673433323.087022;-49.0427131652832;-5.016336441040039;-140.93850708007812
208;1673433323.2214284;47.1303376;7.240154899999999;49.695003509521484;1673433323.285686;-47.99665069580078;-5.063406467437744;-140.5459747314453
209;1673433323.4250014;47.130319;7.2401304;49.70600128173828;1673433323.483468;-47.28705596923828;-5.299525260925293;-140.20948791503906
210;1673433323.6181252;47.130300399999996;7.2401059;49.7140007019043;1673433323.686072;-47.201351165771484;-5.535069942474365;-139.90240478515625
211;1673433323.815839;47.1302817;7.240081399999999;49.71900177001953;1673433323.8810093;-47.305667877197266;-5.723283767700195;-139.69544982910156
212;1673433324.0115547;47.1302631;7.240056999999999;49.720001220703125;1673433324.0748;-47.036827087402344;-5.814616680145264;-139.4689178466797
213;1673433324.2124033;47.130244399999995;7.2400326999999995;49.72100067138672;1673433324.2735548;-46.80630874633789;-5.77007532119751;-139.31646728515625
214;1673433324.4014003;47.1302259;7.2400082999999995;49.72800064086914;1673433324.4602513;-46.94230270385742;-5.851490497589111;-139.18692016601562
215;1673433324.5894492;47.130207299999995;7.2399838;49.73800277709961;1673433324.6491463;-47.330543518066406;-5.945234775543213;-139.06556701660156
216;1673433324.8003092;47.1301888;7.2399594;49.74800109863281;1673433324.8666208;-47.63763427734375;-5.9821295738220215;-139.01565551757812
217;1673433325.019113;47.130170299999996;7.239935;49.75700378417969;1673433325.07803;-47.541866302490234;-5.964392185211182;-138.95355224609375
218;1673433325.2197742;47.1301519;7.2399105;49.76100158691406;1673433325.2744744;-47.236820220947266;-5.954933166503906;-138.87594604492188
219;1673433325.4061291;47.1301334;7.2398861;49.7650032043457;1673433325.4645462;-47.00593948364258;-5.863112926483154;-138.81442260742188
220;1673433325.6148999;47.130114999999996;7.239861599999999;49.77300262451172;1673433325.681289;-47.30036163330078;-5.969043731689453;-138.75433349609375
221;1673433325.817543;47.130096599999995;7.239837;49.78300094604492;1673433325.8835707;-47.72467041015625;-5.977390289306641;-138.75779724121094
222;1673433326.0220406;47.1300782;7.2398124;49.7920036315918;1673433326.0741138;-47.971553802490234;-6.030777931213379;-138.74099731445312
223;1673433326.206293;47.1300598;7.2397877;49.79900360107422;1673433326.2666373;-47.755462646484375;-5.964312553405762;-138.734130859375
224;1673433326.4081879;47.130041399999996;7.239763;49.798004150390625;1673433326.4732692;-47.171470642089844;-5.871118068695068;-138.73146057128906
225;1673433326.5997748;47.130023;7.2397383;49.797000885009766;1673433326.657122;-47.03173828125;-5.875311851501465;-138.68544006347656
226;1673433326.804085;47.1300046;7.2397136;49.79900360107422;1673433326.8714619;-47.31886672973633;-5.874302387237549;-138.66769409179688
227;1673433327.0121937;47.1299863;7.2396888;49.80400085449219;1673433327.0679197;-47.64828109741211;-5.9344305992126465;-138.65029907226562
228;1673433327.204194;47.1299679;7.239663999999999;49.807003021240234;1673433327.2646255;-47.68196487426758;-5.931284427642822;-138.66905212402344
229;1673433327.4224784;47.129949599999996;7.2396392;49.81200408935547;1673433327.490068;-47.72121810913086;-5.8577656745910645;-138.69830322265625
230;1673433327.6357207;47.129931299999996;7.2396142999999995;49.816001892089844;1673433327.6954713;-47.76728820800781;-5.878087520599365;-138.66371154785156
231;1673433327.834891;47.1299129;7.2395894;49.820003509521484;1673433327.8967645;-47.72240447998047;-5.835939407348633;-138.68533325195312
232;1673433328.037414;47.1298945;7.239564499999999;49.823001861572266;1673433328.0990987;-47.576942443847656;-5.798056125640869;-138.7002410888672
233;1673433328.226882;47.1298761;7.2395396;49.827003479003906;1673433328.2856984;-47.690650939941406;-5.797501564025879;-138.67959594726562
234;1673433328.4113836;47.129857699999995;7.239514499999999;49.8280029296875;1673433328.4721446;-47.75334167480469;-5.8125152587890625;-138.68844604492188
235;1673433328.6184442;47.1298393;7.2394894;49.829002380371094;1673433328.6830602;-47.644248962402344;-5.794938564300537;-138.71661376953125
236;1673433328.8139234;47.1298209;7.239464399999999;49.833003997802734;1673433328.8731968;-47.66386795043945;-5.817190647125244;-138.7281494140625
237;1673433329.0001605;47.1298026;7.2394392;49.836002349853516;1673433329.057749;-47.70880126953125;-5.837698936462402;-138.7536163330078
238;1673433329.1966894;47.129784199999996;7.239414099999999;49.840003967285156;1673433329.259516;-47.76091766357422;-5.818175792694092;-138.80599975585938
239;1673433329.4005291;47.129765899999995;7.239389;49.845001220703125;1673433329.458732;-47.74704360961914;-5.786173343658447;-138.798583984375
240;1673433329.6095626;47.1297475;7.2393639;49.85100173950195;1673433329.6686816;-47.7043342590332;-5.723782062530518;-138.83348083496094
241;1673433329.814187;47.1297291;7.2393388;49.855003356933594;1673433329.8780577;-47.648433685302734;-5.7093377113342285;-138.8529510498047
242;1673433330.008733;47.1297107;7.239313699999999;49.85600280761719;1673433330.0654428;-47.38705825805664;-5.655270099639893;-138.8662872314453
243;1673433330.2136617;47.129692299999995;7.2392886;49.85900115966797;1673433330.2736957;-47.38513946533203;-5.64326810836792;-138.89315795898438
244;1673433330.4136682;47.129674;7.2392635;49.86600112915039;1673433330.473738;-47.805423736572266;-5.67746114730835;-138.90846252441406
245;1673433330.6167347;47.1296556;7.239238299999999;49.87200164794922;1673433330.680863;-48.0228157043457;-5.673144340515137;-138.96060180664062
246;1673433330.8184106;47.1296373;7.2392132;49.87600326538086;1673433330.881479;-47.839637756347656;-5.605341911315918;-139.00595092773438
247;1673433331.015723;47.1296189;7.2391881;49.87800216674805;1673433331.0783803;-47.59060287475586;-5.549866199493408;-139.0365753173828
248;1673433331.2154565;47.129600499999995;7.239162899999999;49.88100051879883;1673433331.2787287;-47.52476119995117;-5.515775203704834;-139.08961486816406
249;1673433331.41326;47.1295821;7.2391377;49.88100051879883;1673433331.4753897;-47.566097259521484;-5.468360424041748;-139.10299682617188
250;1673433331.6117523;47.1295636;7.2391125999999995;49.88200378417969;1673433331.6739955;-47.67228698730469;-5.451415061950684;-139.13990783691406
251;1673433331.815045;47.129545199999995;7.2390874;49.88500213623047;1673433331.8751485;-47.65470886230469;-5.37305212020874;-139.2161865234375
252;1673433332.0122142;47.1295268;7.2390621;49.88800048828125;1673433332.0753925;-47.58687973022461;-5.355409145355225;-139.2767333984375
253;1673433332.2096746;47.1295084;7.239036899999999;49.8900032043457;1673433332.2717445;-47.645362854003906;-5.352066993713379;-139.3031768798828
254;1673433332.4106228;47.12949;7.2390118;49.88800048828125;1673433332.4741497;-47.480308532714844;-5.254120826721191;-139.3917694091797
255;1673433332.6110907;47.129471599999995;7.2389866;49.88800048828125;1673433332.6746411;-47.27680587768555;-5.151271343231201;-139.4517364501953
256;1673433332.8098176;47.1294531;7.2389614;49.88900375366211;1673433332.8727458;-47.37145233154297;-5.243647575378418;-139.48202514648438
257;1673433333.0125787;47.1294348;7.2389361999999995;49.89500427246094;1673433333.0739834;-47.44597244262695;-6.228608131408691;-139.37977600097656
258;1673433333.2186089;47.129416299999995;7.238911099999999;49.90300369262695;1673433333.2828906;-48.11508560180664;-6.122249603271484;-139.75204467773438
259;1673433333.426135;47.1293979;7.238886;49.91100311279297;1673433333.4834387;-47.564449310302734;-7.559513568878174;-139.63690185546875
260;1673433333.6079948;47.129379199999995;7.238861099999999;49.91800308227539;1673433333.666291;-47.66938018798828;-7.0316572189331055;-140.28732299804688
261;1673433333.8190076;47.1293605;7.238836399999999;49.92500305175781;1673433333.8852506;-47.732826232910156;-7.400445461273193;-140.30580139160156
262;1673433334.024285;47.1293417;7.2388119;49.93400192260742;1673433334.095827;-47.464237213134766;-8.312362670898438;-140.41543579101562
263;1673433334.2322662;47.129322699999996;7.238787599999999;49.941001892089844;1673433334.2934682;-47.71396255493164;-7.819189071655273;-140.83079528808594
264;1673433334.4302363;47.1293036;7.2387635999999995;49.95100402832031;1673433334.4872882;-47.16861343383789;-10.001274108886719;-140.4115447998047
265;1673433334.6272812;47.129284399999996;7.2387399;49.967002868652344;1673433334.6885052;-42.782596588134766;-8.593928337097168;-141.70245361328125
266;1673433334.8170936;47.1292652;7.2387166999999994;50.00100326538086;1673433334.8773692;-29.76827049255371;-10.183030128479004;-139.92469787597656
267;1673433335.0141943;47.129246599999995;7.2386946;50.03700256347656;1673433335.0804656;-12.142080307006836;-8.41787052154541;-139.18101501464844
268;1673433335.2429888;47.1292294;7.2386741;50.052001953125;1673433335.317078;1.339268684387207;-6.557384014129639;-137.45310974121094
269;1673433335.4476755;47.1292143;7.2386558999999995;50.05400085449219;1673433335.5051608;10.99311637878418;-4.839565753936768;-136.92996215820312
270;1673433335.6358535;47.129201699999996;7.2386403999999995;50.038002014160156;1673433335.6948109;17.358203887939453;-0.8184764981269836;-138.7637939453125
271;1673433335.834597;47.1291918;7.2386276;49.99400329589844;1673433335.9010587;21.490699768066406;-8.037884712219238;-137.67892456054688
272;1673433336.0275378;47.1291842;7.2386173;49.9160041809082;1673433336.0837028;15.567790031433105;-14.302475929260254;-136.1319122314453
273;1673433336.222209;47.1291784;7.2386097;49.85200119018555;1673433336.286828;12.007695198059082;-13.181741714477539;-137.20494079589844
274;1673433336.4322398;47.129174;7.238604199999999;49.801002502441406;1673433336.4987388;6.181177616119385;-14.575809478759766;-136.16659545898438
275;1673433336.6468384;47.1291704;7.2386004999999995;49.78300094604492;1673433336.6994352;-2.6437251567840576;-16.481069564819336;-135.6256561279297
276;1673433336.830843;47.1291671;7.2385978;49.807003021240234;1673433336.894491;-9.86644458770752;-13.261883735656738;-135.70835876464844
277;1673433337.0309062;47.129163899999995;7.2385953999999995;49.862003326416016;1673433337.0897095;-13.345812797546387;-9.153105735778809;-134.86465454101562
278;1673433337.2346015;47.1291607;7.2385927;49.92000198364258;1673433337.3030126;-13.499493598937988;-5.293072700500488;-132.52073669433594
279;1673433337.4328775;47.1291577;7.2385895;49.967002868652344;1673433337.4981446;-11.164593696594238;-0.5363141894340515;-130.30751037597656
280;1673433337.6357236;47.129155;7.2385858;50.005001068115234;1673433337.702203;-7.091082572937012;-1.7939172983169556;-128.30775451660156
281;1673433337.8602543;47.1291527;7.2385817999999995;50.03700256347656;1673433337.9328053;-9.91174030303955;-6.792171001434326;-128.9258575439453
282;1673433338.051741;47.129150499999994;7.2385775;50.086002349853516;1673433338.1066878;-28.64129638671875;-6.799139499664307;-136.07818603515625
283;1673433338.2383049;47.1291477;7.2385721;50.169002532958984;1673433338.2992468;-20.116275787353516;-2.406179428100586;-140.27743530273438
284;1673433338.4304786;47.129144499999995;7.2385655;50.323001861572266;1673433338.5024128;-19.790184020996094;-0.9456645846366882;-139.97412109375
285;1673433338.6380806;47.1291412;7.238558299999999;50.56700134277344;1673433338.6963887;-17.06620979309082;1.9972727298736572;-139.00221252441406
286;1673433338.8294835;47.129138;7.2385505;50.887001037597656;1673433338.8883615;-21.37242317199707;-3.9228360652923584;-138.1136474609375
287;1673433339.0353746;47.1291345;7.2385421;51.25100326538086;1673433339.0993874;-43.69862747192383;-15.8572359085083;-137.24217224121094
288;1673433339.2464306;47.129129299999995;7.2385326;51.621002197265625;1673433339.3062184;-46.70930480957031;-15.100157737731934;-137.82801818847656
289;1673433339.4406078;47.129121999999995;7.2385217;51.97500228881836;1673433339.4997215;-42.193572998046875;-15.2312593460083;-138.3258514404297
290;1673433339.6340375;47.1291131;7.2385101;52.30900192260742;1673433339.6949704;-37.42237854003906;-11.83774185180664;-138.42225646972656
291;1673433339.8230796;47.129103099999995;7.238497799999999;52.634002685546875;1673433339.8821907;-32.44855499267578;-11.02098560333252;-138.1663360595703
292;1673433340.0115778;47.1290926;7.2384853;52.96200180053711;1673433340.072087;-31.342069625854492;-7.433696746826172;-137.67034912109375
293;1673433340.2111173;47.129081799999994;7.238472499999999;53.29600143432617;1673433340.2728555;-28.477981567382812;-7.145136833190918;-137.41024780273438
294;1673433340.4140728;47.129070999999996;7.238459499999999;53.6400032043457;1673433340.4840918;-27.249237060546875;-5.562492370605469;-136.97177124023438
295;1673433340.6320877;47.1290603;7.2384463;53.993003845214844;1673433340.7187874;-25.909196853637695;-6.814129829406738;-136.79052734375
296;1673433340.8479395;47.12905;7.238433;54.35400390625;1673433340.8981247;-25.16329002380371;-7.3317694664001465;-136.5401611328125
297;1673433341.0275273;47.129039899999995;7.2384197;54.72300338745117;1673433341.0936854;-25.054203033447266;-7.904994010925293;-136.6865997314453
298;1673433341.2446625;47.12903;7.2384064;55.10100173950195;1673433341.3164585;-25.47661018371582;-6.929788112640381;-136.86961364746094
299;1673433341.4559643;47.1290203;7.2383931;55.48400115966797;1673433341.5196037;-26.51163101196289;-6.300843715667725;-137.25576782226562
300;1673433341.6536653;47.129010699999995;7.238379699999999;55.868003845214844;1673433341.708946;-27.210647583007812;-5.772453784942627;-137.52383422851562
301;1673433341.884215;47.1290012;7.238366399999999;56.256004333496094;1673433341.9584134;-28.047273635864258;-6.080295085906982;-137.36289978027344
302;1673433342.0941803;47.1289917;7.2383529;56.64900207519531;1673433342.14456;-28.29647445678711;-6.973834991455078;-137.22848510742188
303;1673433342.2579887;47.128982199999996;7.2383394999999995;57.0420036315918;1673433342.3091319;-28.406471252441406;-8.199821472167969;-136.9503173828125
304;1673433342.457258;47.1289726;7.2383261;57.43100357055664;1673433342.5188055;-28.11659812927246;-9.384568214416504;-136.6414031982422
305;1673433342.6641424;47.1289629;7.2383127;57.823001861572266;1673433342.7221143;-28.03435707092285;-9.753605842590332;-136.58663940429688
306;1673433342.8427935;47.1289531;7.2382994;58.21400451660156;1673433342.9047992;-27.812814712524414;-9.37914752960205;-136.59324645996094
307;1673433343.0421264;47.128943299999996;7.2382859999999996;58.60600280761719;1673433343.1071563;-27.867399215698242;-8.07799243927002;-136.9135284423828
308;1673433343.3185067;47.1289334;7.238272599999999;58.99700164794922;1673433343.3901756;-27.673280715942383;-7.037986755371094;-137.19288635253906
309;1673433343.4979591;47.1289236;7.2382592;59.38600158691406;1673433343.551722;-27.622386932373047;-6.165927886962891;-137.4072723388672
310;1673433343.6697447;47.1289139;7.2382458;59.7760009765625;1673433343.738382;-28.023088455200195;-6.29105281829834;-137.1910400390625
311;1673433343.895925;47.1289042;7.2382322;60.16800308227539;1673433343.956766;-27.844768524169922;-6.6302056312561035;-137.2045135498047
312;1673433344.125361;47.1288945;7.2382187;60.55900192260742;1673433344.182125;-27.807361602783203;-7.553836345672607;-137.061279296875
313;1673433344.3162055;47.128884799999994;7.2382051;60.95100402832031;1673433344.3851395;-27.709875106811523;-8.588164329528809;-136.7672882080078
314;1673433344.490478;47.128875;7.2381915999999995;61.345001220703125;1673433344.5395608;-27.527116775512695;-9.199313163757324;-136.77891540527344
315;1673433344.659172;47.1288653;7.2381781;61.7390022277832;1673433344.719954;-27.464258193969727;-9.903345108032227;-136.5316162109375
316;1673433344.863608;47.1288556;7.2381647;62.12700271606445;1673433344.9336267;-27.726652145385742;-10.013710021972656;-136.49147033691406
317;1673433345.0771708;47.1288458;7.238151299999999;62.5160026550293;1673433345.1394813;-27.617023468017578;-9.897285461425781;-136.58670043945312
318;1673433345.2635543;47.128836;7.238137999999999;62.906002044677734;1673433345.3222656;-27.976228713989258;-9.507556915283203;-136.6294708251953
319;1673433345.4672997;47.1288262;7.238124699999999;63.29700469970703;1673433345.5242896;-28.016273498535156;-8.890899658203125;-136.73263549804688
320;1673433345.6598752;47.1288164;7.2381115;63.68700408935547;1673433345.7149465;-28.23045539855957;-8.1656494140625;-136.9034423828125
321;1673433345.8504372;47.1288066;7.2380982;64.0770034790039;1673433345.91041;-28.312942504882812;-7.362347602844238;-137.15245056152344
322;1673433346.047668;47.128796699999995;7.238084799999999;64.46600341796875;1673433346.104353;-28.389055252075195;-6.979833126068115;-137.11386108398438
323;1673433346.2428725;47.128786899999994;7.2380714;64.85200500488281;1673433346.3121037;-28.52147674560547;-6.823962688446045;-137.15455627441406
324;1673433346.4515796;47.1287771;7.238057899999999;65.23600006103516;1673433346.5153418;-28.590864181518555;-6.802422523498535;-137.18307495117188
325;1673433346.657338;47.1287673;7.2380444;65.62100219726562;1673433346.730496;-28.490615844726562;-7.134662628173828;-137.1221160888672
326;1673433346.8707674;47.1287574;7.2380308;66.01000213623047;1673433346.9334295;-28.364086151123047;-7.699576377868652;-136.98724365234375
327;1673433347.0757987;47.1287476;7.2380172;66.4000015258789;1673433347.1426551;-28.458993911743164;-8.057217597961426;-137.02488708496094
328;1673433347.2720232;47.128737699999995;7.2380036;66.79000091552734;1673433347.3347921;-28.37519073486328;-8.361432075500488;-136.8774871826172
329;1673433347.4728682;47.1287278;7.237990099999999;67.1820068359375;1673433347.5319917;-28.517711639404297;-8.606616973876953;-136.7771453857422
330;1673433347.6631286;47.1287179;7.2379766;67.57500457763672;1673433347.7229562;-28.546213150024414;-8.826804161071777;-136.74574279785156
331;1673433347.8483407;47.128707899999995;7.2379631;67.97000122070312;1673433347.9065697;-28.681119918823242;-8.650154113769531;-136.66355895996094
332;1673433348.0473835;47.1286979;7.2379497;68.36600494384766;1673433348.111036;-28.596025466918945;-8.541537284851074;-136.6732635498047
333;1673433348.2426448;47.128687899999996;7.2379362;68.76800537109375;1673433348.3074389;-28.632823944091797;-8.410831451416016;-136.6371307373047
334;1673433348.4486172;47.1286778;7.2379226;69.17100524902344;1673433348.510476;-28.47748374938965;-8.412883758544922;-136.6411590576172
335;1673433348.6505413;47.128667899999996;7.2379089;69.57200622558594;1673433348.714664;-28.385053634643555;-8.655046463012695;-136.62481689453125
336;1673433348.84055;47.1286579;7.2378952;69.96900177001953;1673433348.9035237;-28.244831085205078;-8.849767684936523;-136.5945281982422
337;1673433349.0691383;47.128648;7.237881499999999;70.36900329589844;1673433349.1272888;-28.224815368652344;-8.94594955444336;-136.6577606201172
338;1673433349.2568922;47.128638099999996;7.2378678;70.76600646972656;1673433349.3227015;-28.1447696685791;-8.92393684387207;-136.76284790039062
339;1673433349.4623861;47.1286282;7.2378541;71.16300201416016;1673433349.526957;-28.237506866455078;-8.776047706604004;-136.8312530517578
340;1673433349.657718;47.1286182;7.2378404;71.56000518798828;1673433349.7220612;-28.320316314697266;-8.525408744812012;-136.85574340820312
341;1673433349.857508;47.128608299999996;7.2378268;71.95600128173828;1673433349.9228036;-28.403453826904297;-8.449653625488281;-136.8692169189453
342;1673433350.063661;47.1285984;7.2378130999999994;72.3530044555664;1673433350.1198697;-28.588090896606445;-8.268784523010254;-136.90711975097656
343;1673433350.2531915;47.1285886;7.2377994999999995;72.74700164794922;1673433350.3124833;-28.590723037719727;-8.066350936889648;-136.9293212890625
344;1673433350.443815;47.1285787;7.2377858999999996;73.14200592041016;1673433350.5153444;-28.69469451904297;-8.120911598205566;-136.92626953125
345;1673433350.657852;47.1285688;7.2377723;73.53800201416016;1673433350.7269893;-28.759431838989258;-8.234580993652344;-136.9310760498047
346;1673433350.8714354;47.1285588;7.237758599999999;73.93500518798828;1673433350.9349449;-28.803220748901367;-8.11160945892334;-136.97938537597656
347;1673433351.0748613;47.1285489;7.2377449;74.33300018310547;1673433351.1427991;-28.663515090942383;-8.013960838317871;-137.0122528076172
348;1673433351.2709188;47.128538899999995;7.2377312;74.73100280761719;1673433351.331979;-28.515567779541016;-7.956000328063965;-136.9922332763672
349;1673433351.5108562;47.1285289;7.2377175;75.125;1673433351.5618649;-28.434993743896484;-7.866687774658203;-137.00401306152344
350;1673433351.6709585;47.128518899999996;7.2377039;75.52100372314453;1673433351.7411153;-28.449501037597656;-7.9421000480651855;-136.97787475585938
351;1673433351.889916;47.1285089;7.237690199999999;75.92000579833984;1673433351.9610698;-28.457069396972656;-7.923135757446289;-136.98655700683594
352;1673433352.1068478;47.1284989;7.2376765999999995;76.32000732421875;1673433352.1706543;-28.50873374938965;-7.836245059967041;-136.9712677001953
353;1673433352.3025768;47.128488999999995;7.2376629999999995;76.72200012207031;1673433352.3593526;-28.442766189575195;-7.850263595581055;-136.92112731933594
354;1673433352.483079;47.128479;7.2376494;77.125;1673433352.542354;-28.481081008911133;-7.930814743041992;-136.91123962402344
355;1673433352.686722;47.128468999999996;7.237635699999999;77.52400207519531;1673433352.758284;-28.473072052001953;-7.800926685333252;-136.9402313232422
356;1673433352.9003391;47.1284591;7.237622099999999;77.92200469970703;1673433352.958042;-28.456743240356445;-7.935837745666504;-136.88966369628906
357;1673433353.098144;47.1284492;7.2376084;78.32200622558594;1673433353.173008;-28.518192291259766;-7.920786380767822;-136.90830993652344
358;1673433353.3341148;47.1284393;7.2375947;78.72300720214844;1673433353.3930156;-28.50278091430664;-8.161140441894531;-136.93008422851562
359;1673433353.5349607;47.128429399999995;7.2375811;79.12300109863281;1673433353.5897362;-28.554119110107422;-8.278159141540527;-136.89376831054688
360;1673433353.7218566;47.1284195;7.237567299999999;79.52300262451172;1673433353.7736523;-28.52582550048828;-8.214256286621094;-136.9462890625
361;1673433353.957192;47.1284096;7.237553699999999;79.92200469970703;1673433354.006769;-28.344913482666016;-8.30456829071045;-136.9202117919922
362;1673433354.1567323;47.128399699999996;7.23754;80.32200622558594;1673433354.2071047;-28.53932762145996;-8.30638599395752;-136.91421508789062
363;1673433354.3675604;47.1283898;7.237526399999999;80.72000122070312;1673433354.4172041;-28.44631576538086;-8.101340293884277;-136.94241333007812
364;1673433354.559861;47.1283799;7.237512799999999;81.11900329589844;1673433354.6147494;-28.472211837768555;-8.183783531188965;-136.9137725830078
365;1673433354.7600098;47.12837;7.237499199999999;81.52000427246094;1673433354.8386972;-28.50149154663086;-8.142241477966309;-136.92864990234375
366;1673433354.9805365;47.128360099999995;7.2374855;81.91900634765625;1673433355.0997522;-28.471996307373047;-8.184115409851074;-136.9213409423828
367;1673433355.1904871;47.1283502;7.2374719;82.32100677490234;1673433355.2326465;-28.503568649291992;-8.123016357421875;-136.9196319580078
368;1673433355.345273;47.1283403;7.237458299999999;82.72000122070312;1673433355.399452;-28.44409942626953;-8.104846954345703;-136.9144744873047
369;1673433355.5231836;47.128330299999995;7.2374446;83.11700439453125;1673433355.5836062;-28.503978729248047;-8.034151077270508;-136.91636657714844
370;1673433355.71563;47.1283204;7.237431;83.51300048828125;1673433355.7774143;-28.338542938232422;-8.11386489868164;-136.91395568847656
371;1673433355.9074688;47.1283105;7.2374174;83.91200256347656;1673433355.9636106;-28.515121459960938;-8.119234085083008;-136.9187469482422
372;1673433356.0916593;47.128300599999996;7.2374037;84.31100463867188;1673433356.1491184;-28.37870216369629;-8.046631813049316;-136.92837524414062
373;1673433356.281674;47.1282907;7.2373901;84.71000671386719;1673433356.3474152;-28.545684814453125;-8.193270683288574;-136.91758728027344
374;1673433356.5232353;47.1282808;7.2373765;85.10600280761719;1673433356.577245;-28.46427345275879;-8.097679138183594;-136.9327392578125
375;1673433356.7012694;47.128270799999996;7.2373628;85.5040054321289;1673433356.7661161;-28.376018524169922;-8.180109977722168;-136.9134063720703
376;1673433356.8935614;47.1282609;7.237349099999999;85.90400695800781;1673433356.9489594;-28.37799072265625;-8.198421478271484;-136.9259033203125
377;1673433357.0848837;47.128251;7.2373354999999995;86.30400085449219;1673433357.1457133;-28.35946273803711;-8.136795997619629;-136.9193878173828
378;1673433357.3073308;47.1282411;7.237321799999999;86.7030029296875;1673433357.3655653;-28.405941009521484;-8.170174598693848;-136.92214965820312
379;1673433357.4968681;47.128231199999995;7.237308199999999;87.10400390625;1673433357.557204;-28.26207733154297;-8.211512565612793;-136.93264770507812
380;1673433357.7081182;47.1282212;7.2372945;87.5050048828125;1673433357.761502;-28.265972137451172;-8.249792098999023;-136.90933227539062
381;1673433357.8884065;47.1282113;7.2372809;87.90400695800781;1673433357.9526339;-28.36469841003418;-8.245372772216797;-136.92564392089844
382;1673433358.097608;47.128201399999995;7.2372673;88.302001953125;1673433358.1825635;-28.4089412689209;-8.153543472290039;-136.9279327392578
383;1673433358.3211963;47.1281915;7.237253699999999;88.70000457763672;1673433358.3736055;-28.402490615844727;-8.252166748046875;-136.88555908203125
384;1673433358.5017414;47.1281816;7.237240099999999;89.09900665283203;1673433358.5677013;-28.428966522216797;-8.270068168640137;-136.9183807373047
385;1673433358.703313;47.128171599999995;7.237226499999999;89.49700164794922;1673433358.769839;-28.417531967163086;-8.293906211853027;-136.91429138183594
386;1673433358.8984911;47.1281617;7.237212899999999;89.89300537109375;1673433358.952192;-28.384010314941406;-8.267443656921387;-136.92660522460938
387;1673433359.079186;47.1281518;7.2371994;90.29000091552734;1673433359.1416645;-28.50144386291504;-8.162788391113281;-136.91578674316406
388;1673433359.2725906;47.128141799999995;7.2371858;90.68600463867188;1673433359.3355174;-28.352203369140625;-8.312618255615234;-136.88522338867188
389;1673433359.483555;47.1281319;7.2371722;91.0830078125;1673433359.5477514;-28.359752655029297;-8.213410377502441;-136.90090942382812
390;1673433359.7027385;47.1281219;7.2371586;91.4780044555664;1673433359.7708628;-28.288110733032227;-8.186821937561035;-136.89553833007812
391;1673433359.9095209;47.1281119;7.237145;91.87500762939453;1673433359.9614446;-28.290552139282227;-8.180327415466309;-136.8990936279297
392;1673433360.1077082;47.1281019;7.237131499999999;92.27300262451172;1673433360.1654806;-28.1866512298584;-8.037833213806152;-136.888671875
393;1673433360.2876806;47.1280919;7.237117899999999;92.6760025024414;1673433360.363168;-28.22222328186035;-8.230988502502441;-136.86331176757812
394;1673433360.4970949;47.128082;7.2371042999999995;93.0790023803711;1673433360.5579846;-28.222326278686523;-8.078675270080566;-136.85313415527344
395;1673433360.714146;47.128071999999996;7.2370908;93.48200225830078;1673433360.8093972;-28.269330978393555;-8.180493354797363;-136.86984252929688
396;1673433360.9638345;47.1280621;7.2370772;93.88200378417969;1673433361.0181682;-28.28897476196289;-8.077690124511719;-136.87039184570312
397;1673433361.1740036;47.1280522;7.237063699999999;94.27900695800781;1673433361.2214086;-28.314186096191406;-8.03620433807373;-136.88255310058594
398;1673433361.3668911;47.128042199999996;7.237050099999999;94.6780014038086;1673433361.4449403;-28.247406005859375;-8.142746925354004;-136.8641357421875
399;1673433361.5945199;47.1280323;7.237036499999999;95.0780029296875;1673433361.640581;-28.292682647705078;-8.216329574584961;-136.8779296875
400;1673433361.7586012;47.1280224;7.2370228;95.47700500488281;1673433361.8124042;-28.2630672454834;-8.300057411193848;-136.84671020507812
401;1673433361.9385624;47.1280126;7.237009199999999;95.8800048828125;1673433361.9952693;-28.334476470947266;-8.39822006225586;-136.8821563720703
402;1673433362.1319523;47.128002599999995;7.2369957;96.2820053100586;1673433362.1934426;-28.35147476196289;-8.255980491638184;-136.8518829345703
403;1673433362.315575;47.1279927;7.2369821;96.6830062866211;1673433362.3727188;-28.365385055541992;-8.201725959777832;-136.87413024902344
404;1673433362.5657716;47.1279828;7.2369686;97.0820083618164;1673433362.6175578;-28.2523136138916;-8.094512939453125;-136.85391235351562
405;1673433362.746852;47.127972799999995;7.236955099999999;97.48200225830078;1673433362.809525;-28.36219596862793;-8.094779014587402;-136.81246948242188
406;1673433362.9432228;47.1279629;7.2369414999999995;97.88400268554688;1673433362.9991283;-28.260353088378906;-8.119441986083984;-136.8115234375
407;1673433363.1061954;47.127953;7.236928;98.28500366210938;1673433363.1664517;-28.320865631103516;-8.10933780670166;-136.7927703857422
408;1673433363.2916732;47.127943099999996;7.2369143;98.68600463867188;1673433363.3493707;-28.305339813232422;-8.290946960449219;-136.81549072265625
409;1673433363.492256;47.1279332;7.2369007;99.08700561523438;1673433363.5569646;-28.206768035888672;-8.25374698638916;-136.84815979003906
410;1673433363.699133;47.1279232;7.236886999999999;99.48800659179688;1673433363.7572994;-28.371767044067383;-8.230206489562988;-136.8357391357422
411;1673433363.9023454;47.127913299999996;7.2368733999999995;99.88800811767578;1673433363.974887;-28.160356521606445;-8.183998107910156;-136.8148956298828
412;1673433364.1036713;47.1279034;7.2368599;100.28700256347656;1673433364.165921;-28.361785888671875;-8.171966552734375;-136.82699584960938
413;1673433364.300957;47.1278935;7.2368463;100.68400573730469;1673433364.3592129;-28.31098747253418;-8.115737915039062;-136.819580078125
414;1673433364.5065503;47.1278836;7.2368326;101.08000183105469;1673433364.5648434;-28.438743591308594;-8.250946998596191;-136.84243774414062
415;1673433364.6984885;47.127873799999996;7.236819;101.47400665283203;1673433364.7623756;-28.33747100830078;-8.277327537536621;-136.8269805908203
416;1673433364.9069726;47.1278639;7.236805299999999;101.86900329589844;1673433364.9775574;-28.31171226501465;-8.31750774383545;-136.83987426757812
