;pos_time;latitude;longitude;altitude;alt_time;pitch;roll;yaw
0;1673435771.0621667;47.1306424;7.2406197;0.00800000037997961;1673435771.064119;-0.00726565346121788;0.18767793476581573;90.65199279785156
1;1673435771.2430608;47.1306424;7.2406196;0.01100000087171793;1673435771.2469718;-0.21538479626178741;-0.07183767110109329;90.69454956054688
2;1673435771.4308534;47.1306424;7.240619499999999;0.012000000104308128;1673435771.434748;-0.14200526475906372;-0.21651796996593475;90.96141815185547
3;1673435771.6506894;47.1306424;7.240619499999999;0.007000000216066837;1673435771.6536183;-0.13937771320343018;0.046870213001966476;90.75263977050781
4;1673435771.863622;47.1306424;7.240619499999999;0.003000000026077032;1673435771.8655765;-0.12830252945423126;0.025267181918025017;90.68595123291016
5;1673435772.080938;47.1306423;7.240619499999999;0.0;1673435772.0848413;-0.15744176506996155;-0.10473080724477768;90.82827758789062
6;1673435772.2852738;47.1306423;7.240619499999999;-0.003000000026077032;1673435772.2891788;-0.015028049238026142;-0.08254558593034744;90.98277282714844
7;1673435772.4899507;47.1306424;7.240619499999999;-0.006000000052154064;1673435772.4919317;-0.35903945565223694;-0.05564079061150551;90.74808502197266
8;1673435772.690758;47.1306424;7.240619499999999;-0.009000000543892384;1673435772.6942215;-0.35156524181365967;0.006880517583340406;90.7270736694336
9;1673435772.8813777;47.1306424;7.2406196;0.0;1673435772.8833313;-0.30052703619003296;1.329644799232483;90.61434936523438
10;1673435773.0989592;47.1306424;7.2406196;-0.0010000000474974513;1673435773.1009116;-0.47757524251937866;1.0725351572036743;90.63400268554688
11;1673435773.2978199;47.1306424;7.2406196;-0.0010000000474974513;1673435773.299762;-0.14494024217128754;0.8932704329490662;90.7966537475586
12;1673435773.4837403;47.1306424;7.2406197;-0.0020000000949949026;1673435773.4856918;-0.2880493104457855;0.9433598518371582;90.8523941040039
13;1673435773.6811194;47.1306424;7.240619799999999;-0.006000000052154064;1673435773.6860023;-0.25123509764671326;0.976220965385437;90.85298919677734
14;1673435773.8728292;47.1306424;7.240619799999999;-0.010000000707805157;1673435773.8757713;-0.40981993079185486;1.5263770818710327;90.67857360839844
15;1673435774.0734155;47.1306424;7.240619799999999;-0.014000000432133675;1673435774.0763419;-0.5598602890968323;2.274435043334961;90.51922607421875
16;1673435774.290116;47.1306424;7.2406198999999996;-0.015000000596046448;1673435774.2941453;-0.6307544112205505;1.8725175857543945;90.54481506347656
17;1673435774.483265;47.1306424;7.2406198999999996;0.0;1673435774.486189;-0.4193853735923767;1.7520067691802979;90.48368835449219
18;1673435774.6711805;47.1306424;7.2406198999999996;0.0;1673435774.675085;-0.6186686754226685;0.4010000228881836;90.24192810058594
19;1673435774.8734126;47.1306423;7.24062;0.0010000000474974513;1673435774.8763416;-0.8579246997833252;0.7295594215393066;90.22216033935547
20;1673435775.057643;47.1306423;7.24062;-0.0020000000949949026;1673435775.061531;-0.6894733905792236;0.7324600219726562;90.08915710449219
21;1673435775.2610238;47.1306423;7.2406201;-0.005000000353902578;1673435775.2658901;-0.6125707030296326;0.9765780568122864;91.00820922851562
22;1673435775.4924643;47.130642099999996;7.2406201;-0.004000000189989805;1673435775.4998443;-0.6436958909034729;1.1391175985336304;91.31692504882812
23;1673435775.6879122;47.1306419;7.2406201;-0.003000000026077032;1673435775.6898496;-0.6562601923942566;0.9193556904792786;90.49091339111328
24;1673435775.865828;47.1306413;7.2406203;-0.00800000037997961;1673435775.8697314;-0.6598201990127563;0.8974921703338623;86.7802505493164
25;1673435776.0731008;47.130640299999996;7.2406209;-0.00800000037997961;1673435776.077017;1.1759512424468994;0.41131651401519775;79.45399475097656
26;1673435776.2575498;47.1306387;7.240622;-0.009000000543892384;1673435776.261464;0.8732690215110779;-1.4326372146606445;80.77685546875
27;1673435776.4542553;47.1306365;7.2406236999999996;0.0;1673435776.4581747;1.8495105504989624;-3.748762369155884;84.98422241210938
28;1673435776.6684735;47.1306337;7.2406258999999995;0.015000000596046448;1673435776.6704361;5.800374984741211;-8.433375358581543;86.93416595458984
29;1673435776.8868845;47.1306304;7.240628699999999;0.027000000700354576;1673435776.8908067;7.6382737159729;-13.468099594116211;86.61367797851562
30;1673435777.1227899;47.130626899999996;7.2406318;0.039000000804662704;1673435777.126693;8.508784294128418;-15.838004112243652;86.03407287597656
31;1673435777.3015995;47.130623299999996;7.2406353;0.05300000309944153;1673435777.3054986;8.958406448364258;-17.863554000854492;85.55442810058594
32;1673435777.5097988;47.130619599999996;7.2406388999999995;0.07000000029802322;1673435777.5117505;9.688525199890137;-19.138256072998047;85.08338165283203
33;1673435777.74574;47.1306161;7.2406426999999995;0.09200000762939453;1673435777.7496417;10.665995597839355;-20.409576416015625;84.65056610107422
34;1673435777.9334645;47.130612799999994;7.240646399999999;0.11700000613927841;1673435777.9631388;11.72079849243164;-22.060012817382812;84.3593521118164
35;1673435778.1221764;47.1306097;7.24065;0.14500001072883606;1673435778.1260839;12.861824035644531;-23.665542602539062;84.20494079589844
36;1673435778.316571;47.1306069;7.240653399999999;0.17800000309944153;1673435778.3185215;14.151033401489258;-25.094310760498047;84.20293426513672
37;1673435778.5594852;47.130604399999996;7.2406564;0.2120000123977661;1673435778.562414;15.610087394714355;-26.691438674926758;84.22950744628906
38;1673435778.7532547;47.1306024;7.2406589;0.24700000882148743;1673435778.757168;16.92099952697754;-28.283443450927734;84.37300872802734
39;1673435778.928176;47.130600799999996;7.240660999999999;0.2840000092983246;1673435778.9311073;18.480266571044922;-29.896211624145508;84.44096374511719
40;1673435779.1207023;47.1305998;7.2406625;0.3230000138282776;1673435779.1226552;20.09262466430664;-31.2960147857666;84.68694305419922
41;1673435779.3304229;47.1305994;7.2406633;0.3660000264644623;1673435779.3323805;21.78119659423828;-33.02180099487305;84.9762954711914
42;1673435779.544225;47.1305996;7.2406633;0.41100001335144043;1673435779.5471544;23.649919509887695;-34.46311950683594;85.4417724609375
43;1673435779.746976;47.1306005;7.240662599999999;0.4580000340938568;1673435779.7499037;25.651010513305664;-35.82107162475586;86.08648681640625
44;1673435779.9141;47.1306022;7.2406609;0.5090000033378601;1673435779.9170272;27.86566162109375;-37.22307205200195;86.8413314819336
45;1673435780.0916705;47.1306047;7.2406584;0.5610000491142273;1673435780.0945983;30.21495246887207;-38.541751861572266;87.70716094970703
46;1673435780.2897444;47.130608099999996;7.2406549;0.6150000095367432;1673435780.293652;31.99374771118164;-38.33686065673828;89.01565551757812
47;1673435780.5077739;47.130612299999996;7.2406505;0.6670000553131104;1673435780.5107028;29.17880630493164;-34.52975845336914;90.95437622070312
48;1673435780.7017095;47.1306169;7.2406457;0.7170000076293945;1673435780.707155;25.947731018066406;-29.889930725097656;92.36064910888672
49;1673435780.9103584;47.1306216;7.2406407999999995;0.7590000629425049;1673435780.9123087;21.720003128051758;-25.519893646240234;93.32860565185547
50;1673435781.1480703;47.130626;7.2406362;0.7940000295639038;1673435781.1509974;17.561729431152344;-21.232009887695312;93.73815155029297
51;1673435781.3511176;47.130629899999995;7.2406321;0.8260000348091125;1673435781.3540456;14.477462768554688;-18.423168182373047;93.75504302978516
52;1673435781.5210764;47.1306331;7.240628699999999;0.8550000190734863;1673435781.5240028;12.379338264465332;-16.804712295532227;93.50528717041016
53;1673435781.6953456;47.1306356;7.2406261;0.8810000419616699;1673435781.6982708;11.54577350616455;-15.9669771194458;93.2889175415039
54;1673435781.882205;47.1306374;7.2406244;0.909000039100647;1673435781.8851461;11.74604320526123;-16.07522964477539;93.05070495605469
55;1673435782.076285;47.130638499999996;7.240623299999999;0.9480000734329224;1673435782.0801973;12.97062873840332;-18.59481430053711;92.46634674072266
56;1673435782.2746356;47.130639099999996;7.2406229;0.9960000514984131;1673435782.2795174;14.3953857421875;-19.574966430664062;92.30806732177734
57;1673435782.4749255;47.1306394;7.2406228;1.0570000410079956;1673435782.4778502;15.842944145202637;-19.16707992553711;92.63957977294922
58;1673435782.6640036;47.1306394;7.2406229;1.128000020980835;1673435782.6669366;17.29287338256836;-22.818052291870117;92.31684875488281
59;1673435782.8628473;47.1306394;7.240622999999999;1.2100000381469727;1673435782.8658788;18.481246948242188;-23.774024963378906;92.32263946533203
60;1673435783.0604544;47.1306395;7.2406231;1.3030000925064087;1673435783.0633757;19.225357055664062;-22.301877975463867;92.71171569824219
61;1673435783.2474885;47.130639599999995;7.240622999999999;1.409000039100647;1673435783.251385;19.436243057250977;-24.374788284301758;92.56249237060547
62;1673435783.467346;47.1306398;7.2406228;1.531000018119812;1673435783.4692867;19.388858795166016;-24.235319137573242;92.67494201660156
63;1673435783.6771774;47.13064;7.2406225;1.6680001020431519;1673435783.679131;18.395273208618164;-22.70505714416504;90.03166198730469
64;1673435783.8932424;47.130640299999996;7.2406220999999995;1.815000057220459;1673435783.8961718;18.247196197509766;-23.5114688873291;89.89128112792969
65;1673435784.0782273;47.1306407;7.2406216;1.9750001430511475;1673435784.0811548;18.073570251464844;-23.090980529785156;89.84319305419922
66;1673435784.2694361;47.130641;7.2406212;2.1490001678466797;1673435784.2733386;17.64676856994629;-20.9819278717041;90.30720520019531
67;1673435784.4680276;47.1306413;7.2406207;2.3330001831054688;1673435784.4709475;17.196298599243164;-22.520143508911133;90.06563568115234
68;1673435784.6666012;47.130641499999996;7.2406203;2.5210001468658447;1673435784.6705;16.98440933227539;-22.43907928466797;89.93258666992188
69;1673435784.882229;47.1306417;7.24062;2.7110002040863037;1673435784.8851717;16.698583602905273;-20.92236328125;90.02503967285156
70;1673435785.0660894;47.1306419;7.240619799999999;2.9000000953674316;1673435785.0700016;16.766475677490234;-22.162179946899414;89.81429290771484
71;1673435785.267052;47.130641999999995;7.2406197;3.0900001525878906;1673435785.269981;16.781105041503906;-22.41825294494629;89.75360870361328
72;1673435785.4625697;47.130642099999996;7.2406197;3.2820000648498535;1673435785.464515;16.833139419555664;-20.45686149597168;90.05709838867188
73;1673435785.6460347;47.130642099999996;7.2406197;3.4760000705718994;1673435785.648963;16.956125259399414;-22.18853187561035;89.77737426757812
74;1673435785.8618739;47.130641999999995;7.2406197;3.6690001487731934;1673435785.8657782;17.206295013427734;-23.33464813232422;89.69740295410156
75;1673435786.0544717;47.1306419;7.240619799999999;3.8620002269744873;1673435786.0573897;17.17680549621582;-21.45392608642578;90.0208511352539
76;1673435786.269743;47.1306418;7.2406198999999996;4.056000232696533;1673435786.2736485;17.57085609436035;-22.850234985351562;89.92250061035156
77;1673435786.4924705;47.1306418;7.2406198999999996;4.25;1673435786.4953833;17.54457664489746;-23.56938362121582;89.71161651611328
78;1673435786.6862109;47.1306418;7.24062;4.444000244140625;1673435786.6891372;17.637178421020508;-21.602603912353516;90.0907211303711
79;1673435786.8862703;47.1306418;7.2406201;4.635000228881836;1673435786.8891807;17.761184692382812;-22.779090881347656;89.88264465332031
80;1673435787.121218;47.1306418;7.2406201;4.825000286102295;1673435787.1241472;17.674304962158203;-23.715425491333008;89.70185089111328
81;1673435787.3129215;47.1306418;7.2406201999999995;5.016000270843506;1673435787.3158624;17.772506713867188;-21.52164077758789;90.05206298828125
82;1673435787.50229;47.1306419;7.2406201999999995;5.208000183105469;1673435787.5042489;17.76409912109375;-22.24941635131836;89.93258666992188
83;1673435787.6833396;47.130641999999995;7.2406201999999995;5.400000095367432;1673435787.6852922;17.634469985961914;-23.60755157470703;89.7660140991211
84;1673435787.8820217;47.130641999999995;7.2406201;5.594000339508057;1673435787.8859117;17.5017032623291;-21.162113189697266;90.1745834350586
85;1673435788.0781615;47.130641999999995;7.2406201;5.7910003662109375;1673435788.0800817;17.448284149169922;-22.501684188842773;89.91561126708984
86;1673435788.2667592;47.130641999999995;7.2406201;5.98900032043457;1673435788.2706707;17.483394622802734;-23.41358757019043;89.70903015136719
87;1673435788.4924939;47.130641999999995;7.2406201;6.186000347137451;1673435788.4993262;17.44179344177246;-21.764551162719727;89.99272155761719
88;1673435788.689097;47.130642099999996;7.2406201;6.380000114440918;1673435788.692037;17.522443771362305;-22.13615608215332;89.9476089477539
89;1673435788.8705027;47.130642099999996;7.2406201;6.573000431060791;1673435788.874407;17.604421615600586;-23.592126846313477;89.71817016601562
90;1673435789.0635283;47.130642099999996;7.2406201;6.767000198364258;1673435789.0664437;17.468473434448242;-21.66636085510254;90.01657104492188
91;1673435789.2714496;47.130642099999996;7.2406201;6.960000514984131;1673435789.2743826;17.57988739013672;-22.083908081054688;89.92642974853516
92;1673435789.4671876;47.130641999999995;7.2406201;7.152000427246094;1673435789.4701307;17.732501983642578;-23.70853042602539;89.69054412841797
93;1673435789.6635132;47.130641999999995;7.2406201;7.342000484466553;1673435789.6664402;17.64967155456543;-21.789827346801758;89.96858978271484
94;1673435789.9002662;47.130642099999996;7.24062;7.5360002517700195;1673435789.9041708;17.47675895690918;-21.89223289489746;89.95026397705078
95;1673435790.1178696;47.130641999999995;7.24062;7.7300004959106445;1673435790.1233385;17.59214973449707;-23.600196838378906;89.7298812866211
96;1673435790.3896868;47.130641999999995;7.2406198999999996;7.924000263214111;1673435790.3985894;17.446630477905273;-21.939193725585938;90.04943084716797
97;1673435790.575151;47.130641999999995;7.2406198999999996;8.120000839233398;1673435790.5780687;17.472322463989258;-21.92972183227539;90.00630950927734
98;1673435790.7459893;47.1306419;7.240619799999999;8.318000793457031;1673435790.7498937;17.47810173034668;-23.748044967651367;89.71453857421875
99;1673435790.9039528;47.130641999999995;7.240619799999999;8.517000198364258;1673435790.9068806;17.365459442138672;-22.184932708740234;89.9092788696289
100;1673435791.0798476;47.130641999999995;7.240619799999999;8.717000007629395;1673435791.0847242;17.5706729888916;-21.598430633544922;90.0584487915039
101;1673435791.3022616;47.130641999999995;7.240619799999999;8.920000076293945;1673435791.3052027;17.54157066345215;-23.753198623657227;89.7325439453125
102;1673435791.506831;47.130641999999995;7.240619799999999;9.121000289916992;1673435791.509792;17.543394088745117;-22.167579650878906;90.00929260253906
103;1673435791.7150452;47.130641999999995;7.240619799999999;9.321000099182129;1673435791.718954;17.573362350463867;-21.581785202026367;90.02193450927734
104;1673435791.9241507;47.130641999999995;7.240619799999999;9.522000312805176;1673435791.9280577;17.643842697143555;-23.42906379699707;89.73297119140625
105;1673435792.1213317;47.130642099999996;7.2406197;9.725000381469727;1673435792.1242907;17.46815299987793;-22.312692642211914;89.85995483398438
106;1673435792.3248618;47.130642099999996;7.2406197;9.930000305175781;1673435792.327794;17.272138595581055;-21.24226188659668;90.1828384399414
107;1673435792.6129584;47.1306422;7.2406197;10.13800048828125;1673435792.6139367;17.606412887573242;-22.849618911743164;89.82648468017578
108;1673435792.7779057;47.1306423;7.240619499999999;10.427000045776367;1673435792.7808251;16.35472297668457;-20.72152328491211;90.10153198242188
109;1673435792.9266;47.1306425;7.240619199999999;10.809000968933105;1673435792.92953;17.700838088989258;-23.021352767944336;89.82331085205078
110;1673435793.1175716;47.130642699999996;7.240618899999999;11.208000183105469;1673435793.1195168;17.103437423706055;-23.22632598876953;89.88055419921875
111;1673435793.2874835;47.130643;7.2406185999999995;11.616000175476074;1673435793.2913866;16.24541473388672;-21.53147315979004;89.6011962890625
112;1673435793.4732003;47.130643299999996;7.2406184;12.027000427246094;1673435793.477096;15.997478485107422;-19.974855422973633;89.90397644042969
113;1673435793.6921356;47.1306434;7.2406182;12.438000679016113;1673435793.6960523;15.94144344329834;-21.033784866333008;89.75621795654297
114;1673435793.9022367;47.1306435;7.2406182;12.85200023651123;1673435793.9041889;15.818340301513672;-20.834566116333008;89.76101684570312
115;1673435794.1132364;47.1306435;7.2406182;13.261000633239746;1673435794.1151896;16.07643699645996;-19.79636001586914;89.9845199584961
116;1673435794.295973;47.1306434;7.2406182999999995;13.671000480651855;1673435794.2998717;16.198123931884766;-21.422574996948242;89.815673828125
117;1673435794.4858618;47.130643199999994;7.2406182999999995;14.082000732421875;1673435794.490744;16.314367294311523;-21.793067932128906;89.75342559814453
118;1673435794.7197218;47.1306431;7.2406184;14.493000984191895;1673435794.722668;16.56263542175293;-20.38411521911621;90.0135726928711
119;1673435794.9273953;47.1306429;7.2406185;14.905000686645508;1673435794.9313457;16.79738998413086;-22.483680725097656;89.81800079345703
120;1673435795.13262;47.1306428;7.2406185999999995;15.316000938415527;1673435795.1355348;16.734296798706055;-22.59746742248535;89.83226776123047
121;1673435795.3450851;47.130642699999996;7.2406187;15.726000785827637;1673435795.3469963;16.843172073364258;-21.037933349609375;90.00806427001953
122;1673435795.5979807;47.130642699999996;7.2406188;16.12900161743164;1673435795.5999422;16.804384231567383;-22.400760650634766;89.7830581665039
123;1673435795.7844255;47.130642699999996;7.2406188;16.5310001373291;1673435795.7873554;16.856903076171875;-22.226409912109375;89.89157104492188
124;1673435796.0523672;47.130642699999996;7.2406188;16.93600082397461;1673435796.0543203;16.732261657714844;-20.698558807373047;90.10834503173828
125;1673435796.2203941;47.130642699999996;7.240618899999999;17.339000701904297;1673435796.2223463;16.881534576416016;-22.103519439697266;89.79269409179688
126;1673435796.3803442;47.130642699999996;7.240618899999999;17.744001388549805;1673435796.3832717;16.707721710205078;-22.5379638671875;89.74539947509766
127;1673435796.564239;47.130642699999996;7.240618899999999;18.14900016784668;1673435796.5661814;16.851093292236328;-20.64670753479004;90.04198455810547
128;1673435796.7972991;47.130642699999996;7.240618899999999;18.549001693725586;1673435796.7992349;16.790102005004883;-21.995519638061523;89.7979736328125
129;1673435796.9681318;47.130642699999996;7.240619;18.947999954223633;1673435796.9720616;16.701784133911133;-22.187030792236328;89.75579071044922
130;1673435797.133826;47.130642699999996;7.2406191;19.352001190185547;1673435797.136754;16.765792846679688;-20.553098678588867;90.0204086303711
131;1673435797.3143685;47.130642699999996;7.2406191;19.759000778198242;1673435797.3172956;17.005746841430664;-21.805253982543945;89.90946960449219
132;1673435797.5039735;47.130642599999995;7.2406191;20.16400146484375;1673435797.50983;16.841094970703125;-22.02410316467285;89.79138946533203
133;1673435797.7244573;47.130642599999995;7.240619199999999;20.571001052856445;1673435797.7312884;16.787677764892578;-20.664737701416016;90.0370101928711
134;1673435797.9468267;47.130642599999995;7.240619199999999;20.977001190185547;1673435797.9487803;16.822465896606445;-21.570932388305664;90.01824188232422
135;1673435798.1385655;47.1306425;7.2406191;21.376001358032227;1673435798.1424694;16.84069061279297;-22.408193588256836;89.78694152832031
136;1673435798.316417;47.1306425;7.240619199999999;21.77400016784668;1673435798.319346;16.567842483520508;-20.886436462402344;89.98977661132812
137;1673435798.5190876;47.1306425;7.240619199999999;22.17500114440918;1673435798.5239708;16.78445816040039;-21.6484375;89.91193389892578
138;1673435798.728101;47.1306424;7.240619199999999;22.577001571655273;1673435798.7310402;16.909799575805664;-22.696115493774414;89.73209381103516
139;1673435798.9176095;47.1306424;7.240619199999999;22.977001190185547;1673435798.9224982;16.69867515563965;-21.110136032104492;89.94680786132812
140;1673435799.1048002;47.1306423;7.2406193;23.37700080871582;1673435799.1087046;16.89236068725586;-21.54137420654297;89.97704315185547
141;1673435799.291502;47.1306424;7.2406193;23.7710018157959;1673435799.2944338;16.849679946899414;-22.63433837890625;89.720947265625
142;1673435799.4944096;47.1306424;7.2406193;24.166000366210938;1673435799.4992898;16.846481323242188;-20.765823364257812;90.02706909179688
143;1673435799.6799352;47.1306424;7.2406194;24.567001342773438;1673435799.6838408;16.928550720214844;-21.430736541748047;90.01091766357422
144;1673435799.8933315;47.1306423;7.2406194;24.97100067138672;1673435799.8992896;16.842626571655273;-22.497800827026367;89.81800842285156
145;1673435800.090873;47.1306423;7.2406194;25.376001358032227;1673435800.0937996;16.76241111755371;-21.221363067626953;89.94041442871094
146;1673435800.28054;47.1306423;7.240619499999999;25.783000946044922;1673435800.2834768;16.873815536499023;-21.269418716430664;89.99485778808594
147;1673435800.4944935;47.1306423;7.240619499999999;26.189001083374023;1673435800.497423;16.870424270629883;-22.624053955078125;89.70870971679688
148;1673435800.7093256;47.1306423;7.240619499999999;26.588001251220703;1673435800.7171469;16.753267288208008;-21.25499725341797;89.9854736328125
149;1673435800.9156725;47.1306423;7.2406194;26.989002227783203;1673435800.9176216;16.790328979492188;-21.265817642211914;89.97118377685547
150;1673435801.1261165;47.1306423;7.2406194;27.393001556396484;1673435801.1280696;16.717071533203125;-22.694801330566406;89.6507339477539
151;1673435801.3189569;47.1306424;7.2406194;27.799001693725586;1673435801.3209097;16.757875442504883;-21.410486221313477;89.86213684082031
152;1673435801.5135016;47.1306424;7.240619499999999;28.207000732421875;1673435801.5164301;16.859899520874023;-20.91129493713379;90.01261901855469
153;1673435801.7140644;47.1306424;7.240619499999999;28.612001419067383;1673435801.7169843;16.888338088989258;-22.484025955200195;89.72759246826172
154;1673435801.915182;47.1306425;7.240619499999999;29.009000778198242;1673435801.9181068;16.785213470458984;-21.413833618164062;89.90613555908203
155;1673435802.1315782;47.1306425;7.240619499999999;29.407001495361328;1673435802.1346257;16.72979164123535;-20.845117568969727;90.04092407226562
156;1673435802.3329678;47.1306425;7.240619499999999;29.81100082397461;1673435802.3349211;16.896991729736328;-22.58975601196289;89.74372100830078
157;1673435802.527961;47.130642599999995;7.240619499999999;30.215002059936523;1673435802.5308905;16.751977920532227;-21.463489532470703;89.92304992675781
158;1673435802.7199864;47.130642699999996;7.240619499999999;30.617000579833984;1673435802.7229156;16.782806396484375;-20.430252075195312;90.05085754394531
159;1673435802.9224448;47.130642699999996;7.240619499999999;31.018001556396484;1673435802.9273238;16.883848190307617;-22.210224151611328;89.80431365966797
160;1673435803.1165507;47.130642699999996;7.240619499999999;31.420001983642578;1673435803.1204612;16.758630752563477;-21.40757942199707;89.95564270019531
161;1673435803.3054147;47.130642699999996;7.240619499999999;31.816001892089844;1673435803.308358;16.650691986083984;-20.584030151367188;90.04312133789062
162;1673435803.5098634;47.130642699999996;7.2406194;32.2140007019043;1673435803.5128958;16.770061492919922;-22.09336280822754;89.71172332763672
163;1673435803.7148347;47.130642699999996;7.2406194;32.6150016784668;1673435803.7197146;16.715003967285156;-21.638887405395508;89.85968017578125
164;1673435803.918408;47.130642699999996;7.2406194;33.01900100708008;1673435803.9203272;16.758623123168945;-20.3956298828125;90.10986328125
165;1673435804.1192157;47.130642699999996;7.2406194;33.42300033569336;1673435804.1256166;16.784685134887695;-22.1448974609375;89.79898834228516
166;1673435804.3139691;47.130642599999995;7.240619499999999;33.8280029296875;1673435804.317581;16.83416175842285;-22.028284072875977;89.80126190185547
167;1673435804.5066018;47.130642599999995;7.2406194;34.22500228881836;1673435804.5095716;16.681875228881836;-20.53437042236328;90.19108581542969
168;1673435804.7212105;47.130642599999995;7.2406194;34.62600326538086;1673435804.7251234;16.821550369262695;-21.70201301574707;89.94625091552734
169;1673435804.9111357;47.130642599999995;7.2406193;35.03000259399414;1673435804.9140618;16.643400192260742;-22.335107803344727;89.75704193115234
170;1673435805.1786098;47.130642599999995;7.2406193;35.4370002746582;1673435805.1815522;16.647329330444336;-20.339332580566406;90.09943389892578
171;1673435805.41914;47.130642599999995;7.240619199999999;35.84600067138672;1673435805.4220712;16.611122131347656;-22.04959487915039;89.82789611816406
172;1673435805.6071196;47.130642599999995;7.240619199999999;36.25300216674805;1673435805.609066;16.628206253051758;-22.214576721191406;89.78058624267578
173;1673435805.7985418;47.130642599999995;7.240619199999999;36.659000396728516;1673435805.8014555;16.50335693359375;-20.669702529907227;90.04496002197266
174;1673435805.964244;47.130642599999995;7.240619199999999;37.05500030517578;1673435805.966214;16.622493743896484;-21.845434188842773;89.86309814453125
175;1673435806.1298118;47.130642599999995;7.240619199999999;37.45100021362305;1673435806.131765;16.631193161010742;-22.086816787719727;89.82717895507812
176;1673435806.3177898;47.130642599999995;7.240619199999999;37.84800338745117;1673435806.3207192;16.577409744262695;-20.59430503845215;90.039306640625
177;1673435806.5484602;47.130642599999995;7.240619199999999;38.25;1673435806.551384;16.596487045288086;-21.997127532958984;89.86044311523438
178;1673435806.7239754;47.130642599999995;7.240619199999999;38.65300369262695;1673435806.7259269;16.675003051757812;-22.30883026123047;89.7385482788086
179;1673435806.9172695;47.1306425;7.2406193;39.05500030517578;1673435806.9201996;16.600284576416016;-20.5275936126709;90.0338363647461
180;1673435807.1092145;47.1306425;7.2406193;39.448001861572266;1673435807.114094;16.743663787841797;-21.907543182373047;89.86206817626953
181;1673435807.3156147;47.130642599999995;7.2406193;39.845001220703125;1673435807.3185387;16.641569137573242;-21.91386604309082;89.80567932128906
182;1673435807.525297;47.130642599999995;7.2406193;40.24800109863281;1673435807.5292234;16.581829071044922;-20.43612289428711;90.04695892333984
183;1673435807.7417367;47.130642599999995;7.2406193;40.65400314331055;1673435807.7475936;16.743806838989258;-21.723182678222656;89.85721588134766
184;1673435807.942822;47.130642599999995;7.2406193;41.05800247192383;1673435807.945758;16.61956214904785;-22.138792037963867;89.76404571533203
185;1673435808.140328;47.130642599999995;7.2406194;41.45800018310547;1673435808.1422908;16.63766860961914;-20.44109344482422;90.0103530883789
186;1673435808.3417547;47.130642599999995;7.2406194;41.85600280761719;1673435808.3437066;16.656831741333008;-21.743270874023438;89.8299789428711
187;1673435808.5345802;47.1306425;7.2406194;42.24700164794922;1673435808.537532;16.57807731628418;-22.398099899291992;89.76235961914062
188;1673435808.730937;47.1306425;7.2406194;42.6400032043457;1673435808.734832;16.603435516357422;-20.52621078491211;90.09720611572266
189;1673435808.9446447;47.1306425;7.2406194;43.03900146484375;1673435808.9485698;16.747844696044922;-21.863937377929688;89.87879943847656
190;1673435809.1586878;47.1306424;7.2406194;43.445003509521484;1673435809.1616151;16.72509765625;-22.344223022460938;89.78170013427734
191;1673435809.3450806;47.1306424;7.240619499999999;43.85300064086914;1673435809.3499606;16.608070373535156;-20.901334762573242;90.0613021850586
192;1673435809.544005;47.1306424;7.240619499999999;44.259002685546875;1673435809.5488837;16.72056770324707;-21.43752098083496;89.9829330444336
193;1673435809.7426183;47.1306425;7.240619499999999;44.656002044677734;1673435809.743597;16.77872085571289;-22.412324905395508;89.72217559814453
194;1673435809.9346223;47.1306425;7.2406196;45.053001403808594;1673435809.938532;16.70096778869629;-20.90024757385254;89.89107513427734
195;1673435810.1392553;47.1306425;7.2406196;45.45100402832031;1673435810.1461089;16.688146591186523;-21.17424201965332;89.90461730957031
196;1673435810.3642159;47.1306424;7.2406196;45.85000228881836;1673435810.3661678;16.748071670532227;-22.545909881591797;89.74766540527344
197;1673435810.563486;47.1306425;7.2406196;46.25100326538086;1673435810.5654283;16.626972198486328;-20.849462509155273;89.92637634277344
198;1673435810.7636886;47.1306425;7.2406196;46.65300369262695;1673435810.7656069;16.76156997680664;-21.177581787109375;89.95685577392578
199;1673435810.971722;47.1306425;7.2406196;47.05400085449219;1673435810.9756398;16.737010955810547;-22.440839767456055;89.74473571777344
200;1673435811.1739142;47.1306425;7.2406196;47.448001861572266;1673435811.175867;16.675479888916016;-21.036516189575195;89.99945068359375
201;1673435811.360346;47.1306425;7.2406196;47.842002868652344;1673435811.3642497;16.760162353515625;-21.09416389465332;90.03044891357422
202;1673435811.5714564;47.1306425;7.2406196;48.22800064086914;1673435811.5753531;16.694133758544922;-22.198509216308594;89.78934478759766
203;1673435811.7418723;47.1306424;7.2406197;48.56700134277344;1673435811.7457788;16.8377628326416;-21.37487030029297;89.86197662353516
204;1673435811.9405317;47.1306423;7.240619799999999;48.85600280761719;1673435811.944438;16.979965209960938;-21.640714645385742;89.91911315917969
205;1673435812.1635072;47.130641999999995;7.24062;49.099002838134766;1673435812.166437;17.17951202392578;-22.924776077270508;89.70057678222656
206;1673435812.3920062;47.1306418;7.2406201999999995;49.294002532958984;1673435812.3939698;17.685001373291016;-21.77957534790039;89.96044158935547
207;1673435812.5559587;47.130641399999995;7.2406201999999995;49.4630012512207;1673435812.56039;31.811866760253906;-5.458244323730469;93.76998138427734
208;1673435812.7243605;47.1306401;7.240619;49.617000579833984;1673435812.728269;42.595584869384766;18.611766815185547;106.18622589111328
209;1673435812.9300272;47.130637;7.240615099999999;49.74800109863281;1673435812.93488;45.85710525512695;36.803382873535156;115.99748229980469
210;1673435813.1301005;47.1306313;7.2406077;49.84100341796875;1673435813.1340053;42.55629348754883;46.34199142456055;120.43893432617188
211;1673435813.3272831;47.1306231;7.2405975;49.871002197265625;1673435813.3302112;25.692747116088867;42.70685577392578;126.95979309082031
212;1673435813.5203476;47.130612799999994;7.240585299999999;49.89900207519531;1673435813.5232813;11.797945022583008;47.44615936279297;143.0634307861328
213;1673435813.7203596;47.130600699999995;7.2405713;49.94200134277344;1673435813.7232728;-5.867681980133057;53.00053787231445;158.0177764892578
214;1673435813.9240282;47.1305869;7.2405555999999995;49.96000289916992;1673435813.9289098;-24.76049041748047;49.84165954589844;170.47938537597656
215;1673435814.1296437;47.130571599999996;7.240538099999999;49.952003479003906;1673435814.1325796;-34.90559768676758;45.32075881958008;-179.36465454101562
216;1673435814.3333266;47.1305547;7.240519099999999;49.923004150390625;1673435814.3363938;-39.24560546875;39.385196685791016;-170.33409118652344
217;1673435814.530032;47.130536799999994;7.240499;49.88900375366211;1673435814.532974;-42.35930252075195;34.59360122680664;-161.33607482910156
218;1673435814.7530384;47.1305179;7.2404778;49.849002838134766;1673435814.7559662;-46.164268493652344;30.51976203918457;-151.15809631347656
219;1673435814.9832711;47.1304987;7.2404557;49.79300308227539;1673435814.985221;-43.93434524536133;25.418027877807617;-143.6375732421875
220;1673435815.181927;47.1304793;7.2404329;49.73200225830078;1673435815.183881;-42.30876541137695;20.384445190429688;-137.65098571777344
221;1673435815.4270296;47.130459699999996;7.240409799999999;49.68700408935547;1673435815.4299555;-43.445770263671875;17.067628860473633;-131.11984252929688
222;1673435815.6203475;47.130440199999995;7.240386399999999;49.65900421142578;1673435815.6222994;-45.33409118652344;12.7762451171875;-125.96843719482422
223;1673435815.7971222;47.130420799999996;7.2403629;49.62900161743164;1673435815.8020039;-40.16379928588867;11.45539379119873;-129.00161743164062
224;1673435815.981209;47.130401299999996;7.2403398;49.6140022277832;1673435815.9841096;-40.68230438232422;13.087173461914062;-132.2982940673828
225;1673435816.1471016;47.130381799999995;7.240317;49.630001068115234;1673435816.1500528;-45.58131408691406;15.831629753112793;-133.3141326904297
226;1673435816.3312068;47.1303622;7.240293899999999;49.66400146484375;1673435816.3341343;-48.30588150024414;19.83598518371582;-128.4534454345703
227;1673435816.5357556;47.130342999999996;7.2402701;49.69600296020508;1673435816.5377092;-48.13248062133789;16.075193405151367;-117.26365661621094
228;1673435816.7318795;47.1303244;7.240245799999999;49.72300338745117;1673435816.7358093;-43.72376251220703;11.282464027404785;-107.56622314453125
229;1673435816.9364595;47.1303067;7.240221399999999;49.74100112915039;1673435816.9393885;-41.840023040771484;9.737622261047363;-99.43412780761719
230;1673435817.1453474;47.130290099999996;7.2401974;49.75100326538086;1673435817.1492527;-38.44264602661133;12.588698387145996;-90.5190200805664
231;1673435817.3504908;47.130275;7.240174199999999;49.75200271606445;1673435817.3543973;-35.45716094970703;18.598873138427734;-81.40787506103516
232;1673435817.5760553;47.130262099999996;7.2401525;49.75800323486328;1673435817.5799446;-29.096351623535156;26.666208267211914;-70.09239959716797
233;1673435817.781247;47.130251799999996;7.2401336999999995;49.76900100708008;1673435817.7831993;-23.945690155029297;29.981172561645508;-60.091407775878906
234;1673435817.9864323;47.1302435;7.2401181999999995;49.76900100708008;1673435817.9893591;-14.208651542663574;26.755748748779297;-65.91088104248047
235;1673435818.1730986;47.1302369;7.2401063;49.78900146484375;1673435818.1770031;-3.1813974380493164;33.4796028137207;-86.22482299804688
236;1673435818.3569546;47.1302321;7.2400977;49.86000061035156;1673435818.3598983;4.763919353485107;41.552955627441406;-100.15438079833984
237;1673435818.5626354;47.130229299999996;7.2400917;49.95900344848633;1673435818.5655663;-2.3907833099365234;44.358314514160156;-112.98435974121094
238;1673435818.7581458;47.1302282;7.2400864;50.048004150390625;1673435818.7610767;-27.64328956604004;38.01781463623047;-124.81845092773438
239;1673435818.9417586;47.130227;7.240079199999999;50.12000274658203;1673435818.945664;-53.0914306640625;19.573776245117188;-133.5948944091797
240;1673435819.130643;47.1302233;7.2400695;50.1510009765625;1673435819.1325955;-57.023284912109375;10.326037406921387;-138.7936553955078
241;1673435819.330734;47.130216499999996;7.240057999999999;50.14200210571289;1673435819.3346627;-47.96410369873047;8.655387878417969;-144.3055419921875
242;1673435819.528469;47.130206699999995;7.240045899999999;50.13100051879883;1673435819.5313993;-47.44959259033203;6.09635591506958;-138.14810180664062
243;1673435819.7433481;47.130194599999996;7.2400329999999995;50.14200210571289;1673435819.7492056;-49.797115325927734;10.120698928833008;-134.65765380859375
244;1673435819.9440696;47.1301804;7.240018399999999;50.172000885009766;1673435819.9469984;-55.93549728393555;14.849573135375977;-132.4682159423828
245;1673435820.150326;47.1301646;7.2400017;50.20100402832031;1673435820.1522725;-54.60886764526367;15.365738868713379;-131.38992309570312
246;1673435820.3500779;47.130147699999995;7.239983;50.2130012512207;1673435820.3529894;-52.78679656982422;17.51999855041504;-132.40249633789062
247;1673435820.5670564;47.130130099999995;7.2399628;50.21000289916992;1673435820.5705042;-52.59761428833008;19.054153442382812;-133.3760986328125
248;1673435820.8124583;47.1301121;7.2399413;50.19700241088867;1673435820.8144016;-49.600826263427734;19.62109375;-133.2744598388672
249;1673435820.9963274;47.130093699999996;7.2399188;50.176002502441406;1673435820.9982734;-48.08499526977539;19.129777908325195;-133.14523315429688
250;1673435821.1817293;47.1300752;7.2398956;50.1510009765625;1673435821.1848686;-44.78823471069336;17.594398498535156;-133.1993408203125
251;1673435821.3831744;47.130056599999996;7.239872;50.12900161743164;1673435821.3861022;-45.68610382080078;21.135791778564453;-129.15602111816406
252;1673435821.5827694;47.1300382;7.2398478;50.11100387573242;1673435821.5847278;-47.34626770019531;15.556572914123535;-116.71940612792969
253;1673435821.7752025;47.1300205;7.2398229999999995;50.09700393676758;1673435821.7792869;-46.319889068603516;11.196364402770996;-107.54795837402344
254;1673435821.958705;47.1300034;7.239797899999999;50.07600402832031;1673435821.961638;-45.60865020751953;7.030928134918213;-99.05284881591797
255;1673435822.1628695;47.1299871;7.2397728;50.047000885009766;1673435822.1657977;-42.39093017578125;0.4870240390300751;-89.66407012939453
256;1673435822.3702168;47.129971399999995;7.2397478;50.02800369262695;1673435822.3731432;-44.64767837524414;-12.955432891845703;-88.43209075927734
257;1673435822.5745466;47.129955599999995;7.2397231;50.00700378417969;1673435822.5784535;-42.9185791015625;-11.16536808013916;-104.58238983154297
258;1673435822.7747803;47.1299388;7.239699099999999;49.980003356933594;1673435822.7777164;-41.109622955322266;-10.787787437438965;-116.27725982666016
259;1673435822.9532866;47.129920999999996;7.2396765;49.94600296020508;1673435822.9562132;-38.74240493774414;-7.144968032836914;-127.73284912109375
260;1673435823.159434;47.129902099999995;7.2396555;49.92900085449219;1673435823.1633265;-39.84391784667969;3.101578712463379;-136.85252380371094
261;1673435823.341966;47.1298824;7.2396354;49.94300079345703;1673435823.3458705;-44.59004211425781;22.166854858398438;-142.50572204589844
262;1673435823.5439317;47.129862599999996;7.2396148;49.970001220703125;1673435823.5458996;-46.16740798950195;31.58210563659668;-128.5350341796875
263;1673435823.7420795;47.129843799999996;7.2395929;49.97100067138672;1673435823.745995;-41.289642333984375;30.311080932617188;-114.04656982421875
264;1673435823.9430141;47.129827;7.2395708;49.95600128173828;1673435823.945942;-32.483482360839844;29.608978271484375;-102.55550384521484
265;1673435824.146516;47.1298125;7.2395494;49.92900085449219;1673435824.1494448;-27.137800216674805;33.33878707885742;-94.45542907714844
266;1673435824.3631167;47.129800499999995;7.239529699999999;49.90800094604492;1673435824.3660405;-27.392230987548828;34.46613311767578;-85.76832580566406
267;1673435824.562271;47.129791;7.2395119999999995;49.90200424194336;1673435824.56716;-30.778852462768555;31.380666732788086;-75.7958984375
268;1673435824.7573574;47.129784099999995;7.2394963;49.91100311279297;1673435824.7602856;-36.92301559448242;28.253368377685547;-66.4525146484375
269;1673435824.9597821;47.1297796;7.2394824;49.93300247192383;1673435824.9627028;-43.95591354370117;22.7076473236084;-60.15097427368164
270;1673435825.166617;47.129777499999996;7.2394697;49.9640007019043;1673435825.1695454;-44.97861862182617;24.288490295410156;-71.07726287841797
271;1673435825.335584;47.1297773;7.239456799999999;50.01400375366211;1673435825.3375986;-48.072166442871094;30.935775756835938;-85.19037628173828
272;1673435825.5404613;47.129778699999996;7.2394433;50.057003021240234;1673435825.5434058;-44.07555389404297;36.04254913330078;-94.99800109863281
273;1673435825.7351053;47.129781;7.2394289999999994;50.06800079345703;1673435825.7380342;-32.410648345947266;34.98704528808594;-104.50713348388672
274;1673435825.9466429;47.1297837;7.2394145;50.06300354003906;1673435825.9505572;-25.067167282104492;34.642913818359375;-116.60413360595703
275;1673435826.1660903;47.1297861;7.239399799999999;50.07500076293945;1673435826.1709695;-19.67473030090332;17.0079402923584;-128.11647033691406
276;1673435826.3744576;47.129787099999994;7.2393863;50.06200408935547;1673435826.3785203;-17.565826416015625;-28.75490951538086;-136.04246520996094
277;1673435826.5631993;47.1297861;7.2393757999999995;49.89800262451172;1673435826.5661166;-15.920660972595215;-24.261316299438477;-149.3695831298828
278;1673435826.759204;47.129782299999995;7.2393693;49.65800094604492;1673435826.7631128;-10.909884452819824;-20.267345428466797;-153.80224609375
279;1673435826.967667;47.129776299999996;7.239367;49.47900390625;1673435826.970588;-10.027678489685059;-14.794472694396973;-161.03573608398438
280;1673435827.1890213;47.129768399999996;7.2393681999999995;49.42900085449219;1673435827.1909604;-12.642584800720215;-16.35631561279297;-169.55050659179688
281;1673435827.3903606;47.129759;7.2393725;49.44900131225586;1673435827.39327;-17.21750259399414;-20.803163528442383;-174.0747528076172
282;1673435827.6077654;47.1297481;7.2393795;49.49500274658203;1673435827.6116505;-6.396737575531006;-23.128032684326172;-160.00003051757812
283;1673435827.8386126;47.129736199999996;7.2393887999999995;49.586002349853516;1673435827.839592;1.1272615194320679;-13.030529975891113;-145.57254028320312
284;1673435828.007567;47.1297241;7.2393991;49.68700408935547;1673435828.0095143;-5.8619794845581055;23.908889770507812;-137.4573211669922
285;1673435828.191382;47.1297125;7.239408;49.755001068115234;1673435828.1933334;-15.379085540771484;47.265235900878906;-134.43177795410156
286;1673435828.3944707;47.1297024;7.239414399999999;49.75800323486328;1673435828.3973603;-11.046053886413574;36.260433197021484;-121.30570983886719
287;1673435828.5966656;47.1296937;7.2394191;49.75600051879883;1673435828.5976105;-11.351146697998047;35.7520866394043;-114.88956451416016
288;1673435828.7757783;47.1296865;7.2394224;49.77300262451172;1673435828.7806587;-19.51561164855957;37.55294418334961;-105.41838073730469
289;1673435828.983776;47.1296809;7.239424;49.807003021240234;1673435828.986794;-29.781328201293945;34.17524719238281;-94.321044921875
290;1673435829.1648288;47.129677199999996;7.2394238;49.85100173950195;1673435829.1687639;-40.11040496826172;30.203020095825195;-83.1063461303711
291;1673435829.3557353;47.129675399999996;7.239421699999999;49.900001525878906;1673435829.3596575;-48.6343994140625;26.144865036010742;-73.5372314453125
292;1673435829.554472;47.129675299999995;7.2394177;49.945003509521484;1673435829.5573955;-51.52233123779297;19.53793716430664;-63.89263916015625
293;1673435829.750105;47.129677;7.239412;50.005001068115234;1673435829.7530344;-54.058006286621094;11.048195838928223;-54.76349639892578
294;1673435829.9663746;47.129680099999995;7.2394045;50.066001892089844;1673435829.9693387;-53.00586700439453;4.3466291427612305;-47.013519287109375
295;1673435830.163644;47.1296843;7.2393958;50.1140022277832;1673435830.1704683;-47.77821731567383;-1.5124070644378662;-40.436851501464844
296;1673435830.3849404;47.1296889;7.239386499999999;50.15200424194336;1673435830.3893788;-44.647220611572266;-3.2650671005249023;-41.12955856323242
297;1673435830.5793216;47.1296937;7.2393765;50.18100357055664;1673435830.5832162;-44.992584228515625;-3.5236968994140625;-43.789546966552734
298;1673435830.7831826;47.129698499999996;7.239365899999999;50.20600128173828;1673435830.7886786;-46.26488494873047;-3.051926851272583;-46.30398941040039
299;1673435830.9771144;47.129703299999996;7.2393545999999995;50.220001220703125;1673435830.9819958;-44.355411529541016;3.3377416133880615;-56.298770904541016
300;1673435831.1658158;47.129708;7.2393427;50.22900390625;1673435831.1687453;-41.14937973022461;12.07372760772705;-68.94390106201172
301;1673435831.3562367;47.129712399999995;7.2393304999999994;50.230003356933594;1673435831.3591747;-34.04341506958008;13.17557430267334;-77.83374786376953
302;1673435831.5738435;47.1297162;7.2393184999999995;50.224002838134766;1673435831.5767727;-27.775896072387695;4.5279927253723145;-87.06845092773438
303;1673435831.7598858;47.129718499999996;7.2393069;50.20600128173828;1673435831.762813;-19.557716369628906;-19.592998504638672;-96.51009368896484
304;1673435831.986547;47.129717799999995;7.239297199999999;50.169002532958984;1673435831.990494;-16.820117950439453;-40.81374740600586;-107.0206298828125
305;1673435832.1932702;47.1297139;7.23929;50.06200408935547;1673435832.1961894;-14.301383018493652;-22.358577728271484;-116.27980041503906
306;1673435832.3895762;47.1297071;7.2392853;49.97200393676758;1673435832.3935344;-17.867998123168945;-25.363874435424805;-118.38011169433594
307;1673435832.5833614;47.1296976;7.2392825;49.92000198364258;1673435832.5863347;-31.563169479370117;-23.34355926513672;-129.34251403808594
308;1673435832.7782283;47.1296853;7.2392810999999995;49.8910026550293;1673435832.7840955;-39.52379608154297;-10.626753807067871;-141.84365844726562
309;1673435832.9875543;47.1296707;7.2392802;49.858001708984375;1673435832.9920537;-33.859413146972656;4.295574188232422;-145.43008422851562
310;1673435833.1832685;47.1296549;7.2392788999999995;49.845001220703125;1673435833.1871648;-29.391036987304688;19.948598861694336;-141.5769805908203
311;1673435833.3880715;47.1296392;7.2392762;49.85400390625;1673435833.392511;-19.264310836791992;37.765846252441406;-131.82275390625
312;1673435833.6018844;47.129624799999995;7.2392721;49.84700393676758;1673435833.6048114;-5.123121738433838;36.00108337402344;-127.06019592285156
313;1673435833.7991304;47.1296125;7.2392674999999995;49.849002838134766;1673435833.8030336;-2.8186230659484863;36.19807052612305;-132.1261444091797
314;1673435833.9994473;47.1296021;7.2392623;49.87700271606445;1673435834.0013983;-1.4511758089065552;45.036529541015625;-124.71968078613281
315;1673435834.19411;47.1295942;7.2392565;49.910003662109375;1673435834.1980147;-9.34521484375;47.742218017578125;-114.25137329101562
316;1673435834.3794951;47.129588899999995;7.2392503999999995;49.95600128173828;1673435834.3814468;-22.448230743408203;48.51670837402344;-104.26902770996094
317;1673435834.5655959;47.1295862;7.239243699999999;50.005001068115234;1673435834.5694687;-35.637752532958984;47.67524337768555;-91.31884765625
318;1673435834.7786028;47.1295862;7.239236399999999;50.03900146484375;1673435834.7834873;-42.85468292236328;37.04188537597656;-79.50120544433594
319;1673435834.9964879;47.129588399999996;7.2392284;50.07600402832031;1673435834.998479;-50.455989837646484;28.256397247314453;-71.51077270507812
320;1673435835.190054;47.1295923;7.239219299999999;50.108001708984375;1673435835.1920078;-57.77337646484375;16.067317962646484;-65.51979064941406
321;1673435835.3778386;47.129597;7.2392087;50.0880012512207;1673435835.38175;-45.558433532714844;15.470792770385742;-79.70784759521484
322;1673435835.5909612;47.1296016;7.2391969;50.0410041809082;1673435835.5919383;-34.50724411010742;16.5670223236084;-93.79782104492188
323;1673435835.786826;47.1296052;7.2391844999999995;50.0150032043457;1673435835.790682;-36.27261734008789;21.927488327026367;-106.00492858886719
324;1673435836.0041542;47.129608;7.2391711;50.035003662109375;1673435836.0061128;-35.86758804321289;27.84335708618164;-116.8341064453125
325;1673435836.1924152;47.129609699999996;7.2391567;50.06300354003906;1673435836.1943977;-29.685527801513672;3.331031322479248;-127.12651824951172
326;1673435836.3904617;47.129608999999995;7.2391435;50.06900405883789;1673435836.3933914;-32.43674087524414;-33.1997184753418;-137.0155029296875
327;1673435836.5852597;47.1296058;7.2391331;49.92900085449219;1673435836.5871956;-20.98142433166504;-19.786046981811523;-156.76004028320312
328;1673435836.7776875;47.1296001;7.2391264;49.73800277709961;1673435836.7828598;-11.211114883422852;-18.64539337158203;-154.72625732421875
329;1673435836.9819658;47.1295924;7.2391236;49.63500213623047;1673435836.9849007;-11.336363792419434;-15.290411949157715;-160.3530731201172
330;1673435837.1738513;47.129582899999996;7.2391241;49.617000579833984;1673435837.1777413;-16.644672393798828;-18.331518173217773;-166.75730895996094
331;1673435837.3716254;47.1295718;7.2391276;49.624000549316406;1673435837.3755498;-10.62466049194336;-24.82932472229004;-155.1009521484375
332;1673435837.572941;47.1295594;7.2391339;49.64900207519531;1673435837.5758767;1.0605685710906982;-29.90932846069336;-142.47616577148438
333;1673435837.787348;47.129546399999995;7.2391428;49.66100311279297;1673435837.7912753;12.878368377685547;-16.283721923828125;-133.21046447753906
334;1673435837.9758377;47.1295332;7.2391537999999995;49.67000198364258;1673435837.9787655;7.394242763519287;14.240105628967285;-130.29373168945312
335;1673435838.1735706;47.129521;7.2391647;49.68400192260742;1673435838.1765003;3.193359375;37.38764953613281;-127.03007507324219
336;1673435838.378872;47.1295108;7.239173999999999;49.707000732421875;1673435838.3808246;0.334150105714798;42.42771530151367;-115.96499633789062
337;1673435838.608533;47.129502599999995;7.239182;49.72600173950195;1673435838.6105006;-8.092818260192871;34.77569580078125;-107.04517364501953
338;1673435838.8059726;47.129495999999996;7.2391888;49.76300048828125;1673435838.8089154;-19.037015914916992;33.83259963989258;-98.31990051269531
339;1673435838.994403;47.129490999999994;7.2391939999999995;49.81100082397461;1673435839.0007818;-28.99053192138672;30.55388641357422;-87.75484466552734
340;1673435839.203126;47.129487499999996;7.2391974999999995;49.86600112915039;1673435839.2060502;-37.8596076965332;26.09626007080078;-77.31903839111328
341;1673435839.3985379;47.129485599999995;7.2391992;49.92500305175781;1673435839.403461;-46.66798400878906;22.650054931640625;-67.90077209472656
342;1673435839.599162;47.1294853;7.2391988;49.98500061035156;1673435839.6011474;-51.266822814941406;16.7419376373291;-57.60396194458008
343;1673435839.789849;47.129486799999995;7.239196499999999;50.052001953125;1673435839.7937636;-54.211143493652344;8.269933700561523;-48.45328140258789
344;1673435839.9938157;47.129489799999995;7.2391920999999995;50.11900329589844;1673435839.998717;-52.62676239013672;1.4740428924560547;-40.49654769897461
345;1673435840.1928911;47.1294939;7.2391863999999995;50.172000885009766;1673435840.1958208;-45.07087707519531;-2.1337571144104004;-39.28633117675781
346;1673435840.4046843;47.129498299999995;7.2391799;50.204002380371094;1673435840.4081638;-37.3038444519043;0.9782572984695435;-43.50543212890625
347;1673435840.6020114;47.129502699999996;7.2391732;50.21900177001953;1673435840.6068938;-29.197715759277344;2.3476614952087402;-45.423095703125
348;1673435840.8044374;47.1295065;7.2391668;50.224002838134766;1673435840.807329;-27.206926345825195;2.6829566955566406;-45.92372131347656
349;1673435840.9993024;47.1295097;7.2391611;50.22200393676758;1673435841.0012245;-29.864587783813477;2.504669189453125;-46.38502502441406
350;1673435841.1995938;47.1295125;7.239155599999999;50.22500228881836;1673435841.2035542;-35.257598876953125;1.7780789136886597;-46.42522048950195
351;1673435841.4001114;47.1295152;7.2391499999999995;50.23200225830078;1673435841.4030597;-40.72700881958008;2.5645976066589355;-46.91468811035156
352;1673435841.5955663;47.129518;7.2391441;50.2390022277832;1673435841.5985816;-41.977294921875;3.0484941005706787;-46.74317932128906
353;1673435841.7966013;47.129520899999996;7.2391377;50.24800109863281;1673435841.7995343;-43.55381774902344;0.6313666701316833;-46.23153305053711
354;1673435841.9877126;47.1295241;7.2391305;50.25800323486328;1673435841.992596;-44.525150299072266;-3.5952377319335938;-46.513614654541016
355;1673435842.2101712;47.1295272;7.239122399999999;50.25600051879883;1673435842.2140906;-41.40399932861328;-0.8769865036010742;-57.53959274291992
356;1673435842.4234025;47.1295297;7.239113199999999;50.24800109863281;1673435842.4263337;-36.55949401855469;-2.313850164413452;-68.22333526611328
357;1673435842.6346617;47.1295311;7.239103399999999;50.233001708984375;1673435842.6375897;-31.986108779907227;-16.59784507751465;-78.26956176757812
358;1673435842.8689716;47.1295304;7.2390932999999995;50.21600341796875;1673435842.8709242;-30.61908721923828;-21.666213989257812;-88.61862182617188
359;1673435843.0469751;47.1295272;7.239083399999999;50.19200134277344;1673435843.048927;-32.78490447998047;-25.262516021728516;-95.47827911376953
360;1673435843.2568176;47.129520799999995;7.2390735;50.163002014160156;1673435843.2607234;-46.49495315551758;-27.3814640045166;-103.01397705078125
361;1673435843.4387655;47.1295109;7.2390634;50.124000549316406;1673435843.4416783;-49.43986892700195;-21.348379135131836;-113.27086639404297
362;1673435843.649051;47.129498;7.2390528;50.08100128173828;1673435843.6549082;-41.574222564697266;-5.784144401550293;-125.55328369140625
363;1673435843.8877196;47.1294828;7.239041899999999;50.06500244140625;1673435843.8896742;-49.23063278198242;4.621614933013916;-132.6925506591797
364;1673435844.0708628;47.1294658;7.239029899999999;50.082000732421875;1673435844.0737917;-53.77093505859375;17.685842514038086;-140.92555236816406
365;1673435844.2569764;47.1294472;7.2390155;50.105003356933594;1673435844.2589273;-55.20542907714844;23.90423583984375;-138.2999725341797
366;1673435844.429054;47.129427799999995;7.2389985;50.1140022277832;1673435844.4320517;-53.448577880859375;17.895891189575195;-132.94180297851562
367;1673435844.6548188;47.129408;7.2389797;50.112003326416016;1673435844.6567967;-50.63027572631836;17.550302505493164;-131.64675903320312
368;1673435844.8252177;47.129388;7.2389595;50.10200119018555;1673435844.8271692;-51.21772766113281;20.513742446899414;-129.7400665283203
369;1673435845.0064037;47.129368199999995;7.238937699999999;50.07600402832031;1673435845.00893;-49.41889953613281;17.348146438598633;-120.00760650634766
370;1673435845.2024574;47.1293489;7.2389149999999995;50.0410041809082;1673435845.206362;-45.025943756103516;10.408537864685059;-108.96680450439453
371;1673435845.4083302;47.1293303;7.2388917;50.00300216674805;1673435845.4113038;-44.55365753173828;4.483863830566406;-100.1782455444336
372;1673435845.6199858;47.129312299999995;7.2388682;49.970001220703125;1673435845.6219478;-43.61138916015625;-0.8157503008842468;-91.5477523803711
373;1673435845.8549924;47.1292951;7.2388447;49.94200134277344;1673435845.8569448;-42.529090881347656;-4.219033241271973;-82.69422149658203
374;1673435846.0844135;47.1292787;7.238821199999999;49.9170036315918;1673435846.0863645;-41.44231033325195;-4.932384490966797;-73.9932861328125
375;1673435846.2498906;47.1292634;7.2387982;49.8910026550293;1673435846.2528207;-39.416839599609375;-2.959487199783325;-64.22998809814453
376;1673435846.43161;47.1292495;7.2387758;49.867000579833984;1673435846.4335551;-41.26448440551758;-0.9946335554122925;-55.48130798339844
377;1673435846.6172037;47.1292374;7.2387542;49.86300277709961;1673435846.6201313;-42.46107864379883;-4.597511291503906;-45.06477737426758
378;1673435846.8075144;47.1292273;7.2387333;49.88300323486328;1673435846.8104422;-49.46037673950195;-10.851882934570312;-39.22810363769531
379;1673435847.012185;47.129219299999995;7.2387124;49.92100143432617;1673435847.0151315;-48.790157318115234;-13.2673978805542;-41.1536865234375
380;1673435847.210225;47.1292128;7.2386916;49.967002868652344;1673435847.21368;-31.62823486328125;-2.100327730178833;-56.49465560913086
381;1673435847.408833;47.1292067;7.2386721;50.00700378417969;1673435847.4117627;-20.53074073791504;-5.691057205200195;-68.0947494506836
382;1673435847.610418;47.1292002;7.238654299999999;50.03600311279297;1673435847.613375;-23.60230827331543;-10.083396911621094;-78.95600891113281
383;1673435847.8113766;47.129193;7.238638099999999;50.05900192260742;1673435847.8123453;-17.164813995361328;2.9182934761047363;-91.94825744628906
384;1673435848.0387204;47.1291856;7.2386238;50.079002380371094;1673435848.0406735;-4.395340919494629;19.447647094726562;-100.0754165649414
385;1673435848.2391183;47.129178599999996;7.2386118999999995;50.095001220703125;1673435848.240091;3.2956202030181885;20.016271591186523;-107.6685791015625
386;1673435848.4356678;47.1291722;7.2386026999999995;50.10300064086914;1673435848.437587;7.46592903137207;20.676164627075195;-118.42794799804688
387;1673435848.6561956;47.129166399999995;7.2385958;50.11300277709961;1673435848.6600904;8.420543670654297;23.055971145629883;-127.59648895263672
388;1673435848.849678;47.1291613;7.2385907;50.12000274658203;1673435848.8516316;11.530061721801758;24.404027938842773;-136.33795166015625
389;1673435849.048693;47.1291568;7.238587;50.13100051879883;1673435849.0506454;12.744799613952637;25.839950561523438;-141.062744140625
390;1673435849.218726;47.129152999999995;7.238584299999999;50.137001037597656;1673435849.2216544;9.722455978393555;30.150266647338867;-134.06851196289062
391;1673435849.415171;47.129149899999994;7.2385817999999995;50.18600082397461;1673435849.4181156;-14.962037086486816;29.984188079833984;-139.8260498046875
392;1673435849.6143763;47.1291465;7.238577899999999;50.340003967285156;1673435849.6173356;-36.89467239379883;26.49651527404785;-140.51663208007812
393;1673435849.8458622;47.1291413;7.238570999999999;50.57200241088867;1673435849.8497663;-39.18634796142578;20.84491729736328;-136.17738342285156
394;1673435850.0643315;47.1291343;7.2385616;50.86300277709961;1673435850.0662837;-32.70751953125;21.00130271911621;-135.58531188964844
395;1673435850.271204;47.129126299999996;7.2385508;51.2140007019043;1673435850.273155;-32.54397201538086;30.773534774780273;-134.95379638671875
396;1673435850.4546962;47.129117699999995;7.2385383;51.5890007019043;1673435850.4576254;-33.13266372680664;29.957406997680664;-134.24183654785156
397;1673435850.637946;47.1291089;7.2385243;51.961002349853516;1673435850.640875;-29.706409454345703;27.867164611816406;-135.41741943359375
398;1673435850.8762252;47.1290997;7.238509499999999;52.332000732421875;1673435850.8772068;-26.284025192260742;25.636768341064453;-135.94509887695312
399;1673435851.0569577;47.129090299999994;7.238494299999999;52.70000076293945;1673435851.059886;-23.75849151611328;23.874570846557617;-136.37594604492188
400;1673435851.2915242;47.129080699999996;7.2384792;53.07100296020508;1673435851.2944539;-21.687101364135742;23.077306747436523;-136.73257446289062
401;1673435851.4995544;47.129070999999996;7.2384644;53.448001861572266;1673435851.5034504;-20.101097106933594;22.62004852294922;-136.8826141357422
402;1673435851.6813776;47.1290611;7.238449999999999;53.829002380371094;1673435851.6930912;-19.483156204223633;22.841951370239258;-137.05218505859375
403;1673435851.8971956;47.1290512;7.2384359;54.21200180053711;1673435851.8991494;-19.12908172607422;23.247135162353516;-137.09561157226562
404;1673435852.1245394;47.1290413;7.2384222;54.599002838134766;1673435852.1255054;-19.425939559936523;23.876117706298828;-137.1347198486328
405;1673435852.3189652;47.129031399999995;7.238408799999999;54.987003326416016;1673435852.321897;-19.83551025390625;24.516462326049805;-137.13417053222656
406;1673435852.5402973;47.129021599999994;7.238395499999999;55.37700271606445;1673435852.5412734;-20.522993087768555;25.001012802124023;-137.0937042236328
407;1673435852.725372;47.1290117;7.2383823;55.77100372314453;1673435852.7282996;-21.135509490966797;25.330413818359375;-137.04722595214844
408;1673435852.9192228;47.1290019;7.2383691;56.16800308227539;1673435852.9227316;-21.662492752075195;25.44273567199707;-136.98870849609375
409;1673435853.0951567;47.1289922;7.2383558;56.56200408935547;1673435853.0971255;-22.270479202270508;25.429485321044922;-136.95433044433594
410;1673435853.2706995;47.1289823;7.2383425;56.95500183105469;1673435853.2726412;-22.40581512451172;25.479673385620117;-136.90090942382812
411;1673435853.4546452;47.128972499999996;7.238328999999999;57.35000228881836;1673435853.4585588;-22.486572265625;25.42760467529297;-136.86434936523438
412;1673435853.6394851;47.1289626;7.238315399999999;57.74800109863281;1673435853.642414;-22.43074607849121;25.337949752807617;-136.82777404785156
413;1673435853.8508062;47.1289527;7.2383017;58.143001556396484;1673435853.8537421;-22.397716522216797;25.21982192993164;-136.84913635253906
414;1673435854.0470595;47.1289429;7.238288;58.538002014160156;1673435854.0519414;-22.179357528686523;25.133718490600586;-136.840087890625
415;1673435854.2638223;47.128932999999996;7.238274199999999;58.93400192260742;1673435854.2657773;-22.167064666748047;25.07966423034668;-136.8870391845703
