;pos_time;latitude;longitude;altitude;alt_time;pitch;roll;yaw
0;1673434239.428256;47.1306425;7.2406201999999995;-0.005000000353902578;1673434239.5627854;-0.540192723274231;-1.149996280670166;91.1064453125
1;1673434239.6173236;47.1306425;7.2406203;-0.004000000189989805;1673434239.7655528;-0.4003487229347229;-0.939143180847168;91.0384521484375
2;1673434239.8271382;47.1306424;7.2406203;-0.004000000189989805;1673434239.9611995;-0.4691942632198334;-0.582226037979126;91.22159576416016
3;1673434240.0111825;47.1306424;7.2406203;-0.004000000189989805;1673434240.157957;-0.5588361620903015;-0.04849478229880333;91.04950714111328
4;1673434240.235676;47.1306424;7.2406201999999995;-0.003000000026077032;1673434240.3727684;-0.49789562821388245;-0.589189350605011;91.12168884277344
5;1673434240.4279776;47.1306424;7.2406201999999995;-0.0020000000949949026;1673434240.575769;-0.31761041283607483;-0.24942205846309662;91.27804565429688
6;1673434240.629649;47.1306424;7.2406201999999995;0.0010000000474974513;1673434240.7820365;-0.398098349571228;-0.31957539916038513;91.0782699584961
7;1673434240.8448985;47.1306424;7.2406201999999995;0.004000000189989805;1673434241.016403;-0.33092060685157776;-0.4377119839191437;91.2015609741211
8;1673434241.0652018;47.1306424;7.2406201999999995;0.004000000189989805;1673434241.202984;-0.5370824337005615;-0.5029187202453613;91.13585662841797
9;1673434241.2625842;47.1306425;7.2406201;0.0;1673434241.3924742;-0.49540629982948303;-2.1263015270233154;91.19340515136719
10;1673434241.4426405;47.1306425;7.24062;0.0;1673434241.595535;-0.34316349029541016;-1.3211714029312134;91.16002655029297
11;1673434241.6523845;47.1306425;7.2406201;0.004000000189989805;1673434241.7987492;-0.37599077820777893;-1.7885923385620117;91.18754577636719
12;1673434241.8556805;47.1306425;7.2406201;0.007000000216066837;1673434242.001115;-0.6127170920372009;-1.4507919549942017;91.24381256103516
13;1673434242.0547779;47.1306425;7.24062;0.01100000087171793;1673434242.1937666;-0.5327664017677307;-1.4846718311309814;91.13467407226562
14;1673434242.2456207;47.1306425;7.24062;0.013000000268220901;1673434242.3799803;-0.5202860832214355;-1.8014914989471436;91.0418930053711
15;1673434242.4434946;47.1306425;7.2406201;0.014000000432133675;1673434242.584044;-0.44160890579223633;-1.8170104026794434;90.9014892578125
16;1673434242.642458;47.1306425;7.2406201;0.012000000104308128;1673434242.7957942;-0.3511131703853607;-1.7712832689285278;90.77677917480469
17;1673434242.8667727;47.1306425;7.2406201;0.0;1673434243.0129762;-0.43951576948165894;-2.1044931411743164;90.66978454589844
18;1673434243.063975;47.130642599999995;7.2406201999999995;0.0010000000474974513;1673434243.1823902;-0.4340623617172241;-1.1458290815353394;90.30329132080078
19;1673434243.234639;47.130642599999995;7.2406201999999995;0.00800000037997961;1673434243.3703206;-0.28169775009155273;-0.8817704319953918;89.75814819335938
20;1673434243.4260924;47.130642699999996;7.2406203;0.013000000268220901;1673434243.5728686;1.0058594942092896;-1.104695200920105;88.876220703125
21;1673434243.6379766;47.1306428;7.2406204;0.013000000268220901;1673434243.7734132;0.7240873575210571;-1.3801915645599365;86.81736755371094
22;1673434243.8283858;47.1306429;7.2406204;0.017000000923871994;1673434243.9770715;1.4650776386260986;-1.4589931964874268;83.40788269042969
23;1673434244.0332355;47.130643199999994;7.2406204;0.026000000536441803;1673434244.1768796;0.5164388418197632;-0.6139860153198242;76.09332275390625
24;1673434244.2365148;47.1306436;7.2406201999999995;0.024000000208616257;1673434244.3784175;0.8080909848213196;-0.7177425026893616;61.24866485595703
25;1673434244.435567;47.1306444;7.240619499999999;0.02500000037252903;1673434244.5763319;1.478978157043457;0.3448249399662018;40.72049331665039
26;1673434244.6352482;47.130645699999995;7.2406184;0.03400000184774399;1673434244.7855792;3.3542861938476562;1.482531189918518;20.357938766479492
27;1673434244.8455043;47.1306477;7.2406166;0.04200000315904617;1673434244.9761546;5.126928806304932;1.944919466972351;17.721540451049805
28;1673434245.0278957;47.1306503;7.240614;0.049000002443790436;1673434245.1612499;7.053435325622559;7.279298305511475;19.034929275512695
29;1673434245.2249286;47.1306534;7.2406106999999995;0.06300000101327896;1673434245.3718336;9.58128547668457;13.050637245178223;22.078144073486328
30;1673434245.4296474;47.1306569;7.240606799999999;0.07800000160932541;1673434245.581635;9.654817581176758;14.635705947875977;24.657150268554688
31;1673434245.6374037;47.1306606;7.2406026;0.09600000083446503;1673434245.7765877;9.776839256286621;16.88714599609375;26.840496063232422
32;1673434245.83111;47.1306643;7.2405984;0.11300000548362732;1673434245.9725084;9.99389362335205;18.908828735351562;28.59829330444336
33;1673434246.0320044;47.1306681;7.2405941;0.1300000101327896;1673434246.173862;10.350378036499023;20.77689552307129;29.995750427246094
34;1673434246.2322803;47.130671899999996;7.24059;0.14500001072883606;1673434246.3720682;10.834080696105957;22.859085083007812;31.124921798706055
35;1673434246.4311554;47.1306754;7.2405859999999995;0.164000004529953;1673434246.574511;11.37581729888916;24.798856735229492;31.999553680419922
36;1673434246.659233;47.1306788;7.2405824;0.18400001525878906;1673434246.820258;11.967358589172363;26.704914093017578;32.67332077026367
37;1673434246.8741207;47.1306818;7.2405791;0.203000009059906;1673434247.0243642;12.77238941192627;28.695695877075195;33.16926193237305
38;1673434247.0872517;47.1306845;7.240576399999999;0.21700000762939453;1673434247.2134614;13.667081832885742;30.559459686279297;33.536800384521484
39;1673434247.2736003;47.1306867;7.2405743;0.23100000619888306;1673434247.4061666;14.699132919311523;32.49781799316406;33.741783142089844
40;1673434247.4665987;47.1306884;7.2405726999999995;0.24800001084804535;1673434247.6570146;15.859034538269043;34.352970123291016;33.82353591918945
41;1673434247.723968;47.130689499999995;7.2405718;0.2639999985694885;1673434247.856527;17.192956924438477;36.11545944213867;33.738853454589844
42;1673434247.902057;47.1306899;7.240571699999999;0.28300002217292786;1673434248.0260375;18.86188316345215;37.889739990234375;33.49874496459961
43;1673434248.0806434;47.1306897;7.240572299999999;0.30000001192092896;1673434248.2436259;20.69591522216797;39.405357360839844;33.09495544433594
44;1673434248.3230574;47.1306887;7.2405738;0.3150000274181366;1673434248.4671147;22.868118286132812;41.057891845703125;32.5301399230957
45;1673434248.521689;47.1306868;7.240576099999999;0.3290000259876251;1673434248.6632082;25.430362701416016;42.270263671875;31.648204803466797
46;1673434248.7093992;47.130684099999996;7.240579299999999;0.3440000116825104;1673434248.8352995;27.982112884521484;42.93882369995117;30.59697723388672
47;1673434248.8904178;47.130680299999995;7.240583399999999;0.3580000102519989;1673434249.0196028;26.456947326660156;38.644859313964844;28.775480270385742
48;1673434249.0727983;47.1306757;7.2405883;0.3680000305175781;1673434249.2042873;24.01272964477539;33.60589599609375;27.23370361328125
49;1673434249.2639773;47.130670699999996;7.2405935999999995;0.37300002574920654;1673434249.4000654;20.684471130371094;28.030590057373047;26.19059944152832
50;1673434249.4694395;47.1306655;7.240598899999999;0.37300002574920654;1673434249.613836;16.621835708618164;22.45990753173828;25.54090118408203
51;1673434249.6968377;47.1306606;7.240603699999999;0.3880000114440918;1673434249.880023;13.877717971801758;19.726707458496094;25.744081497192383
52;1673434249.9303381;47.1306562;7.240607799999999;0.42100003361701965;1673434250.0480938;11.444272994995117;16.400196075439453;25.735612869262695
53;1673434250.0979762;47.1306526;7.2406111;0.45900002121925354;1673434250.226298;10.249326705932617;15.369518280029297;26.00541877746582
54;1673434250.2793298;47.130649899999995;7.240613499999999;0.49500003457069397;1673434250.4264095;9.88120174407959;16.618459701538086;26.401451110839844
55;1673434250.4874165;47.1306479;7.240615;0.5330000519752502;1673434250.6308088;10.355982780456543;18.405010223388672;26.749345779418945
56;1673434250.6980183;47.1306465;7.2406158;0.5830000042915344;1673434250.8362873;11.155258178710938;19.562885284423828;26.93441390991211
57;1673434250.8882077;47.1306456;7.2406162;0.6490000486373901;1673434251.022747;12.0040283203125;21.748512268066406;27.201215744018555
58;1673434251.075079;47.1306452;7.2406163;0.7270000576972961;1673434251.2229788;12.797409057617188;24.82709312438965;27.58448028564453
59;1673434251.2850451;47.130645;7.2406162;0.8160000443458557;1673434251.4430482;13.769844055175781;24.994125366210938;27.615455627441406
60;1673434251.4985387;47.1306449;7.2406162;0.9130000472068787;1673434251.6257014;14.504911422729492;25.406171798706055;27.669513702392578
61;1673434251.6710312;47.1306449;7.2406162;1.0250000953674316;1673434251.792976;14.814570426940918;27.093624114990234;27.8435001373291
62;1673434251.8449862;47.1306448;7.2406163;1.1500000953674316;1673434251.9909544;14.984773635864258;26.136152267456055;27.69771957397461
63;1673434252.048818;47.130644499999995;7.2406165;1.2880001068115234;1673434252.1966302;14.874011993408203;25.270668029785156;27.5332088470459
64;1673434252.2501738;47.1306442;7.2406168;1.4380000829696655;1673434252.3866594;14.555971145629883;25.75749397277832;27.652076721191406
65;1673434252.4494147;47.130643899999995;7.2406172;1.596000075340271;1673434252.5786555;13.846508979797363;25.39118003845215;30.422927856445312
66;1673434252.6303127;47.1306435;7.2406177;1.7630001306533813;1673434252.784737;13.756200790405273;23.90983009338379;30.272502899169922
67;1673434252.8519328;47.130643199999994;7.2406182;1.939000129699707;1673434253.0061824;13.833484649658203;24.130313873291016;30.386451721191406
68;1673434253.0602393;47.1306429;7.2406187;2.129000186920166;1673434253.1907063;13.88717269897461;24.146610260009766;30.451860427856445
69;1673434253.2625227;47.130642699999996;7.2406191;2.326000213623047;1673434253.404621;13.876078605651855;22.396034240722656;30.236169815063477
70;1673434253.4727626;47.1306424;7.240619499999999;2.5230000019073486;1673434253.5938103;13.599006652832031;23.473670959472656;30.462350845336914
71;1673434253.6471531;47.1306423;7.2406197;2.7230000495910645;1673434253.7806234;13.863245010375977;23.742700576782227;30.547765731811523
72;1673434253.8326852;47.1306423;7.2406197;2.9230000972747803;1673434253.9662182;13.762123107910156;23.027297973632812;30.325939178466797
73;1673434254.0191844;47.1306423;7.240619799999999;3.118000030517578;1673434254.1809118;13.727190971374512;24.153589248657227;30.444860458374023
74;1673434254.2382236;47.1306423;7.2406197;3.314000129699707;1673434254.393047;13.808445930480957;24.617544174194336;30.52631378173828
75;1673434254.4570343;47.1306423;7.2406196;3.510000228881836;1673434254.6066291;13.622100830078125;23.619226455688477;30.39112663269043
76;1673434254.6760316;47.1306423;7.2406196;3.707000255584717;1673434254.8193362;13.564472198486328;24.51504898071289;30.49094581604004
77;1673434254.8770254;47.1306422;7.2406196;3.9070003032684326;1673434255.0110354;13.596334457397461;24.805618286132812;30.54074478149414
78;1673434255.062901;47.1306422;7.2406196;4.107000350952148;1673434255.197708;13.535013198852539;23.822473526000977;30.342348098754883
79;1673434255.2575214;47.1306423;7.2406196;4.306000232696533;1673434255.410527;13.685203552246094;24.637332916259766;30.484033584594727
80;1673434255.469153;47.1306423;7.2406197;4.50100040435791;1673434255.603761;13.780080795288086;24.722869873046875;30.515470504760742
81;1673434255.6538455;47.1306424;7.240619799999999;4.694000244140625;1673434255.7930868;13.989825248718262;23.628114700317383;30.386850357055664
82;1673434255.8590558;47.1306424;7.2406198999999996;4.892000198364258;1673434256.005284;13.932417869567871;24.547929763793945;30.441133499145508
83;1673434256.0606518;47.1306425;7.2406198999999996;5.089000225067139;1673434256.1969702;14.033570289611816;24.64065170288086;30.5226993560791
84;1673434256.2540462;47.1306425;7.2406198999999996;5.285000324249268;1673434256.4030352;14.017104148864746;23.62807273864746;30.366554260253906
85;1673434256.465536;47.1306425;7.24062;5.484000205993652;1673434256.619757;13.91665267944336;24.275833129882812;30.421709060668945
86;1673434256.6755304;47.1306425;7.24062;5.681000232696533;1673434256.8118057;13.952176094055176;24.745248794555664;30.51209259033203
87;1673434256.858968;47.1306425;7.24062;5.879000186920166;1673434256.985923;13.882553100585938;23.434091567993164;30.34581184387207
88;1673434257.0440202;47.1306425;7.2406201;6.077000141143799;1673434257.1802082;13.808367729187012;24.231534957885742;30.466964721679688
89;1673434257.2344012;47.130642599999995;7.2406201;6.275000095367432;1673434257.3853312;14.004193305969238;24.83962631225586;30.53379249572754
90;1673434257.4523168;47.130642599999995;7.24062;6.473000526428223;1673434257.5919256;14.01848030090332;23.733478546142578;30.359188079833984
91;1673434257.648222;47.130642699999996;7.24062;6.672000408172607;1673434257.7856898;14.003619194030762;24.4378662109375;30.436294555664062
92;1673434257.8415484;47.130642699999996;7.2406201;6.873000144958496;1673434257.9797192;14.178546905517578;24.70306968688965;30.542810440063477
93;1673434258.0325618;47.130642699999996;7.2406201;7.071000099182129;1673434258.1786637;14.108504295349121;23.499738693237305;30.352685928344727
94;1673434258.2351713;47.130642699999996;7.2406201;7.26900053024292;1673434258.3767953;13.948600769042969;24.43777084350586;30.44092559814453
95;1673434258.4355087;47.130642699999996;7.24062;7.467000484466553;1673434258.6067855;13.937248229980469;24.971351623535156;30.51966094970703
96;1673434258.6700742;47.130642699999996;7.24062;7.6650004386901855;1673434258.7987878;14.040901184082031;23.891286849975586;30.39402198791504
97;1673434258.8483255;47.130642699999996;7.24062;7.863000392913818;1673434258.982852;13.955937385559082;24.485576629638672;30.42285919189453
98;1673434259.0357587;47.130642699999996;7.24062;8.06100082397461;1673434259.1891897;13.996055603027344;24.875558853149414;30.57539176940918
99;1673434259.2555177;47.130642699999996;7.24062;8.258000373840332;1673434259.4135008;13.83007526397705;23.792165756225586;30.357276916503906
100;1673434259.4693413;47.130642599999995;7.24062;8.459000587463379;1673434259.616673;13.99970817565918;24.33350372314453;30.455842971801758
101;1673434259.6800086;47.130642599999995;7.24062;8.659000396728516;1673434259.8263543;14.0086088180542;24.935087203979492;30.527986526489258
102;1673434259.882998;47.130642599999995;7.24062;8.861000061035156;1673434260.0221982;13.987313270568848;23.843751907348633;30.373737335205078
103;1673434260.0717237;47.130642599999995;7.2406201;9.065000534057617;1673434260.2025533;13.99130916595459;24.31844139099121;30.441789627075195
104;1673434260.2567987;47.130642599999995;7.2406201;9.268000602722168;1673434260.4102206;13.991772651672363;24.717050552368164;30.49959373474121
105;1673434260.465439;47.1306425;7.2406201;9.469000816345215;1673434260.6117132;14.061260223388672;23.66324234008789;30.39410400390625
106;1673434260.6620073;47.1306425;7.2406201999999995;9.667000770568848;1673434260.8015158;13.753382682800293;24.395885467529297;30.45462417602539
107;1673434260.8546128;47.1306425;7.2406201;9.870000839233398;1673434261.0024889;14.036288261413574;24.663394927978516;30.556129455566406
108;1673434261.066532;47.1306425;7.2406201;10.077000617980957;1673434261.2193058;13.680880546569824;22.68136978149414;30.244075775146484
109;1673434261.270352;47.1306423;7.2406203;10.333000183105469;1673434261.4086695;13.159692764282227;23.06987953186035;30.408376693725586
110;1673434261.4586036;47.130642099999996;7.2406204;10.705000877380371;1673434261.6167417;14.090239524841309;25.357467651367188;30.53151512145996
111;1673434261.6999912;47.1306419;7.2406206;11.104000091552734;1673434261.8690176;13.244121551513672;22.42685890197754;30.311742782592773
112;1673434261.9303908;47.1306416;7.2406209;11.507000923156738;1673434262.1018963;13.017629623413086;22.65236473083496;30.55816650390625
113;1673434262.1702063;47.130641399999995;7.240621099999999;11.918000221252441;1673434262.2851994;12.903855323791504;22.891942977905273;30.601762771606445
114;1673434262.3267205;47.1306413;7.2406212;12.329000473022461;1673434262.441476;12.836005210876465;22.126766204833984;30.47127914428711
115;1673434262.490389;47.1306412;7.2406212;12.742000579833984;1673434262.611783;12.99791431427002;22.546430587768555;30.547800064086914
116;1673434262.6622424;47.1306413;7.240621099999999;13.152000427246094;1673434262.8120651;13.156391143798828;23.117156982421875;30.538829803466797
117;1673434262.873711;47.1306413;7.240621;13.559000968933105;1673434263.0257242;13.264440536499023;22.983583450317383;30.477392196655273
118;1673434263.0811257;47.130641399999995;7.240620799999999;13.965001106262207;1673434263.2278812;13.321228981018066;23.4027042388916;30.472986221313477
119;1673434263.2854607;47.130641499999996;7.2406207;14.367000579833984;1673434263.4233954;13.568819046020508;23.696836471557617;30.52507972717285
120;1673434263.4833941;47.1306416;7.2406204999999995;14.771000862121582;1673434263.6287267;13.441648483276367;23.62452507019043;30.438705444335938
121;1673434263.6939223;47.1306416;7.2406204;15.17400074005127;1673434263.8180063;13.60118293762207;23.607542037963867;30.428510665893555
122;1673434263.8697047;47.1306416;7.2406203;15.580000877380371;1673434264.0108683;13.395533561706543;23.883344650268555;30.433744430541992
123;1673434264.0623753;47.1306416;7.2406201999999995;15.988000869750977;1673434264.19431;13.366191864013672;23.5950870513916;30.44928550720215
124;1673434264.2509081;47.1306416;7.2406201;16.395999908447266;1673434264.398024;13.314525604248047;23.826902389526367;30.430091857910156
125;1673434264.4553812;47.1306416;7.2406201;16.79400062561035;1673434264.587447;13.363996505737305;23.53004264831543;30.475574493408203
126;1673434264.6433468;47.1306416;7.2406201;17.19700050354004;1673434264.8033051;13.24516487121582;23.455669403076172;30.405166625976562
127;1673434264.8683953;47.1306416;7.2406201;17.59600067138672;1673434265.0177498;13.336153030395508;23.627378463745117;30.46164894104004
128;1673434265.0762243;47.1306416;7.2406201;17.99700164794922;1673434265.212949;13.486503601074219;23.531864166259766;30.474817276000977
129;1673434265.2791789;47.1306417;7.2406201;18.4010009765625;1673434265.4208496;13.319975852966309;23.456148147583008;30.444337844848633
130;1673434265.4749386;47.1306417;7.2406201;18.80500030517578;1673434265.6139119;13.458033561706543;23.46141242980957;30.455272674560547
131;1673434265.66831;47.1306417;7.2406201;19.209001541137695;1673434265.8196118;13.443866729736328;23.470932006835938;30.428020477294922
132;1673434265.8803036;47.1306417;7.2406201;19.60500144958496;1673434266.019761;13.38438892364502;23.4238338470459;30.43942642211914
133;1673434266.0703576;47.1306417;7.2406201;20.003000259399414;1673434266.214909;13.56046199798584;23.540157318115234;30.44954490661621
134;1673434266.2722504;47.1306418;7.2406201;20.407001495361328;1673434266.4131963;13.436574935913086;23.57257843017578;30.431442260742188
135;1673434266.4716341;47.1306418;7.2406201;20.816001892089844;1673434266.6091394;13.444587707519531;23.57943344116211;30.43730926513672
136;1673434266.6629725;47.1306418;7.2406201;21.218000411987305;1673434266.8142889;13.348487854003906;23.645849227905273;30.467491149902344
137;1673434266.8698792;47.1306418;7.2406201;21.617000579833984;1673434267.0050344;13.421708106994629;23.534208297729492;30.447694778442383
138;1673434267.0576644;47.1306419;7.2406201;22.011001586914062;1673434267.2162385;13.655838966369629;23.54920768737793;30.456335067749023
139;1673434267.2722886;47.1306419;7.2406201;22.407001495361328;1673434267.413538;13.451273918151855;23.494421005249023;30.425382614135742
140;1673434267.4681275;47.1306419;7.2406201999999995;22.80500030517578;1673434267.601935;13.417224884033203;23.478012084960938;30.48077964782715
141;1673434267.6552336;47.1306419;7.2406201999999995;23.205001831054688;1673434267.819823;13.414938926696777;23.49325942993164;30.447402954101562
142;1673434267.8803785;47.1306418;7.2406201999999995;23.606000900268555;1673434268.0330503;13.385992050170898;23.489107131958008;30.456279754638672
143;1673434268.0965834;47.1306419;7.2406201999999995;24.003000259399414;1673434268.2369587;13.537712097167969;23.3231201171875;30.443254470825195
144;1673434268.2838387;47.1306419;7.2406203;24.40300178527832;1673434268.4334667;13.276241302490234;23.494155883789062;30.47182846069336
145;1673434268.4904325;47.1306419;7.2406203;24.79800033569336;1673434268.6139483;13.389262199401855;23.484806060791016;30.459463119506836
146;1673434268.6673284;47.1306419;7.2406203;25.198001861572266;1673434268.8172598;13.478477478027344;23.27762222290039;30.43996238708496
147;1673434268.879937;47.1306419;7.2406203;25.602001190185547;1673434269.0895567;13.55900764465332;23.410602569580078;30.440031051635742
148;1673434269.1398103;47.130641999999995;7.2406203;26.005001068115234;1673434269.2909956;13.516356468200684;23.652685165405273;30.45950698852539
149;1673434269.350966;47.130641999999995;7.2406203;26.407001495361328;1673434269.5138664;13.504284858703613;23.356828689575195;30.423242568969727
150;1673434269.5591931;47.130641999999995;7.2406203;26.808000564575195;1673434269.706304;13.475136756896973;23.461166381835938;30.431835174560547
151;1673434269.7620552;47.130641999999995;7.2406203;27.20400047302246;1673434269.895832;13.612749099731445;23.40088653564453;30.445350646972656
152;1673434269.9699504;47.130641999999995;7.2406203;27.604001998901367;1673434270.1056962;13.545507431030273;23.411460876464844;30.45078468322754
153;1673434270.1501617;47.130642099999996;7.2406203;28.009000778198242;1673434270.2754474;13.49322509765625;23.38150405883789;30.431602478027344
154;1673434270.3245678;47.130642099999996;7.2406203;28.413002014160156;1673434270.4572995;13.454144477844238;23.536231994628906;30.47049331665039
155;1673434270.5086014;47.130642099999996;7.2406201999999995;28.815000534057617;1673434270.632698;13.349661827087402;23.433286666870117;30.432039260864258
156;1673434270.6822026;47.130642099999996;7.2406201999999995;29.214000701904297;1673434270.8302948;13.525274276733398;23.493412017822266;30.47230339050293
157;1673434270.8894763;47.1306422;7.2406201999999995;29.61600112915039;1673434271.0218265;13.5083589553833;23.65265464782715;30.487714767456055
158;1673434271.0750897;47.1306422;7.2406201999999995;30.012001037597656;1673434271.2135117;13.461109161376953;23.397594451904297;30.447202682495117
159;1673434271.2717192;47.1306422;7.2406201999999995;30.411001205444336;1673434271.4184628;13.591411590576172;23.41122817993164;30.460966110229492
160;1673434271.4853716;47.1306422;7.2406201999999995;30.815000534057617;1673434271.6390383;13.425418853759766;23.620540618896484;30.46245002746582
161;1673434271.703012;47.1306422;7.2406201999999995;31.222002029418945;1673434271.8652453;13.4879789352417;23.417043685913086;30.45186996459961
162;1673434271.9202764;47.1306422;7.2406201;31.624000549316406;1673434272.1055207;13.373568534851074;23.590518951416016;30.45693588256836
163;1673434272.174672;47.1306422;7.24062;32.0260009765625;1673434272.3132524;13.387694358825684;23.762939453125;30.450071334838867
164;1673434272.3686447;47.1306422;7.24062;32.42100143432617;1673434272.4807131;13.460274696350098;23.597925186157227;30.46242332458496
165;1673434272.5296926;47.1306423;7.24062;32.82100296020508;1673434272.6841192;13.428241729736328;23.581411361694336;30.4432373046875
166;1673434272.7379549;47.1306423;7.24062;33.21900177001953;1673434272.8738246;13.581709861755371;23.654541015625;30.477497100830078
167;1673434272.9219034;47.1306423;7.24062;33.62000274658203;1673434273.0550232;13.5478515625;23.484745025634766;30.448909759521484
168;1673434273.1083982;47.1306423;7.2406201;34.02300262451172;1673434273.2415693;13.604479789733887;23.411540985107422;30.430837631225586
169;1673434273.2934053;47.1306423;7.2406201;34.427001953125;1673434273.4422514;13.458999633789062;23.573986053466797;30.44594955444336
170;1673434273.500928;47.1306423;7.2406201;34.829002380371094;1673434273.654914;13.596776962280273;23.613544464111328;30.468215942382812
171;1673434273.7127516;47.1306423;7.2406201;35.22500228881836;1673434273.8454962;13.588091850280762;23.332399368286133;30.44841194152832
172;1673434273.8975334;47.1306423;7.2406201;35.624000549316406;1673434274.0358963;13.550760269165039;23.645315170288086;30.455713272094727
173;1673434274.0908194;47.1306423;7.2406201;36.02799987792969;1673434274.2351263;13.510931015014648;23.519378662109375;30.45720100402832
174;1673434274.29062;47.1306423;7.2406201;36.43300247192383;1673434274.433846;13.481754302978516;23.355365753173828;30.435943603515625
175;1673434274.4934924;47.1306423;7.2406201;36.83500289916992;1673434274.6444898;13.463947296142578;23.575199127197266;30.436662673950195
176;1673434274.7012196;47.1306422;7.2406201;37.236000061035156;1673434274.844813;13.486137390136719;23.371877670288086;30.430021286010742
177;1673434274.9208212;47.1306422;7.2406201;37.62900161743164;1673434275.062356;13.393969535827637;23.39002799987793;30.455467224121094
178;1673434275.116373;47.1306422;7.2406201;38.02400207519531;1673434275.2569022;13.466626167297363;23.49488067626953;30.461273193359375
179;1673434275.3186517;47.1306422;7.2406201;38.42100143432617;1673434275.4631734;13.407316207885742;23.446487426757812;30.425106048583984
180;1673434275.5244267;47.1306422;7.2406201;38.82200241088867;1673434275.6631458;13.467521667480469;23.423561096191406;30.448213577270508
181;1673434275.7197027;47.1306422;7.2406201;39.22600173950195;1673434275.8641624;13.341487884521484;23.550756454467773;30.430925369262695
182;1673434275.919549;47.1306422;7.2406201;39.62900161743164;1673434276.066221;13.385170936584473;23.422340393066406;30.437950134277344
183;1673434276.117156;47.130642099999996;7.2406201;40.03300094604492;1673434276.2532897;13.313684463500977;23.537078857421875;30.44114112854004
184;1673434276.308234;47.130642099999996;7.2406201;40.43000030517578;1673434276.4484484;13.40501880645752;23.42608642578125;30.45063018798828
185;1673434276.5031395;47.1306422;7.2406201;40.8280029296875;1673434276.6458654;13.466445922851562;23.372583389282227;30.45149803161621
186;1673434276.6975226;47.1306422;7.2406201;41.22600173950195;1673434276.8371267;13.439380645751953;23.46131706237793;30.473176956176758
187;1673434276.8827984;47.1306422;7.2406201;41.62700271606445;1673434277.0129879;13.394886016845703;23.4460506439209;30.442014694213867
188;1673434277.0690181;47.1306422;7.2406201;42.02800369262695;1673434277.2067103;13.580096244812012;23.48107147216797;30.464881896972656
189;1673434277.284147;47.1306422;7.2406201;42.42900085449219;1673434277.415509;13.524266242980957;23.442697525024414;30.434846878051758
190;1673434277.475576;47.1306422;7.2406201;42.82400131225586;1673434277.6214366;13.554577827453613;23.412521362304688;30.44188117980957
191;1673434277.689038;47.1306422;7.2406201;43.224002838134766;1673434277.8307927;13.474181175231934;23.427471160888672;30.425973892211914
192;1673434277.8875866;47.1306422;7.2406201;43.62600326538086;1673434278.0254085;13.537129402160645;23.472309112548828;30.452789306640625
193;1673434278.0791416;47.1306422;7.2406201;44.02300262451172;1673434278.2179344;13.440054893493652;23.402191162109375;30.456499099731445
194;1673434278.2763717;47.1306422;7.2406201;44.42300033569336;1673434278.4152937;13.509088516235352;23.37075424194336;30.451887130737305
195;1673434278.4718518;47.1306422;7.24062;44.82400131225586;1673434278.6288362;13.376887321472168;23.424999237060547;30.441617965698242
196;1673434278.6796482;47.1306422;7.24062;45.224002838134766;1673434278.830983;13.426823616027832;23.269872665405273;30.43967628479004
197;1673434278.8898642;47.1306422;7.2406201;45.61900329589844;1673434279.03798;13.413087844848633;23.262163162231445;30.45337677001953
198;1673434279.0928617;47.1306422;7.2406201;46.01900100708008;1673434279.2430532;13.480628967285156;23.5596923828125;30.478805541992188
199;1673434279.294481;47.1306422;7.24062;46.4170036315918;1673434279.4343908;13.557533264160156;23.323137283325195;30.454479217529297
200;1673434279.4899285;47.1306422;7.24062;46.816001892089844;1673434279.6279368;13.426623344421387;23.46636962890625;30.439254760742188
201;1673434279.6829302;47.1306422;7.24062;47.21600341796875;1673434279.8234417;13.489208221435547;23.433034896850586;30.466306686401367
202;1673434279.880393;47.1306422;7.24062;47.61600112915039;1673434280.0112488;13.54289436340332;23.5426082611084;30.450729370117188
203;1673434280.06564;47.1306422;7.24062;48.00400161743164;1673434280.2060378;13.549095153808594;23.702760696411133;30.407955169677734
204;1673434280.2640288;47.1306423;7.2406198999999996;48.349002838134766;1673434280.4220102;13.626059532165527;23.967134475708008;30.439252853393555
205;1673434280.4882166;47.1306425;7.2406197;48.6410026550293;1673434280.6311433;13.750215530395508;24.23978042602539;30.476791381835938
206;1673434280.682985;47.130642699999996;7.240619499999999;48.89200210571289;1673434280.8142633;14.07990550994873;24.456663131713867;30.48939323425293
207;1673434280.8671916;47.1306429;7.2406193;49.099002838134766;1673434281.010198;14.253458976745605;24.963977813720703;30.462526321411133
208;1673434281.068069;47.1306431;7.240619;49.27400207519531;1673434281.2134178;26.762760162353516;19.899295806884766;27.710323333740234
209;1673434281.273556;47.130643199999994;7.2406185;49.42500305175781;1673434281.4115622;46.377838134765625;3.7631924152374268;15.619854927062988
210;1673434281.4696827;47.1306425;7.2406168;49.55800247192383;1673434281.6158278;54.81665802001953;-13.506072998046875;4.606958866119385
211;1673434281.676086;47.13064;7.2406127;49.677001953125;1673434281.8341563;58.595375061035156;-22.95208168029785;-1.866171956062317
212;1673434281.8895135;47.130635399999996;7.2406052999999995;49.75100326538086;1673434282.018782;49.28056335449219;-23.493593215942383;-6.872325420379639
213;1673434282.072049;47.1306289;7.240595099999999;49.77300262451172;1673434282.2242596;42.18601608276367;-29.538951873779297;-18.256101608276367
214;1673434282.2805636;47.130621;7.240583;49.78900146484375;1673434282.4305315;42.68753433227539;-40.71988296508789;-31.65656280517578
215;1673434282.4896362;47.1306118;7.2405691999999995;49.814002990722656;1673434282.632107;34.61595153808594;-45.969783782958984;-39.867855072021484
216;1673434282.6858618;47.1306015;7.2405534;49.81800079345703;1673434282.8182812;23.412023544311523;-47.88511657714844;-52.15035629272461
217;1673434282.8781815;47.1305899;7.2405365999999995;49.81500244140625;1673434283.0322554;6.92642068862915;-44.296119689941406;-64.44641876220703
218;1673434283.0896404;47.130577699999996;7.2405192;49.802001953125;1673434283.2347546;-5.466669082641602;-38.82854461669922;-74.06256866455078
219;1673434283.2964108;47.130565499999996;7.2405013;49.77800369262695;1673434283.4463155;-14.786735534667969;-34.90419387817383;-82.55723571777344
220;1673434283.5019786;47.1305536;7.2404828;49.755001068115234;1673434283.6410766;-22.905170440673828;-34.01527404785156;-90.67417907714844
221;1673434283.6937213;47.130542299999995;7.2404635;49.743003845214844;1673434283.8342683;-30.428138732910156;-34.13416290283203;-99.61058807373047
222;1673434283.8911424;47.1305313;7.2404433;49.743003845214844;1673434284.0368075;-39.33477020263672;-33.14293670654297;-109.5465316772461
223;1673434284.0943315;47.1305203;7.240422199999999;49.75600051879883;1673434284.2447095;-48.468685150146484;-31.817136764526367;-122.82272338867188
224;1673434284.2988782;47.1305085;7.2404002;49.77400207519531;1673434284.4345691;-47.865482330322266;-25.00784683227539;-134.09718322753906
225;1673434284.4902635;47.130496;7.2403778999999995;49.759002685546875;1673434284.6354742;-43.69513702392578;-17.74763298034668;-139.51783752441406
226;1673434284.6947575;47.130483;7.2403558;49.72900390625;1673434284.8383567;-44.56398010253906;-14.570388793945312;-144.4681854248047
227;1673434284.8930538;47.1304699;7.240333799999999;49.715003967285156;1673434285.0295272;-45.89078903198242;-10.269540786743164;-148.24942016601562
228;1673434285.0834475;47.130456699999996;7.240311999999999;49.698001861572266;1673434285.2272081;-41.116371154785156;-9.926190376281738;-144.51084899902344
229;1673434285.2850828;47.1304436;7.240290399999999;49.66400146484375;1673434285.428174;-42.34636306762695;-13.874197959899902;-143.59039306640625
230;1673434285.4844613;47.1304307;7.240268599999999;49.65900421142578;1673434285.6225731;-46.97016906738281;-11.935840606689453;-153.85272216796875
231;1673434285.6837835;47.1304176;7.240247;49.673004150390625;1673434285.8466432;-48.822994232177734;-6.652111053466797;-164.00233459472656
232;1673434285.9115455;47.1304042;7.2402258999999995;49.69400405883789;1673434286.0488222;-46.84904861450195;-2.2888777256011963;-172.40309143066406
233;1673434286.103613;47.1303905;7.2402057;49.71000289916992;1673434286.2401419;-42.36609649658203;1.3004807233810425;179.01675415039062
234;1673434286.29144;47.130376899999995;7.2401864;49.7130012512207;1673434286.4336872;-38.485111236572266;2.8509695529937744;170.32786560058594
235;1673434286.4944336;47.1303635;7.2401683;49.704002380371094;1673434286.6372447;-34.35117721557617;5.431642532348633;160.4897918701172
236;1673434286.6981168;47.1303507;7.240151699999999;49.685001373291016;1673434286.841093;-34.6809196472168;7.298745632171631;151.68798828125
237;1673434286.8982494;47.130338599999995;7.240136499999999;49.685001373291016;1673434287.0373347;-38.61124801635742;5.830848217010498;143.31723022460938
238;1673434287.0947962;47.130327199999996;7.240123;49.70000076293945;1673434287.239851;-41.492698669433594;-7.9332122802734375;135.57762145996094
239;1673434287.298325;47.1303166;7.240112099999999;49.7130012512207;1673434287.4461489;-44.725494384765625;-24.50499725341797;131.4671630859375
240;1673434287.5077837;47.130307599999995;7.240105;49.72200393676758;1673434287.6703873;-25.5723934173584;-9.772430419921875;121.20352935791016
241;1673434287.724983;47.1303007;7.240100999999999;49.704002380371094;1673434287.8517985;-27.04901123046875;-23.666303634643555;141.8749542236328
242;1673434287.9051356;47.130296;7.2400994;49.7400016784668;1673434288.0398695;-29.252275466918945;-31.86916160583496;152.95391845703125
243;1673434288.095128;47.1302932;7.240100399999999;49.80000305175781;1673434288.2280195;-26.22594451904297;-31.29134178161621;160.2964324951172
244;1673434288.2843242;47.1302917;7.240103899999999;49.87300109863281;1673434288.4386775;-16.402254104614258;-29.703704833984375;172.5689697265625
245;1673434288.5018198;47.130291299999996;7.2401089999999995;49.94600296020508;1673434288.6566105;-12.023253440856934;-24.54154396057129;-175.31192016601562
246;1673434288.7168343;47.130291799999995;7.2401149;50.00300216674805;1673434288.8523214;-13.04062271118164;-20.038959503173828;-165.78257751464844
247;1673434288.8948839;47.1302928;7.2401206;50.047000885009766;1673434289.0288808;-18.127376556396484;-16.25803565979004;-157.12985229492188
248;1673434289.0864315;47.130294;7.2401254999999995;50.08100128173828;1673434289.2164001;-24.344097137451172;-15.213310241699219;-148.07333374023438
249;1673434289.2710352;47.130295;7.2401288;50.10900115966797;1673434289.4094722;-30.88650894165039;-17.703346252441406;-138.81423950195312
250;1673434289.4645724;47.130295499999995;7.2401304;50.137001037597656;1673434289.6112313;-42.7464599609375;-19.214122772216797;-130.67970275878906
251;1673434289.6668983;47.1302951;7.2401295999999995;50.17400360107422;1673434289.819247;-49.46726608276367;-22.928293228149414;-131.2903594970703
252;1673434289.8813183;47.130292999999995;7.2401257;50.20500183105469;1673434290.0332026;-54.60012435913086;-20.4854793548584;-135.75381469726562
253;1673434290.085718;47.130289;7.2401187;50.23200225830078;1673434290.2266138;-57.5661506652832;-16.76348114013672;-139.78773498535156
254;1673434290.2863097;47.130282799999996;7.2401086999999995;50.25100326538086;1673434290.4339092;-55.42731475830078;-11.82618236541748;-143.33029174804688
255;1673434290.4971359;47.1302747;7.2400958;50.24400329589844;1673434290.6574185;-49.95258712768555;-11.3063325881958;-142.13180541992188
256;1673434290.7244241;47.1302656;7.2400809;50.22600173950195;1673434290.8636026;-51.37799835205078;-11.001214981079102;-141.3794403076172
257;1673434290.920575;47.1302556;7.240064299999999;50.20900344848633;1673434291.060374;-48.61162567138672;-10.751667022705078;-140.69578552246094
258;1673434291.1146126;47.130244999999995;7.2400462999999995;50.177001953125;1673434291.2544374;-48.72703170776367;-11.443376541137695;-140.201171875
259;1673434291.3199668;47.130233999999994;7.240026899999999;50.15200424194336;1673434291.4454746;-47.006202697753906;-11.903014183044434;-140.0192413330078
260;1673434291.4963903;47.130222599999996;7.2400063999999995;50.121002197265625;1673434291.6402035;-47.35845947265625;-14.081199645996094;-139.3660125732422
261;1673434291.697168;47.130210899999994;7.2399852;50.09400177001953;1673434291.8431692;-47.14595413208008;-14.446450233459473;-139.56947326660156
262;1673434291.904214;47.130198899999996;7.239963299999999;50.06700134277344;1673434292.0353446;-45.08948516845703;-15.085935592651367;-139.6729278564453
263;1673434292.0901225;47.130186599999995;7.239941099999999;50.04500198364258;1673434292.2571275;-45.67049789428711;-16.676889419555664;-139.73858642578125
264;1673434292.308072;47.1301742;7.2399188;50.03300094604492;1673434292.4526622;-46.96413803100586;-20.076143264770508;-143.81558227539062
265;1673434292.5055497;47.1301613;7.2398967;50.03300094604492;1673434292.646064;-47.64102554321289;-14.099605560302734;-155.6746826171875
266;1673434292.703508;47.130148;7.2398753;50.02800369262695;1673434292.851243;-47.54199981689453;-8.114242553710938;-164.69522094726562
267;1673434292.9154525;47.130134399999996;7.2398548;50.02700424194336;1673434293.0594406;-46.28437805175781;-2.4565863609313965;-173.48817443847656
268;1673434293.120215;47.1301206;7.2398352;50.0150032043457;1673434293.2564974;-44.35368347167969;2.3443522453308105;177.9788360595703
269;1673434293.3192286;47.1301067;7.239816599999999;50.00200271606445;1673434293.4613912;-41.40470504760742;5.024734973907471;169.1695098876953
270;1673434293.5117872;47.1300929;7.239799;49.974002838134766;1673434293.6582596;-36.866580963134766;7.38284158706665;159.50790405273438
271;1673434293.7167566;47.130079599999995;7.2397826;49.93700408935547;1673434293.8743172;-35.49534606933594;8.215909004211426;150.58338928222656
272;1673434293.9324439;47.130066799999994;7.239767499999999;49.90200424194336;1673434294.0721395;-38.72852325439453;1.3757028579711914;143.10250854492188
273;1673434294.1279438;47.130054799999996;7.2397544;49.874000549316406;1673434294.265919;-38.8734130859375;-13.466222763061523;132.5260772705078
274;1673434294.3254058;47.130044;7.239744099999999;49.840003967285156;1673434294.472687;-37.75382614135742;-15.385110855102539;125.44246673583984
275;1673434294.530858;47.130035199999995;7.2397377;49.80800247192383;1673434294.670076;-27.728849411010742;-16.65631103515625;127.38716125488281
276;1673434294.7241826;47.1300287;7.2397339999999994;49.76300048828125;1673434294.8649285;-17.675548553466797;-20.735084533691406;142.61692810058594
277;1673434294.9269261;47.130024299999995;7.2397322;49.75400161743164;1673434295.0561903;-16.368335723876953;-35.478240966796875;161.13613891601562
278;1673434295.105521;47.130022;7.239732699999999;49.81300354003906;1673434295.2656772;-10.848485946655273;-35.53891372680664;172.220458984375
279;1673434295.3390534;47.1300215;7.2397355;49.87300109863281;1673434295.493941;-7.567720890045166;-29.014989852905273;-175.45162963867188
280;1673434295.5508199;47.1300221;7.2397396999999994;49.927001953125;1673434295.6742263;-6.762574195861816;-24.576675415039062;-164.7469024658203
281;1673434295.7259855;47.1300236;7.2397445;49.97500228881836;1673434295.8723888;-9.26175594329834;-23.200729370117188;-155.5556640625
282;1673434295.9256897;47.1300254;7.2397494;50.00600051879883;1673434296.069942;-13.889389991760254;-22.883621215820312;-146.81617736816406
283;1673434296.1230738;47.130027399999996;7.2397538;50.025001525878906;1673434296.2688267;-19.93998908996582;-24.380165100097656;-137.57962036132812
284;1673434296.3288772;47.130029099999994;7.239757099999999;50.0410041809082;1673434296.4753926;-38.14067459106445;-21.797380447387695;-129.67138671875
285;1673434296.535763;47.1300299;7.2397585;50.051002502441406;1673434296.6788678;-52.6535530090332;-19.91160774230957;-131.43003845214844
286;1673434296.742821;47.130029199999996;7.2397566;50.05600357055664;1673434296.8719418;-51.16461944580078;-15.339232444763184;-135.58407592773438
287;1673434296.9198005;47.1300266;7.2397509;50.051002502441406;1673434297.0493784;-51.70854568481445;-16.349767684936523;-137.89674377441406
288;1673434297.1026785;47.130021899999996;7.239741599999999;50.060001373291016;1673434297.2668386;-56.22206115722656;-17.04839324951172;-141.91758728027344
289;1673434297.3331156;47.1300153;7.2397297;50.079002380371094;1673434297.4749203;-55.23050308227539;-12.716774940490723;-143.6409912109375
290;1673434297.524064;47.130007;7.239715899999999;50.08100128173828;1673434297.652864;-49.620147705078125;-11.790728569030762;-142.43820190429688
291;1673434297.7054243;47.129997599999996;7.239700399999999;50.06800079345703;1673434297.8408759;-49.73394775390625;-10.174527168273926;-142.30223083496094
292;1673434297.8947809;47.1299875;7.2396832;50.06300354003906;1673434298.0601366;-47.088932037353516;-11.600582122802734;-141.44732666015625
293;1673434298.1235218;47.1299767;7.2396648;50.053001403808594;1673434298.2699847;-49.220245361328125;-10.541196823120117;-141.71389770507812
294;1673434298.3257177;47.1299656;7.2396451;50.038002014160156;1673434298.4703739;-46.30286407470703;-13.090570449829102;-140.6834716796875
295;1673434298.521712;47.1299541;7.239624399999999;50.02400207519531;1673434298.6744695;-47.3794059753418;-13.154019355773926;-141.1029052734375
296;1673434298.7375784;47.129942199999995;7.2396031;50.01300048828125;1673434298.8822646;-46.4197883605957;-15.719347953796387;-141.6599578857422
297;1673434298.9389944;47.1299299;7.2395815;50.00700378417969;1673434299.0866883;-50.02913284301758;-17.336042404174805;-148.57371520996094
298;1673434299.143422;47.1299172;7.2395599;50.01700210571289;1673434299.2830048;-49.17111587524414;-10.785367012023926;-160.34841918945312
299;1673434299.3381252;47.1299038;7.239538899999999;50.02000427246094;1673434299.47189;-47.46977615356445;-3.833189010620117;-169.4996795654297
300;1673434299.527765;47.1298901;7.2395187;50.01400375366211;1673434299.6622562;-45.1495475769043;2.475102424621582;-177.76878356933594
301;1673434299.719462;47.1298762;7.239499299999999;50.000003814697266;1673434299.8608143;-42.7797737121582;8.64694595336914;173.68394470214844
302;1673434299.9179904;47.1298624;7.239480599999999;49.98600387573242;1673434300.053701;-40.70798873901367;13.348736763000488;164.86257934570312
303;1673434300.1076338;47.1298487;7.2394624;49.974002838134766;1673434300.2573552;-36.28802490234375;15.35505485534668;155.523681640625
304;1673434300.316516;47.129835199999995;7.239445;49.94700241088867;1673434300.4689336;-32.05310821533203;15.3397216796875;145.56436157226562
305;1673434300.5281425;47.1298223;7.2394285;49.91200256347656;1673434300.676058;-31.917936325073242;17.711687088012695;134.64727783203125
306;1673434300.7498007;47.1298101;7.2394131999999995;49.89400100708008;1673434300.894701;-39.487056732177734;24.272510528564453;125.8572769165039
307;1673434300.9503207;47.1297983;7.2393997;49.91400146484375;1673434301.0911067;-42.947181701660156;32.45246887207031;123.79962921142578
308;1673434301.140882;47.1297862;7.239388;49.94900131225586;1673434301.2875316;-45.53586196899414;33.75315475463867;129.5596466064453
309;1673434301.3465323;47.1297733;7.2393776999999995;49.98400115966797;1673434301.512878;-50.53200149536133;28.169620513916016;142.0050811767578
310;1673434301.57996;47.1297597;7.2393678999999995;49.99800109863281;1673434301.726226;-49.994712829589844;15.295340538024902;155.96961975097656
311;1673434301.7750316;47.129745299999996;7.2393585;49.987003326416016;1673434301.910307;-45.23150634765625;10.630773544311523;163.66329956054688
312;1673434301.9582582;47.129730599999995;7.2393494;49.97100067138672;1673434302.0859354;-44.96808624267578;15.541823387145996;169.0804443359375
313;1673434302.138121;47.1297159;7.2393398;49.9530029296875;1673434302.2937167;-42.936363220214844;22.307905197143555;177.2867889404297
314;1673434302.366258;47.1297013;7.2393288;49.92500305175781;1673434302.5061939;-33.601741790771484;20.53856086730957;-169.12657165527344
315;1673434302.5581834;47.129687399999995;7.239315599999999;49.87600326538086;1673434302.7171433;-32.55084991455078;19.065380096435547;-164.51507568359375
316;1673434302.7709615;47.129674699999995;7.2393000999999995;49.8390007019043;1673434302.9046907;-33.7626953125;14.20051383972168;-155.72702026367188
317;1673434302.9614127;47.1296633;7.239282599999999;49.810001373291016;1673434303.0947542;-40.86823272705078;8.427388191223145;-147.3759307861328
318;1673434303.1418552;47.129652899999996;7.2392632;49.81200408935547;1673434303.2755027;-43.33919143676758;-1.730754017829895;-136.1459197998047
319;1673434303.328117;47.1296433;7.2392417;49.829002380371094;1673434303.478657;-49.61454772949219;-12.63551139831543;-130.96084594726562
320;1673434303.5409243;47.129633899999995;7.2392183999999995;49.86900329589844;1673434303.6915545;-51.18899154663086;-17.277109146118164;-135.20144653320312
321;1673434303.74575;47.1296239;7.2391939999999995;49.90500259399414;1673434303.877692;-50.561607360839844;-19.989953994750977;-139.85693359375
322;1673434303.9379606;47.1296131;7.2391692;49.948001861572266;1673434304.078314;-51.080421447753906;-20.693452835083008;-141.30154418945312
323;1673434304.1275575;47.1296014;7.2391448;49.980003356933594;1673434304.2781565;-48.02974319458008;-20.175073623657227;-142.80874633789062
324;1673434304.337505;47.1295888;7.239121;49.993003845214844;1673434304.4778285;-47.397308349609375;-18.575363159179688;-143.69601440429688
325;1673434304.5323703;47.1295757;7.2390978;50.000003814697266;1673434304.666754;-46.07426834106445;-20.88204574584961;-146.78289794921875
326;1673434304.723338;47.129562199999995;7.2390753;50.00100326538086;1673434304.8751903;-44.52289581298828;-14.036893844604492;-158.46287536621094
327;1673434304.9298186;47.1295484;7.2390541;49.99700164794922;1673434305.073752;-44.70050811767578;-8.320330619812012;-166.9835205078125
328;1673434305.1256993;47.1295345;7.2390339;49.987003326416016;1673434305.259963;-45.039424896240234;-2.695916175842285;-175.6915740966797
329;1673434305.3200643;47.1295205;7.2390149;49.980003356933594;1673434305.4730303;-44.67927169799805;3.367263078689575;175.8134765625
330;1673434305.5287664;47.1295066;7.2389969;49.97200393676758;1673434305.6712246;-41.87063980102539;10.49417781829834;166.80908203125
331;1673434305.726481;47.1294928;7.2389798;49.96000289916992;1673434305.8828564;-40.30213165283203;15.712484359741211;158.49095153808594
332;1673434305.9428267;47.1294792;7.238963399999999;49.952003479003906;1673434306.0899673;-36.44441223144531;17.6181697845459;149.83668518066406
333;1673434306.141754;47.1294658;7.2389475999999995;49.93700408935547;1673434306.2879958;-36.30490493774414;2.9515631198883057;143.52932739257812
334;1673434306.3470614;47.129453;7.2389332;49.915000915527344;1673434306.5033884;-31.97596549987793;-24.920541763305664;132.74783325195312
335;1673434306.561753;47.129441799999995;7.2389215;49.867000579833984;1673434306.698761;-18.476337432861328;-20.664810180664062;127.00686645507812
336;1673434306.7633734;47.129433299999995;7.2389126;49.785003662109375;1673434306.9016922;-5.509159564971924;-17.07701873779297;146.34967041015625
337;1673434306.957055;47.1294277;7.2389054999999995;49.7140007019043;1673434307.096918;5.153774738311768;-30.964763641357422;167.3677520751953
338;1673434307.152837;47.1294251;7.2389002;49.73600387573242;1673434307.2864685;5.502810955047607;-32.770870208740234;178.25669860839844
339;1673434307.3423269;47.129425;7.238897;49.78900146484375;1673434307.4792373;-20.823129653930664;-31.34433364868164;-171.32847595214844
340;1673434307.5300417;47.1294263;7.2388958;49.85900115966797;1673434307.6731224;-37.96475601196289;-27.6289119720459;-169.09434509277344
341;1673434307.72713;47.129427299999996;7.238895899999999;49.915000915527344;1673434307.8821595;-56.7248420715332;-15.950186729431152;177.39674377441406
342;1673434307.9409938;47.129426699999996;7.238896899999999;49.97100067138672;1673434308.0728588;-56.49481964111328;-2.2628962993621826;163.38011169433594
343;1673434308.1281066;47.1294237;7.2388984999999995;50.00700378417969;1673434308.275133;-54.41322708129883;-1.8761032819747925;172.380615234375
344;1673434308.3378172;47.129418699999995;7.2389002;50.01300048828125;1673434308.4784114;-48.77387237548828;-7.954412460327148;-173.8395538330078
345;1673434308.532206;47.129412099999996;7.2389011;50.00800323486328;1673434308.683658;-48.504493713378906;-6.430112838745117;-165.08253479003906
346;1673434308.7394912;47.129404099999995;7.2389005;49.999000549316406;1673434308.8811085;-45.46210479736328;-11.810498237609863;-154.58815002441406
347;1673434308.9410863;47.1293952;7.2388978999999996;50.005001068115234;1673434309.082322;-43.62604522705078;-20.32469940185547;-145.1763916015625
348;1673434309.1382134;47.1293855;7.2388936;50.01400375366211;1673434309.2865932;-37.883384704589844;-18.892417907714844;-134.8506317138672
349;1673434309.3433962;47.1293752;7.2388875;50.02800369262695;1673434309.4847772;-34.39197540283203;-5.568487644195557;-130.79283142089844
350;1673434309.5420184;47.129365299999996;7.2388794;50.04900360107422;1673434309.689415;-42.17551803588867;-1.9522939920425415;-131.55494689941406
351;1673434309.7468243;47.1293562;7.2388685;50.077003479003906;1673434309.8798082;-49.326419830322266;4.296079158782959;-134.18807983398438
352;1673434309.9337108;47.129347599999996;7.2388542;50.10700225830078;1673434310.0683112;-56.444007873535156;4.474833011627197;-136.15249633789062
353;1673434310.1264791;47.1293395;7.2388357999999995;50.12200164794922;1673434310.2736895;-55.28487014770508;-2.283271074295044;-136.1619415283203
354;1673434310.3330786;47.129331199999996;7.2388137;50.12900161743164;1673434310.482037;-48.041297912597656;-10.026748657226562;-136.74855041503906
355;1673434310.5432508;47.1293225;7.2387893;50.12600326538086;1673434310.6979554;-48.9498176574707;-17.848674774169922;-140.1395263671875
356;1673434310.754169;47.1293132;7.238764199999999;50.13600158691406;1673434310.8938494;-54.66144561767578;-25.501699447631836;-140.56654357910156
357;1673434310.9520817;47.1293027;7.2387393;50.14600372314453;1673434311.0922217;-46.85873031616211;-21.43824005126953;-148.35073852539062
358;1673434311.145699;47.129291099999996;7.238715399999999;50.134002685546875;1673434311.2931125;-44.80863571166992;-22.371871948242188;-148.46083068847656
359;1673434311.3463597;47.129278799999994;7.2386931;50.1140022277832;1673434311.489944;-44.86130142211914;-25.636295318603516;-150.07200622558594
360;1673434311.5496106;47.129266;7.238671999999999;50.08700180053711;1673434311.6941874;-39.69794464111328;-25.011354446411133;-162.2820281982422
361;1673434311.7554011;47.129252799999996;7.238652999999999;50.060001373291016;1673434311.8965878;-34.23193359375;-26.61745834350586;-171.4629364013672
362;1673434311.9549427;47.129239899999995;7.2386365999999995;50.02300262451172;1673434312.1019926;-29.56753921508789;-24.360889434814453;177.68673706054688
363;1673434312.1552558;47.1292277;7.2386232999999995;49.98500061035156;1673434312.304228;-31.933563232421875;-24.965599060058594;171.21681213378906
364;1673434312.3599098;47.129216799999995;7.238613099999999;49.96000289916992;1673434312.494288;-37.857391357421875;-26.978382110595703;174.98611450195312
365;1673434312.5658045;47.1292068;7.238606;49.9630012512207;1673434312.7539074;-38.96160888671875;-38.23687744140625;-171.49107360839844
366;1673434312.800166;47.1291973;7.238602299999999;49.98100280761719;1673434312.9302006;-25.171018600463867;-38.57633590698242;-161.77566528320312
367;1673434312.979323;47.1291879;7.2386013;49.97800064086914;1673434313.104957;-7.675728797912598;-32.02336883544922;-150.9853515625
368;1673434313.1595213;47.129179199999996;7.238601699999999;49.958003997802734;1673434313.308418;5.715346813201904;-30.748506546020508;-136.20318603515625
369;1673434313.3544335;47.1291715;7.2386032;49.97300338745117;1673434313.4885025;10.7366943359375;-19.279951095581055;-124.802001953125
370;1673434313.5405269;47.129165199999996;7.238605499999999;50.00800323486328;1673434313.7055035;-9.028519630432129;4.06317663192749;-122.901123046875
371;1673434313.7728467;47.1291605;7.238607099999999;50.02700424194336;1673434313.8962042;-23.493574142456055;0.45404496788978577;-115.86259460449219
372;1673434313.9484668;47.1291575;7.2386059;50.038002014160156;1673434314.0973547;-23.99980354309082;-10.310026168823242;-112.84930419921875
373;1673434314.1496162;47.1291556;7.2386021;50.05500411987305;1673434314.2947466;-18.78616714477539;-18.13107681274414;-114.83394622802734
374;1673434314.3568153;47.129154299999996;7.2385961;50.07400131225586;1673434314.5009918;-2.819385290145874;-25.742156982421875;-119.48422241210938
375;1673434314.5602453;47.1291532;7.2385892;50.09400177001953;1673434314.6922896;-1.9465854167938232;-27.65812110900879;-122.90503692626953
376;1673434314.7433412;47.1291523;7.2385826;50.11600112915039;1673434314.8766263;5.871973514556885;-27.48152732849121;-131.5666961669922
377;1673434314.9310215;47.1291517;7.2385769;50.207000732421875;1673434315.0766149;3.1208696365356445;-20.42627716064453;-140.77101135253906
378;1673434315.1327329;47.1291516;7.238572899999999;50.41800308227539;1673434315.2739525;-10.48319149017334;-20.410011291503906;-141.0845947265625
379;1673434315.3407772;47.1291521;7.238569699999999;50.755001068115234;1673434315.4900274;-7.382547855377197;-40.24024200439453;-140.31394958496094
380;1673434315.5536537;47.1291521;7.238567499999999;51.150001525878906;1673434315.697776;-2.7422800064086914;-37.211158752441406;-137.32290649414062
381;1673434315.7603273;47.1291517;7.2385667;51.531002044677734;1673434315.9372797;2.861783027648926;-31.470033645629883;-136.7577667236328
382;1673434315.9882824;47.129151;7.238567199999999;51.88300323486328;1673434316.126254;-3.1456706523895264;-29.432762145996094;-135.29541015625
383;1673434316.1834793;47.129150599999996;7.2385684999999995;52.2030029296875;1673434316.324901;-4.878026962280273;-31.025907516479492;-136.89334106445312
384;1673434316.38638;47.129149999999996;7.238569999999999;52.538002014160156;1673434316.5213094;-22.76206398010254;-25.95923614501953;-135.05154418945312
385;1673434316.574375;47.129148799999996;7.2385712;52.87400436401367;1673434316.7056036;-33.93254089355469;-22.383630752563477;-135.9256134033203
386;1673434316.7639446;47.129146999999996;7.2385711;53.191001892089844;1673434316.906055;-44.82887268066406;-18.753921508789062;-136.6138458251953
387;1673434316.9600236;47.129143899999995;7.2385684999999995;53.51900100708008;1673434317.094114;-49.8448486328125;-13.474688529968262;-137.23550415039062
388;1673434317.150472;47.1291394;7.238562699999999;53.83400344848633;1673434317.2970967;-46.47230529785156;-18.383207321166992;-137.7225799560547
389;1673434317.3497791;47.1291333;7.238553899999999;54.14500427246094;1673434317.4889407;-42.59654235839844;-20.298643112182617;-139.7638397216797
390;1673434317.5517025;47.1291259;7.238543099999999;54.457000732421875;1673434317.6998625;-36.259742736816406;-22.14861297607422;-139.8325958251953
391;1673434317.7586992;47.129117699999995;7.2385312;54.76100158691406;1673434317.942308;-36.089290618896484;-21.427433013916016;-139.30323791503906
392;1673434317.993293;47.129109;7.2385189;55.05400085449219;1673434318.151872;-35.296852111816406;-22.05757713317871;-138.76913452148438
393;1673434318.1987822;47.1290999;7.2385060999999995;55.35600280761719;1673434318.3215237;-34.268741607666016;-22.272186279296875;-138.3312225341797
394;1673434318.374429;47.1290905;7.238493;55.669002532958984;1673434318.5069702;-33.66645812988281;-22.561620712280273;-137.75518798828125
395;1673434318.5599093;47.1290808;7.2384797999999995;55.987003326416016;1673434318.7138565;-32.83300018310547;-22.874357223510742;-137.13746643066406
396;1673434318.7695253;47.129070899999995;7.2384664999999995;56.316001892089844;1673434318.9142473;-32.16390609741211;-22.931467056274414;-136.74542236328125
397;1673434318.9608636;47.129061;7.2384531;56.65400314331055;1673434319.0943182;-31.72048568725586;-22.713132858276367;-136.70970153808594
398;1673434319.1556978;47.129051;7.2384397;56.993003845214844;1673434319.2892823;-31.393320083618164;-22.639150619506836;-136.73529052734375
399;1673434319.3440652;47.129041;7.238426199999999;57.34400177001953;1673434319.4952757;-31.16421890258789;-22.607574462890625;-136.63983154296875
400;1673434319.5555491;47.1290309;7.2384127;57.7030029296875;1673434319.716515;-31.197166442871094;-22.572153091430664;-136.5706024169922
401;1673434319.7703755;47.1290209;7.238399299999999;58.0680046081543;1673434319.9089117;-30.98726463317871;-22.516942977905273;-136.5885009765625
402;1673434319.966812;47.1290109;7.2383858;58.43400192260742;1673434320.1189497;-31.086641311645508;-22.48975944519043;-136.57379150390625
403;1673434320.1775131;47.129000999999995;7.238372399999999;58.80400466918945;1673434320.3389473;-31.059450149536133;-22.49294090270996;-136.614501953125
404;1673434320.3926551;47.1289911;7.2383589;59.176002502441406;1673434320.5259216;-31.355552673339844;-22.3850154876709;-136.6884307861328
405;1673434320.583075;47.1289813;7.238345499999999;59.54500198364258;1673434320.7308714;-31.233144760131836;-22.54684829711914;-136.72825622558594
406;1673434320.7837174;47.1289714;7.238332;59.92000198364258;1673434320.9210455;-31.485197067260742;-22.551023483276367;-136.71163940429688
407;1673434320.9744349;47.128961499999996;7.2383185999999995;60.29600143432617;1673434321.1179402;-31.48849105834961;-22.587114334106445;-136.75283813476562
408;1673434321.174589;47.128951699999995;7.2383051;60.67400360107422;1673434321.317743;-31.445653915405273;-22.54119300842285;-136.79481506347656
409;1673434321.372214;47.1289418;7.238291599999999;61.05400466918945;1673434321.5153198;-31.58376693725586;-22.66084098815918;-136.7467041015625
410;1673434321.5744443;47.1289319;7.2382782;61.43000411987305;1673434321.7184114;-31.66836166381836;-22.62263298034668;-136.80177307128906
411;1673434321.772337;47.1289221;7.2382646;61.801002502441406;1673434321.9128847;-31.734106063842773;-22.747007369995117;-136.80934143066406
412;1673434321.9682033;47.128912199999995;7.238251099999999;62.177001953125;1673434322.1183;-31.78989028930664;-22.645587921142578;-136.81549072265625
413;1673434322.1775987;47.1289023;7.238237499999999;62.553001403808594;1673434322.3179793;-31.890165328979492;-22.76021385192871;-136.81134033203125
414;1673434322.3902614;47.1288924;7.238224;62.927001953125;1673434322.5223992;-31.87954330444336;-22.605436325073242;-136.83810424804688
415;1673434322.5861516;47.128882399999995;7.2382105;63.30400466918945;1673434322.7254562;-31.896718978881836;-22.580074310302734;-136.82464599609375
416;1673434322.7727737;47.1288725;7.238196899999999;63.685001373291016;1673434322.9158185;-31.956274032592773;-22.55499267578125;-136.80279541015625
417;1673434322.98053;47.1288625;7.238183299999999;64.06600189208984;1673434323.1388474;-31.890321731567383;-22.55760955810547;-136.82302856445312
418;1673434323.192751;47.1288525;7.238169699999999;64.44499969482422;1673434323.3309104;-32.002540588378906;-22.554218292236328;-136.79673767089844
419;1673434323.3887703;47.1288426;7.238156099999999;64.82300567626953;1673434323.5372174;-32.08308410644531;-22.549184799194336;-136.82981872558594
