;pos_time;latitude;longitude;altitude;alt_time;pitch;roll;yaw
0;1673432676.01776;47.1306424;7.24062;-0.006000000052154064;1673432676.1510534;-0.1407996267080307;-0.598572850227356;90.31244659423828
1;1673432676.215168;47.1306424;7.24062;-0.005000000353902578;1673432676.3426094;0.0034498723689466715;-0.3797835111618042;90.24563598632812
2;1673432676.4019132;47.1306423;7.24062;-0.00800000037997961;1673432676.53105;0.2529003322124481;-0.3517099916934967;90.15229034423828
3;1673432676.5946224;47.1306423;7.2406201;-0.01100000087171793;1673432676.7358508;-0.056624073535203934;-0.4834965169429779;90.23483276367188
4;1673432676.801721;47.1306423;7.2406201;-0.012000000104308128;1673432676.940073;-0.2723705470561981;-0.41358131170272827;90.20675659179688
5;1673432677.005923;47.1306423;7.2406201999999995;-0.013000000268220901;1673432677.167097;-0.139906644821167;-0.389669805765152;90.14066314697266
6;1673432677.221082;47.1306423;7.2406201;-0.020000001415610313;1673432677.3824563;-0.13612477481365204;-0.47342056035995483;90.20182800292969
7;1673432677.4418485;47.1306424;7.24062;-0.024000000208616257;1673432677.5646012;0.005447395611554384;-0.4365757405757904;90.25887298583984
8;1673432677.6310728;47.1306423;7.24062;-0.027000000700354576;1673432677.759462;-0.10742738842964172;-0.36116617918014526;90.1991195678711
9;1673432677.8196366;47.1306423;7.2406201;-0.027000000700354576;1673432677.9525645;-0.2127426266670227;-0.39786818623542786;90.07524871826172
10;1673432678.0200844;47.1306423;7.2406201;-0.027000000700354576;1673432678.196258;-0.033240556716918945;-0.5371485352516174;90.1441650390625
11;1673432678.2751806;47.1306422;7.2406201;-0.026000000536441803;1673432678.4033782;-0.1871098130941391;-0.30006471276283264;90.08850860595703
12;1673432678.4719803;47.1306422;7.2406201;-0.02800000086426735;1673432678.6071014;-0.17657195031642914;-0.5344010591506958;90.16261291503906
13;1673432678.6709719;47.1306422;7.24062;-0.029000001028180122;1673432678.7852824;0.058194421231746674;-0.30123838782310486;90.15099334716797
14;1673432678.8357472;47.130642099999996;7.24062;-0.02800000086426735;1673432678.9654906;-0.03334002196788788;-1.209970235824585;90.01068878173828
15;1673432679.0256388;47.130642099999996;7.24062;0.0010000000474974513;1673432679.1524553;-0.029777808114886284;-2.101335287094116;90.25798034667969
16;1673432679.2116625;47.130642099999996;7.24062;0.003000000026077032;1673432679.3467588;0.026696274057030678;-1.4134138822555542;90.09506225585938
17;1673432679.4141746;47.130642099999996;7.24062;0.006000000052154064;1673432679.5336654;-0.08938116580247879;-1.6816970109939575;90.21927642822266
18;1673432679.6004272;47.130642099999996;7.2406201;0.006000000052154064;1673432679.7571907;-0.35200241208076477;-1.633328914642334;90.05976867675781
19;1673432679.8202283;47.1306422;7.2406201;0.006000000052154064;1673432679.9409726;-0.2329290807247162;-1.904318928718567;90.21295928955078
20;1673432680.0040991;47.1306422;7.2406201999999995;0.005000000353902578;1673432680.1403115;-0.1864321529865265;-2.465285062789917;90.22152709960938
21;1673432680.2020278;47.1306423;7.2406201999999995;0.0020000000949949026;1673432680.3433495;-0.12331264466047287;-2.133547067642212;90.22354125976562
22;1673432680.415314;47.1306423;7.2406201999999995;0.0010000000474974513;1673432680.562311;-0.045322466641664505;-2.444829225540161;90.0583724975586
23;1673432680.6272445;47.1306423;7.2406201999999995;0.0;1673432680.757749;0.03485328331589699;-1.6242719888687134;90.28073120117188
24;1673432680.837727;47.1306424;7.2406201;0.0020000000949949026;1673432680.9994059;-0.04037468880414963;-0.8706098794937134;90.66356658935547
25;1673432681.0572119;47.1306425;7.2406201;0.005000000353902578;1673432681.1858985;0.0839778482913971;-0.7125425934791565;90.52801513671875
26;1673432681.2475579;47.1306425;7.24062;0.007000000216066837;1673432681.3828716;-0.1343308538198471;-0.7193681597709656;90.92196655273438
27;1673432681.4459245;47.130642699999996;7.24062;0.007000000216066837;1673432681.5789044;-0.21421535313129425;-0.7719166278839111;91.02857971191406
28;1673432681.646357;47.1306428;7.24062;0.007000000216066837;1673432681.77749;0.020373843610286713;0.0875721201300621;92.4818115234375
29;1673432681.8430147;47.1306434;7.2406201;0.005000000353902578;1673432681.9585266;-0.09154054522514343;0.06683959811925888;96.03282165527344
30;1673432682.018928;47.1306444;7.2406201999999995;0.012000000104308128;1673432682.1421201;0.001896124449558556;2.651705265045166;101.9515609741211
31;1673432682.205166;47.1306461;7.2406203;0.020000001415610313;1673432682.3446765;-0.11855679005384445;5.35780668258667;108.49916076660156
32;1673432682.4053075;47.1306483;7.2406204999999995;0.027000000700354576;1673432682.541701;-1.375937581062317;9.98898696899414;113.99093627929688
33;1673432682.606377;47.130651099999994;7.2406207;0.03700000047683716;1673432682.7326164;-4.116383075714111;13.399178504943848;114.7449722290039
34;1673432682.7977495;47.1306544;7.2406209;0.0430000014603138;1673432682.9250329;-3.547999620437622;15.58881950378418;110.03350830078125
35;1673432682.9901845;47.1306581;7.240621399999999;0.06000000238418579;1673432683.1302981;-3.0664467811584473;17.257396697998047;105.97186279296875
36;1673432683.1964436;47.130662199999996;7.240622;0.09400000423192978;1673432683.3406365;-2.318502426147461;18.792617797851562;102.74441528320312
37;1673432683.4074936;47.130666299999994;7.2406229;0.14600001275539398;1673432683.554558;-1.4005868434906006;20.57571792602539;100.06122589111328
38;1673432683.6201758;47.1306705;7.2406239;0.21400001645088196;1673432683.7823193;-0.47474539279937744;22.471193313598633;98.06544494628906
39;1673432683.83333;47.1306746;7.2406251;0.30100002884864807;1673432683.9515567;0.4828411340713501;24.180072784423828;96.4998779296875
40;1673432684.0114574;47.130678499999995;7.2406264;0.398000031709671;1673432684.137884;1.4311946630477905;26.091655731201172;95.21253204345703
41;1673432684.1978338;47.1306821;7.2406277;0.5;1673432684.3521435;2.441086530685425;27.84217643737793;94.18800354003906
42;1673432684.458723;47.1306854;7.2406289;0.6040000319480896;1673432684.578239;3.396718740463257;29.766359329223633;93.33187103271484
43;1673432684.6616676;47.1306881;7.2406301;0.7170000076293945;1673432684.785236;4.301671504974365;31.64467430114746;92.5812759399414
44;1673432684.8411107;47.1306904;7.2406311;0.8350000381469727;1673432684.9708798;5.3106231689453125;33.45600891113281;91.93399810791016
45;1673432685.0378206;47.130691999999996;7.240632;0.9530000686645508;1673432685.1587665;6.338181018829346;35.44893264770508;91.31553649902344
46;1673432685.2146537;47.130693;7.2406326;1.0770000219345093;1673432685.3477185;7.357760429382324;37.306819915771484;90.88021087646484
47;1673432685.418099;47.130693199999996;7.240633;1.2030000686645508;1673432685.5624425;8.435420989990234;39.33584976196289;90.38594818115234
48;1673432685.6272142;47.130692599999996;7.240633099999999;1.3330000638961792;1673432685.7696269;9.538105010986328;41.1627311706543;89.92718505859375
49;1673432685.8283684;47.1306911;7.240633;1.465000033378601;1673432685.9504204;10.726792335510254;43.14601135253906;89.40876770019531
50;1673432686.0111597;47.1306886;7.240632499999999;1.6010000705718994;1673432686.138911;13.272246360778809;44.78844451904297;87.5148696899414
51;1673432686.1964848;47.1306851;7.2406317;1.7410000562667847;1673432686.3312333;14.277128219604492;45.19230270385742;86.53295135498047
52;1673432686.399146;47.1306806;7.2406305;1.8850001096725464;1673432686.5277483;12.946423530578613;41.0845832824707;85.3707504272461
53;1673432686.5947807;47.1306753;7.240628999999999;2.0250000953674316;1673432686.7319188;11.398427963256836;35.719669342041016;84.24808502197266
54;1673432686.807549;47.1306696;7.240627399999999;2.1550002098083496;1673432686.9420242;9.105164527893066;30.4273738861084;83.35292053222656
55;1673432687.0061255;47.1306641;7.2406258;2.2740001678466797;1673432687.1393945;7.4198527336120605;25.340877532958984;82.89163208007812
56;1673432687.2015975;47.130659;7.2406242999999995;2.384000062942505;1673432687.338941;5.691935062408447;21.96788215637207;82.90968322753906
57;1673432687.403534;47.1306546;7.240622999999999;2.4860000610351562;1673432687.5373356;4.428492069244385;19.829662322998047;83.21829986572266
58;1673432687.603989;47.130651;7.240622;2.5880000591278076;1673432687.735747;4.233124256134033;18.612911224365234;83.43333435058594
59;1673432687.799215;47.1306483;7.240621399999999;2.694000244140625;1673432687.9320593;4.857108116149902;19.13626480102539;83.50728607177734
60;1673432687.997065;47.1306465;7.2406212;2.814000129699707;1673432688.1414962;5.882735252380371;21.402877807617188;83.61082458496094
61;1673432688.206132;47.1306455;7.2406212;2.948000192642212;1673432688.3340602;6.888078689575195;22.565963745117188;83.41051483154297
62;1673432688.3888958;47.1306449;7.2406213;3.0960001945495605;1673432688.528188;8.1950101852417;23.03572654724121;83.32156372070312
63;1673432688.595914;47.1306447;7.2406215;3.265000104904175;1673432688.7450163;9.090239524841309;26.686054229736328;82.98190307617188
64;1673432688.8133135;47.1306448;7.2406216;3.444000244140625;1673432688.94254;9.780777931213379;27.246885299682617;82.99817657470703
65;1673432689.0110738;47.1306449;7.240621699999999;3.632000207901001;1673432689.134635;9.838685989379883;27.138713836669922;82.95585632324219
66;1673432689.1941829;47.1306449;7.2406216;3.8310000896453857;1673432689.33779;9.828298568725586;29.11775779724121;83.08790588378906
67;1673432689.3987591;47.1306448;7.240621399999999;4.027000427246094;1673432689.533543;9.475412368774414;28.444204330444336;82.96349334716797
68;1673432689.5932286;47.1306446;7.2406212;4.2230000495910645;1673432689.7317529;9.178988456726074;27.029390335083008;83.02000427246094
69;1673432689.7956953;47.1306443;7.240621;4.421000003814697;1673432689.9242358;8.719756126403809;28.41116714477539;83.15670776367188
70;1673432689.988652;47.1306441;7.240620799999999;4.618000030517578;1673432690.1315734;8.42677116394043;27.86526870727539;83.19664764404297
71;1673432690.1988866;47.1306438;7.2406204999999995;4.814000129699707;1673432690.3542302;8.02485466003418;26.024425506591797;83.03985595703125
72;1673432690.4426894;47.1306435;7.2406204;5.011000156402588;1673432690.5757358;8.028465270996094;27.1485652923584;83.15206146240234
73;1673432690.6352305;47.130643199999994;7.2406203;5.204000473022461;1673432690.7696013;8.005278587341309;26.788496017456055;83.18111419677734
74;1673432690.8259351;47.130643;7.2406201999999995;5.402000427246094;1673432690.9614542;7.8544020652771;25.142335891723633;83.08219146728516
75;1673432691.029251;47.1306429;7.2406201999999995;5.593000411987305;1673432691.1638913;8.13762092590332;26.468055725097656;83.09832763671875
76;1673432691.2248037;47.1306428;7.2406201999999995;5.785000324249268;1673432691.3425875;8.300689697265625;27.117713928222656;83.16865539550781
77;1673432691.4070163;47.130642699999996;7.2406201999999995;5.979000091552734;1673432691.5390122;8.267924308776855;25.55497932434082;83.07073974609375
78;1673432691.610639;47.130642699999996;7.2406201999999995;6.173000335693359;1673432691.7568777;8.516077041625977;27.038450241088867;83.0702133178711
79;1673432691.8223174;47.130642699999996;7.2406203;6.369000434875488;1673432691.9704454;8.538872718811035;27.364768981933594;83.1202163696289
80;1673432692.0373085;47.130642699999996;7.2406203;6.565000534057617;1673432692.1665046;8.495810508728027;25.646556854248047;83.08541870117188
81;1673432692.24172;47.130642599999995;7.2406203;6.76200008392334;1673432692.3714662;8.446405410766602;27.087369918823242;83.14893341064453
82;1673432692.4316192;47.130642599999995;7.2406203;6.961000442504883;1673432692.5639577;8.428186416625977;27.48683738708496;83.1393814086914
83;1673432692.6299715;47.130642599999995;7.2406203;7.158000469207764;1673432692.7617004;8.569706916809082;25.760957717895508;83.09913635253906
84;1673432692.8238654;47.1306425;7.2406203;7.354000568389893;1673432692.9870267;8.589203834533691;26.829042434692383;83.11931610107422
85;1673432693.054615;47.1306425;7.2406204;7.547000408172607;1673432693.189699;8.632502555847168;27.42278289794922;83.1584243774414
86;1673432693.2576952;47.1306425;7.2406204;7.738000392913818;1673432693.3822064;8.591238975524902;25.643993377685547;83.10860443115234
87;1673432693.4433951;47.1306425;7.2406204999999995;7.932000160217285;1673432693.5572526;8.508712768554688;26.807775497436523;83.17668151855469
88;1673432693.6268919;47.1306425;7.2406204999999995;8.125;1673432693.7744799;8.77380657196045;27.589719772338867;83.15885925292969
89;1673432693.8419218;47.1306425;7.2406204999999995;8.318000793457031;1673432693.970208;8.525920867919922;25.9212589263916;83.09484100341797
90;1673432694.0324526;47.1306425;7.2406204999999995;8.51300048828125;1673432694.171792;8.659686088562012;26.588212966918945;83.12081146240234
91;1673432694.2338216;47.1306425;7.2406204999999995;8.709000587463379;1673432694.378001;8.677512168884277;27.654970169067383;83.13211822509766
92;1673432694.4494474;47.1306425;7.2406204999999995;8.904000282287598;1673432694.5878363;8.532537460327148;25.915180206298828;83.08362579345703
93;1673432694.6555486;47.1306424;7.2406204;9.098000526428223;1673432694.7713246;8.501912117004395;26.65627670288086;83.0885009765625
94;1673432694.8389318;47.1306424;7.2406204;9.292000770568848;1673432694.9605284;8.43160629272461;27.700145721435547;83.20539855957031
95;1673432695.0189087;47.1306424;7.2406204;9.482000350952148;1673432695.1508915;8.476937294006348;25.982101440429688;83.10508728027344
96;1673432695.218647;47.1306424;7.2406203;9.675000190734863;1673432695.3499908;8.426230430603027;26.712377548217773;83.11840057373047
97;1673432695.4117785;47.1306423;7.2406204;9.871000289916992;1673432695.5523324;8.750807762145996;27.664121627807617;83.16338348388672
98;1673432695.6206703;47.1306424;7.2406204;10.069000244140625;1673432695.7497504;8.351962089538574;25.12178611755371;83.02288818359375
99;1673432695.8104982;47.1306423;7.2406203;10.302000045776367;1673432695.94662;8.251993179321289;25.603376388549805;82.95183563232422
100;1673432696.013877;47.130641999999995;7.2406201999999995;10.659000396728516;1673432696.1494782;8.572521209716797;28.818574905395508;83.18622589111328
101;1673432696.218952;47.1306416;7.2406201;11.04800033569336;1673432696.3533528;8.030682563781738;25.112201690673828;83.12874603271484
102;1673432696.4153779;47.1306412;7.24062;11.443000793457031;1673432696.5531983;7.708004474639893;25.044824600219727;83.35743713378906
103;1673432696.6156507;47.130640899999996;7.2406198999999996;11.84000015258789;1673432696.74106;7.7931976318359375;25.58023452758789;83.28024291992188
104;1673432696.8045242;47.1306407;7.2406198999999996;12.241000175476074;1673432696.9459682;7.806690692901611;23.836645126342773;83.22647857666016
105;1673432697.0135198;47.1306406;7.2406198999999996;12.641000747680664;1673432697.1504273;7.533010959625244;24.13249397277832;83.21366119384766
106;1673432697.2110422;47.1306406;7.2406198999999996;13.041000366210938;1673432697.3530948;7.865996360778809;25.59037971496582;83.24961853027344
107;1673432697.4181092;47.1306407;7.2406198999999996;13.443000793457031;1673432697.556478;7.789699554443359;24.666645050048828;83.14015197753906
108;1673432697.622324;47.130640799999995;7.2406198999999996;13.845000267028809;1673432697.7701836;7.9597859382629395;25.040163040161133;83.11018371582031
109;1673432697.8226812;47.130640899999996;7.2406198999999996;14.249000549316406;1673432697.9500804;7.988365173339844;26.47934341430664;83.17758178710938
110;1673432698.023562;47.1306411;7.2406198999999996;14.657000541687012;1673432698.1544418;8.25074291229248;25.711782455444336;83.1054458618164
111;1673432698.2241938;47.1306412;7.24062;15.069000244140625;1673432698.3704772;8.282766342163086;25.47669219970703;83.0969009399414
112;1673432698.4361002;47.1306413;7.24062;15.480000495910645;1673432698.5724142;8.380725860595703;27.031940460205078;83.19396209716797
113;1673432698.6411295;47.130641399999995;7.24062;15.891000747680664;1673432698.7672334;8.186698913574219;25.778873443603516;83.11271667480469
114;1673432698.8294985;47.130641399999995;7.24062;16.301000595092773;1673432698.952231;8.292681694030762;25.400218963623047;83.12727355957031
115;1673432699.0126803;47.130641399999995;7.24062;16.71500015258789;1673432699.1474788;8.219003677368164;26.42511558532715;83.1504898071289
116;1673432699.221845;47.130641399999995;7.24062;17.131000518798828;1673432699.3945045;8.199925422668457;25.68368911743164;83.17137145996094
117;1673432699.447563;47.130641399999995;7.2406201;17.546001434326172;1673432699.569977;8.304755210876465;25.12828254699707;83.07825469970703
118;1673432699.6291275;47.130641399999995;7.2406201;17.957000732421875;1673432699.7500725;8.404764175415039;26.498558044433594;83.10502624511719
119;1673432699.814591;47.130641399999995;7.24062;18.362001419067383;1673432699.951914;8.229516983032227;25.52710723876953;83.07185363769531
120;1673432700.023429;47.130641399999995;7.24062;18.763999938964844;1673432700.152087;8.31097412109375;24.967823028564453;83.08526611328125
121;1673432700.221151;47.130641399999995;7.24062;19.163000106811523;1673432700.3641498;8.207903861999512;26.331235885620117;83.12785339355469
122;1673432700.4261472;47.130641499999996;7.24062;19.569000244140625;1673432700.5677028;8.226704597473145;25.595470428466797;83.1247329711914
123;1673432700.6316428;47.130641499999996;7.2406198999999996;19.97800064086914;1673432700.791669;8.107330322265625;25.300182342529297;83.09453582763672
124;1673432700.8469563;47.1306416;7.240619799999999;20.384000778198242;1673432700.9619694;8.002742767333984;26.625652313232422;83.18501281738281
125;1673432701.0216684;47.1306416;7.240619799999999;20.782001495361328;1673432701.155457;8.151745796203613;25.678558349609375;83.13331604003906
126;1673432701.2124486;47.1306416;7.240619799999999;21.181001663208008;1673432701.3452387;8.189437866210938;25.35961151123047;83.10682678222656
127;1673432701.4205394;47.1306417;7.240619799999999;21.580001831054688;1673432701.5486708;8.299301147460938;26.81220054626465;83.19882202148438
128;1673432701.6025934;47.1306417;7.240619799999999;21.988000869750977;1673432701.735981;8.195452690124512;25.79528045654297;83.15567016601562
129;1673432701.8064759;47.1306418;7.2406197;22.398000717163086;1673432701.9527605;8.1049222946167;25.414791107177734;83.09442138671875
130;1673432702.0154867;47.1306418;7.2406197;22.804000854492188;1673432702.1616766;8.257864952087402;26.779945373535156;83.12120819091797
131;1673432702.2324853;47.1306418;7.2406197;23.21000099182129;1673432702.365095;8.14777946472168;25.640989303588867;83.06941223144531
132;1673432702.4211538;47.1306418;7.2406196;23.60700035095215;1673432702.5682228;8.17474365234375;25.338056564331055;83.12765502929688
133;1673432702.6346126;47.1306417;7.2406196;24.00800132751465;1673432702.762474;8.235825538635254;26.763412475585938;83.1631088256836
134;1673432702.8329482;47.1306417;7.2406197;24.405000686645508;1673432702.9673893;8.204885482788086;25.544700622558594;83.07498931884766
135;1673432703.0251334;47.1306417;7.2406197;24.81100082397461;1673432703.1627533;8.171669006347656;25.522247314453125;83.13032531738281
136;1673432703.2297785;47.1306417;7.2406197;25.215002059936523;1673432703.3707974;8.256189346313477;26.625167846679688;83.14717102050781
137;1673432703.4341998;47.1306418;7.2406197;25.612001419067383;1673432703.578787;8.449633598327637;25.516252517700195;83.0666275024414
138;1673432703.6502385;47.1306418;7.240619799999999;26.007001876831055;1673432703.7760196;8.240202903747559;25.362878799438477;83.0285873413086
139;1673432703.8424842;47.1306418;7.240619799999999;26.405000686645508;1673432703.974268;8.35897159576416;26.73990249633789;83.2049331665039
140;1673432704.0363173;47.1306418;7.240619799999999;26.802001953125;1673432704.170554;8.33167839050293;25.602907180786133;83.09871673583984
141;1673432704.231742;47.1306418;7.2406197;27.20400047302246;1673432704.3662581;8.107611656188965;25.535446166992188;83.11915588378906
142;1673432704.4433398;47.1306418;7.2406197;27.606000900268555;1673432704.5758984;8.29884147644043;26.690824508666992;83.13648223876953
143;1673432704.6385562;47.1306419;7.2406196;28.00800132751465;1673432704.7751436;7.897861480712891;25.783008575439453;83.04415893554688
144;1673432704.847865;47.1306419;7.2406196;28.408000946044922;1673432704.9892457;8.076018333435059;25.734786987304688;83.14932250976562
145;1673432705.052227;47.130641999999995;7.2406197;28.806001663208008;1673432705.1845994;8.207237243652344;26.851781845092773;83.19465637207031
146;1673432705.2498589;47.130641999999995;7.2406197;29.205001831054688;1673432705.3941104;8.375131607055664;25.785566329956055;83.14369201660156
147;1673432705.461023;47.1306419;7.240619799999999;29.60300064086914;1673432705.5891953;8.255023002624512;25.518936157226562;83.1223373413086
148;1673432705.6533856;47.1306419;7.240619799999999;30.007001876831055;1673432705.7749588;8.388726234436035;26.720718383789062;83.1956787109375
149;1673432705.851649;47.130641999999995;7.240619799999999;30.413002014160156;1673432705.9823132;8.173072814941406;25.850143432617188;83.1325912475586
150;1673432706.0433717;47.130641999999995;7.240619799999999;30.817001342773438;1673432706.1905503;8.21169662475586;25.37740707397461;83.06758880615234
151;1673432706.2563434;47.130641999999995;7.240619799999999;31.216001510620117;1673432706.3895504;8.362049102783203;26.686826705932617;83.09968566894531
152;1673432706.456577;47.130641999999995;7.240619799999999;31.61600112915039;1673432706.5938401;8.188375473022461;25.641250610351562;83.02533721923828
153;1673432706.6745486;47.130641999999995;7.240619799999999;32.0160026550293;1673432706.8068333;8.202436447143555;25.284948348999023;83.13924407958984
154;1673432706.8663385;47.130641999999995;7.2406198999999996;32.42100143432617;1673432706.9870996;8.140251159667969;26.830944061279297;83.23538208007812
155;1673432707.0537813;47.130641999999995;7.2406198999999996;32.8280029296875;1673432707.1877744;8.31472396850586;25.896827697753906;83.09201049804688
156;1673432707.2586846;47.130642099999996;7.2406198999999996;33.237003326416016;1673432707.3972826;8.270318984985352;25.61847686767578;83.118896484375
157;1673432707.4605713;47.130642099999996;7.24062;33.6400032043457;1673432707.5973213;8.399675369262695;26.77211570739746;83.17911529541016
158;1673432707.656149;47.130642099999996;7.24062;34.03900146484375;1673432707.7796288;8.292588233947754;25.845294952392578;83.13329315185547
159;1673432707.846208;47.130642099999996;7.24062;34.439002990722656;1673432707.9765425;8.18169116973877;25.332176208496094;83.02373504638672
160;1673432708.0500362;47.130642099999996;7.24062;34.83400344848633;1673432708.1870205;8.299471855163574;26.805599212646484;83.21321105957031
161;1673432708.2529955;47.1306422;7.24062;35.237003326416016;1673432708.370571;8.21800422668457;26.024845123291016;83.17201232910156
162;1673432708.4288108;47.1306422;7.24062;35.64200210571289;1673432708.5651755;8.255340576171875;25.694303512573242;83.07556915283203
163;1673432708.63091;47.1306422;7.24062;36.04800033569336;1673432708.7790163;8.340706825256348;26.758176803588867;83.17019653320312
164;1673432708.8500085;47.1306422;7.24062;36.445003509521484;1673432709.0029082;8.191505432128906;26.183473587036133;83.10960388183594
165;1673432709.0549848;47.1306422;7.24062;36.84100341796875;1673432709.1835868;8.319503784179688;25.27690887451172;83.06771850585938
166;1673432709.2469425;47.130642099999996;7.24062;37.236000061035156;1673432709.3918755;8.33244514465332;26.69580841064453;83.16690826416016
167;1673432709.458401;47.1306422;7.24062;37.6400032043457;1673432709.6042466;8.356681823730469;26.11608123779297;83.14696502685547
168;1673432709.6898804;47.1306422;7.24062;38.04800033569336;1673432709.812332;8.278369903564453;25.527320861816406;83.11402893066406
169;1673432709.8810775;47.1306422;7.24062;38.457000732421875;1673432710.014742;8.334874153137207;26.80923080444336;83.12687683105469
170;1673432710.1050923;47.1306422;7.24062;38.861000061035156;1673432710.269416;8.324716567993164;26.037996292114258;83.09107971191406
171;1673432710.3258426;47.1306422;7.24062;39.25800323486328;1673432710.443833;8.311284065246582;25.081640243530273;83.04664611816406
172;1673432710.5037725;47.1306422;7.24062;39.65700149536133;1673432710.619945;8.379678726196289;26.582916259765625;83.16227722167969
173;1673432710.6728942;47.1306422;7.24062;40.053001403808594;1673432710.7985759;8.463932037353516;26.03499984741211;83.11188507080078
174;1673432710.8596432;47.1306422;7.24062;40.45600128173828;1673432710.993363;8.483388900756836;25.404903411865234;82.98975372314453
175;1673432711.0539331;47.1306423;7.24062;40.86300277709961;1673432711.2384853;8.404582977294922;26.974449157714844;83.19925689697266
176;1673432711.293203;47.1306423;7.24062;41.262001037597656;1673432711.430483;8.399185180664062;26.142362594604492;83.13955688476562
177;1673432711.492984;47.1306423;7.2406198999999996;41.656002044677734;1673432711.6259222;8.231064796447754;25.420818328857422;83.08588409423828
178;1673432711.6816046;47.1306423;7.2406198999999996;42.053001403808594;1673432711.8160846;8.226517677307129;26.756359100341797;83.12493133544922
179;1673432711.877216;47.1306422;7.2406198999999996;42.44700241088867;1673432712.0031164;8.3229341506958;26.116601943969727;83.12039184570312
180;1673432712.0622294;47.1306423;7.2406198999999996;42.85000228881836;1673432712.1942701;8.375401496887207;25.55256462097168;83.1537857055664
181;1673432712.2580235;47.1306423;7.2406198999999996;43.25400161743164;1673432712.3950403;8.269918441772461;26.778026580810547;83.12251281738281
182;1673432712.4643881;47.1306423;7.2406198999999996;43.659000396728516;1673432712.6018894;8.302315711975098;26.411754608154297;83.131103515625
183;1673432712.6747775;47.1306423;7.2406198999999996;44.060001373291016;1673432712.8100104;8.294002532958984;25.401182174682617;83.11553955078125
184;1673432712.868786;47.1306423;7.2406198999999996;44.452003479003906;1673432713.0006068;8.326746940612793;26.771114349365234;83.14886474609375
185;1673432713.0673227;47.1306423;7.240619799999999;44.84400177001953;1673432713.1954112;8.297412872314453;26.223159790039062;83.10587310791016
186;1673432713.2578866;47.1306423;7.240619799999999;45.23400115966797;1673432713.3920114;8.14291000366211;25.41008758544922;83.09480285644531
187;1673432713.4599302;47.1306422;7.240619799999999;45.63200378417969;1673432713.6013017;8.31700611114502;26.580963134765625;83.18468475341797
188;1673432713.6622496;47.1306422;7.240619799999999;46.03700256347656;1673432713.7982666;8.162043571472168;26.43703842163086;83.17316436767578
189;1673432713.8691297;47.1306422;7.240619799999999;46.44300079345703;1673432713.9993944;8.228092193603516;25.178285598754883;83.08992004394531
190;1673432714.0663445;47.1306422;7.240619799999999;46.840003967285156;1673432714.1902244;8.286758422851562;26.592205047607422;83.20177459716797
191;1673432714.25203;47.1306422;7.240619799999999;47.23600387573242;1673432714.3904068;8.420607566833496;26.300851821899414;83.17372131347656
192;1673432714.4591792;47.1306422;7.240619799999999;47.630001068115234;1673432714.5944898;8.099209785461426;25.242692947387695;83.0155258178711
193;1673432714.662127;47.1306422;7.2406197;48.031002044677734;1673432714.7944448;8.517660140991211;27.13749122619629;83.12688446044922
194;1673432714.8621764;47.1306423;7.2406197;48.397003173828125;1673432715.0013213;8.279263496398926;26.1186466217041;83.14949035644531
195;1673432715.0805507;47.1306424;7.2406197;48.71000289916992;1673432715.2112367;8.353562355041504;26.360525131225586;83.11204528808594
196;1673432715.274705;47.130642699999996;7.240619799999999;48.97100067138672;1673432715.4046876;8.696044921875;27.571155548095703;83.19139862060547
197;1673432715.4724734;47.1306429;7.2406198999999996;49.18100357055664;1673432715.6050847;8.963353157043457;27.532827377319336;83.16063690185547
198;1673432715.6662076;47.130643199999994;7.24062;49.35600280761719;1673432715.8077595;22.70629119873047;36.0001106262207;88.94789123535156
199;1673432715.8694794;47.130643299999996;7.2406196;49.5160026550293;1673432716.069178;30.263525009155273;48.63934326171875;101.13497924804688
200;1673432716.148589;47.1306424;7.2406172;49.66800308227539;1673432716.2969835;29.74342918395996;57.03154373168945;110.5148696899414
201;1673432716.3508906;47.130640199999995;7.240611899999999;49.78900146484375;1673432716.4695864;15.086819648742676;53.60527038574219;118.45521545410156
202;1673432716.5287054;47.1306368;7.2406039;49.8380012512207;1673432716.6481447;-0.013723556883633137;46.92469787597656;128.64727783203125
203;1673432716.7088172;47.1306328;7.2405937;49.84800338745117;1673432716.837443;-11.632555961608887;46.426109313964844;137.99220275878906
204;1673432716.8857727;47.1306285;7.2405821999999995;49.85600280761719;1673432716.9931;-24.50407600402832;43.57245635986328;148.77664184570312
205;1673432717.0538104;47.130623799999995;7.2405697;49.862003326416016;1673432717.2007565;-39.581539154052734;39.91067123413086;161.0390167236328
206;1673432717.2625566;47.1306185;7.2405558999999995;49.88800048828125;1673432717.4061348;-50.847103118896484;33.79008483886719;174.6974334716797
207;1673432717.468786;47.1306125;7.2405406999999995;49.90800094604492;1673432717.6015098;-50.33113098144531;24.15184783935547;-175.78268432617188
208;1673432717.677591;47.1306057;7.240524499999999;49.89600372314453;1673432717.8104255;-49.195045471191406;19.21078872680664;-170.3390350341797
209;1673432717.8713238;47.1305985;7.2405076;49.86600112915039;1673432718.0059435;-48.990989685058594;12.92368221282959;-163.08738708496094
210;1673432718.075272;47.1305909;7.2404905;49.823001861572266;1673432718.211069;-41.397987365722656;6.876307010650635;-162.4080352783203
211;1673432718.2757678;47.1305832;7.240473199999999;49.75200271606445;1673432718.4101005;-23.809307098388672;3.1287567615509033;-173.3482208251953
212;1673432718.4760127;47.1305759;7.2404572;49.64800262451172;1673432718.6070287;-15.708406448364258;3.0352118015289307;173.6035614013672
213;1673432718.6673515;47.1305696;7.2404426;49.53200149536133;1673432718.7970088;-16.64628791809082;7.154754638671875;157.4100341796875
214;1673432718.8626812;47.1305647;7.2404299;49.457000732421875;1673432718.983999;-32.71458435058594;15.39235782623291;146.39923095703125
215;1673432719.0541992;47.1305605;7.2404195;49.48500061035156;1673432719.188443;-34.5325927734375;41.05812072753906;132.12115478515625
216;1673432719.2554328;47.130555699999995;7.240411099999999;49.564002990722656;1673432719.3856957;-26.442337036132812;54.30973815917969;125.13016510009766
217;1673432719.4559743;47.1305493;7.2404031;49.64800262451172;1673432719.5972297;-18.685972213745117;48.48466491699219;127.21819305419922
218;1673432719.6678498;47.1305416;7.2403949;49.70900344848633;1673432719.8062885;-17.283187866210938;47.753604888916016;128.41311645507812
219;1673432719.8800287;47.1305335;7.2403863;49.77300262451172;1673432720.033318;-17.442651748657227;49.7801399230957;130.34921264648438
220;1673432720.0911283;47.130524799999996;7.240377;49.8380012512207;1673432720.2187185;-18.442289352416992;48.77036666870117;133.12098693847656
221;1673432720.27663;47.130515599999995;7.240366799999999;49.89200210571289;1673432720.4152236;-20.28604507446289;50.77936553955078;134.36947631835938
222;1673432720.4700775;47.130505899999996;7.2403559;49.92500305175781;1673432720.591534;-19.941499710083008;48.34388732910156;136.10333251953125
223;1673432720.6527476;47.1304959;7.2403441;49.923004150390625;1673432720.7991145;-17.055002212524414;40.498687744140625;135.90457153320312
224;1673432720.8708987;47.1304859;7.240331899999999;49.9010009765625;1673432721.007047;-16.913000106811523;39.568763732910156;132.6437530517578
225;1673432721.0767052;47.1304762;7.2403198;49.8900032043457;1673432721.2016838;-18.01365089416504;44.47525405883789;127.23199462890625
226;1673432721.2605112;47.130466399999996;7.2403077;49.90500259399414;1673432721.3951123;-16.096736907958984;42.01213455200195;126.69329833984375
227;1673432721.4595656;47.130456599999995;7.240296;49.91400146484375;1673432721.5922189;-15.315301895141602;39.427528381347656;127.87251281738281
228;1673432721.6772704;47.130446899999995;7.2402846;49.9160041809082;1673432721.8178222;-15.132067680358887;38.162479400634766;129.47682189941406
229;1673432721.8789678;47.1304375;7.2402736999999995;49.915000915527344;1673432722.02607;-17.433876037597656;39.19865036010742;130.3492431640625
230;1673432722.09661;47.1304283;7.2402631;49.928001403808594;1673432722.2261178;-21.56000518798828;42.16044235229492;130.64895629882812
231;1673432722.2870321;47.1304191;7.2402529;49.954002380371094;1673432722.4163153;-26.752857208251953;41.23244094848633;131.7882537841797
232;1673432722.4750774;47.1304095;7.2402428;49.992000579833984;1673432722.602744;-34.446372985839844;36.046241760253906;132.8585968017578
233;1673432722.6671875;47.130399499999996;7.240233399999999;50.051002502441406;1673432722.7992463;-30.115800857543945;16.063716888427734;138.936279296875
234;1673432722.8667724;47.1303895;7.240225499999999;50.11900329589844;1673432723.00285;-18.08732795715332;-1.4520915746688843;149.65145874023438
235;1673432723.0729444;47.1303805;7.240219499999999;50.17100143432617;1673432723.1948357;-7.455559253692627;-5.1132965087890625;160.1323699951172
236;1673432723.2583127;47.1303736;7.2402155;50.204002380371094;1673432723.3912957;-5.727390766143799;8.152070999145508;169.53318786621094
237;1673432723.4561083;47.1303686;7.2402125999999996;50.23100280761719;1673432723.5974872;-19.92510223388672;30.295412063598633;176.6490478515625
238;1673432723.6673465;47.1303653;7.2402092;50.26900100708008;1673432723.8046317;-47.139984130859375;34.83414840698242;-175.7301483154297
239;1673432723.8680117;47.1303625;7.2402036999999995;50.307003021240234;1673432723.9951372;-56.41481018066406;22.022708892822266;-161.67230224609375
240;1673432724.0546856;47.1303589;7.240195099999999;50.32200241088867;1673432724.18897;-50.60354232788086;16.863571166992188;-151.8559112548828
241;1673432724.2545826;47.1303549;7.2401836;50.323001861572266;1673432724.3989334;-44.92281723022461;6.038483142852783;-143.5155487060547
242;1673432724.4662533;47.130350799999995;7.2401699;50.31900405883789;1673432724.610159;-51.30240249633789;-4.143426418304443;-136.99740600585938
243;1673432724.6802976;47.1303463;7.240154899999999;50.3380012512207;1673432724.808535;-53.62276840209961;-18.275733947753906;-132.64022827148438
244;1673432724.8848152;47.130341099999995;7.2401390999999995;50.34400177001953;1673432725.0099854;-49.410179138183594;-13.492998123168945;-147.9427947998047
245;1673432725.0796714;47.1303348;7.2401235999999995;50.3280029296875;1673432725.215351;-44.6124382019043;-6.884135723114014;-160.02725219726562
246;1673432725.2794302;47.130327799999996;7.240109299999999;50.303001403808594;1673432725.41305;-43.4826545715332;0.3389311134815216;-169.98292541503906
247;1673432725.484926;47.1303203;7.2400964;50.27700424194336;1673432725.650385;-44.79383850097656;5.688542366027832;-178.30909729003906
248;1673432725.7112355;47.1303124;7.240084899999999;50.262001037597656;1673432725.8385317;-42.90991973876953;13.579164505004883;172.23040771484375
249;1673432725.9026492;47.1303041;7.2400746;50.246002197265625;1673432726.070652;-40.56352996826172;20.70844078063965;162.9150848388672
250;1673432726.1267657;47.1302956;7.2400652999999995;50.23600387573242;1673432726.2752807;-35.04241943359375;26.953901290893555;153.30970764160156
251;1673432726.376389;47.130286899999994;7.240056699999999;50.217002868652344;1673432726.4890947;-29.727516174316406;32.237464904785156;143.5897674560547
252;1673432726.544209;47.1302781;7.2400484;50.2030029296875;1673432726.6806915;-23.166545867919922;36.805023193359375;132.86097717285156
253;1673432726.7518976;47.130269399999996;7.2400407;50.202003479003906;1673432726.8793144;-18.505300521850586;42.429691314697266;122.10000610351562
254;1673432726.9382358;47.1302605;7.2400332999999994;50.217002868652344;1673432727.0578732;-14.2809476852417;45.311195373535156;121.8189468383789
255;1673432727.118573;47.1302513;7.2400262;50.22700119018555;1673432727.247958;-13.655577659606934;45.77043151855469;126.50603485107422
256;1673432727.305705;47.130241899999994;7.2400189;50.23100280761719;1673432727.4301887;-16.637643814086914;41.068878173828125;137.77015686035156
257;1673432727.4913428;47.1302326;7.240011099999999;50.211002349853516;1673432727.6181965;-25.20892906188965;39.347145080566406;150.90496826171875
258;1673432727.6791458;47.1302234;7.2400023;50.20600128173828;1673432727.841081;-39.525733947753906;39.959068298339844;164.68008422851562
259;1673432727.9107785;47.1302143;7.2399923;50.22100067138672;1673432728.031686;-45.932899475097656;30.344633102416992;-179.70021057128906
260;1673432728.090773;47.1302051;7.239980399999999;50.215003967285156;1673432728.2182608;-45.1812629699707;21.38648223876953;-172.3199920654297
261;1673432728.2760758;47.1301959;7.2399672;50.19600296020508;1673432728.3998377;-44.7571907043457;15.74040699005127;-166.66195678710938
262;1673432728.4597185;47.1301869;7.239953099999999;50.18100357055664;1673432728.5984128;-47.48586654663086;10.185296058654785;-159.69479370117188
263;1673432728.665979;47.130178;7.2399384;50.177001953125;1673432728.803225;-50.295509338378906;4.760012626647949;-152.7220001220703
264;1673432728.8690026;47.1301689;7.2399230999999995;50.18100357055664;1673432728.9968407;-48.78714370727539;-0.46644458174705505;-145.281494140625
265;1673432729.0596445;47.1301597;7.2399073;50.18300247192383;1673432729.1980493;-45.2224006652832;-5.502307415008545;-137.02403259277344
266;1673432729.2754316;47.130150699999994;7.2398910999999995;50.18300247192383;1673432729.4092946;-45.59311294555664;-11.631505012512207;-133.5556640625
267;1673432729.4649863;47.1301418;7.239874899999999;50.19600296020508;1673432729.6073403;-47.75482177734375;-14.123560905456543;-142.12486267089844
268;1673432729.6738944;47.130132599999996;7.239859;50.19200134277344;1673432729.8131785;-46.37051010131836;-7.824626922607422;-155.44866943359375
269;1673432729.8800213;47.1301231;7.239844199999999;50.17100143432617;1673432730.0171845;-42.776241302490234;-0.015482835471630096;-165.701904296875
270;1673432730.0929706;47.1301134;7.2398305999999994;50.143001556396484;1673432730.2237613;-41.67390441894531;7.237322807312012;-173.81622314453125
271;1673432730.3041215;47.1301037;7.239817899999999;50.12300109863281;1673432730.4377606;-39.70956039428711;14.259058952331543;177.34475708007812
272;1673432730.4926877;47.130094299999996;7.2398061;50.10700225830078;1673432730.623566;-36.53017807006836;21.67286491394043;167.915283203125
273;1673432730.681992;47.1300849;7.239794799999999;50.09300231933594;1673432730.8104742;-32.093475341796875;27.91593360900879;158.4651336669922
274;1673432730.8738806;47.1300758;7.2397839;50.079002380371094;1673432731.0134482;-24.08476448059082;29.582721710205078;149.13182067871094
275;1673432731.082932;47.1300671;7.2397734;50.053001403808594;1673432731.2066035;-16.110593795776367;31.351587295532227;137.3969268798828
276;1673432731.282574;47.1300588;7.2397633;50.038002014160156;1673432731.4253535;-7.787509918212891;42.427608489990234;124.97920227050781
277;1673432731.4852636;47.1300509;7.2397534;50.077003479003906;1673432731.6124332;1.6385432481765747;51.43525314331055;121.88082885742188
278;1673432731.6789536;47.1300429;7.239743;50.1150016784668;1673432731.8144104;2.0436997413635254;45.055152893066406;134.31732177734375
279;1673432731.8734837;47.130035;7.2397316;50.112003326416016;1673432732.008313;-6.360532760620117;38.95363998413086;147.82237243652344
280;1673432732.0808816;47.1300278;7.239719;50.086002349853516;1673432732.2193897;-17.100017547607422;43.13743209838867;155.91598510742188
281;1673432732.2757823;47.1300214;7.2397054;50.06500244140625;1673432732.4394758;-17.35576820373535;35.376731872558594;153.4467010498047
282;1673432732.4933197;47.1300154;7.239691;50.022003173828125;1673432732.6122825;-11.363229751586914;32.64295959472656;141.931640625
283;1673432732.670983;47.1300099;7.2396765;49.983001708984375;1673432732.8203416;-6.430355072021484;42.042259216308594;125.64295196533203
284;1673432732.88353;47.1300047;7.239662399999999;49.99800109863281;1673432733.002821;-1.6852318048477173;47.374996185302734;123.40319061279297
285;1673432733.0850403;47.129999299999994;7.2396483;50.01900100708008;1673432733.214929;-6.598397731781006;47.42873001098633;127.19425201416016
286;1673432733.2798011;47.1299934;7.239633899999999;50.03200149536133;1673432733.406616;-16.45038604736328;45.2000617980957;129.73284912109375
287;1673432733.4622817;47.129987199999995;7.2396195;50.03900146484375;1673432733.5972877;-32.240787506103516;35.35896682739258;130.98426818847656
288;1673432733.668209;47.1299803;7.2396061;50.05900192260742;1673432733.805445;-42.927146911621094;17.16889190673828;132.60470581054688
289;1673432733.8674088;47.129973;7.2395955;50.0880012512207;1673432734.0039854;-45.29440689086914;5.0835113525390625;131.6540069580078
290;1673432734.0753527;47.1299656;7.239589;50.10900115966797;1673432734.214485;-41.695194244384766;0.2763517498970032;131.8968505859375
291;1673432734.287485;47.1299588;7.2395866;50.121002197265625;1673432734.4328454;-36.64312744140625;-3.2732694149017334;133.36570739746094
292;1673432734.5019515;47.1299529;7.2395879;50.12300109863281;1673432734.6437325;-32.187652587890625;-2.084808111190796;133.61485290527344
293;1673432734.7090514;47.1299482;7.239592099999999;50.121002197265625;1673432734.8453522;-32.99026107788086;4.411065101623535;133.78477478027344
294;1673432734.9099288;47.1299444;7.2395986;50.117000579833984;1673432735.0367174;-36.17670440673828;17.834365844726562;132.90859985351562
295;1673432735.1027813;47.1299409;7.2396065;50.121002197265625;1673432735.236534;-43.09356689453125;28.16870880126953;137.03578186035156
296;1673432735.292512;47.129936799999996;7.2396151;50.13200378417969;1673432735.4331267;-42.489479064941406;25.33824920654297;151.01657104492188
297;1673432735.4970453;47.1299317;7.239623399999999;50.12600326538086;1673432735.627208;-41.829044342041016;24.725341796875;160.71572875976562
298;1673432735.6940207;47.129925899999996;7.2396305;50.11600112915039;1673432735.8384604;-38.44743347167969;29.62836456298828;169.30758666992188
299;1673432735.8943264;47.1299195;7.2396354999999994;50.105003356933594;1673432736.0631838;-39.315711975097656;39.606361389160156;176.12271118164062
300;1673432736.1410637;47.129913099999996;7.2396373;50.0780029296875;1673432736.298231;-39.95561599731445;35.576271057128906;-172.2493438720703
301;1673432736.3581471;47.1299071;7.2396348999999995;50.02800369262695;1673432736.486339;-34.03496551513672;26.944355010986328;-161.75987243652344
302;1673432736.5469856;47.1299018;7.239629099999999;49.98500061035156;1673432736.6694202;-39.64111328125;22.220333099365234;-156.02268981933594
303;1673432736.727193;47.1298975;7.2396204;49.96900177001953;1673432736.8497722;-45.68809509277344;16.517202377319336;-146.26683044433594
304;1673432736.910953;47.1298937;7.2396096;49.96600341796875;1673432737.0480785;-50.28563690185547;9.766580581665039;-136.68003845214844
305;1673432737.1090562;47.1298902;7.2395963;49.96900177001953;1673432737.2348132;-48.235904693603516;1.5798779726028442;-128.84713745117188
306;1673432737.3012018;47.129886899999995;7.239580699999999;49.98100280761719;1673432737.4317794;-51.13893508911133;-7.278568267822266;-129.00509643554688
307;1673432737.4907303;47.1298835;7.2395634;50.01100158691406;1673432737.6303785;-56.69169998168945;-10.921134948730469;-132.80712890625
308;1673432737.6997137;47.1298791;7.239545;50.04500198364258;1673432737.8286064;-54.263153076171875;-11.742583274841309;-135.92266845703125
309;1673432737.8932416;47.129873499999995;7.239526199999999;50.05000305175781;1673432738.036366;-49.80148696899414;-9.300575256347656;-138.00779724121094
310;1673432738.098774;47.1298671;7.239507499999999;50.048004150390625;1673432738.2427542;-48.3972053527832;-8.351964950561523;-138.69488525390625
311;1673432738.3055308;47.129860099999995;7.239489;50.05000305175781;1673432738.4271762;-49.69646453857422;-9.477514266967773;-139.95887756347656
312;1673432738.487704;47.1298526;7.2394709;50.0420036315918;1673432738.6242533;-46.86589050292969;-5.138216972351074;-150.31065368652344
313;1673432738.690502;47.1298446;7.2394533;50.02000427246094;1673432738.8229141;-41.682518005371094;0.7561999559402466;-161.0838165283203
314;1673432738.8819284;47.1298363;7.239436899999999;49.987003326416016;1673432739.0144255;-40.25808334350586;6.2510552406311035;-169.98646545410156
315;1673432739.0802844;47.129827999999996;7.2394216;49.95500183105469;1673432739.2216327;-38.29060745239258;11.351349830627441;-179.11932373046875
316;1673432739.282634;47.1298198;7.239407399999999;49.92900085449219;1673432739.4130824;-36.4577751159668;17.493467330932617;171.13180541992188
317;1673432739.474582;47.1298118;7.2393942;49.91400146484375;1673432739.6110485;-35.585689544677734;23.91872215270996;161.2657928466797
318;1673432739.6795957;47.1298038;7.2393817;49.9160041809082;1673432739.815924;-32.34177017211914;30.413423538208008;151.58360290527344
319;1673432739.8802717;47.1297958;7.23937;49.927001953125;1673432740.0064201;-28.863765716552734;37.76728439331055;141.96438598632812
320;1673432740.0759776;47.1297875;7.239358999999999;49.94400405883789;1673432740.2141774;-21.391292572021484;41.921295166015625;131.68557739257812
321;1673432740.2826595;47.129779;7.2393483;49.965003967285156;1673432740.4146583;-13.948594093322754;45.301143646240234;120.90807342529297
322;1673432740.4745426;47.129770199999996;7.239338099999999;49.9890022277832;1673432740.6028173;-8.318102836608887;44.04648208618164;120.6922378540039
323;1673432740.6800992;47.1297612;7.2393281;49.9900016784668;1673432740.8115244;-7.7499003410339355;40.59433364868164;125.92388916015625
324;1673432740.8787034;47.1297523;7.239318099999999;49.98200225830078;1673432741.0107753;-10.692680358886719;41.71011734008789;129.16189575195312
325;1673432741.0771682;47.1297436;7.239307999999999;49.98200225830078;1673432741.2159827;-15.407652854919434;45.40335464477539;130.71044921875
326;1673432741.2824275;47.129734899999995;7.2392975999999996;49.996002197265625;1673432741.4172785;-20.290563583374023;48.41059875488281;131.7186279296875
327;1673432741.4839587;47.1297259;7.2392867999999995;50.01700210571289;1673432741.625566;-24.15859031677246;46.06766891479492;133.24432373046875
328;1673432741.7015257;47.1297164;7.2392759;50.03300094604492;1673432741.8349943;-28.6383113861084;46.112091064453125;132.84185791015625
329;1673432741.9144173;47.129706399999996;7.239264899999999;50.04600143432617;1673432742.0459466;-30.55622673034668;42.87916946411133;133.11550903320312
330;1673432742.1092086;47.1296957;7.2392543;50.04900360107422;1673432742.2348132;-34.338687896728516;40.4161491394043;132.01441955566406
331;1673432742.304994;47.129684499999996;7.2392444;50.047000885009766;1673432742.4315803;-35.543888092041016;35.70734786987305;131.18592834472656
332;1673432742.4996853;47.129672899999996;7.2392356;50.03700256347656;1673432742.6354077;-38.08738708496094;32.26771545410156;129.4330596923828
333;1673432742.7043183;47.1296611;7.2392286;50.00600051879883;1673432742.8278537;-27.3514347076416;18.545854568481445;138.2401580810547
334;1673432742.8913627;47.1296496;7.239223099999999;49.935001373291016;1673432743.019442;-28.518970489501953;9.020181655883789;153.26315307617188
335;1673432743.0802746;47.129639;7.239218999999999;49.89500427246094;1673432743.209109;-43.22821807861328;-4.154145240783691;170.5609588623047
336;1673432743.2865572;47.129629;7.2392167;49.90700149536133;1673432743.4306967;-35.150543212890625;-9.141380310058594;175.3040313720703
337;1673432743.4913492;47.1296192;7.2392164999999995;49.952003479003906;1673432743.619702;-21.450702667236328;-5.53184700012207;-176.80514526367188
338;1673432743.6822355;47.1296104;7.239217699999999;49.993003845214844;1673432743.8178432;-13.505642890930176;15.365321159362793;-168.5351104736328
339;1673432743.8829284;47.1296032;7.239218999999999;50.01700210571289;1673432744.0278766;-25.819971084594727;36.60384750366211;-161.76205444335938
340;1673432744.1008744;47.129597999999994;7.2392183999999995;50.018001556396484;1673432744.2317262;-43.81475830078125;39.108272552490234;-154.41110229492188
341;1673432744.2872298;47.129594499999996;7.2392141;49.98500061035156;1673432744.4188693;-31.183841705322266;21.23552894592285;-133.51223754882812
342;1673432744.4785972;47.129592699999996;7.239206299999999;49.93300247192383;1673432744.615019;-38.28815460205078;16.257156372070312;-132.16648864746094
343;1673432744.6837664;47.1295922;7.2391963;49.922000885009766;1673432744.8247356;-47.78642654418945;9.468794822692871;-130.2259979248047
344;1673432744.8952909;47.1295925;7.2391839;49.95000076293945;1673432745.0259593;-54.023372650146484;0.5120832920074463;-130.7092742919922
345;1673432745.0943756;47.129592599999995;7.239168899999999;49.99500274658203;1673432745.2335036;-59.2244987487793;-5.862117767333984;-133.1386260986328
346;1673432745.2998784;47.129591399999995;7.2391516;50.044002532958984;1673432745.4220533;-57.06611251831055;-9.826162338256836;-134.2291717529297
347;1673432745.4831362;47.1295886;7.2391331;50.07400131225586;1673432745.6152534;-49.897613525390625;-6.692638397216797;-138.00811767578125
348;1673432745.6835725;47.1295846;7.2391143;50.08700180053711;1673432745.8221586;-52.750545501708984;-7.901158809661865;-137.9724884033203
349;1673432745.888065;47.1295797;7.2390953;50.09800338745117;1673432746.0282466;-49.5184326171875;-3.7355058193206787;-147.74293518066406
350;1673432746.0940356;47.129574;7.2390766;50.086002349853516;1673432746.223598;-45.41994094848633;2.5037894248962402;-159.0028533935547
351;1673432746.2854059;47.129567599999994;7.2390586;50.06300354003906;1673432746.4272845;-42.3265495300293;6.8946332931518555;-168.00840759277344
352;1673432746.489735;47.1295609;7.2390417;50.03600311279297;1673432746.6238852;-40.32525634765625;13.34286880493164;-177.44332885742188
353;1673432746.6806374;47.1295539;7.2390259;50.01400375366211;1673432746.8151367;-37.852210998535156;19.17506980895996;173.12033081054688
354;1673432746.8785992;47.1295468;7.2390111;50.000003814697266;1673432747.0148013;-34.690673828125;25.646032333374023;163.21531677246094
355;1673432747.079653;47.1295396;7.2389971;49.99100112915039;1673432747.2156773;-31.950777053833008;33.19335174560547;153.07582092285156
356;1673432747.2832649;47.1295323;7.2389838;49.992000579833984;1673432747.4203863;-26.718265533447266;39.77177429199219;142.77313232421875
357;1673432747.491001;47.1295248;7.2389708;50.00100326538086;1673432747.6350396;-19.219789505004883;44.18074417114258;132.47781372070312
358;1673432747.6946788;47.1295169;7.2389582;50.012001037597656;1673432747.835043;-10.411125183105469;48.980064392089844;121.4110336303711
359;1673432747.9031973;47.1295085;7.2389458;50.03400421142578;1673432748.0356693;-3.7589290142059326;45.7550163269043;120.72996520996094
360;1673432748.1053796;47.1294998;7.238933599999999;50.02900314331055;1673432748.2366507;-3.007098913192749;38.84062576293945;125.59676361083984
361;1673432748.299462;47.1294913;7.2389214;50.005001068115234;1673432748.4235616;-4.971466541290283;39.514259338378906;129.1988067626953
362;1673432748.4890997;47.129483099999995;7.238909199999999;49.993003845214844;1673432748.628136;-8.72601318359375;45.009483337402344;130.58294677734375
363;1673432748.6949449;47.129475199999995;7.238896899999999;49.996002197265625;1673432748.830545;-13.146692276000977;49.005611419677734;131.1088409423828
364;1673432748.9037838;47.1294672;7.2388841;50.00800323486328;1673432749.046404;-18.135414123535156;47.569435119628906;131.7654266357422
365;1673432749.1143367;47.129458799999995;7.238871;50.018001556396484;1673432749.231987;-21.81148910522461;46.391788482666016;131.5201873779297
366;1673432749.2994895;47.12945;7.238858;50.022003173828125;1673432749.4422512;-24.149843215942383;43.85293960571289;131.4995574951172
367;1673432749.5156357;47.129440699999996;7.2388454;50.0160026550293;1673432749.6327639;-26.86268424987793;39.922889709472656;131.48004150390625
368;1673432749.704995;47.1294311;7.2388337;50.00300216674805;1673432749.8432374;-30.749086380004883;36.99555206298828;131.00244140625
369;1673432749.908916;47.129421199999996;7.238823;49.98200225830078;1673432750.0479078;-34.15719223022461;31.72222137451172;131.51910400390625
370;1673432750.1044917;47.129411;7.238813899999999;49.95600128173828;1673432750.2464404;-40.79645538330078;27.263507843017578;131.5100860595703
371;1673432750.3081567;47.1294006;7.238806899999999;49.932003021240234;1673432750.4347174;-46.503318786621094;19.624553680419922;132.646728515625
372;1673432750.4984596;47.1293899;7.2388027;49.919002532958984;1673432750.6435833;-45.86567687988281;11.398473739624023;133.54310607910156
373;1673432750.7154574;47.1293793;7.2388018;49.906002044677734;1673432750.8430958;-44.73408126831055;7.263611316680908;134.76956176757812
374;1673432750.9037015;47.1293691;7.238804399999999;49.913002014160156;1673432751.0371604;-40.63717269897461;7.548094749450684;135.64334106445312
375;1673432751.0952508;47.1293594;7.23881;49.94200134277344;1673432751.2184408;-35.70993423461914;7.256084442138672;137.94854736328125
376;1673432751.2919066;47.1293504;7.2388175;49.96800231933594;1673432751.442536;-33.862449645996094;10.92251968383789;147.5093536376953
377;1673432751.507931;47.129342199999996;7.2388261;49.9900016784668;1673432751.62405;-30.432872772216797;17.909225463867188;159.41448974609375
378;1673432751.7087734;47.1293345;7.238834499999999;50.00600051879883;1673432751.8399117;-25.686494827270508;31.420780181884766;169.23300170898438
379;1673432751.8994167;47.129327499999995;7.2388411999999995;50.0160026550293;1673432752.0514293;-25.88990592956543;49.281349182128906;176.6858673095703
380;1673432752.1133733;47.129321399999995;7.2388444;50.000003814697266;1673432752.250836;-27.81419563293457;44.45905303955078;-171.63323974609375
381;1673432752.3173938;47.1293168;7.238842699999999;49.94900131225586;1673432752.4607277;-28.99541473388672;34.07062911987305;-163.52374267578125
382;1673432752.52741;47.129313499999995;7.238837299999999;49.90500259399414;1673432752.665585;-36.43174362182617;30.995994567871094;-155.13143920898438
383;1673432752.722044;47.1293114;7.2388287;49.87800216674805;1673432752.8499515;-44.61106872558594;24.076353073120117;-145.20883178710938
384;1673432752.923101;47.12931;7.2388167999999995;49.86300277709961;1673432753.0579607;-50.207359313964844;14.098763465881348;-136.50595092773438
385;1673432753.1334069;47.129309299999996;7.2388018;49.875003814697266;1673432753.2714558;-49.802452087402344;3.1194510459899902;-128.2924041748047
386;1673432753.3278072;47.1293085;7.238784399999999;49.90300369262695;1673432753.457457;-55.45691680908203;-9.374740600585938;-127.77935028076172
387;1673432753.565209;47.1293071;7.2387652;49.94400405883789;1673432753.6815352;-54.77490234375;-10.091676712036133;-134.69851684570312
388;1673432753.743293;47.1293043;7.238745199999999;49.967002868652344;1673432753.8621368;-48.88506317138672;-6.152399063110352;-141.2276153564453
389;1673432753.9256222;47.1293003;7.2387253;49.974002838134766;1673432754.0473115;-49.6971321105957;-5.567086696624756;-143.0642852783203
390;1673432754.1206098;47.1292954;7.238705899999999;49.97600173950195;1673432754.267658;-46.896461486816406;0.012873098254203796;-152.04835510253906
391;1673432754.334606;47.129289899999996;7.238687199999999;49.96800231933594;1673432754.4700758;-44.752952575683594;7.035192012786865;-163.02952575683594
392;1673432754.539131;47.129283799999996;7.2386693;49.95600128173828;1673432754.6596227;-42.0939826965332;13.670661926269531;-172.77212524414062
393;1673432754.726778;47.1292774;7.2386523;49.94400405883789;1673432754.8509727;-40.034976959228516;19.990209579467773;177.92298889160156
394;1673432754.9095817;47.1292707;7.238636;49.93800354003906;1673432755.031233;-37.20902633666992;23.44254493713379;168.59844970703125
395;1673432755.1065104;47.1292639;7.238620399999999;49.932003021240234;1673432755.2531734;-33.3943977355957;25.189477920532227;158.76792907714844
396;1673432755.3172712;47.129256899999994;7.238605799999999;49.92500305175781;1673432755.4498866;-33.758544921875;29.000675201416016;147.87266540527344
397;1673432755.5154648;47.1292496;7.2385924;49.928001403808594;1673432755.6448479;-36.65713882446289;36.62654495239258;136.86660766601562
398;1673432755.7053971;47.1292419;7.2385806;49.94700241088867;1673432755.8421648;-33.07914352416992;37.95396423339844;127.3276138305664
399;1673432755.9093587;47.129233199999994;7.2385705;49.98400115966797;1673432756.0463636;-34.06688690185547;26.393850326538086;121.43775177001953
400;1673432756.1180694;47.129224199999996;7.2385626;50.02000427246094;1673432756.2605028;-38.88521957397461;11.225878715515137;123.69229888916016
401;1673432756.3390906;47.1292155;7.2385579;50.038002014160156;1673432756.4596415;-35.41178894042969;6.189601421356201;127.93541717529297
402;1673432756.5205336;47.129207799999996;7.238556699999999;50.053001403808594;1673432756.645132;-35.371212005615234;2.7379443645477295;132.55543518066406
403;1673432756.7060473;47.129201099999996;7.2385585;50.070003509521484;1673432756.8424351;-33.16779327392578;2.891113042831421;132.43222045898438
404;1673432756.906014;47.1291954;7.2385627999999995;50.08100128173828;1673432757.0429027;-30.67149543762207;4.989433765411377;132.75833129882812
405;1673432757.1093533;47.129190699999995;7.2385693;50.0890007019043;1673432757.24912;-27.948925018310547;8.784913063049316;132.962158203125
406;1673432757.3137393;47.1291868;7.238576999999999;50.09300231933594;1673432757.4551575;-25.802419662475586;17.522064208984375;139.97251892089844
407;1673432757.519349;47.129183399999995;7.2385853;50.095001220703125;1673432757.6540854;-24.060504913330078;27.07905387878418;152.81251525878906
408;1673432757.7348468;47.129180299999994;7.238592799999999;50.09700393676758;1673432757.8628252;-24.670961380004883;41.36000061035156;163.12034606933594
409;1673432757.9307063;47.129177299999995;7.238597899999999;50.099002838134766;1673432758.0611959;-32.340240478515625;40.05756378173828;172.11289978027344
410;1673432758.135107;47.1291744;7.2385994;50.0890007019043;1673432758.249157;-39.3292121887207;28.870361328125;-177.96205139160156
411;1673432758.3105;47.1291714;7.2385971;50.083003997802734;1673432758.4389098;-41.13517761230469;14.459321975708008;-168.43496704101562
412;1673432758.502563;47.1291681;7.238592799999999;50.083003997802734;1673432758.6263733;-34.90159606933594;-1.8376253843307495;-159.5399169921875
413;1673432758.6913657;47.129164599999996;7.2385874999999995;50.083003997802734;1673432758.8297484;-30.99516487121582;-3.793083906173706;-152.13902282714844
414;1673432758.895285;47.1291612;7.238582399999999;50.090003967285156;1673432759.0348406;-28.708894729614258;-10.3146390914917;-142.14950561523438
415;1673432759.096437;47.129158;7.2385774;50.09800338745117;1673432759.2509747;-28.895112991333008;-12.947200775146484;-134.52586364746094
416;1673432759.317478;47.129155;7.2385727;50.1410026550293;1673432759.4484773;-43.74037170410156;-13.46064281463623;-131.23204040527344
417;1673432759.5119;47.1291517;7.2385674;50.27900314331055;1673432759.636523;-51.23516082763672;-12.721327781677246;-135.29397583007812
418;1673432759.7150214;47.1291472;7.2385604;50.47900390625;1673432759.8483586;-37.50611877441406;-3.405529022216797;-139.35084533691406
419;1673432759.9249067;47.1291419;7.238552299999999;50.71800231933594;1673432760.06611;-20.706911087036133;-2.151348114013672;-137.91725158691406
420;1673432760.1378329;47.1291371;7.2385437999999995;51.02300262451172;1673432760.2673008;-30.90352439880371;-10.888226509094238;-136.3391876220703
421;1673432760.3312955;47.129132899999995;7.238535799999999;51.381004333496094;1673432760.4528692;-54.77793502807617;-18.184062957763672;-135.17526245117188
