;pos_time;latitude;longitude;altitude;alt_time;pitch;roll;yaw
0;1673436219.7493217;47.1306424;7.2406198999999996;-0.05300000309944153;1673436219.8025825;-0.10615663975477219;-0.21503539383411407;90.43770599365234
1;1673436219.9437957;47.1306424;7.240619799999999;-0.05400000140070915;1673436219.9963536;-0.19567790627479553;-0.7731541991233826;90.36808776855469
2;1673436220.1435876;47.1306424;7.240619799999999;-0.055000003427267075;1673436220.2008674;-0.11871954053640366;-0.6866183876991272;90.41069030761719
3;1673436220.3636413;47.1306424;7.240619799999999;-0.0560000017285347;1673436220.417047;-0.09195327013731003;-0.6141138672828674;90.35449981689453
4;1673436220.578496;47.1306424;7.240619799999999;-0.05400000140070915;1673436220.6349416;-0.21595881879329681;-0.6578754186630249;90.4990005493164
5;1673436220.784319;47.1306424;7.240619799999999;-0.05100000277161598;1673436220.8412874;-0.23034760355949402;-0.504962146282196;90.38249206542969
6;1673436220.9948237;47.1306424;7.2406198999999996;-0.05000000074505806;1673436221.0525422;-0.0405786894261837;-0.8090740442276001;90.54073333740234
7;1673436221.1962042;47.1306424;7.2406198999999996;-0.05300000309944153;1673436221.2518349;-0.16331803798675537;-0.5889798998832703;90.34859466552734
8;1673436221.390722;47.1306424;7.24062;-0.055000003427267075;1673436221.443478;-0.21441896259784698;-0.7731766700744629;90.46031188964844
9;1673436221.5866795;47.1306423;7.24062;-0.055000003427267075;1673436221.6418931;-0.09304121881723404;-0.5955521464347839;90.5071792602539
10;1673436221.784228;47.1306423;7.24062;-0.05300000309944153;1673436221.8394897;-0.1614827960729599;-0.680681049823761;90.30536651611328
11;1673436221.9864948;47.1306423;7.2406201;-0.04800000041723251;1673436222.0408423;-0.2129734456539154;-0.6538715958595276;90.48652648925781
12;1673436222.1754718;47.1306423;7.2406201;-0.046000003814697266;1673436222.2256598;-0.21056047081947327;-0.6147028803825378;90.52751159667969
13;1673436222.3659139;47.1306423;7.2406201;-0.04500000178813934;1673436222.4152687;-0.3448236882686615;-0.5866816639900208;90.3643569946289
14;1673436222.5605097;47.1306423;7.2406201;-0.0010000000474974513;1673436222.6225376;-0.11695345491170883;0.9614675045013428;90.40647888183594
15;1673436222.7766175;47.1306423;7.2406201;-0.003000000026077032;1673436222.8393655;-0.17399843037128448;0.3137342929840088;90.32734680175781
16;1673436222.9817576;47.1306423;7.2406201999999995;-0.004000000189989805;1673436223.0400913;-0.20715664327144623;0.5616761445999146;90.18972778320312
17;1673436223.1822236;47.1306424;7.2406201999999995;-0.003000000026077032;1673436223.238185;-0.29423028230667114;0.494027704000473;90.29769134521484
18;1673436223.3867881;47.1306424;7.2406201999999995;-0.0010000000474974513;1673436223.4444451;-0.1805921196937561;0.2532223165035248;90.55194091796875
19;1673436223.5910985;47.1306424;7.2406203;0.0010000000474974513;1673436223.6482847;-0.4668128788471222;1.5055229663848877;90.5483627319336
20;1673436223.796357;47.1306424;7.2406203;0.0010000000474974513;1673436223.8537612;-0.3679845631122589;1.1101981401443481;90.49039459228516
21;1673436223.9963849;47.1306424;7.2406204;0.0;1673436224.049631;-0.5209712386131287;1.5333279371261597;90.24969482421875
22;1673436224.1801205;47.1306424;7.2406204999999995;-0.0010000000474974513;1673436224.2373834;-0.6052691340446472;0.985799252986908;90.22098541259766
23;1673436224.3768215;47.1306424;7.2406204999999995;-0.0020000000949949026;1673436224.4273055;-0.38450050354003906;-0.2696506083011627;90.51506805419922
24;1673436224.5748725;47.1306423;7.2406204;-0.004000000189989805;1673436224.632067;-0.4623523950576782;0.04126532003283501;90.765869140625
25;1673436224.776257;47.1306423;7.2406204;-0.0020000000949949026;1673436224.8324702;-0.5883273482322693;0.005432474426925182;90.73470306396484
26;1673436224.9864862;47.1306422;7.2406204;0.0010000000474974513;1673436225.0397317;-0.8718268275260925;0.5489895343780518;91.0524673461914
27;1673436225.1806676;47.130641999999995;7.2406204;0.003000000026077032;1673436225.2332518;-0.5678761601448059;0.019129177555441856;90.62374114990234
28;1673436225.3738308;47.1306417;7.2406204;0.003000000026077032;1673436225.4295712;-0.002863449975848198;-0.5300685167312622;89.9710464477539
29;1673436225.5758219;47.1306412;7.240620799999999;0.003000000026077032;1673436225.6290455;-0.08576706051826477;-0.06498322635889053;90.48878479003906
30;1673436225.775463;47.130640199999995;7.2406215;-0.0020000000949949026;1673436225.8298805;1.7920674085617065;-0.6738942265510559;91.6241683959961
31;1673436225.976376;47.1306386;7.240622699999999;0.0;1673436226.0334313;1.6429435014724731;-3.5517163276672363;92.5339584350586
32;1673436226.1775563;47.130636599999995;7.2406242999999995;0.014000000432133675;1673436226.2338583;4.5904035568237305;-6.956881999969482;93.7797622680664
33;1673436226.378954;47.130634099999995;7.2406264;0.029000001028180122;1673436226.4372916;8.79241943359375;-10.879547119140625;93.49386596679688
34;1673436226.5735304;47.130631199999996;7.2406288;0.05300000309944153;1673436226.6249502;10.79828929901123;-14.01170825958252;92.53101348876953
35;1673436226.7641013;47.130627999999994;7.2406315;0.09000000357627869;1673436226.8173592;10.558194160461426;-15.87648868560791;91.64410400390625
36;1673436226.9664824;47.1306248;7.240634399999999;0.14000000059604645;1673436227.0217044;10.99807357788086;-17.403518676757812;90.80680847167969
37;1673436227.1715584;47.1306215;7.2406375999999995;0.20200000703334808;1673436227.227083;11.820364952087402;-18.470727920532227;90.3181381225586
38;1673436227.3780708;47.130618299999995;7.2406409;0.2750000059604645;1673436227.4338963;12.803324699401855;-19.98505973815918;89.90834045410156
39;1673436227.5898688;47.1306152;7.2406441;0.33900001645088196;1673436227.641678;13.888964653015137;-21.45064353942871;89.58837890625
40;1673436227.7841134;47.1306121;7.2406473;0.37300002574920654;1673436227.8384583;15.141297340393066;-22.919464111328125;89.46090698242188
41;1673436227.9758377;47.130609299999996;7.2406504;0.39900001883506775;1673436228.0298736;16.471555709838867;-24.43720054626465;89.30370330810547
42;1673436228.1782272;47.130606799999995;7.240653099999999;0.42100003361701965;1673436228.2332237;17.976478576660156;-25.98331642150879;89.26499938964844
43;1673436228.368619;47.1306048;7.2406555;0.44300001859664917;1673436228.4208865;19.379241943359375;-27.501995086669922;89.30046844482422
44;1673436228.5620077;47.130603199999996;7.240657499999999;0.46400001645088196;1673436228.6142747;21.09876251220703;-28.817970275878906;89.46849060058594
45;1673436228.7524505;47.1306021;7.2406589;0.48100003600120544;1673436228.8137274;22.793140411376953;-30.4564266204834;89.66411590576172
46;1673436228.9674883;47.1306016;7.240659699999999;0.49800002574920654;1673436229.0226867;24.680505752563477;-31.89088249206543;90.04620361328125
47;1673436229.1735356;47.1306017;7.2406597999999995;0.5190000534057617;1673436229.2287538;26.65156364440918;-33.248573303222656;90.48780822753906
48;1673436229.3717191;47.130602499999995;7.2406592;0.5380000472068787;1673436229.426105;28.83624839782715;-34.480979919433594;91.07567596435547
49;1673436229.5731833;47.1306041;7.2406577;0.5570000410079956;1673436229.6265116;31.10662269592285;-35.54701614379883;91.82971954345703
50;1673436229.7803302;47.1306066;7.2406554;0.578000009059906;1673436229.8348515;33.6765251159668;-36.672271728515625;92.69988250732422
51;1673436229.9754343;47.130609899999996;7.2406521999999995;0.597000002861023;1673436230.033217;33.230194091796875;-34.80748748779297;94.29241943359375
52;1673436230.1858335;47.1306139;7.2406482;0.6100000143051147;1673436230.2363489;30.147586822509766;-30.794254302978516;95.9810791015625
53;1673436230.3703566;47.130618299999995;7.240643899999999;0.6160000562667847;1673436230.4217086;26.449647903442383;-26.525938034057617;97.29021453857422
54;1673436230.5618923;47.1306228;7.2406394;0.6260000467300415;1673436230.615406;21.425857543945312;-22.074600219726562;97.94261932373047
55;1673436230.7590926;47.130627;7.240634999999999;0.6710000038146973;1673436230.8136842;18.41845703125;-19.377838134765625;98.07117462158203
56;1673436230.9719186;47.1306308;7.240631199999999;0.718000054359436;1673436231.030704;14.696602821350098;-16.80841827392578;98.0526123046875
57;1673436231.1661844;47.1306339;7.240628;0.7670000195503235;1673436231.2240543;13.148380279541016;-16.16661262512207;97.66180419921875
58;1673436231.3863792;47.1306363;7.2406257;0.8230000138282776;1673436231.4416025;12.625602722167969;-14.89326286315918;97.64478302001953
59;1673436231.6015756;47.130637899999996;7.2406241;0.8870000243186951;1673436231.6654596;13.241008758544922;-15.058256149291992;97.47196960449219
60;1673436231.8150494;47.1306389;7.240623299999999;0.9610000252723694;1673436231.869961;14.754478454589844;-18.316194534301758;96.96298217773438
61;1673436232.013369;47.1306395;7.240622999999999;1.0460000038146973;1673436232.073153;16.328140258789062;-17.754703521728516;97.26666259765625
62;1673436232.2154617;47.130639599999995;7.2406229;1.1390000581741333;1673436232.2645373;17.86798667907715;-18.91085433959961;97.38972473144531
63;1673436232.3948822;47.130639599999995;7.2406229;1.2440000772476196;1673436232.4490964;19.190406799316406;-22.249919891357422;96.946044921875
64;1673436232.5884416;47.130639599999995;7.240622999999999;1.3620001077651978;1673436232.6447895;20.133737564086914;-22.142763137817383;97.08956909179688
65;1673436232.7810252;47.130639699999996;7.2406231;1.4920001029968262;1673436232.8306997;20.753700256347656;-21.202362060546875;97.30406188964844
66;1673436232.9689357;47.1306398;7.2406229;1.6360000371932983;1673436233.022684;19.969791412353516;-23.63606834411621;93.07308197021484
67;1673436233.1603758;47.13064;7.240622699999999;1.7930001020431519;1673436233.2181573;19.773195266723633;-22.965173721313477;93.3758773803711
68;1673436233.375166;47.130640199999995;7.2406225;1.9620001316070557;1673436233.437203;19.792781829833984;-20.95465087890625;93.72659301757812
69;1673436233.590869;47.1306405;7.2406222;2.1430001258850098;1673436233.6512122;19.45851707458496;-22.21986198425293;93.46170806884766
70;1673436233.79439;47.130640899999996;7.2406219;2.3350000381469727;1673436233.8576713;19.310720443725586;-21.431447982788086;93.42137908935547
71;1673436234.0013835;47.1306413;7.2406216;2.5360000133514404;1673436234.0604115;19.10309410095215;-19.47429656982422;93.8250503540039
72;1673436234.2067397;47.1306416;7.2406212;2.7380001544952393;1673436234.2614799;18.79094123840332;-20.817684173583984;93.49207305908203
73;1673436234.394059;47.1306418;7.2406209;2.942000150680542;1673436234.442157;18.53557014465332;-21.122451782226562;93.3272933959961
74;1673436234.586323;47.1306419;7.2406207;3.1460001468658447;1673436234.6416392;18.18941879272461;-19.57833480834961;93.61628723144531
75;1673436234.781795;47.1306419;7.2406204;3.3490002155303955;1673436234.8372226;18.007699966430664;-21.24239730834961;93.43236541748047
76;1673436234.9813888;47.1306418;7.2406203;3.5530002117156982;1673436235.0356205;18.206222534179688;-22.166963577270508;93.2880630493164
77;1673436235.183543;47.1306418;7.2406201999999995;3.756000280380249;1673436235.2387598;18.216707229614258;-20.334983825683594;93.71524810791016
78;1673436235.3818648;47.1306418;7.2406201999999995;3.957000255584717;1673436235.4351301;18.37315559387207;-21.822269439697266;93.46121978759766
79;1673436235.5799384;47.1306418;7.2406203;4.1570000648498535;1673436235.6338763;18.659006118774414;-22.745101928710938;93.23600769042969
80;1673436235.7908165;47.1306418;7.2406203;4.353000164031982;1673436235.8460038;18.704345703125;-20.608617782592773;93.515869140625
81;1673436235.9970577;47.1306418;7.2406204;4.550000190734863;1673436236.0527027;18.905546188354492;-21.243267059326172;93.47015380859375
82;1673436236.1944878;47.1306419;7.2406204999999995;4.747000217437744;1673436236.249582;18.959278106689453;-22.548540115356445;93.25060272216797
83;1673436236.3993998;47.130641999999995;7.2406206;4.942000389099121;1673436236.4543855;19.01101303100586;-20.34626579284668;93.62362670898438
84;1673436236.5909731;47.130642099999996;7.2406206;5.138000011444092;1673436236.6483574;18.978248596191406;-20.782915115356445;93.62487030029297
85;1673436236.8003702;47.1306422;7.2406206;5.335000038146973;1673436236.8542802;18.92748260498047;-22.33953285217285;93.28430938720703
86;1673436237.0026693;47.1306422;7.2406204999999995;5.5320000648498535;1673436237.0534632;18.780506134033203;-20.447649002075195;93.58370208740234
87;1673436237.1908126;47.1306422;7.2406204999999995;5.728000164031982;1673436237.244389;18.80948829650879;-20.800859451293945;93.5765151977539
88;1673436237.391131;47.1306422;7.2406204999999995;5.923000335693359;1673436237.4469342;18.835458755493164;-22.503320693969727;93.20953369140625
89;1673436237.5932684;47.1306423;7.2406204999999995;6.117000102996826;1673436237.6485882;18.803098678588867;-20.569990158081055;93.52554321289062
90;1673436237.796514;47.1306424;7.2406204999999995;6.312000274658203;1673436237.8490148;18.83365249633789;-20.442974090576172;93.55770874023438
91;1673436237.9943528;47.1306423;7.2406204999999995;6.511000156402588;1673436238.0507114;18.89316749572754;-22.553586959838867;93.26447296142578
92;1673436238.1922798;47.1306423;7.2406204999999995;6.710000514984131;1673436238.2522256;18.89386558532715;-20.69563102722168;93.51742553710938
93;1673436238.395518;47.1306423;7.2406204999999995;6.909000396728516;1673436238.448928;18.771259307861328;-20.5081729888916;93.5665512084961
94;1673436238.5919733;47.1306423;7.2406204;7.1080002784729;1673436238.6444075;18.712541580200195;-22.33345603942871;93.26304626464844
95;1673436238.7910557;47.1306424;7.2406204;7.305000305175781;1673436238.844388;18.752880096435547;-20.854387283325195;93.49768829345703
96;1673436238.9934464;47.1306424;7.2406204;7.505000591278076;1673436239.0426238;18.74435043334961;-20.58939552307129;93.5645751953125
97;1673436239.1865842;47.1306423;7.2406203;7.708000183105469;1673436239.242286;18.7721004486084;-22.298799514770508;93.23949432373047
98;1673436239.3896286;47.1306423;7.2406203;7.909000396728516;1673436239.4429383;18.69606590270996;-20.941383361816406;93.42849731445312
99;1673436239.5879688;47.1306423;7.2406203;8.111000061035156;1673436239.6461253;18.662006378173828;-20.429244995117188;93.60636138916016
100;1673436239.7882059;47.1306423;7.2406203;8.313000679016113;1673436239.846335;18.885892868041992;-22.464645385742188;93.3215103149414
101;1673436239.9864624;47.1306423;7.2406203;8.51300048828125;1673436240.0370705;18.77151107788086;-21.40505027770996;93.44515228271484
102;1673436240.179126;47.1306423;7.2406203;8.717000007629395;1673436240.2314024;18.772308349609375;-20.274137496948242;93.62860870361328
103;1673436240.3696318;47.1306423;7.2406203;8.921000480651855;1673436240.42333;18.955078125;-22.20387077331543;93.2448959350586
104;1673436240.5620527;47.1306423;7.2406203;9.124000549316406;1673436240.6208365;18.773761749267578;-21.35371971130371;93.40279388427734
105;1673436240.7768273;47.1306423;7.2406201999999995;9.325000762939453;1673436240.8432302;18.752836227416992;-20.12015724182129;93.59933471679688
106;1673436241.0007114;47.1306423;7.2406201999999995;9.527000427246094;1673436241.057138;18.690195083618164;-21.993671417236328;93.3387680053711
107;1673436241.2028584;47.1306423;7.2406201999999995;9.734000205993652;1673436241.2953146;18.85885238647461;-21.858539581298828;93.2635269165039
108;1673436241.4394019;47.1306423;7.2406201999999995;9.940000534057617;1673436241.4893196;18.669193267822266;-19.9694881439209;93.67958068847656
109;1673436241.636463;47.1306423;7.2406201999999995;10.152000427246094;1673436241.6982317;18.727500915527344;-21.0474853515625;93.54939270019531
110;1673436241.8384712;47.1306423;7.2406201;10.447000503540039;1673436241.892725;17.627830505371094;-20.748376846313477;93.3148422241211
111;1673436242.0321403;47.1306425;7.2406198999999996;10.837000846862793;1673436242.082576;19.565698623657227;-21.832782745361328;93.41121673583984
112;1673436242.2193582;47.1306428;7.2406196;11.238000869750977;1673436242.2616076;17.976511001586914;-21.08081817626953;93.62648010253906
113;1673436242.3904574;47.1306431;7.2406193;11.647000312805176;1673436242.442368;17.76879119873047;-20.48988914489746;93.19563293457031
114;1673436242.584707;47.1306434;7.2406191;12.057000160217285;1673436242.6418798;17.10138702392578;-18.72804832458496;93.54302978515625
115;1673436242.7928755;47.1306435;7.240618899999999;12.468000411987305;1673436242.8487449;17.23237419128418;-19.505563735961914;93.33439636230469
116;1673436242.9832091;47.1306436;7.2406188;12.881000518798828;1673436243.0374463;17.123613357543945;-20.331087112426758;93.15959167480469
117;1673436243.1912582;47.1306435;7.2406188;13.292000770568848;1673436243.2570083;17.282825469970703;-18.96211814880371;93.44270324707031
118;1673436243.4110675;47.1306434;7.240618899999999;13.700000762939453;1673436243.4682775;17.572345733642578;-19.849411010742188;93.4192886352539
119;1673436243.6218507;47.130643299999996;7.240619;14.108000755310059;1673436243.6816251;17.891082763671875;-21.322126388549805;93.2237777709961
120;1673436243.8353434;47.130643199999994;7.240619;14.519001007080078;1673436243.8900108;17.775615692138672;-19.973979949951172;93.60527801513672
121;1673436244.0438077;47.130643;7.2406191;14.930000305175781;1673436244.0998738;18.08604621887207;-20.768693923950195;93.49176025390625
122;1673436244.2448106;47.1306428;7.240619199999999;15.339000701904297;1673436244.2997322;17.99127960205078;-22.100109100341797;93.23389434814453
123;1673436244.4435177;47.130642699999996;7.240619199999999;15.746000289916992;1673436244.4944255;18.106201171875;-20.269447326660156;93.60254669189453
124;1673436244.618347;47.130642699999996;7.2406193;16.147001266479492;1673436244.6662064;18.00364112854004;-20.420461654663086;93.56147003173828
125;1673436244.8008912;47.130642699999996;7.2406193;16.546001434326172;1673436244.853296;18.148008346557617;-21.711801528930664;93.2818374633789
126;1673436244.9943583;47.130642699999996;7.2406193;16.94700050354004;1673436245.059953;18.064727783203125;-20.517871856689453;93.43955993652344
127;1673436245.2015436;47.130642699999996;7.2406194;17.349000930786133;1673436245.255679;18.10711097717285;-19.957780838012695;93.59436798095703
128;1673436245.3942318;47.130642699999996;7.2406194;17.751001358032227;1673436245.4461718;18.181442260742188;-21.55885887145996;93.29844665527344
129;1673436245.594582;47.1306428;7.240619499999999;18.1510009765625;1673436245.6543856;18.09716033935547;-20.269412994384766;93.51312255859375
130;1673436245.8122854;47.1306428;7.240619499999999;18.552000045776367;1673436245.8695774;18.021114349365234;-19.538503646850586;93.5676040649414
131;1673436246.0258904;47.1306428;7.2406196;18.951000213623047;1673436246.0806234;18.28042221069336;-21.25596046447754;93.2943115234375
132;1673436246.2252388;47.1306428;7.2406196;19.349000930786133;1673436246.282253;18.026100158691406;-20.37845802307129;93.46284484863281
133;1673436246.4126315;47.1306428;7.2406196;19.756000518798828;1673436246.4615836;18.075626373291016;-19.587175369262695;93.60224914550781
134;1673436246.6120746;47.130642699999996;7.2406196;20.167001724243164;1673436246.6681983;18.05725860595703;-21.17350196838379;93.32292175292969
135;1673436246.8107047;47.130642699999996;7.2406196;20.577001571655273;1673436246.8660393;18.069684982299805;-20.51171875;93.37931060791016
136;1673436247.021059;47.1306428;7.2406196;20.983001708984375;1673436247.078208;17.826385498046875;-19.411067962646484;93.6723861694336
137;1673436247.2306309;47.130642699999996;7.2406196;21.38300132751465;1673436247.282514;18.028446197509766;-21.231172561645508;93.31446075439453
138;1673436247.4204528;47.130642699999996;7.2406196;21.7810001373291;1673436247.4756608;18.061473846435547;-20.779064178466797;93.39393615722656
139;1673436247.6186972;47.130642599999995;7.2406196;22.183000564575195;1673436247.674905;17.876752853393555;-19.714149475097656;93.61334991455078
140;1673436247.8208675;47.130642599999995;7.2406196;22.588001251220703;1673436247.8753548;18.057714462280273;-21.452054977416992;93.32877349853516
141;1673436248.0136771;47.1306425;7.2406197;22.992000579833984;1673436248.0708754;17.971689224243164;-21.081157684326172;93.40493774414062
142;1673436248.2139828;47.1306425;7.2406197;23.394001007080078;1673436248.27462;18.074907302856445;-19.514938354492188;93.64483642578125
143;1673436248.441483;47.1306425;7.240619799999999;23.796001434326172;1673436248.5078576;18.281526565551758;-21.155149459838867;93.33429718017578
144;1673436248.6549883;47.1306424;7.2406198999999996;24.194000244140625;1673436248.713856;18.0913028717041;-21.243070602416992;93.37030029296875
145;1673436248.8539932;47.1306424;7.2406198999999996;24.591001510620117;1673436248.9068627;18.11406898498535;-19.743709564208984;93.6454849243164
146;1673436249.0517898;47.1306424;7.2406198999999996;24.9950008392334;1673436249.1017485;18.204299926757812;-20.856143951416016;93.47107696533203
147;1673436249.242826;47.1306425;7.24062;25.400001525878906;1673436249.3116138;18.229225158691406;-21.424625396728516;93.33744049072266
148;1673436249.434197;47.1306425;7.24062;25.804000854492188;1673436249.4776907;18.06041145324707;-19.64569854736328;93.60127258300781
149;1673436249.6095428;47.1306425;7.24062;26.209001541137695;1673436249.6648827;18.06247901916504;-20.249717712402344;93.55223083496094
150;1673436249.8013258;47.1306425;7.24062;26.608001708984375;1673436249.8561277;18.043703079223633;-21.640039443969727;93.25668334960938
151;1673436250.0188947;47.1306425;7.24062;27.006000518798828;1673436250.0747628;18.11383056640625;-20.028114318847656;93.48719024658203
152;1673436250.2509208;47.1306425;7.24062;27.411001205444336;1673436250.2984757;18.16119956970215;-20.206096649169922;93.55548858642578
153;1673436250.421813;47.1306425;7.24062;27.81800079345703;1673436250.4736521;18.167280197143555;-21.591747283935547;93.25699615478516
154;1673436250.61383;47.130642599999995;7.2406201;28.22300148010254;1673436250.6822238;18.086938858032227;-19.822315216064453;93.54499053955078
155;1673436250.833492;47.130642599999995;7.2406201;28.62200164794922;1673436250.8839116;18.04719352722168;-20.025867462158203;93.52433013916016
156;1673436251.042112;47.130642699999996;7.2406201;29.0210018157959;1673436251.1096659;18.17823600769043;-21.433406829833984;93.22782135009766
157;1673436251.2332087;47.130642699999996;7.2406201;29.415000915527344;1673436251.2815971;18.104793548583984;-19.801830291748047;93.53922271728516
158;1673436251.418856;47.130642699999996;7.2406201;29.805002212524414;1673436251.473073;18.05647850036621;-19.820199966430664;93.56902313232422
159;1673436251.6170788;47.130642699999996;7.2406201999999995;30.202001571655273;1673436251.6706145;18.331220626831055;-21.499528884887695;93.21731567382812
160;1673436251.8240578;47.130642699999996;7.2406201999999995;30.601001739501953;1673436251.8724148;18.11808967590332;-19.942962646484375;93.4864730834961
161;1673436252.0070715;47.130642699999996;7.2406201999999995;31.000001907348633;1673436252.058357;18.1942081451416;-19.793914794921875;93.57684326171875
162;1673436252.1992369;47.130642699999996;7.2406201;31.397001266479492;1673436252.2563868;18.146865844726562;-21.420541763305664;93.26393127441406
163;1673436252.3947477;47.130642699999996;7.2406201;31.78700065612793;1673436252.4505403;18.098230361938477;-20.200428009033203;93.42437744140625
164;1673436252.590093;47.130642699999996;7.2406201;32.176002502441406;1673436252.6490047;18.032623291015625;-19.7104434967041;93.58706665039062
165;1673436252.8030107;47.130642699999996;7.24062;32.56700134277344;1673436252.8582335;18.121475219726562;-21.389816284179688;93.3201675415039
166;1673436253.0072348;47.130642699999996;7.24062;32.96000289916992;1673436253.0615892;18.112693786621094;-20.405447006225586;93.42618560791016
167;1673436253.2200825;47.130642699999996;7.24062;33.35600280761719;1673436253.2774434;18.08757209777832;-19.545433044433594;93.6631088256836
168;1673436253.4226243;47.130642599999995;7.24062;33.75300216674805;1673436253.483376;18.213640213012695;-21.26873207092285;93.36614227294922
169;1673436253.6324594;47.130642599999995;7.24062;34.14900207519531;1673436253.6861966;18.098440170288086;-20.863941192626953;93.42330169677734
170;1673436253.8235376;47.130642699999996;7.24062;34.540000915527344;1673436253.8787544;18.023040771484375;-19.35698127746582;93.6824951171875
171;1673436254.0211093;47.130642599999995;7.24062;34.928001403808594;1673436254.0802624;18.122215270996094;-20.93608283996582;93.4039535522461
172;1673436254.2311585;47.130642599999995;7.24062;35.32200241088867;1673436254.2828388;18.195568084716797;-21.16864585876465;93.33167266845703
173;1673436254.4347172;47.130642599999995;7.24062;35.720001220703125;1673436254.4880753;18.05457878112793;-19.569486618041992;93.59595489501953
174;1673436254.620678;47.130642599999995;7.24062;36.11900329589844;1673436254.673436;18.16559600830078;-20.9209041595459;93.38246154785156
175;1673436254.8255606;47.1306425;7.24062;36.5160026550293;1673436254.8822474;18.11151885986328;-21.32809066772461;93.21456909179688
176;1673436255.0147574;47.1306425;7.24062;36.90700149536133;1673436255.0735195;18.046186447143555;-19.709369659423828;93.56175994873047
177;1673436255.228801;47.1306425;7.24062;37.29500198364258;1673436255.2852125;17.99595832824707;-20.66846466064453;93.51175689697266
178;1673436255.4459732;47.130642599999995;7.24062;37.6870002746582;1673436255.500976;18.101051330566406;-21.422758102416992;93.34281921386719
179;1673436255.6425385;47.130642599999995;7.24062;38.082000732421875;1673436255.700779;17.945402145385742;-19.694303512573242;93.56065368652344
180;1673436255.839297;47.1306425;7.24062;38.480003356933594;1673436255.8941972;18.08451271057129;-20.29876708984375;93.44120025634766
181;1673436256.0327888;47.1306425;7.2406198999999996;38.880001068115234;1673436256.0845835;17.970916748046875;-21.629226684570312;93.2176742553711
182;1673436256.2256024;47.130642599999995;7.2406198999999996;39.281002044677734;1673436256.2869682;17.89103126525879;-19.752336502075195;93.57166290283203
183;1673436256.424864;47.130642599999995;7.2406198999999996;39.67400360107422;1673436256.4748702;17.987613677978516;-20.08355712890625;93.49531555175781
184;1673436256.6176293;47.130642599999995;7.2406198999999996;40.06500244140625;1673436256.6739585;17.994924545288086;-21.24074363708496;93.22594451904297
185;1673436256.827022;47.130642599999995;7.2406198999999996;40.46000289916992;1673436256.8832016;17.91735076904297;-19.753856658935547;93.53524017333984
186;1673436257.0208156;47.130642599999995;7.2406198999999996;40.85900115966797;1673436257.0701642;17.93561363220215;-20.152633666992188;93.57080841064453
187;1673436257.2162395;47.130642599999995;7.2406198999999996;41.25700378417969;1673436257.2714362;17.902944564819336;-21.46510887145996;93.28844451904297
188;1673436257.430449;47.130642599999995;7.2406198999999996;41.65700149536133;1673436257.4861772;17.981889724731445;-19.75394058227539;93.57215881347656
189;1673436257.6343176;47.130642599999995;7.24062;42.04900360107422;1673436257.6956987;18.01664924621582;-19.847871780395508;93.58940124511719
190;1673436257.8468876;47.1306425;7.24062;42.441001892089844;1673436257.9101846;18.146411895751953;-21.57086181640625;93.24172973632812
191;1673436258.0428076;47.1306425;7.24062;42.8390007019043;1673436258.093319;18.045400619506836;-20.129009246826172;93.48899841308594
192;1673436258.247046;47.1306425;7.24062;43.23500061035156;1673436258.3019283;18.101469039916992;-19.697519302368164;93.61154174804688
193;1673436258.4402223;47.1306424;7.24062;43.63100051879883;1673436258.490039;18.134740829467773;-21.37108612060547;93.27657318115234
194;1673436258.6255655;47.1306425;7.24062;44.02800369262695;1673436258.676044;18.073688507080078;-20.210725784301758;93.45309448242188
195;1673436258.8090816;47.1306424;7.24062;44.42400360107422;1673436258.86476;17.900466918945312;-19.843339920043945;93.66421508789062
196;1673436259.0220857;47.1306424;7.24062;44.816001892089844;1673436259.0777078;18.039100646972656;-21.458213806152344;93.34058380126953
197;1673436259.2548938;47.1306424;7.24062;45.207000732421875;1673436259.3107584;17.935020446777344;-20.561330795288086;93.48387908935547
198;1673436259.4573002;47.1306424;7.24062;45.60400390625;1673436259.5080884;17.964876174926758;-19.61017608642578;93.63034057617188
199;1673436259.647424;47.1306424;7.24062;46.00300216674805;1673436259.6986783;18.058757781982422;-21.5286808013916;93.32469177246094
200;1673436259.8273401;47.1306424;7.24062;46.40400314331055;1673436259.8793032;18.02774429321289;-20.416339874267578;93.50088500976562
201;1673436260.0164785;47.1306424;7.2406201;46.80500411987305;1673436260.070887;18.11249351501465;-19.483762741088867;93.59791564941406
202;1673436260.22273;47.1306424;7.2406201;47.198001861572266;1673436260.2781112;18.09772491455078;-21.260440826416016;93.21493530273438
203;1673436260.4196873;47.1306424;7.2406201;47.590003967285156;1673436260.4739392;18.063501358032227;-20.580360412597656;93.38636779785156
204;1673436260.6142683;47.1306424;7.24062;47.983001708984375;1673436260.667338;18.021846771240234;-19.654695510864258;93.63345336914062
205;1673436260.8063097;47.1306423;7.24062;48.35400390625;1673436260.8597708;18.116676330566406;-21.454381942749023;93.23007202148438
206;1673436261.0041292;47.1306422;7.2406201;48.67500305175781;1673436261.0742881;18.313058853149414;-20.943233489990234;93.33740234375
207;1673436261.2252948;47.130641999999995;7.2406203;48.945003509521484;1673436261.2824063;18.45073127746582;-20.58692169189453;93.47931671142578
208;1673436261.4262981;47.1306418;7.2406204999999995;49.17100143432617;1673436261.475871;18.90147590637207;-22.210023880004883;93.24971771240234
209;1673436261.6229832;47.130641499999996;7.2406207;49.35200119018555;1673436261.6763804;24.7711238861084;-14.124096870422363;94.39726257324219
210;1673436261.8261304;47.130641;7.2406204999999995;49.50600051879883;1673436261.8816333;39.19466781616211;12.492613792419434;104.6676025390625
211;1673436262.0353405;47.1306393;7.2406185;49.64800262451172;1673436262.0888815;43.51598358154297;35.12521743774414;116.24579620361328
212;1673436262.2354236;47.130635399999996;7.2406134;49.768001556396484;1673436262.2906156;42.14610290527344;46.72901153564453;121.85045623779297
213;1673436262.4246285;47.1306288;7.240604899999999;49.832000732421875;1673436262.4760852;29.7663631439209;46.73978042602539;127.17076873779297
214;1673436262.612473;47.13062;7.2405941;49.842002868652344;1673436262.6666846;12.80576229095459;45.90077590942383;141.72276306152344
215;1673436262.8262138;47.130609199999995;7.2405814;49.88100051879883;1673436262.881745;-4.510891914367676;50.97293472290039;156.4297637939453
216;1673436263.0347836;47.1305966;7.2405668;49.910003662109375;1673436263.0926192;-24.63196563720703;48.4417839050293;169.8477325439453
217;1673436263.2513688;47.130582399999994;7.2405504999999994;49.91400146484375;1673436263.3080733;-36.352020263671875;45.064598083496094;-179.55494689941406
218;1673436263.4286392;47.1305665;7.2405325;49.90200424194336;1673436263.4774957;-40.55967712402344;39.0888557434082;-170.13436889648438
219;1673436263.6511161;47.1305492;7.240513099999999;49.87700271606445;1673436263.685552;-42.67817687988281;33.51432418823242;-160.8643798828125
220;1673436263.8308072;47.130530799999995;7.240492499999999;49.85100173950195;1673436263.885977;-47.616455078125;30.482784271240234;-151.63955688476562
221;1673436264.0363712;47.1305117;7.2404706999999995;49.810001373291016;1673436264.0930305;-45.487518310546875;24.759984970092773;-143.7635040283203
222;1673436264.2401702;47.1304924;7.2404483;49.75200271606445;1673436264.2901473;-42.806793212890625;20.282651901245117;-137.77976989746094
223;1673436264.4396672;47.130473099999996;7.2404255;49.70000076293945;1673436264.4992526;-44.87049865722656;16.726755142211914;-131.06288146972656
224;1673436264.639263;47.130453599999996;7.2404022999999995;49.663002014160156;1673436264.6915627;-44.957603454589844;12.049978256225586;-125.8783187866211
225;1673436264.840844;47.130434;7.240378799999999;49.625003814697266;1673436264.900352;-39.408809661865234;10.87574291229248;-129.0157012939453
226;1673436265.050054;47.1304145;7.240355699999999;49.60300064086914;1673436265.1112914;-40.399471282958984;12.593311309814453;-132.50242614746094
227;1673436265.2566676;47.130395;7.240332899999999;49.60700225830078;1673436265.311175;-45.18540573120117;15.141383171081543;-133.45352172851562
228;1673436265.4603143;47.1303753;7.240310099999999;49.630001068115234;1673436265.513569;-47.875946044921875;19.5717716217041;-130.881103515625
229;1673436265.6468036;47.1303558;7.2402868;49.660003662109375;1673436265.702328;-47.26584243774414;17.07123565673828;-120.12403106689453
230;1673436265.8396854;47.130336799999995;7.2402627;49.691001892089844;1673436265.8949857;-44.34629440307617;12.670896530151367;-110.21421813964844
231;1673436266.0501962;47.1303185;7.2402384;49.71600341796875;1673436266.1053488;-42.7975959777832;10.430027961730957;-101.78105926513672
232;1673436266.2490768;47.1303012;7.240214099999999;49.73400115966797;1673436266.3057408;-39.80926513671875;11.928448677062988;-93.0788803100586
233;1673436266.4538798;47.1302853;7.2401903999999995;49.74400329589844;1673436266.5012617;-36.59358215332031;16.87693977355957;-83.45133209228516
234;1673436266.6502776;47.130271199999996;7.2401678;49.74800109863281;1673436266.6995132;-30.582921981811523;25.415626525878906;-72.8916244506836
235;1673436266.8573866;47.130259699999996;7.2401474;49.76000213623047;1673436266.915552;-23.6359920501709;29.70022964477539;-60.484901428222656
236;1673436267.0619824;47.1302507;7.240130499999999;49.7650032043457;1673436267.111189;-17.604446411132812;29.5357723236084;-60.06883239746094
237;1673436267.2508028;47.1302434;7.240117199999999;49.76300048828125;1673436267.3007581;-4.494888782501221;27.844924926757812;-76.74842834472656
238;1673436267.4527092;47.1302376;7.2401076;49.797000885009766;1673436267.5073965;5.381504535675049;34.631038665771484;-93.30901336669922
239;1673436267.6479192;47.1302333;7.2401013999999995;49.89200210571289;1673436267.698731;7.427485466003418;41.172916412353516;-105.78462219238281
240;1673436267.8486714;47.1302309;7.2400977;50.01000213623047;1673436267.901495;-16.019283294677734;40.215450286865234;-119.19676971435547
241;1673436268.0460503;47.1302295;7.2400937;50.095001220703125;1673436268.1029983;-50.41584396362305;21.502368927001953;-128.91207885742188
242;1673436268.2343903;47.130227;7.2400872;50.1400032043457;1673436268.2863796;-58.07489776611328;8.17794418334961;-132.1774444580078
243;1673436268.4433835;47.1302217;7.240078199999999;50.12800216674805;1673436268.5026536;-50.63409423828125;6.772064208984375;-139.54864501953125
244;1673436268.6499596;47.1302133;7.2400677;50.10700225830078;1673436268.7058234;-49.62807846069336;11.127514839172363;-142.34423828125
245;1673436268.84659;47.1302022;7.240056099999999;50.10300064086914;1673436268.901437;-50.04751205444336;11.220701217651367;-136.35446166992188
246;1673436269.0546741;47.1301888;7.2400427;50.130001068115234;1673436269.1064618;-54.854408264160156;15.027064323425293;-133.03662109375
247;1673436269.2514522;47.1301737;7.2400272;50.15800094604492;1673436269.3069139;-55.77378463745117;17.345909118652344;-132.43519592285156
248;1673436269.4598796;47.1301573;7.2400094;50.169002532958984;1673436269.511341;-52.25169372558594;17.447092056274414;-131.310791015625
249;1673436269.6613486;47.1301401;7.2399898;50.178001403808594;1673436269.734058;-52.2908935546875;18.277318954467773;-125.87872314453125
250;1673436269.9048233;47.1301227;7.2399685;50.18100357055664;1673436269.9634976;-53.208255767822266;13.649186134338379;-115.05863952636719
251;1673436270.1024492;47.1301055;7.2399458;50.177001953125;1673436270.154175;-51.366695404052734;6.048108100891113;-105.88208770751953
252;1673436270.323077;47.1300885;7.2399219;50.16400146484375;1673436270.3729403;-49.42842483520508;-1.2913917303085327;-97.1204605102539
253;1673436270.5120988;47.130071799999996;7.239897399999999;50.134002685546875;1673436270.565943;-45.25492477416992;-6.424051284790039;-88.93869018554688
254;1673436270.7046604;47.130055299999995;7.239872699999999;50.095001220703125;1673436270.7544363;-41.054203033447266;-9.502517700195312;-80.22393035888672
255;1673436270.9218228;47.1300393;7.239848299999999;50.04500198364258;1673436270.968662;-36.46171569824219;-9.687124252319336;-70.84086608886719
256;1673436271.1136258;47.1300239;7.2398244;49.9900016784668;1673436271.1616158;-34.02511215209961;-7.292083740234375;-61.104515075683594
257;1673436271.2973776;47.1300096;7.2398015;49.95500183105469;1673436271.3497295;-43.74147033691406;-8.69922161102295;-57.5090217590332
258;1673436271.4828153;47.1299966;7.2397789999999995;49.94600296020508;1673436271.537511;-40.118003845214844;-6.7951836585998535;-69.47035217285156
259;1673436271.680576;47.1299846;7.2397567;49.97700119018555;1673436271.7317123;-30.049251556396484;3.1265978813171387;-86.9406967163086
260;1673436271.866724;47.129973199999995;7.2397355999999995;50.01700210571289;1673436271.9202397;-29.91080093383789;-2.267183780670166;-95.24461364746094
261;1673436272.0791087;47.129961599999994;7.2397157;50.057003021240234;1673436272.137683;-39.727664947509766;-14.707761764526367;-103.60065460205078
262;1673436272.2803957;47.129948999999996;7.2396967;50.090003967285156;1673436272.331723;-55.572330474853516;-18.542041778564453;-111.6155014038086
263;1673436272.475782;47.129934299999995;7.2396778;50.0880012512207;1673436272.523659;-54.1934928894043;-4.472537040710449;-125.60609436035156
264;1673436272.6684935;47.1299174;7.2396588;50.07100296020508;1673436272.7213182;-46.4113883972168;-0.7703065872192383;-133.64613342285156
265;1673436272.87369;47.1298989;7.239640199999999;50.05500411987305;1673436272.9293652;-45.254638671875;7.272539138793945;-140.6486053466797
266;1673436273.10597;47.1298792;7.2396218999999995;50.05600357055664;1673436273.1576984;-48.4552001953125;15.927441596984863;-140.75267028808594
267;1673436273.3074367;47.1298585;7.239603;50.073001861572266;1673436273.3579175;-51.79343795776367;24.181398391723633;-136.81483459472656
268;1673436273.490494;47.129837699999996;7.239582599999999;50.08000183105469;1673436273.5432026;-50.40279769897461;22.276281356811523;-124.0250015258789
269;1673436273.678258;47.129817599999996;7.2395608;50.06100082397461;1673436273.7285025;-44.157264709472656;14.476619720458984;-112.28418731689453
270;1673436273.8676543;47.1297983;7.2395382999999995;50.03400421142578;1673436273.9186378;-43.40140914916992;8.802128791809082;-104.3916244506836
271;1673436274.0646613;47.12978;7.2395154999999995;50.00600051879883;1673436274.1180444;-42.936649322509766;3.5956320762634277;-95.53368377685547
272;1673436274.2500029;47.1297626;7.2394927;49.9890022277832;1673436274.3034177;-44.45144271850586;0.03791630268096924;-86.7404556274414
273;1673436274.4592538;47.1297461;7.239469799999999;49.97100067138672;1673436274.5154564;-43.419837951660156;-0.8950062990188599;-77.2897720336914
274;1673436274.6704338;47.1297309;7.239446999999999;49.94200134277344;1673436274.7223244;-41.361148834228516;-0.007478032726794481;-67.33589172363281
275;1673436274.8595665;47.129717199999995;7.2394245999999995;49.915000915527344;1673436274.9097168;-42.29216766357422;2.5875213146209717;-59.44799041748047
276;1673436275.0488973;47.1297053;7.2394031;49.9010009765625;1673436275.105563;-42.45724105834961;4.038031578063965;-49.66217803955078
277;1673436275.2663453;47.1296955;7.2393826;49.9010009765625;1673436275.3202324;-47.495643615722656;0.14684902131557465;-42.565677642822266
278;1673436275.4788554;47.129688099999996;7.2393632;49.91100311279297;1673436275.5252695;-47.969276428222656;-0.4437498152256012;-42.05141830444336
279;1673436275.6584635;47.1296828;7.2393446;49.93600082397461;1673436275.7148075;-49.65031433105469;-1.9482556581497192;-48.82313919067383
280;1673436275.8510618;47.1296793;7.239325999999999;49.97300338745117;1673436275.9059289;-50.63376998901367;5.699893951416016;-62.19020080566406
281;1673436276.0481007;47.129677199999996;7.2393072;50.02900314331055;1673436276.1056194;-42.9315299987793;6.564244270324707;-71.93163299560547
282;1673436276.260671;47.1296756;7.2392886;50.06800079345703;1673436276.316447;-22.91230583190918;-9.711119651794434;-81.57137298583984
283;1673436276.4707198;47.1296731;7.2392711;50.07500076293945;1673436276.5207253;-19.5404052734375;-33.99565124511719;-89.45198059082031
284;1673436276.668349;47.1296683;7.239255399999999;50.035003662109375;1673436276.7274685;-32.92033004760742;-34.751155853271484;-101.4547119140625
285;1673436276.8794608;47.12966;7.239241499999999;49.98100280761719;1673436276.9367678;-35.26850128173828;-22.541828155517578;-115.21808624267578
286;1673436277.080437;47.1296487;7.2392289;49.941001892089844;1673436277.1401687;-39.442169189453125;-14.937178611755371;-122.20140838623047
287;1673436277.2628446;47.1296348;7.2392173;49.93600082397461;1673436277.3117023;-49.29648971557617;-4.569596290588379;-130.947265625
288;1673436277.4665473;47.129618699999995;7.2392055;49.954002380371094;1673436277.5271022;-54.7481689453125;7.986060619354248;-140.07530212402344
289;1673436277.6732533;47.129600499999995;7.2391926;49.97900390625;1673436277.729875;-53.83896255493164;16.141359329223633;-143.37823486328125
290;1673436277.8787723;47.1295807;7.239177799999999;50.012001037597656;1673436277.9378195;-52.383121490478516;18.52910614013672;-138.49497985839844
291;1673436278.0832815;47.12956;7.239160999999999;50.053001403808594;1673436278.1352222;-52.309322357177734;22.7308406829834;-135.3073272705078
292;1673436278.2777421;47.129539099999995;7.239142299999999;50.077003479003906;1673436278.3298986;-51.56945037841797;23.207721710205078;-133.77455139160156
293;1673436278.4714339;47.129518499999996;7.2391217;50.077003479003906;1673436278.5210233;-48.99196243286133;20.803861618041992;-131.61351013183594
294;1673436278.6533866;47.1294981;7.2390997;50.06800079345703;1673436278.705699;-47.89504623413086;19.963016510009766;-130.7268524169922
295;1673436278.8606024;47.1294781;7.2390766;50.05400085449219;1673436278.9209077;-47.15530776977539;16.5620174407959;-129.82313537597656
296;1673436279.0712438;47.129458199999995;7.2390529;50.04600143432617;1673436279.1291785;-46.96943664550781;19.56099510192871;-125.85499572753906
297;1673436279.288528;47.129438699999994;7.2390285;50.03000259399414;1673436279.3417683;-44.61972427368164;13.605424880981445;-114.10274505615234
298;1673436279.4987166;47.129419999999996;7.2390037;50.01100158691406;1673436279.5546482;-43.6895751953125;10.102417945861816;-105.47248840332031
299;1673436279.699489;47.1294021;7.238978899999999;49.9900016784668;1673436279.7613876;-42.68603515625;6.931901454925537;-96.60734558105469
300;1673436279.8783486;47.129385299999996;7.2389543;49.965003967285156;1673436279.9287221;-41.03884506225586;3.9997568130493164;-87.8161849975586
301;1673436280.0677228;47.1293696;7.2389301999999995;49.93700408935547;1673436280.1220062;-39.416534423828125;11.795145034790039;-80.49085998535156
302;1673436280.2640939;47.1293556;7.238906999999999;49.913002014160156;1673436280.3178842;-26.82404899597168;38.27124786376953;-67.89808654785156
303;1673436280.464165;47.1293441;7.2388867999999995;49.87200164794922;1673436280.5256944;-16.19850730895996;26.088457107543945;-58.381004333496094
304;1673436280.6784408;47.1293347;7.2388704;49.79500198364258;1673436280.728294;2.1548092365264893;18.234046936035156;-77.91069793701172
305;1673436280.8764732;47.1293264;7.238857899999999;49.749000549316406;1673436280.9349952;12.013617515563965;9.995511054992676;-102.58053588867188
306;1673436281.0685775;47.1293187;7.2388496;49.7400016784668;1673436281.1156325;23.483020782470703;11.772311210632324;-116.09541320800781
307;1673436281.246172;47.1293121;7.2388455;49.7760009765625;1673436281.2974732;20.53704833984375;25.972883224487305;-126.55158233642578
308;1673436281.4640775;47.129306899999996;7.2388439;49.85000228881836;1673436281.5196626;-7.434754371643066;37.374576568603516;-131.31460571289062
309;1673436281.6666496;47.1293028;7.238842099999999;49.93400192260742;1673436281.7257516;-31.77923583984375;41.97813034057617;-114.32386779785156
310;1673436281.8748574;47.1292997;7.238838599999999;50.01300048828125;1673436281.929823;-49.40376663208008;35.73898696899414;-97.28544616699219
311;1673436282.071757;47.1292981;7.2388322;50.0780029296875;1673436282.1294494;-54.9610481262207;24.735118865966797;-84.0255355834961
312;1673436282.2745945;47.1292979;7.2388229;50.125003814697266;1673436282.3261855;-54.156700134277344;13.407702445983887;-76.98030853271484
313;1673436282.474331;47.129298399999996;7.2388113;50.13900375366211;1673436282.5256786;-51.287574768066406;18.094560623168945;-90.09800720214844
314;1673436282.6774552;47.129298999999996;7.2387976;50.12000274658203;1673436282.7357497;-43.26634979248047;28.180654525756836;-104.99884033203125
315;1673436282.8878577;47.129299499999995;7.238782499999999;50.09300231933594;1673436282.9496229;-36.50197982788086;32.0826416015625;-116.66812133789062
316;1673436283.0951984;47.1292997;7.2387662;50.073001861572266;1673436283.1478946;-30.673673629760742;24.087223052978516;-127.15949249267578
317;1673436283.2706234;47.129298999999996;7.2387494;50.07600402832031;1673436283.324432;-31.491971969604492;-2.360691785812378;-138.60305786132812
318;1673436283.469757;47.129296;7.238734;50.07600402832031;1673436283.5212789;-42.15580749511719;-22.008663177490234;-146.69268798828125
319;1673436283.6783123;47.129289899999996;7.238721699999999;50.005001068115234;1673436283.7335882;-28.378835678100586;-8.707391738891602;-155.44631958007812
320;1673436283.8869965;47.129281;7.238712;49.9160041809082;1673436283.938138;-26.625099182128906;-10.713144302368164;-144.16641235351562
321;1673436284.075214;47.1292701;7.2387045;49.8640022277832;1673436284.1305435;-29.932601928710938;-14.018085479736328;-140.34417724609375
322;1673436284.2741303;47.1292572;7.2386987;49.85200119018555;1673436284.3305826;-38.5571403503418;-4.573760986328125;-140.61314392089844
323;1673436284.4973395;47.1292423;7.2386935999999995;49.85200119018555;1673436284.5472696;-42.126670837402344;1.8608144521713257;-139.90408325195312
324;1673436284.695262;47.1292257;7.2386881999999995;49.8650016784668;1673436284.749957;-43.92519760131836;11.532384872436523;-136.62033081054688
325;1673436284.9055474;47.1292079;7.2386813;49.90900421142578;1673436284.9534156;-47.054832458496094;21.03407096862793;-128.9153289794922
326;1673436285.083133;47.129190099999995;7.2386718;49.970001220703125;1673436285.137999;-44.694854736328125;32.80332565307617;-121.02159881591797
327;1673436285.2744315;47.129173599999994;7.2386596999999995;50.02100372314453;1673436285.3270395;-34.224647521972656;44.93094253540039;-111.9185791015625
328;1673436285.4877787;47.129159699999995;7.2386460999999995;50.05000305175781;1673436285.54461;-22.493824005126953;52.56303787231445;-102.11045837402344
329;1673436285.6874785;47.1291491;7.2386327999999995;50.02900314331055;1673436285.7435584;-16.915279388427734;43.741146087646484;-92.70902252197266
330;1673436285.896714;47.1291416;7.2386208;50.00400161743164;1673436285.9502563;-19.298297882080078;40.59091567993164;-87.74217987060547
331;1673436286.0816088;47.129136599999995;7.2386105;49.9890022277832;1673436286.132773;-22.162046432495117;38.02714538574219;-77.64920806884766
332;1673436286.2771227;47.1291339;7.238601999999999;49.992000579833984;1673436286.3335247;-30.59589958190918;40.09986877441406;-69.2635269165039
333;1673436286.476255;47.1291337;7.2385953999999995;50.00300216674805;1673436286.5324824;-37.10249328613281;40.09670639038086;-72.0216064453125
334;1673436286.6727393;47.1291357;7.238589999999999;50.00600051879883;1673436286.7260315;-33.224937438964844;38.287513732910156;-79.62042999267578
335;1673436286.8671215;47.1291394;7.238585;50.02100372314453;1673436286.9176269;-19.166292190551758;34.25703811645508;-88.90267181396484
336;1673436287.0743544;47.129144;7.2385806;50.060001373291016;1673436287.1276495;-7.570058822631836;33.98234939575195;-103.68451690673828
337;1673436287.2826757;47.129149;7.2385768;50.15700149536133;1673436287.354461;2.2185590267181396;39.71506881713867;-118.53666687011719
338;1673436287.4868991;47.1291545;7.2385734;50.302001953125;1673436287.5421944;10.778215408325195;30.244577407836914;-131.16647338867188
339;1673436287.6949837;47.1291599;7.2385706;50.47800064086914;1673436287.7571833;9.777520179748535;16.35236930847168;-138.44972229003906
340;1673436287.9220848;47.129164599999996;7.238569;50.70900344848633;1673436287.9923494;3.4293205738067627;2.287959575653076;-144.66552734375
341;1673436288.1379662;47.1291679;7.2385689;50.98200225830078;1673436288.189873;-13.261577606201172;4.397134780883789;-151.35104370117188
342;1673436288.3275642;47.129169399999995;7.238569699999999;51.1670036315918;1673436288.3802688;-34.43553924560547;12.303086280822754;-162.32376098632812
343;1673436288.523068;47.1291692;7.2385709;51.1400032043457;1673436288.5719714;-30.863805770874023;23.1677188873291;-168.46255493164062
344;1673436288.7137668;47.1291668;7.2385717;50.98800277709961;1673436288.7664356;-9.267309188842773;20.648279190063477;-161.56211853027344
345;1673436288.9100542;47.129162799999996;7.2385718;50.8380012512207;1673436288.9629867;2.4840548038482666;24.762805938720703;-157.30979919433594
346;1673436289.1070375;47.1291583;7.2385712;50.724002838134766;1673436289.160892;4.583293437957764;26.6187686920166;-150.78919982910156
347;1673436289.3055162;47.129154;7.238569999999999;50.67500305175781;1673436289.356302;-17.098073959350586;34.82172393798828;-140.4547576904297
348;1673436289.4946363;47.1291496;7.238567;50.72200393676758;1673436289.54904;-36.66593933105469;28.080245971679688;-131.4461669921875
349;1673436289.7038171;47.129144499999995;7.238561;50.8640022277832;1673436289.7467678;-42.229827880859375;17.33434295654297;-131.34225463867188
350;1673436289.8862462;47.129137799999995;7.238552599999999;51.07200241088867;1673436289.9420433;-29.43170738220215;11.991437911987305;-133.17308044433594
351;1673436290.0874908;47.1291297;7.2385432;51.3390007019043;1673436290.1460252;-15.396269798278809;10.766033172607422;-134.427734375
352;1673436290.3021784;47.1291206;7.2385341;51.68400192260742;1673436290.3565385;-29.734010696411133;32.14374542236328;-137.1429901123047
353;1673436290.4849794;47.1291113;7.238523799999999;52.082000732421875;1673436290.5345333;-33.43390655517578;34.80210494995117;-134.521240234375
354;1673436290.678542;47.129101999999996;7.2385112;52.48600387573242;1673436290.7401073;-30.797407150268555;30.34226417541504;-134.60873413085938
355;1673436290.8903692;47.129092799999995;7.238497199999999;52.8910026550293;1673436290.9470518;-27.80528450012207;28.6164608001709;-135.08853149414062
356;1673436291.0992935;47.1290835;7.2384822;53.28400421142578;1673436291.1581724;-26.076295852661133;25.88195037841797;-135.91419982910156
357;1673436291.3035858;47.1290742;7.2384669;53.676002502441406;1673436291.3562937;-23.330730438232422;23.632488250732422;-136.4573516845703
358;1673436291.4966753;47.1290647;7.2384517;54.06500244140625;1673436291.545554;-21.678354263305664;22.59947395324707;-136.92320251464844
359;1673436291.683741;47.129055099999995;7.2384368;54.45500183105469;1673436291.7374659;-20.857585906982422;22.140531539916992;-137.09384155273438
360;1673436291.8958168;47.1290453;7.2384222;54.85000228881836;1673436291.9568098;-20.027565002441406;21.98643684387207;-137.08522033691406
361;1673436292.1094754;47.1290355;7.238408;55.24200439453125;1673436292.1626437;-19.984088897705078;22.627912521362305;-137.18360900878906
362;1673436292.3162525;47.1290256;7.2383942999999995;55.634002685546875;1673436292.378177;-20.34339714050293;23.150373458862305;-137.1826934814453
363;1673436292.5123541;47.129015599999995;7.2383808;56.0260009765625;1673436292.5635746;-20.831514358520508;23.788606643676758;-137.15924072265625
364;1673436292.703394;47.1290057;7.2383675;56.42000198364258;1673436292.7549372;-21.39288902282715;24.502199172973633;-137.13214111328125
365;1673436292.902342;47.1289958;7.2383543999999995;56.81500244140625;1673436292.9571536;-21.953655242919922;24.975786209106445;-137.11952209472656
366;1673436293.1027524;47.128985899999996;7.2383413;57.21000289916992;1673436293.1644306;-22.512439727783203;25.305274963378906;-137.0435791015625
367;1673436293.316147;47.128976099999996;7.2383280999999995;57.603004455566406;1673436293.3658323;-22.73688507080078;25.495622634887695;-137.0124969482422
368;1673436293.5154011;47.1289662;7.2383147;57.99700164794922;1673436293.5652137;-22.83772087097168;25.550989151000977;-136.95704650878906
369;1673436293.7099724;47.1289563;7.2383011999999995;58.3900032043457;1673436293.7666786;-22.57398223876953;25.50982666015625;-136.9353485107422
370;1673436293.9391398;47.1289464;7.2382876;58.78200149536133;1673436293.9922771;-22.498247146606445;25.36779022216797;-136.97042846679688
371;1673436294.1998494;47.1289364;7.238274;59.176002502441406;1673436294.240767;-22.463258743286133;25.180198669433594;-136.97317504882812
372;1673436294.3588934;47.1289266;7.2382605;59.56900405883789;1673436294.4088411;-22.355199813842773;24.923620223999023;-136.91404724121094
373;1673436294.5454116;47.1289167;7.2382468;59.96200180053711;1673436294.6001074;-22.269351959228516;24.820056915283203;-136.92800903320312
374;1673436294.7663467;47.128906799999996;7.2382332;60.353004455566406;1673436294.8166537;-22.282123565673828;24.734355926513672;-136.96327209472656
375;1673436294.9552472;47.1288969;7.2382195;60.74400329589844;1673436295.0061498;-22.21170997619629;24.785892486572266;-136.96063232421875
376;1673436295.134083;47.128887;7.238205799999999;61.13600158691406;1673436295.1839116;-22.265546798706055;24.75428581237793;-136.970458984375
377;1673436295.3233788;47.1288771;7.238192199999999;61.52900314331055;1673436295.3830225;-22.250062942504883;24.793298721313477;-136.98606872558594
378;1673436295.5331073;47.128867299999996;7.2381785999999995;61.92400360107422;1673436295.5819032;-22.297393798828125;24.89473533630371;-137.0019073486328
379;1673436295.7225134;47.1288574;7.2381649999999995;62.3180046081543;1673436295.7783158;-22.22269630432129;25.094146728515625;-136.9886016845703
380;1673436295.9269462;47.1288475;7.2381514;62.71200180053711;1673436295.9749691;-22.404563903808594;24.976512908935547;-136.99977111816406
381;1673436296.129834;47.1288376;7.2381378;63.105003356933594;1673436296.187569;-22.422344207763672;25.038610458374023;-136.99301147460938
382;1673436296.3692522;47.1288276;7.238124099999999;63.49500274658203;1673436296.4132879;-22.45611000061035;25.021987915039062;-136.97181701660156
383;1673436296.5736322;47.1288177;7.2381104999999994;63.884002685546875;1673436296.632447;-22.42407989501953;25.01170539855957;-136.9613800048828
384;1673436296.7617164;47.1288078;7.2380968;64.27899932861328;1673436296.8276005;-22.35030174255371;24.940242767333984;-136.9319305419922
385;1673436296.957742;47.128797899999995;7.238083199999999;64.6760025024414;1673436297.008326;-22.469127655029297;24.969749450683594;-136.99026489257812
386;1673436297.1374881;47.1287879;7.2380695;65.07400512695312;1673436297.1814423;-22.446331024169922;24.877145767211914;-136.9792022705078
387;1673436297.3125477;47.128778;7.2380559;65.47200012207031;1673436297.362564;-22.41200065612793;24.891197204589844;-136.9983673095703
388;1673436297.5033646;47.128768099999995;7.2380422;65.86800384521484;1673436297.558684;-22.4448299407959;24.984413146972656;-136.99603271484375
389;1673436297.701804;47.1287581;7.2380286;66.26499938964844;1673436297.7575693;-22.42705535888672;24.82809829711914;-136.97303771972656
390;1673436297.9042196;47.1287482;7.2380149;66.66300201416016;1673436297.9619424;-22.51901626586914;24.846675872802734;-136.99232482910156
391;1673436298.1033316;47.1287382;7.2380013;67.06200408935547;1673436298.1581957;-22.428491592407227;24.88709831237793;-136.9811553955078
392;1673436298.299072;47.1287283;7.2379877;67.46200561523438;1673436298.3511617;-22.483592987060547;24.868389129638672;-136.9916229248047
393;1673436298.4941063;47.128718299999996;7.2379739999999995;67.86000061035156;1673436298.547872;-22.42550277709961;24.879234313964844;-136.9740753173828
394;1673436298.696154;47.1287083;7.2379603999999995;68.2550048828125;1673436298.7514875;-22.482460021972656;24.887861251831055;-136.98907470703125
395;1673436298.9060543;47.1286984;7.2379468;68.6500015258789;1673436298.9633827;-22.4593448638916;24.893598556518555;-136.9631805419922
396;1673436299.1137023;47.128688399999994;7.237933099999999;69.04600524902344;1673436299.1700494;-22.493511199951172;24.924531936645508;-136.9656524658203
397;1673436299.3108819;47.1286784;7.237919499999999;69.44200134277344;1673436299.36516;-22.489871978759766;24.96954917907715;-136.97080993652344
398;1673436299.5326338;47.128668399999995;7.2379058;69.84000396728516;1673436299.5964217;-22.481964111328125;25.068214416503906;-136.9951629638672
399;1673436299.7387297;47.1286584;7.2378922;70.23700714111328;1673436299.7977302;-22.496240615844727;25.095487594604492;-136.99832153320312
400;1673436299.9407325;47.128648399999996;7.2378785;70.63300323486328;1673436299.992082;-22.487337112426758;25.18168067932129;-136.98568725585938
401;1673436300.131506;47.1286384;7.2378649;71.02799987792969;1673436300.1843657;-22.47405242919922;25.114866256713867;-136.9705047607422
402;1673436300.3235633;47.128628299999995;7.2378512;71.42400360107422;1673436300.3821294;-22.429208755493164;25.09056854248047;-136.97491455078125
403;1673436300.5213432;47.1286184;7.2378374;71.82200622558594;1673436300.5730734;-22.42862319946289;24.97904396057129;-136.967529296875
404;1673436300.7190166;47.1286084;7.2378237;72.22100067138672;1673436300.7753053;-22.555828094482422;24.94186019897461;-136.98895263671875
405;1673436300.9213078;47.1285984;7.237809899999999;72.62000274658203;1673436300.9772842;-22.273794174194336;24.88184928894043;-136.96949768066406
406;1673436301.1200411;47.1285884;7.2377962;73.01900482177734;1673436301.1742535;-22.38750648498535;24.865692138671875;-136.98883056640625
407;1673436301.3237915;47.128578399999995;7.2377823999999995;73.42000579833984;1673436301.3785832;-22.210716247558594;24.925838470458984;-136.97976684570312
408;1673436301.530912;47.1285684;7.237768699999999;73.82300567626953;1673436301.5767832;-22.24631690979004;24.92839813232422;-136.98165893554688
409;1673436301.713287;47.128558299999995;7.237755;74.22700500488281;1673436301.7690892;-22.209712982177734;24.86238670349121;-136.9717559814453
410;1673436301.9042103;47.1285484;7.2377413;74.62800598144531;1673436301.9574568;-22.312297821044922;24.875839233398438;-136.99578857421875
411;1673436302.1046166;47.1285384;7.2377275;75.0300064086914;1673436302.1589644;-22.2965145111084;24.87183380126953;-137.00172424316406
412;1673436302.3051808;47.1285284;7.2377138;75.4330062866211;1673436302.3616345;-22.314844131469727;24.971355438232422;-136.98284912109375
413;1673436302.5077991;47.1285184;7.2377001;75.8340072631836;1673436302.5591075;-22.37421417236328;24.875783920288086;-136.9743194580078
414;1673436302.7050722;47.1285084;7.237686399999999;76.23600006103516;1673436302.770021;-22.37407875061035;24.924327850341797;-136.96786499023438
415;1673436302.9146638;47.1284984;7.2376727999999995;76.63899993896484;1673436302.9742324;-22.431882858276367;24.94774627685547;-136.9879608154297
416;1673436303.1288185;47.128488399999995;7.237659099999999;77.04400634765625;1673436303.1782107;-22.445560455322266;24.965660095214844;-136.97393798828125
417;1673436303.3245976;47.1284785;7.2376454;77.45000457763672;1673436303.381668;-22.426082611083984;24.919031143188477;-136.96810913085938
418;1673436303.5137708;47.1284685;7.237631599999999;77.8550033569336;1673436303.5660694;-22.514453887939453;24.834239959716797;-136.98585510253906
