;pos_time;latitude;longitude;altitude;alt_time;pitch;roll;yaw
0;1673430285.4031827;47.1306423;7.2406201;0.004000000189989805;1673430285.5555828;-0.20683403313159943;-0.2229275107383728;90.36527252197266
1;1673430285.5917108;47.1306422;7.24062;0.0020000000949949026;1673430285.7610543;0.03681556135416031;-0.2585906684398651;90.39319610595703
2;1673430285.7962973;47.1306422;7.24062;0.0;1673430285.9442332;-0.021419959142804146;-0.1048748642206192;90.296875
3;1673430285.9924457;47.1306422;7.2406198999999996;-0.0020000000949949026;1673430286.1558669;-0.21990172564983368;-0.26917532086372375;90.37440490722656
4;1673430286.1968555;47.1306422;7.240619799999999;-0.0020000000949949026;1673430286.340685;-0.2931002080440521;-0.3019479513168335;90.55294036865234
5;1673430286.3817887;47.1306422;7.240619799999999;0.0;1673430286.5363264;0.10810581594705582;-0.09386604279279709;90.55037689208984
6;1673430286.5853922;47.1306422;7.2406197;0.0010000000474974513;1673430286.7396293;0.04589515179395676;-0.3080819249153137;90.6268310546875
7;1673430286.7885919;47.1306422;7.2406197;-0.003000000026077032;1673430286.946527;-0.2253609299659729;-0.1999387890100479;90.3744888305664
8;1673430286.9916224;47.1306423;7.2406196;-0.006000000052154064;1673430287.1428797;-0.1793062537908554;-0.23635588586330414;90.39314270019531
9;1673430287.19296;47.1306423;7.2406196;-0.00800000037997961;1673430287.3390274;-0.3563172221183777;0.15427815914154053;90.47938537597656
10;1673430287.386012;47.1306423;7.2406196;0.0;1673430287.5384867;-0.34258338809013367;0.28205904364585876;90.52731323242188
11;1673430287.5826643;47.1306424;7.2406196;-0.0010000000474974513;1673430287.7447886;-0.11057880520820618;0.18087904155254364;90.36250305175781
12;1673430287.7888658;47.1306424;7.2406194;-0.003000000026077032;1673430287.9311893;-0.23888824880123138;0.2254474014043808;90.46945190429688
13;1673430287.9722533;47.1306424;7.2406194;-0.006000000052154064;1673430288.1354752;-0.3032594919204712;0.10509295016527176;90.41114044189453
14;1673430288.1797106;47.1306424;7.240619499999999;-0.01100000087171793;1673430288.3387492;-0.26764586567878723;0.23168285191059113;90.47142028808594
15;1673430288.381692;47.1306424;7.240619499999999;-0.01600000075995922;1673430288.531483;0.015111712738871574;0.4796583950519562;90.48944854736328
16;1673430288.5778635;47.1306424;7.2406197;-0.01900000125169754;1673430288.7366846;-0.013193496502935886;0.5597262382507324;90.4039306640625
17;1673430288.786643;47.1306424;7.2406197;-0.020000001415610313;1673430288.933904;-0.022306116297841072;0.7904661297798157;90.5781021118164
18;1673430288.9793482;47.1306424;7.2406198999999996;0.003000000026077032;1673430289.1395292;-0.037645842880010605;0.7929633855819702;90.57075500488281
19;1673430289.1854165;47.1306424;7.24062;0.010000000707805157;1673430289.3428185;-0.0877048596739769;0.6612449884414673;90.28099822998047
20;1673430289.3869905;47.1306424;7.24062;0.01600000075995922;1673430289.535778;-0.15356393158435822;0.1667991727590561;90.4921646118164
21;1673430289.5784423;47.1306424;7.2406201;0.01900000125169754;1673430289.7392442;0.06972676515579224;0.46866315603256226;90.37408447265625
22;1673430289.780315;47.1306424;7.2406201999999995;0.01900000125169754;1673430289.942009;0.1193990409374237;0.0027620301116257906;90.44042205810547
23;1673430289.9898326;47.1306423;7.2406201999999995;0.02200000174343586;1673430290.1344442;0.19896665215492249;0.30935195088386536;90.46660614013672
24;1673430290.175536;47.1306423;7.2406203;0.021000001579523087;1673430290.3353567;0.2933371663093567;0.34250596165657043;91.15533447265625
25;1673430290.3799589;47.1306422;7.2406203;0.013000000268220901;1673430290.5376794;1.055723786354065;0.3954177498817444;92.9323959350586
26;1673430290.5821342;47.130641999999995;7.2406203;0.00800000037997961;1673430290.738283;2.5230958461761475;0.0756770670413971;94.71772766113281
27;1673430290.7827375;47.1306419;7.2406201999999995;0.009000000543892384;1673430290.942868;2.3101117610931396;-2.0597965717315674;101.5573501586914
28;1673430290.9907212;47.1306417;7.2406198999999996;0.014000000432133675;1673430291.1707644;3.7997634410858154;-5.921006202697754;109.3852767944336
29;1673430291.2195501;47.130641499999996;7.2406196;0.024000000208616257;1673430291.35975;4.391307353973389;-11.204947471618652;111.15525817871094
30;1673430291.3978121;47.130641399999995;7.2406193;0.03800000250339508;1673430291.538945;0.5265219211578369;-12.586199760437012;106.76749420166016
31;1673430291.5844343;47.130641399999995;7.240618899999999;0.06599999964237213;1673430291.7537136;-0.4394351541996002;-12.865690231323242;103.45226287841797
32;1673430291.8008518;47.1306416;7.2406187;0.1120000034570694;1673430291.9513457;-0.3769262731075287;-11.488566398620605;100.97897338867188
33;1673430291.997631;47.1306418;7.2406185999999995;0.17800000309944153;1673430292.1544487;-0.5871604084968567;-7.513618469238281;99.21405029296875
34;1673430292.1954403;47.130642099999996;7.2406187;0.2630000114440918;1673430292.3539045;-1.3275787830352783;-9.8827486038208;98.32991790771484
35;1673430292.3925343;47.1306424;7.2406188;0.3620000183582306;1673430292.5420856;-1.5897502899169922;-10.409687995910645;97.71797180175781
36;1673430292.587518;47.130642699999996;7.2406191;0.47300001978874207;1673430292.74061;-1.402238368988037;-6.689540863037109;96.4635009765625
37;1673430292.7880034;47.1306428;7.2406193;0.5990000367164612;1673430292.9409037;-0.8809424638748169;-9.377050399780273;95.45722961425781
38;1673430292.9931777;47.130643;7.240619499999999;0.7400000095367432;1673430293.1466916;-0.43924862146377563;-12.277217864990234;94.8750991821289
39;1673430293.189131;47.130643;7.2406196;0.8950000405311584;1673430293.3491502;0.013536153361201286;-7.5218939781188965;94.32047271728516
40;1673430293.3989248;47.130643;7.2406196;1.062000036239624;1673430293.5546403;-0.5244023203849792;-9.104995727539062;94.24789428710938
41;1673430293.599642;47.1306431;7.2406197;1.2390000820159912;1673430293.7551117;-1.1749773025512695;-11.634075164794922;94.23360443115234
42;1673430293.7991722;47.130643199999994;7.2406196;1.4210001230239868;1673430293.9467397;-1.8445825576782227;-7.610175132751465;93.59488677978516
43;1673430293.985784;47.130643199999994;7.2406196;1.6060000658035278;1673430294.1386113;-1.2541682720184326;-8.35102367401123;96.730224609375
44;1673430294.1882565;47.130643199999994;7.240619499999999;1.7940000295639038;1673430294.3545136;-1.0423883199691772;-12.742388725280762;96.07318878173828
45;1673430294.408227;47.130643199999994;7.2406194;1.9860000610351562;1673430294.5591428;-1.1265324354171753;-9.318285942077637;95.11302185058594
46;1673430294.6040392;47.1306431;7.2406194;2.1760001182556152;1673430294.7463048;-1.3618115186691284;-7.689229965209961;94.62339782714844
47;1673430294.7883105;47.1306431;7.2406193;2.366000175476074;1673430294.9627848;-2.1492769718170166;-10.810454368591309;94.77780151367188
48;1673430294.9979267;47.130643199999994;7.2406193;2.555000066757202;1673430295.161324;-2.7273426055908203;-9.22511100769043;94.54304504394531
49;1673430295.2055447;47.130643199999994;7.240619199999999;2.752000093460083;1673430295.345776;-2.4308359622955322;-7.094315528869629;94.30841064453125
50;1673430295.3860497;47.1306431;7.240619199999999;2.945000171661377;1673430295.5433912;-1.9139891862869263;-11.406167984008789;94.5862808227539
51;1673430295.5948172;47.1306429;7.2406193;3.140000104904175;1673430295.7495728;-1.0608768463134766;-10.867067337036133;94.70105743408203
52;1673430295.794637;47.130642699999996;7.2406194;3.3370001316070557;1673430295.993909;-0.8975918292999268;-7.975381851196289;94.59475708007812
53;1673430296.0520444;47.130642599999995;7.2406194;3.5300002098083496;1673430296.193052;-1.250378131866455;-11.21040153503418;94.82046508789062
54;1673430296.231116;47.1306425;7.2406194;3.7190001010894775;1673430296.373302;-1.8699705600738525;-11.270030975341797;94.7550048828125
55;1673430296.4224057;47.1306425;7.2406194;3.9160001277923584;1673430296.5907767;-1.9954909086227417;-7.682796001434326;94.2870101928711
56;1673430296.6357918;47.1306424;7.2406193;4.113000392913818;1673430296.7817297;-1.8033801317214966;-11.196130752563477;94.61885070800781
57;1673430296.8256884;47.1306423;7.2406193;4.314000129699707;1673430296.9790225;-1.0424528121948242;-12.217556953430176;94.82718658447266
58;1673430297.0203612;47.130642099999996;7.2406193;4.51200008392334;1673430297.1667562;-0.990310549736023;-8.304098129272461;94.65950775146484
59;1673430297.2128937;47.130641999999995;7.2406193;4.710000038146973;1673430297.3591285;-1.115789532661438;-10.876749992370605;94.8563232421875
60;1673430297.403041;47.130642099999996;7.2406193;4.904000282287598;1673430297.5502386;-1.7295925617218018;-12.075955390930176;94.83538818359375
61;1673430297.5937128;47.130642099999996;7.2406193;5.1010003089904785;1673430297.7441144;-2.0695745944976807;-8.031070709228516;94.5618667602539
62;1673430297.7874367;47.130641999999995;7.240619199999999;5.298000335693359;1673430297.96142;-2.2885100841522217;-10.87671947479248;94.6250228881836
63;1673430298.006444;47.1306419;7.2406191;5.494000434875488;1673430298.1569536;-1.7358771562576294;-12.571795463562012;94.89656066894531
64;1673430298.203832;47.1306419;7.2406191;5.686000347137451;1673430298.3639283;-1.0739998817443848;-8.143200874328613;94.78489685058594
65;1673430298.4165266;47.130641999999995;7.240619199999999;5.878000259399414;1673430298.568162;-0.9327213764190674;-9.254510879516602;94.71730041503906
66;1673430298.6288066;47.130642099999996;7.2406193;6.070000171661377;1673430298.7764306;-1.1979564428329468;-12.205174446105957;94.79747772216797
67;1673430298.8204432;47.1306422;7.2406193;6.270000457763672;1673430298.9761467;-1.9541443586349487;-8.208910942077637;94.33883666992188
68;1673430299.0272582;47.130642099999996;7.2406193;6.469000339508057;1673430299.1888783;-2.0662097930908203;-9.2778959274292;94.4544448852539
69;1673430299.2327802;47.130642099999996;7.2406194;6.668000221252441;1673430299.4018757;-1.6323132514953613;-13.088923454284668;94.9184799194336
70;1673430299.4528627;47.130641999999995;7.2406194;6.867000102996826;1673430299.5997066;-1.3388735055923462;-8.71701431274414;94.76709747314453
71;1673430299.6436467;47.130641999999995;7.2406194;7.066000461578369;1673430299.7885487;-1.0181388854980469;-8.782814025878906;94.56013488769531
72;1673430299.8306193;47.130641999999995;7.2406194;7.264000415802002;1673430299.9823768;-1.0892434120178223;-12.622856140136719;94.84028625488281
73;1673430300.0223787;47.130642099999996;7.2406194;7.461000442504883;1673430300.1789765;-1.5643413066864014;-9.06017780303955;94.40642547607422
74;1673430300.2219548;47.130641999999995;7.2406193;7.659000396728516;1673430300.3616478;-2.356165885925293;-8.86387825012207;94.48666381835938
75;1673430300.3987355;47.130641999999995;7.2406193;7.8510003089904785;1673430300.555452;-1.7676271200180054;-12.958332061767578;95.14590454101562
76;1673430300.5990946;47.130641999999995;7.2406193;8.044000625610352;1673430300.7716656;-1.6285860538482666;-8.899066925048828;94.87993621826172
77;1673430300.8157883;47.1306419;7.2406193;8.241000175476074;1673430300.963524;-1.3239550590515137;-8.199016571044922;94.42511749267578
78;1673430301.0036938;47.130641999999995;7.2406194;8.438000679016113;1673430301.1636722;-1.0280207395553589;-13.036775588989258;94.71354675292969
79;1673430301.206636;47.130641999999995;7.2406194;8.638999938964844;1673430301.349887;-1.5895212888717651;-9.653069496154785;94.44782257080078
80;1673430301.3925953;47.1306419;7.2406194;8.834000587463379;1673430301.5486648;-2.134577512741089;-8.522817611694336;94.4561996459961
81;1673430301.5956707;47.1306418;7.2406194;9.034000396728516;1673430301.7643893;-1.839085340499878;-12.887834548950195;95.09178924560547
82;1673430301.8112369;47.1306418;7.2406194;9.230000495910645;1673430301.9725065;-2.0358383655548096;-10.162646293640137;94.84150695800781
83;1673430302.0253968;47.1306418;7.2406194;9.42400074005127;1673430302.1946275;-1.5880755186080933;-7.807581901550293;94.49137878417969
84;1673430302.2404883;47.1306419;7.2406194;9.619000434875488;1673430302.3724916;-0.9686309099197388;-12.235674858093262;94.90441131591797
85;1673430302.408774;47.1306419;7.2406194;9.820000648498535;1673430302.5474327;-1.4048054218292236;-10.911921501159668;94.65876007080078
86;1673430302.5939307;47.1306418;7.2406194;10.022000312805176;1673430302.7435725;-1.8089662790298462;-7.967962265014648;94.39082336425781
87;1673430302.7959144;47.1306418;7.2406194;10.231000900268555;1673430302.9629648;-2.1382980346679688;-11.289449691772461;94.72761535644531
88;1673430303.015651;47.1306419;7.2406194;10.527000427246094;1673430303.199225;-2.0239856243133545;-13.495382308959961;95.06168365478516
89;1673430303.2685742;47.1306422;7.240619499999999;10.897000312805176;1673430303.386433;-1.9462919235229492;-8.109477996826172;94.62213134765625
90;1673430303.4245248;47.1306425;7.2406196;11.282000541687012;1673430303.56912;-1.3341740369796753;-8.351929664611816;94.576416015625
91;1673430303.6122162;47.1306428;7.2406197;11.677000999450684;1673430303.7535918;-1.142179250717163;-11.343362808227539;94.67083740234375
92;1673430303.7937155;47.1306429;7.2406197;12.07300090789795;1673430303.9471133;-1.1614468097686768;-6.858796119689941;94.56829833984375
93;1673430303.9916375;47.1306429;7.2406197;12.471000671386719;1673430304.153583;-1.4994202852249146;-7.68790864944458;94.86666870117188
94;1673430304.2078733;47.1306428;7.2406197;12.868000984191895;1673430304.3511107;-1.8873401880264282;-10.965131759643555;95.20707702636719
95;1673430304.3938484;47.1306428;7.2406197;13.26300048828125;1673430304.5427365;-1.9146803617477417;-8.462627410888672;94.87324523925781
96;1673430304.5834348;47.130642699999996;7.2406196;13.659000396728516;1673430304.7543373;-1.8147683143615723;-7.80715274810791;94.53570556640625
97;1673430304.8083713;47.130642599999995;7.240619499999999;14.0600004196167;1673430304.9580946;-1.4927922487258911;-11.969135284423828;94.66376495361328
98;1673430305.001264;47.1306424;7.240619499999999;14.467000961303711;1673430305.1680768;-1.5155322551727295;-10.39834976196289;94.4393310546875
99;1673430305.2080936;47.1306422;7.240619499999999;14.872000694274902;1673430305.3521945;-1.5219738483428955;-8.458700180053711;94.3826675415039
100;1673430305.3959768;47.130641999999995;7.240619499999999;15.280000686645508;1673430305.549729;-1.567662000656128;-11.95895004272461;94.79064178466797
101;1673430305.5959003;47.130641999999995;7.2406196;15.6850004196167;1673430305.7549105;-1.8414199352264404;-11.21717643737793;94.76985931396484
102;1673430305.8032722;47.130642099999996;7.2406196;16.086999893188477;1673430305.9660594;-1.92936372756958;-7.273656845092773;94.57487487792969
103;1673430306.011667;47.1306422;7.2406196;16.492000579833984;1673430306.1515398;-1.7694991827011108;-10.290454864501953;94.87016296386719
104;1673430306.1941466;47.1306423;7.2406196;16.900001525878906;1673430306.3619978;-1.364566445350647;-11.778116226196289;95.1369857788086
105;1673430306.4124818;47.1306423;7.2406196;17.314001083374023;1673430306.5686495;-1.344158411026001;-7.2133331298828125;94.69205474853516
106;1673430306.6155;47.1306422;7.2406196;17.726001739501953;1673430306.7781312;-1.4200758934020996;-10.022318840026855;94.7332763671875
107;1673430306.826978;47.1306422;7.2406196;18.13800048828125;1673430306.9744732;-1.411945104598999;-11.820638656616211;94.75142669677734
108;1673430307.0146563;47.1306422;7.2406196;18.543001174926758;1673430307.1717432;-1.894383192062378;-7.608932018280029;94.45439147949219
109;1673430307.221664;47.1306423;7.240619499999999;18.94900131225586;1673430307.36203;-2.2981820106506348;-8.834007263183594;94.75353240966797
110;1673430307.4101546;47.1306423;7.240619499999999;19.363000869750977;1673430307.5692072;-1.9345767498016357;-12.208197593688965;94.98043060302734
111;1673430307.6151197;47.1306423;7.240619499999999;19.7760009765625;1673430307.771669;-1.7831207513809204;-8.327898979187012;94.7148666381836
112;1673430307.818541;47.1306422;7.240619499999999;20.187000274658203;1673430307.983131;-1.4394103288650513;-8.383243560791016;94.6169662475586
113;1673430308.0319302;47.1306422;7.240619499999999;20.59200096130371;1673430308.1770608;-1.130296230316162;-12.435537338256836;94.9010009765625
114;1673430308.219997;47.1306422;7.2406196;20.996000289916992;1673430308.3814743;-1.2804877758026123;-9.259432792663574;94.75946807861328
115;1673430308.4244297;47.1306423;7.2406196;21.395000457763672;1673430308.5761511;-1.5526164770126343;-7.4275665283203125;94.58273315429688
116;1673430308.6153471;47.1306423;7.2406196;21.79800033569336;1673430308.7740276;-1.8402453660964966;-11.76024055480957;94.94705963134766
117;1673430308.824128;47.1306423;7.2406196;22.202001571655273;1673430308.9830103;-1.9255146980285645;-10.160418510437012;94.7760238647461
118;1673430309.023097;47.1306422;7.240619499999999;22.60700035095215;1673430309.1635976;-1.8346800804138184;-7.6768999099731445;94.58885955810547
119;1673430309.2040863;47.130642099999996;7.2406196;23.012001037597656;1673430309.3659537;-1.5179227590560913;-11.672964096069336;94.5576400756836
120;1673430309.414435;47.1306422;7.2406196;23.41200065612793;1673430309.5693996;-1.1178988218307495;-11.117046356201172;94.66828155517578
121;1673430309.6079905;47.1306423;7.2406196;23.8070011138916;1673430309.798823;-1.423195242881775;-7.381332874298096;94.68592834472656
122;1673430309.8604507;47.1306424;7.240619499999999;24.209001541137695;1673430310.0035899;-1.9123121500015259;-9.486433029174805;95.01846313476562
123;1673430310.0523825;47.1306424;7.2406194;24.61800193786621;1673430310.194042;-1.9555225372314453;-11.653100967407227;94.96013641357422
124;1673430310.2477198;47.1306423;7.2406194;25.025001525878906;1673430310.385436;-2.048383951187134;-7.579033851623535;94.55951690673828
125;1673430310.4275973;47.1306422;7.2406194;25.429000854492188;1673430310.5886142;-2.1217589378356934;-9.75552749633789;94.76860046386719
126;1673430310.6405296;47.1306422;7.2406194;25.827001571655273;1673430310.8104844;-1.5780901908874512;-11.905486106872559;94.8788833618164
127;1673430310.8784294;47.1306422;7.2406194;26.23000144958496;1673430311.025315;-1.4146113395690918;-8.047553062438965;94.5234375
128;1673430311.0693543;47.1306423;7.240619499999999;26.624000549316406;1673430311.2227912;-1.3127424716949463;-8.160039901733398;94.63086700439453
129;1673430311.2637858;47.1306423;7.2406196;27.023000717163086;1673430311.4183507;-1.416958212852478;-12.47608470916748;94.70172119140625
130;1673430311.4663117;47.1306423;7.2406196;27.428001403808594;1673430311.5947874;-1.5703918933868408;-8.639530181884766;94.5169448852539
131;1673430311.6338272;47.1306422;7.2406196;27.83100128173828;1673430311.8004456;-1.9604151248931885;-8.034661293029785;94.5584945678711
132;1673430311.8436618;47.1306422;7.2406196;28.233001708984375;1673430311.9876907;-1.8374898433685303;-11.702502250671387;94.9595718383789
133;1673430312.0355153;47.1306423;7.2406196;28.634000778198242;1673430312.1872919;-1.6728514432907104;-9.01080322265625;94.89119720458984
134;1673430312.2322247;47.1306424;7.2406196;29.02800178527832;1673430312.3788893;-1.6156541109085083;-7.0482001304626465;94.63829040527344
135;1673430312.4179287;47.1306424;7.2406196;29.428001403808594;1673430312.5600374;-1.2752362489700317;-11.666359901428223;94.98053741455078
136;1673430312.6056612;47.1306424;7.2406196;29.832000732421875;1673430312.7640657;-1.3245086669921875;-10.057377815246582;94.5792236328125
137;1673430312.805757;47.1306422;7.2406196;30.237001419067383;1673430312.954194;-1.567199468612671;-7.6209940910339355;94.49034118652344
138;1673430313.015222;47.130642099999996;7.2406196;30.64000129699707;1673430313.158167;-1.7462433576583862;-11.717965126037598;94.8853988647461
139;1673430313.207507;47.130642099999996;7.2406196;31.04100227355957;1673430313.3585556;-2.1000254154205322;-11.565181732177734;94.87010955810547
140;1673430313.4044774;47.130642099999996;7.240619499999999;31.44000244140625;1673430313.5685935;-2.1592159271240234;-7.245051860809326;94.4171142578125
141;1673430313.612081;47.130642099999996;7.240619499999999;31.834001541137695;1673430313.774421;-1.9433484077453613;-10.863546371459961;94.61393737792969
142;1673430313.8194005;47.130641999999995;7.240619499999999;32.23500061035156;1673430313.9700553;-1.3602100610733032;-11.837838172912598;94.87503814697266
143;1673430314.0184617;47.130641999999995;7.240619499999999;32.638999938964844;1673430314.1705027;-1.3602687120437622;-7.664515018463135;94.69705963134766
144;1673430314.215949;47.130641999999995;7.2406196;33.03900146484375;1673430314.3772948;-1.6065980195999146;-9.947444915771484;94.91577911376953
145;1673430314.4231784;47.130641999999995;7.2406196;33.43400192260742;1673430314.5762904;-2.0910863876342773;-11.249101638793945;94.99273681640625
146;1673430314.6208355;47.130642099999996;7.2406196;33.83400344848633;1673430314.7675846;-2.1051533222198486;-7.3426337242126465;94.59503173828125
147;1673430314.8201158;47.1306422;7.2406196;34.229000091552734;1673430314.9752479;-2.045618772506714;-8.338913917541504;94.64964294433594
148;1673430315.0193503;47.1306423;7.2406197;34.62900161743164;1673430315.1733985;-1.539579153060913;-11.980050086975098;94.68999481201172
149;1673430315.2126946;47.1306422;7.2406197;35.031002044677734;1673430315.3655975;-1.4074150323867798;-8.118603706359863;94.53997802734375
150;1673430315.4101422;47.1306422;7.2406197;35.43400192260742;1673430315.566217;-1.4413893222808838;-8.823265075683594;94.54293060302734
151;1673430315.6110878;47.1306422;7.2406197;35.83400344848633;1673430315.7830393;-1.537534475326538;-11.86379623413086;94.95191955566406
152;1673430315.8240132;47.1306423;7.240619799999999;36.23400115966797;1673430315.9803581;-2.063551902770996;-8.043007850646973;94.66536712646484
153;1673430316.0224867;47.1306423;7.2406197;36.6400032043457;1673430316.1759825;-2.1843109130859375;-8.11330509185791;94.68599700927734
154;1673430316.219465;47.1306423;7.2406197;37.038002014160156;1673430316.3749719;-1.799360752105713;-12.536739349365234;94.98851776123047
155;1673430316.4215083;47.1306422;7.2406197;37.43800354003906;1673430316.568647;-1.5396863222122192;-8.85817813873291;94.92766571044922
156;1673430316.628854;47.1306423;7.2406197;37.83500289916992;1673430316.8473954;-1.4493745565414429;-7.842575550079346;94.6954116821289
157;1673430316.884554;47.1306424;7.2406197;38.23500061035156;1673430317.027977;-1.5700982809066772;-11.436896324157715;94.79573822021484
158;1673430317.0664973;47.1306425;7.2406197;38.63800048828125;1673430317.2070744;-1.9104233980178833;-9.439733505249023;94.59280395507812
159;1673430317.2470918;47.130642599999995;7.2406197;39.03900146484375;1673430317.400586;-2.2404463291168213;-7.114990711212158;94.37576293945312
160;1673430317.4402359;47.130642599999995;7.2406196;39.435001373291016;1673430317.5999057;-2.1119298934936523;-11.554880142211914;94.77495574951172
161;1673430317.6429045;47.1306425;7.2406196;39.83700180053711;1673430317.8013952;-1.8889678716659546;-10.321998596191406;94.8690414428711
162;1673430317.846587;47.1306425;7.2406197;40.236000061035156;1673430317.9919908;-1.7323660850524902;-7.050349235534668;94.45187377929688
163;1673430318.039141;47.1306425;7.2406197;40.63300323486328;1673430318.1938674;-1.6660127639770508;-10.264318466186523;94.66870880126953
164;1673430318.2455957;47.130642599999995;7.2406197;41.03200149536133;1673430318.4012249;-1.3110487461090088;-11.152714729309082;94.90938568115234
165;1673430318.4486403;47.130642599999995;7.2406197;41.427001953125;1673430318.599402;-1.5967103242874146;-7.198561191558838;94.54975891113281
166;1673430318.638443;47.130642599999995;7.2406197;41.82400131225586;1673430318.8029532;-1.9220123291015625;-9.485603332519531;94.86354064941406
167;1673430318.841427;47.1306425;7.2406197;42.21600341796875;1673430319.0100007;-2.020922899246216;-11.896334648132324;95.16342163085938
168;1673430319.060876;47.1306424;7.2406197;42.612003326416016;1673430319.205591;-2.001986026763916;-8.061760902404785;94.83152770996094
169;1673430319.247557;47.1306424;7.2406196;43.00800323486328;1673430319.3949823;-1.9172265529632568;-8.796655654907227;94.57310485839844
170;1673430319.4321454;47.1306425;7.2406196;43.40400314331055;1673430319.5814211;-1.583534598350525;-11.814689636230469;94.76001739501953
171;1673430319.622575;47.130642599999995;7.240619499999999;43.80400085449219;1673430319.779332;-1.6250792741775513;-8.008214950561523;94.57148742675781
172;1673430319.8231604;47.130642599999995;7.240619499999999;44.2030029296875;1673430319.982594;-1.9199329614639282;-7.9185709953308105;94.65955352783203
173;1673430320.021254;47.1306425;7.2406194;44.595001220703125;1673430320.1904657;-2.332449197769165;-12.292007446289062;94.88800811767578
174;1673430320.2363374;47.1306424;7.2406194;44.993003845214844;1673430320.3747807;-2.2437851428985596;-9.038125038146973;94.70269012451172
175;1673430320.4135976;47.1306424;7.2406194;45.39400100708008;1673430320.5662885;-2.2314934730529785;-7.689167022705078;94.50079345703125
176;1673430320.6139493;47.1306425;7.2406194;45.7920036315918;1673430320.8503375;-1.7675673961639404;-11.473841667175293;94.95213317871094
177;1673430320.891456;47.130642599999995;7.2406194;46.185001373291016;1673430321.0296793;-1.5439871549606323;-10.00627326965332;95.02948760986328
178;1673430321.0765991;47.130642599999995;7.2406194;46.58100128173828;1673430321.2225366;-1.524878978729248;-6.745119094848633;94.79664611816406
179;1673430321.2586288;47.130642599999995;7.2406194;46.97500228881836;1673430321.398436;-1.8107633590698242;-10.896801948547363;94.9017562866211
180;1673430321.433661;47.1306425;7.2406194;47.36000061035156;1673430321.5748034;-2.0091872215270996;-10.697980880737305;94.75088500976562
181;1673430321.619443;47.1306424;7.2406194;47.75300216674805;1673430321.7874458;-2.4175429344177246;-7.371185779571533;94.42666625976562
182;1673430321.8452923;47.1306425;7.2406194;48.1410026550293;1673430322.003628;-2.2159199714660645;-11.8856201171875;94.50618743896484
183;1673430322.0598452;47.1306425;7.2406194;48.483001708984375;1673430322.2101932;-1.9469361305236816;-10.846039772033691;94.80480194091797
184;1673430322.2537599;47.1306425;7.2406194;48.7760009765625;1673430322.4094274;-2.1166462898254395;-7.0092926025390625;94.65635681152344
185;1673430322.4525728;47.1306424;7.2406194;49.01900100708008;1673430322.5972211;-2.2082109451293945;-10.810517311096191;94.72315979003906
186;1673430322.645224;47.1306423;7.2406193;49.21200180053711;1673430322.7958283;-1.3800112009048462;-11.180000305175781;94.76741027832031
187;1673430322.860244;47.130642099999996;7.2406193;49.375003814697266;1673430323.0127923;15.285205841064453;9.690522193908691;99.40736389160156
188;1673430323.0587964;47.1306417;7.2406188;49.52100372314453;1673430323.2077038;25.033184051513672;35.53987503051758;111.30806732177734
189;1673430323.2497206;47.1306401;7.2406163;49.650001525878906;1673430323.417761;26.22953224182129;49.67039489746094;120.19609069824219
190;1673430323.464781;47.1306364;7.2406105;49.75100326538086;1673430323.6130435;12.073003768920898;49.99418258666992;128.7785186767578
191;1673430323.6541762;47.1306303;7.2406013;49.801002502441406;1673430323.8079882;-3.974261522293091;52.807674407958984;140.23577880859375
192;1673430323.851285;47.1306217;7.2405892;49.8380012512207;1673430323.9940164;-19.403148651123047;50.52592468261719;150.83343505859375
193;1673430324.035583;47.1306109;7.2405744;49.86000061035156;1673430324.1949406;-32.265838623046875;44.23843002319336;162.06924438476562
194;1673430324.2437732;47.1305979;7.2405574999999995;49.868003845214844;1673430324.4814162;-43.11651611328125;40.16550064086914;174.93026733398438
195;1673430324.5212927;47.1305828;7.2405384999999995;49.87300109863281;1673430324.6798205;-52.21625900268555;36.04231262207031;-172.4114990234375
196;1673430324.715868;47.1305659;7.240517;49.87300109863281;1673430324.875846;-53.80940246582031;27.140634536743164;-162.50796508789062
197;1673430324.9189289;47.1305475;7.240493099999999;49.842002868652344;1673430325.0494254;-48.09473419189453;20.06671142578125;-156.27899169921875
198;1673430325.0891745;47.130528;7.240467499999999;49.78900146484375;1673430325.2254612;-48.628379821777344;15.6863431930542;-149.85769653320312
199;1673430325.2743962;47.1305082;7.2404408;49.7390022277832;1673430325.4191475;-48.06510543823242;10.620316505432129;-142.82217407226562
200;1673430325.4597092;47.1304879;7.240412999999999;49.68000411987305;1673430325.6068513;-45.5372200012207;8.25063419342041;-136.5250701904297
201;1673430325.6546764;47.1304673;7.2403844;49.621002197265625;1673430325.8002963;-44.85979080200195;2.154351234436035;-130.09642028808594
202;1673430325.8521204;47.1304468;7.2403552;49.57600402832031;1673430325.9980154;-44.25440216064453;-2.544316291809082;-130.45217895507812
203;1673430326.041584;47.130426199999995;7.240325899999999;49.54500198364258;1673430326.2036345;-45.332786560058594;-1.3164935111999512;-133.67300415039062
204;1673430326.2534132;47.1304054;7.2402967;49.531002044677734;1673430326.4067996;-47.61933517456055;-0.7056377530097961;-134.73440551757812
205;1673430326.4461153;47.1303844;7.240267599999999;49.53200149536133;1673430326.5892322;-47.86274337768555;0.6310001611709595;-135.5592803955078
206;1673430326.6312315;47.1303631;7.240238799999999;49.54500198364258;1673430326.778752;-47.94993591308594;2.1046698093414307;-136.16160583496094
207;1673430326.8217354;47.1303416;7.2402099;49.56700134277344;1673430326.9813848;-47.90769577026367;3.028548002243042;-136.4531707763672
208;1673430327.0334425;47.130319799999995;7.2401807;49.59700393676758;1673430327.2074041;-48.24937057495117;3.5041091442108154;-136.50408935546875
209;1673430327.248641;47.130297899999995;7.240151399999999;49.62900161743164;1673430327.41912;-48.89637756347656;3.589310646057129;-136.44683837890625
210;1673430327.4599662;47.1302759;7.2401219;49.66100311279297;1673430327.6027076;-48.60950469970703;3.638119697570801;-136.39283752441406
211;1673430327.6408036;47.1302539;7.240092199999999;49.69700241088867;1673430327.7968864;-48.518428802490234;3.6025140285491943;-136.24066162109375
212;1673430327.8444319;47.1302318;7.2400625;49.72500228881836;1673430328.0104358;-48.452449798583984;3.5545647144317627;-136.18002319335938
213;1673430328.064111;47.1302096;7.2400325;49.75400161743164;1673430328.2476242;-48.34358215332031;3.548840284347534;-136.13162231445312
214;1673430328.2895865;47.1301874;7.2400024;49.77800369262695;1673430328.4373906;-48.35974884033203;3.438032865524292;-136.0804443359375
215;1673430328.4804716;47.1301652;7.2399721999999995;49.798004150390625;1673430328.6581504;-47.97938537597656;3.3802669048309326;-136.0424346923828
216;1673430328.695437;47.130143;7.239942;49.81300354003906;1673430328.8573766;-47.864505767822266;3.2753994464874268;-136.00099182128906
217;1673430328.89671;47.1301207;7.2399116999999995;49.832000732421875;1673430329.0409899;-48.17782974243164;3.370420217514038;-136.04685974121094
218;1673430329.0829656;47.130098499999995;7.2398812999999995;49.849002838134766;1673430329.23343;-48.264625549316406;3.2691001892089844;-135.97203063964844
219;1673430329.2803915;47.1300763;7.239851;49.85700225830078;1673430329.4174302;-47.884254455566406;3.225383996963501;-135.97972106933594
220;1673430329.455772;47.130054;7.2398206;49.8640022277832;1673430329.6068175;-47.798133850097656;3.3003413677215576;-136.0301513671875
221;1673430329.6487885;47.130031699999996;7.2397902;49.87600326538086;1673430329.7924685;-48.12873077392578;3.2461564540863037;-135.99334716796875
222;1673430329.8356037;47.1300095;7.2397597;49.88600158691406;1673430329.9922733;-48.3944206237793;3.2695350646972656;-136.013916015625
223;1673430330.037516;47.129987199999995;7.239729199999999;49.89500427246094;1673430330.192012;-48.34367752075195;3.189643144607544;-135.9797821044922
224;1673430330.2374692;47.1299649;7.2396987;49.900001525878906;1673430330.3871183;-47.948448181152344;3.1301255226135254;-135.95359802246094
225;1673430330.4395108;47.1299426;7.2396682;49.89900207519531;1673430330.6035044;-47.687286376953125;3.1203765869140625;-135.9787139892578
226;1673430330.6539447;47.129920399999996;7.239637699999999;49.90300369262695;1673430330.7990122;-48.10529708862305;3.1536428928375244;-136.0206756591797
227;1673430330.8397536;47.1298982;7.239607299999999;49.91200256347656;1673430330.9827282;-48.5174560546875;3.2036356925964355;-136.01821899414062
228;1673430331.028153;47.129875999999996;7.2395767;49.919002532958984;1673430331.199789;-48.48925018310547;3.1339051723480225;-135.98184204101562
229;1673430331.2501192;47.1298537;7.2395461999999995;49.919002532958984;1673430331.409976;-48.103599548339844;3.074089527130127;-135.96128845214844
230;1673430331.4520547;47.1298314;7.2395156;49.9170036315918;1673430331.6025457;-47.91149139404297;3.1932106018066406;-136.00694274902344
231;1673430331.65847;47.129809099999996;7.2394851;49.91200256347656;1673430331.8053756;-47.88248062133789;3.0998852252960205;-135.9539031982422
232;1673430331.8488593;47.1297868;7.239454599999999;49.90800094604492;1673430332.0051172;-47.963199615478516;3.1469311714172363;-135.9850311279297
233;1673430332.0452642;47.1297645;7.2394241;49.90800094604492;1673430332.2053616;-48.172142028808594;3.141530990600586;-135.95098876953125
234;1673430332.2518132;47.129742199999995;7.239393499999999;49.90700149536133;1673430332.4060395;-48.20164108276367;3.103111505508423;-135.93116760253906
235;1673430332.463604;47.1297199;7.239363;49.90400314331055;1673430332.6390412;-48.13276290893555;3.0588676929473877;-135.89234924316406
236;1673430332.681036;47.1296976;7.2393323999999994;49.90400314331055;1673430332.8255923;-48.0651741027832;3.0878665447235107;-135.8932647705078
237;1673430332.8604326;47.129675299999995;7.2393019;49.90700149536133;1673430333.0118847;-48.18525314331055;3.0607168674468994;-135.8720703125
238;1673430333.0570126;47.129653;7.2392714;49.90900421142578;1673430333.2031171;-48.214942932128906;3.0474987030029297;-135.87611389160156
239;1673430333.248065;47.1296308;7.2392408999999995;49.910003662109375;1673430333.4032538;-48.1773567199707;3.002420425415039;-135.82017517089844
240;1673430333.4508114;47.129608499999996;7.239210399999999;49.913002014160156;1673430333.5996997;-48.1027717590332;3.083895444869995;-135.83709716796875
241;1673430333.6432104;47.1295862;7.2391799;49.9160041809082;1673430333.8005419;-48.032936096191406;3.0482234954833984;-135.7958221435547
242;1673430333.8466012;47.1295638;7.2391494;49.91800308227539;1673430334.012559;-47.99420166015625;3.0050036907196045;-135.7476348876953
243;1673430334.0473697;47.129541499999995;7.239118899999999;49.922000885009766;1673430334.2071419;-48.03199768066406;3.0134027004241943;-135.7458953857422
244;1673430334.2571301;47.1295193;7.2390884;49.92900085449219;1673430334.4530787;-48.22591018676758;3.032238006591797;-135.730224609375
245;1673430334.4999309;47.129497;7.239057799999999;49.93600082397461;1673430334.6986399;-48.43990707397461;2.863849401473999;-135.62130737304688
246;1673430334.7621837;47.129474699999996;7.2390273;49.94200134277344;1673430334.8796973;-48.23783874511719;2.911322832107544;-135.63446044921875
247;1673430334.9121754;47.1294524;7.2389966999999995;49.94300079345703;1673430335.0435798;-47.942039489746094;2.909177303314209;-135.59725952148438
248;1673430335.0845628;47.1294301;7.2389661;49.94900131225586;1673430335.2252624;-48.0980339050293;3.606003761291504;-135.7366180419922
249;1673430335.2652733;47.129407699999994;7.238935499999999;49.954002380371094;1673430335.4093788;-48.496883392333984;5.821412086486816;-136.1070098876953
250;1673430335.447993;47.1293855;7.2389047;49.958003997802734;1673430335.5990229;-48.072811126708984;3.7980122566223145;-135.1615447998047
251;1673430335.6454377;47.1293633;7.2388737999999995;49.96200180053711;1673430335.7941775;-47.95622253417969;4.420221328735352;-135.29661560058594
252;1673430335.8386745;47.1293413;7.2388429;49.96900177001953;1673430335.9994798;-45.50885009765625;4.769948959350586;-134.89149475097656
253;1673430336.054395;47.1293193;7.2388119;49.98100280761719;1673430336.2085526;-36.25002670288086;4.6894731521606445;-135.08975219726562
254;1673430336.2688053;47.129297699999995;7.238781299999999;50.01000213623047;1673430336.4281597;-18.82012176513672;5.519237995147705;-135.2364959716797
255;1673430336.4750032;47.1292769;7.2387517;50.02900314331055;1673430336.6227767;-2.0524322986602783;5.3787522315979;-135.7969970703125
256;1673430336.668858;47.1292575;7.2387241;50.035003662109375;1673430336.8208663;10.778702735900879;4.353337287902832;-136.08505249023438
257;1673430336.8601453;47.1292401;7.2386995;50.0260009765625;1673430337.0022411;19.066553115844727;5.6467766761779785;-136.3656463623047
258;1673430337.0543392;47.1292252;7.2386786;49.98100280761719;1673430337.219027;19.631959915161133;6.314942359924316;-137.34510803222656
259;1673430337.2729087;47.129212599999995;7.238661;49.88600158691406;1673430337.430054;19.216604232788086;8.510787963867188;-138.2130889892578
260;1673430337.475182;47.129202;7.2386465;49.798004150390625;1673430337.6421032;21.338802337646484;8.566965103149414;-138.4708251953125
261;1673430337.6902115;47.1291934;7.2386346999999995;49.743003845214844;1673430337.8452032;23.45524787902832;9.53580093383789;-137.74578857421875
262;1673430337.887316;47.1291869;7.2386253;49.71000289916992;1673430338.0345306;19.125659942626953;8.162215232849121;-136.9001007080078
263;1673430338.082354;47.1291821;7.2386177;49.68700408935547;1673430338.2262259;14.786515235900879;7.405815601348877;-136.13351440429688
264;1673430338.2694676;47.129178599999996;7.2386114;49.68000411987305;1673430338.432588;4.774257183074951;5.53956413269043;-136.47311401367188
265;1673430338.474615;47.1291759;7.238606099999999;49.70500183105469;1673430338.6239328;-3.003993272781372;4.436550140380859;-137.1163787841797
266;1673430338.6708283;47.1291733;7.2386012;49.76100158691406;1673430338.8118486;-5.6504082679748535;4.039202690124512;-137.58462524414062
267;1673430338.8518639;47.1291705;7.238596299999999;49.83100128173828;1673430339.0099838;-6.650027275085449;3.4920361042022705;-138.5095977783203
268;1673430339.0500543;47.1291675;7.2385915999999995;49.89500427246094;1673430339.220281;-4.783082962036133;1.355765461921692;-139.07449340820312
269;1673430339.2701824;47.1291642;7.238587;49.94400405883789;1673430339.4226642;-1.185704231262207;1.3147779703140259;-139.73289489746094
270;1673430339.4657595;47.1291607;7.238582699999999;49.98400115966797;1673430339.626036;3.151747226715088;1.1157193183898926;-140.25518798828125
271;1673430339.6670172;47.129157199999995;7.238578599999999;50.02100372314453;1673430339.8132672;-1.9739590883255005;4.841331958770752;-139.44680786132812
272;1673430339.863251;47.1291538;7.2385747;50.06200408935547;1673430340.0071187;-19.864208221435547;5.174595832824707;-137.48707580566406
273;1673430340.0515816;47.129149999999996;7.2385702;50.121002197265625;1673430340.2162693;-15.749815940856934;0.9877757430076599;-135.67210388183594
274;1673430340.2656114;47.1291456;7.238564599999999;50.24500274658203;1673430340.417977;-17.56040382385254;2.366422653198242;-136.5579833984375
275;1673430340.4714851;47.1291404;7.238558299999999;50.48200225830078;1673430340.6379495;-20.995962142944336;4.195746421813965;-136.94366455078125
276;1673430340.7347748;47.1291343;7.238550999999999;50.803001403808594;1673430340.8942075;-40.78193283081055;9.346869468688965;-137.0476531982422
277;1673430340.9351742;47.1291272;7.2385421;51.16200256347656;1673430341.1164305;-41.3549690246582;8.583229064941406;-136.3907470703125
278;1673430341.1605527;47.1291188;7.2385307;51.52400207519531;1673430341.2871048;-35.56167221069336;7.977863788604736;-136.67408752441406
279;1673430341.3257518;47.129109199999995;7.238517;51.91100311279297;1673430341.492068;-29.721715927124023;5.79833459854126;-136.83872985839844
280;1673430341.528726;47.129098899999995;7.2385019999999995;52.30600357055664;1673430341.6726935;-22.674522399902344;3.8047478199005127;-136.55206298828125
281;1673430341.7069614;47.1290881;7.2384863;52.698001861572266;1673430341.8514638;-17.445716857910156;1.5762929916381836;-136.4356231689453
282;1673430341.894569;47.1290773;7.2384707;53.09400177001953;1673430342.0263417;-13.22563648223877;1.7152189016342163;-137.22967529296875
283;1673430342.0634122;47.129066599999994;7.2384553;53.49200439453125;1673430342.216293;-11.475422859191895;2.6916017532348633;-137.9872589111328
284;1673430342.2656307;47.1290562;7.2384409;53.88600158691406;1673430342.4179513;-11.202512741088867;5.514711856842041;-138.15924072265625
285;1673430342.4669132;47.129045999999995;7.2384271;54.27900314331055;1673430342.6311016;-12.292694091796875;7.506199836730957;-138.2513427734375
286;1673430342.67697;47.1290361;7.2384138;54.672000885009766;1673430342.8353431;-14.363741874694824;6.67145299911499;-137.95437622070312
287;1673430342.8743813;47.129026499999995;7.238401;55.066001892089844;1673430343.0221126;-16.637828826904297;5.455570220947266;-137.72145080566406
288;1673430343.0633824;47.129017;7.2383882999999996;55.461002349853516;1673430343.2209268;-18.51152801513672;3.105114459991455;-137.2627716064453
289;1673430343.26589;47.129007699999995;7.2383757;55.85900115966797;1673430343.4268289;-20.019887924194336;2.68392014503479;-136.94647216796875
290;1673430343.4761634;47.1289983;7.2383631;56.25200271606445;1673430343.6332366;-20.876819610595703;2.5695977210998535;-136.75314331054688
291;1673430343.668343;47.128988899999996;7.2383503;56.64600372314453;1673430343.8222;-21.153547286987305;3.519829034805298;-136.9933624267578
292;1673430343.8659358;47.1289793;7.2383372999999995;57.04500198364258;1673430344.0424643;-21.00139045715332;5.246638298034668;-137.25672912597656
293;1673430344.0777156;47.1289695;7.2383241;57.44000244140625;1673430344.2102404;-20.666343688964844;7.006998062133789;-137.48397827148438
294;1673430344.25681;47.128959599999995;7.238310599999999;57.836002349853516;1673430344.4177594;-20.250564575195312;7.482448577880859;-137.39915466308594
295;1673430344.4663231;47.1289497;7.238296999999999;58.23500442504883;1673430344.6198215;-19.773820877075195;7.594844818115234;-137.2686309814453
296;1673430344.6990602;47.128939599999995;7.238283399999999;58.63200378417969;1673430344.8558974;-19.37816047668457;6.450865745544434;-137.18226623535156
297;1673430344.8961928;47.1289297;7.2382696;59.02800369262695;1673430345.060134;-18.988588333129883;5.305685997009277;-137.2266082763672
298;1673430345.1069663;47.1289198;7.2382557;59.42500305175781;1673430345.332127;-18.732126235961914;3.4509449005126953;-136.91018676757812
299;1673430345.3674595;47.12891;7.238241899999999;59.82500457763672;1673430345.5144923;-18.67831039428711;2.2708730697631836;-136.58445739746094
300;1673430345.5828667;47.128900099999996;7.2382281;60.22300338745117;1673430345.70584;-18.665115356445312;1.9014084339141846;-136.72129821777344
301;1673430345.740554;47.128890299999995;7.2382143999999995;60.61900329589844;1673430345.8766963;-18.870460510253906;1.7580537796020508;-136.8093719482422
302;1673430345.9160745;47.1288805;7.2382007999999995;61.013004302978516;1673430346.0782385;-19.058897018432617;2.593247413635254;-136.74505615234375
303;1673430346.1203895;47.1288706;7.2381873;61.40700149536133;1673430346.2753034;-19.10032844543457;4.268250942230225;-136.8341064453125
304;1673430346.3182735;47.128860599999996;7.238174099999999;61.803001403808594;1673430346.462916;-19.20709228515625;5.511971950531006;-136.9894256591797
305;1673430346.502926;47.1288505;7.238160799999999;62.202003479003906;1673430346.6496713;-19.45319175720215;6.924405574798584;-137.2129364013672
306;1673430346.6947496;47.128840499999995;7.238147499999999;62.60400390625;1673430346.8438342;-19.34507179260254;7.147658824920654;-137.19911193847656
307;1673430346.8887506;47.1288305;7.2381341;63.00400161743164;1673430347.0262268;-19.56995964050293;7.839860439300537;-137.26324462890625
308;1673430347.0765479;47.1288206;7.238120599999999;63.410003662109375;1673430347.2324834;-19.548301696777344;7.938185214996338;-137.2076416015625
309;1673430347.2715077;47.128810699999995;7.238106999999999;63.81200408935547;1673430347.4199677;-19.42723274230957;7.553639888763428;-137.18045043945312
310;1673430347.464061;47.128800899999995;7.2380933;64.20899963378906;1673430347.6227274;-19.752532958984375;7.49237060546875;-137.2888946533203
311;1673430347.6663814;47.1287911;7.2380794999999996;64.6050033569336;1673430347.810698;-19.770713806152344;6.74319314956665;-137.0397186279297
312;1673430347.8538532;47.1287814;7.2380657;65.0;1673430348.0097554;-19.712928771972656;6.358932971954346;-137.0350341796875
313;1673430348.059517;47.1287716;7.238051899999999;65.39300537109375;1673430348.2187498;-19.83393096923828;6.1288347244262695;-137.17262268066406
314;1673430348.2646725;47.1287617;7.2380381;65.79000091552734;1673430348.4318724;-19.484207153320312;5.802244663238525;-136.98294067382812
315;1673430348.4877734;47.128751799999996;7.2380244;66.19100189208984;1673430348.6513412;-19.483551025390625;5.560110092163086;-137.1042938232422
316;1673430348.7014244;47.1287419;7.2380108;66.59000396728516;1673430348.831136;-19.292890548706055;5.6261491775512695;-137.1287841796875
317;1673430348.8722947;47.128732;7.237997;66.98600006103516;1673430349.013591;-19.59048843383789;4.849515438079834;-136.9609375
318;1673430349.0567539;47.1287222;7.2379833;67.38600158691406;1673430349.2166204;-19.398855209350586;4.2451090812683105;-136.8815155029297
319;1673430349.2690353;47.1287123;7.2379696;67.78400421142578;1673430349.434463;-19.64225959777832;4.304128170013428;-136.65121459960938
320;1673430349.4755075;47.128702399999995;7.237955899999999;68.1820068359375;1673430349.6238875;-19.736774444580078;3.980719804763794;-136.61834716796875
321;1673430349.6681328;47.1286926;7.237942299999999;68.58200073242188;1673430349.8402112;-19.92885971069336;4.011391639709473;-136.50436401367188
322;1673430349.8893008;47.1286826;7.2379288;68.9800033569336;1673430350.0464473;-19.85832405090332;3.874924898147583;-136.6377716064453
323;1673430350.0881267;47.128672599999994;7.2379153;69.37600708007812;1673430350.2404974;-19.871408462524414;3.83305025100708;-136.619873046875
324;1673430350.2844274;47.1286626;7.2379017;69.77400207519531;1673430350.4430711;-19.865446090698242;3.750237226486206;-136.57012939453125
325;1673430350.4831238;47.128652699999996;7.2378881999999996;70.17200469970703;1673430350.6191611;-19.91214370727539;3.6709489822387695;-136.58348083496094
326;1673430350.658825;47.1286427;7.2378746;70.56999969482422;1673430350.8145185;-19.8382568359375;3.4241933822631836;-136.52928161621094
327;1673430350.863902;47.1286327;7.237860899999999;70.97200012207031;1673430351.0272353;-19.764432907104492;3.1825835704803467;-136.40762329101562
328;1673430351.0737913;47.128622799999995;7.237847299999999;71.37200164794922;1673430351.22494;-19.729307174682617;3.11659574508667;-136.59796142578125
329;1673430351.275979;47.1286129;7.2378336999999995;71.76800537109375;1673430351.4253917;-19.725086212158203;3.182919502258301;-136.4517364501953
330;1673430351.471446;47.1286029;7.2378200999999995;72.16500091552734;1673430351.6372678;-19.732749938964844;2.9612081050872803;-136.36508178710938
331;1673430351.6813025;47.1285929;7.2378066;72.56600189208984;1673430351.8345;-19.755250930786133;3.285303831100464;-136.62216186523438
332;1673430351.8766649;47.1285829;7.237793099999999;72.96700286865234;1673430352.0284452;-19.81416130065918;3.5096848011016846;-136.56149291992188
333;1673430352.0778723;47.128572999999996;7.2377794;73.36200714111328;1673430352.2339916;-19.841814041137695;3.644237518310547;-136.6708984375
334;1673430352.284028;47.1285631;7.2377657;73.75900268554688;1673430352.4546068;-19.869583129882812;3.685694456100464;-136.76461791992188
335;1673430352.5015702;47.1285532;7.2377521;74.15800476074219;1673430352.6595535;-19.793621063232422;3.671557664871216;-136.6282958984375
336;1673430352.7178628;47.1285433;7.2377384;74.55500030517578;1673430352.881307;-19.73516082763672;3.6951394081115723;-136.608642578125
337;1673430352.9520726;47.128533399999995;7.2377248;74.9520034790039;1673430353.096505;-19.730173110961914;3.9293904304504395;-136.51226806640625
338;1673430353.1647508;47.1285234;7.2377112;75.35400390625;1673430353.2899044;-19.688444137573242;4.115310192108154;-136.49436950683594
339;1673430353.327974;47.128513399999996;7.2376974999999995;75.7560043334961;1673430353.4559348;-19.550819396972656;4.1578898429870605;-136.6084442138672
340;1673430353.494974;47.1285034;7.2376838;76.1550064086914;1673430353.6426542;-19.801054000854492;4.613769054412842;-136.7521209716797
341;1673430353.6847754;47.1284935;7.2376701;76.55500030517578;1673430353.8557491;-19.654827117919922;4.3920392990112305;-136.70033264160156
342;1673430353.9017532;47.128483599999996;7.2376564;76.95100402832031;1673430354.0566301;-19.750452041625977;5.175863742828369;-136.96331787109375
343;1673430354.1001375;47.1284737;7.237642699999999;77.34900665283203;1673430354.2402909;-19.57328987121582;5.428131580352783;-137.0615692138672
344;1673430354.2851644;47.1284637;7.237629;77.74500274658203;1673430354.4389768;-19.75088119506836;5.85791540145874;-137.00311279296875
345;1673430354.477717;47.128453799999996;7.237615399999999;78.14200592041016;1673430354.6927783;-19.73494529724121;5.5785746574401855;-136.92282104492188
346;1673430354.7441025;47.1284439;7.2376017;78.53900146484375;1673430354.9272923;-20.090003967285156;5.510655879974365;-136.87933349609375
347;1673430354.9762952;47.128434;7.237588;78.93800354003906;1673430355.095705;-20.82379722595215;4.8110480308532715;-136.8564453125
348;1673430355.135982;47.128423999999995;7.2375742;79.33600616455078;1673430355.281896;-21.015422821044922;4.718476295471191;-136.90814208984375
349;1673430355.3248258;47.1284141;7.2375604;79.73400115966797;1673430355.4565773;-20.716142654418945;5.105741024017334;-137.12014770507812
350;1673430355.5112572;47.1284042;7.237546699999999;80.13500213623047;1673430355.6482997;-19.721450805664062;5.1167826652526855;-137.0041046142578
351;1673430355.7040958;47.1283943;7.2375329;80.53700256347656;1673430355.8327112;-18.93733024597168;4.992080211639404;-136.9055633544922
352;1673430355.880855;47.128384399999995;7.2375191999999995;80.93800354003906;1673430356.056097;-18.485393524169922;4.862423419952393;-136.92636108398438
353;1673430356.0990412;47.1283744;7.2375054;81.33500671386719;1673430356.2522936;-19.224767684936523;4.784284591674805;-136.8815460205078
354;1673430356.3149576;47.128364499999996;7.2374917;81.73500061035156;1673430356.4549403;-20.37763786315918;4.759144306182861;-136.9183807373047
355;1673430356.4939804;47.128354699999996;7.2374781;82.13400268554688;1673430356.638973;-20.9586124420166;4.817097187042236;-136.90512084960938
356;1673430356.6834474;47.1283448;7.2374645;82.5320053100586;1673430356.83876;-20.883983612060547;5.059744834899902;-136.9771270751953
357;1673430356.878495;47.128335;7.2374509;82.93000030517578;1673430357.0235395;-20.016096115112305;5.055644989013672;-136.9550018310547
358;1673430357.0670345;47.1283252;7.237437399999999;83.3290023803711;1673430357.2265596;-19.291610717773438;4.971410751342773;-136.9488525390625
359;1673430357.275409;47.1283153;7.2374237;83.73100280761719;1673430357.4311092;-19.04251480102539;4.965209007263184;-136.9198760986328
360;1673430357.4785638;47.128305399999995;7.2374101;84.1310043334961;1673430357.6337779;-19.347232818603516;4.862362384796143;-136.9041748046875
361;1673430357.6916564;47.1282954;7.2373964;84.5320053100586;1673430357.8546607;-20.241714477539062;4.97458553314209;-136.96311950683594
362;1673430357.8966262;47.1282855;7.2373828;84.9320068359375;1673430358.0627136;-21.112916946411133;4.9960737228393555;-136.9613494873047
363;1673430358.1058471;47.128275599999995;7.2373692;85.33200073242188;1673430358.2463975;-21.042409896850586;5.093555927276611;-136.95733642578125
364;1673430358.292284;47.1282658;7.2373556;85.73500061035156;1673430358.445304;-20.062477111816406;5.060945510864258;-136.92544555664062
365;1673430358.4858875;47.1282559;7.237342;86.13800048828125;1673430358.6547353;-19.32523536682129;4.946317195892334;-136.9494171142578
366;1673430358.718418;47.128246;7.2373283;86.53800201416016;1673430358.8819711;-19.01114273071289;4.975886344909668;-136.92539978027344
367;1673430358.9210486;47.128236099999995;7.2373147;86.93400573730469;1673430359.073565;-19.45985221862793;4.896468639373779;-136.91969299316406
368;1673430359.1195915;47.1282262;7.2373011;87.3290023803711;1673430359.2631414;-20.242952346801758;4.910095691680908;-136.94259643554688
369;1673430359.30907;47.1282163;7.2372875;87.72300720214844;1673430359.452806;-21.00434112548828;4.937361240386963;-137.02369689941406
370;1673430359.489893;47.128206399999996;7.2372738;88.11600494384766;1673430359.6392477;-21.057575225830078;5.092301845550537;-137.07089233398438
371;1673430359.6795123;47.1281965;7.2372602;88.50800323486328;1673430359.8435109;-20.105731964111328;5.036105632781982;-136.9626922607422
372;1673430359.8871114;47.1281866;7.2372464999999995;88.90400695800781;1673430360.0478487;-19.346311569213867;5.046741008758545;-136.9445343017578
373;1673430360.0918412;47.1281767;7.2372328999999995;89.3010025024414;1673430360.2509801;-18.973764419555664;4.8826422691345215;-136.8865966796875
374;1673430360.294905;47.128166799999995;7.237219199999999;89.70100402832031;1673430360.4341924;-19.034517288208008;4.839123249053955;-136.90338134765625
375;1673430360.482602;47.1281569;7.237205599999999;90.10000610351562;1673430360.6544821;-20.01307487487793;4.705986022949219;-136.92446899414062
376;1673430360.7038987;47.128147;7.2371919;90.49700164794922;1673430360.8635445;-20.866044998168945;4.6600847244262695;-136.9769744873047
377;1673430360.9081006;47.1281371;7.2371783;90.89300537109375;1673430361.1087143;-21.22982406616211;4.808653354644775;-137.02780151367188
378;1673430361.1477723;47.128127199999994;7.2371646;91.29300689697266;1673430361.28077;-20.343917846679688;4.940271854400635;-137.02505493164062
379;1673430361.3253567;47.1281173;7.2371509;91.69000244140625;1673430361.469557;-19.179948806762695;4.927072048187256;-136.9723358154297
380;1673430361.5116422;47.128107299999996;7.2371373;92.08500671386719;1673430361.6561525;-18.724628448486328;4.975283622741699;-136.88539123535156
381;1673430361.7020311;47.1280973;7.2371237;92.48300170898438;1673430361.8535626;-18.9926700592041;4.733133792877197;-136.83790588378906
382;1673430361.8945463;47.1280874;7.2371099999999995;92.87800598144531;1673430362.056715;-19.6015567779541;4.709479331970215;-136.9130401611328
383;1673430362.0968854;47.128077399999995;7.2370963999999995;93.27400207519531;1673430362.2608502;-20.625099182128906;4.763296127319336;-136.98007202148438
384;1673430362.3037934;47.1280675;7.2370828;93.67300415039062;1673430362.446206;-21.149978637695312;4.75516414642334;-137.0481414794922
385;1673430362.4916577;47.1280576;7.2370692;94.07200622558594;1673430362.6516411;-20.43187713623047;4.9415740966796875;-137.07696533203125
386;1673430362.6965797;47.128047599999995;7.2370556;94.46500396728516;1673430362.8519464;-19.440832138061523;5.031947135925293;-136.95285034179688
387;1673430362.8941038;47.1280377;7.237042;94.85800170898438;1673430363.0582542;-18.842241287231445;4.904843807220459;-136.88877868652344
388;1673430363.105102;47.1280278;7.2370285;95.2540054321289;1673430363.258603;-19.06984519958496;4.76413631439209;-136.80384826660156
389;1673430363.3015466;47.128017799999995;7.237014899999999;95.6500015258789;1673430363.4590359;-19.760793685913086;4.623887538909912;-136.84788513183594
390;1673430363.5107622;47.1280078;7.2370012;96.04800415039062;1673430363.6593196;-20.62156867980957;4.678478240966797;-136.91419982910156
391;1673430363.7066848;47.127997799999996;7.2369876;96.44500732421875;1673430363.864566;-20.935705184936523;4.899362564086914;-136.9489288330078
392;1673430363.9121342;47.1279878;7.236974099999999;96.83900451660156;1673430364.0515227;-20.681991577148438;5.131337642669678;-136.9959716796875
393;1673430364.0894215;47.1279778;7.2369604999999995;97.2350082397461;1673430364.2467566;-19.500410079956055;5.10853910446167;-137.0238494873047
394;1673430364.2933016;47.127967899999994;7.236946799999999;97.63400268554688;1673430364.457451;-18.534320831298828;5.0004096031188965;-136.88983154296875
395;1673430364.503418;47.1279579;7.236933199999999;98.0320053100586;1673430364.6681874;-18.392789840698242;4.807529449462891;-136.79495239257812
396;1673430364.7082036;47.127947899999995;7.236919599999999;98.42900848388672;1673430364.8582203;-19.29587173461914;4.8926591873168945;-136.81922912597656
397;1673430364.9011767;47.1279379;7.236905999999999;98.82400512695312;1673430365.0595963;-20.171791076660156;4.775634288787842;-136.8457794189453
398;1673430365.1065485;47.127927899999996;7.2368923999999994;99.22300720214844;1673430365.2515879;-20.65216636657715;4.975344657897949;-136.9658203125
399;1673430365.2943552;47.127918;7.2368787999999995;99.62300109863281;1673430365.4503481;-20.686296463012695;5.152604579925537;-136.98306274414062
400;1673430365.5003135;47.1279081;7.2368653;100.02000427246094;1673430365.6895585;-19.73503303527832;5.238123893737793;-136.96681213378906
401;1673430365.72972;47.1278982;7.2368517;100.41800689697266;1673430365.8661556;-18.948938369750977;5.136844158172607;-136.92755126953125
402;1673430365.916619;47.1278882;7.2368381;100.81700134277344;1673430366.0677137;-18.32163429260254;4.989969253540039;-136.7695770263672
403;1673430366.1204634;47.1278783;7.2368245;101.21900177001953;1673430366.274782;-19.1992244720459;4.728153705596924;-136.77017211914062
404;1673430366.3176875;47.127868299999996;7.2368109;101.62100219726562;1673430366.4667573;-19.717472076416016;4.7911176681518555;-136.79942321777344
405;1673430366.511762;47.1278584;7.2367973;102.02400207519531;1673430366.6760583;-20.889392852783203;4.965151786804199;-136.84439086914062
406;1673430366.7159486;47.1278485;7.2367837999999995;102.42400360107422;1673430366.870463;-21.00269317626953;4.914505481719971;-136.90481567382812
407;1673430366.9065928;47.1278387;7.2367702;102.82500457763672;1673430367.0530274;-20.321094512939453;5.132005214691162;-136.99197387695312
408;1673430367.1365473;47.127828799999996;7.2367566;103.22500610351562;1673430367.3019712;-19.28785514831543;5.231106758117676;-136.95738220214844
409;1673430367.3429596;47.1278188;7.236743;103.62700653076172;1673430367.4840024;-18.789974212646484;5.198661804199219;-136.8778076171875
410;1673430367.5210896;47.1278089;7.2367295;104.02300262451172;1673430367.6833012;-18.8869686126709;4.980477809906006;-136.8005828857422
411;1673430367.7293894;47.127798999999996;7.2367159999999995;104.41900634765625;1673430367.87753;-19.842056274414062;4.945304870605469;-136.7794189453125
412;1673430367.933128;47.1277891;7.2367023999999995;104.82000732421875;1673430368.0907395;-20.675613403320312;4.957602500915527;-136.75462341308594
413;1673430368.1309462;47.1277792;7.2366888;105.21800231933594;1673430368.2755957;-21.064186096191406;4.8774943351745605;-136.75323486328125
414;1673430368.3216798;47.1277694;7.2366752;105.61700439453125;1673430368.472398;-20.71729850769043;5.025140285491943;-136.9263153076172
415;1673430368.522575;47.127759499999996;7.2366616;106.01700592041016;1673430368.6844099;-19.580381393432617;5.110128402709961;-136.94528198242188
416;1673430368.7384498;47.1277496;7.2366478999999995;106.42000579833984;1673430368.893263;-19.055723190307617;5.04564094543457;-136.8605194091797
417;1673430368.9473152;47.1277396;7.2366342999999995;106.82200622558594;1673430369.0975006;-18.58249855041504;5.049429893493652;-136.80430603027344
418;1673430369.1347604;47.127729699999996;7.2366207;107.22200775146484;1673430369.2822993;-19.727981567382812;4.9285197257995605;-136.84251403808594
419;1673430369.3213253;47.1277197;7.236606999999999;107.62200164794922;1673430369.4706216;-20.525312423706055;4.737931251525879;-136.8406982421875
