;pos_time;latitude;longitude;altitude;alt_time;pitch;roll;yaw
0;1673432342.54021;47.1306424;7.2406198999999996;-0.026000000536441803;1673432342.5587513;0.15869557857513428;-0.777338445186615;90.50403594970703
1;1673432342.7356925;47.1306424;7.2406198999999996;-0.02800000086426735;1673432342.7543159;0.09709253907203674;-0.5039039254188538;90.24593353271484
2;1673432342.92106;47.1306424;7.240619799999999;-0.02800000086426735;1673432342.9408648;0.10418282449245453;-0.4997994303703308;90.35627746582031
3;1673432343.121417;47.1306424;7.240619799999999;-0.030000001192092896;1673432343.139026;0.0645979642868042;-0.37014883756637573;90.23574829101562
4;1673432343.3364122;47.1306424;7.240619799999999;-0.03200000151991844;1673432343.3571413;-0.1090271845459938;-0.520915150642395;90.33513641357422
5;1673432343.5455503;47.1306424;7.2406198999999996;-0.036000002175569534;1673432343.5640945;-0.06026751920580864;-0.5648970603942871;90.38566589355469
6;1673432343.762591;47.1306424;7.2406198999999996;-0.039000000804662704;1673432343.7821124;0.08502288907766342;-0.27085813879966736;90.31187438964844
7;1673432343.9689505;47.1306424;7.2406198999999996;-0.03800000250339508;1673432343.9855435;0.2218325287103653;-0.4151187241077423;90.16722106933594
8;1673432344.1541424;47.1306424;7.2406198999999996;-0.039000000804662704;1673432344.1726873;-0.18828001618385315;-0.40841951966285706;90.34602355957031
9;1673432344.3466055;47.1306424;7.2406198999999996;0.0;1673432344.3652713;-0.04279828816652298;-1.0698721408843994;90.32109832763672
10;1673432344.5355647;47.1306424;7.2406198999999996;-0.0020000000949949026;1673432344.553665;0.024895397946238518;-1.5834790468215942;90.41812896728516
11;1673432344.7276726;47.1306425;7.2406198999999996;-0.006000000052154064;1673432344.7450309;0.016099661588668823;-1.3561850786209106;90.31320190429688
12;1673432344.9272985;47.1306425;7.24062;-0.00800000037997961;1673432344.9458873;-0.04444975033402443;-1.270493984222412;90.17815399169922
13;1673432345.1481931;47.1306425;7.24062;-0.005000000353902578;1673432345.167718;-0.1427454948425293;-1.285012125968933;90.30059051513672
14;1673432345.380266;47.1306425;7.2406201;-0.005000000353902578;1673432345.3949435;-0.06033390015363693;-1.234838604927063;89.99793243408203
15;1673432345.5807965;47.1306425;7.2406201;-0.005000000353902578;1673432345.5984855;-0.14926904439926147;-2.106555938720703;90.28076934814453
16;1673432345.7820818;47.1306425;7.2406201;-0.004000000189989805;1673432345.8017132;0.05410395935177803;-1.9183411598205566;90.23627471923828
17;1673432346.0095708;47.1306425;7.2406201;0.0020000000949949026;1673432346.0281236;-0.0637635588645935;-1.9177345037460327;90.48706817626953
18;1673432346.2021706;47.1306424;7.2406201;0.0010000000474974513;1673432346.2187624;-0.17695611715316772;-1.6768685579299927;90.34928131103516
19;1673432346.367441;47.1306424;7.2406201;0.0010000000474974513;1673432346.3822277;0.31599920988082886;-1.4570119380950928;90.50019073486328
20;1673432346.5503314;47.1306425;7.2406201999999995;0.003000000026077032;1673432346.5680509;0.06210612133145332;-0.8996963500976562;90.64611053466797
21;1673432346.7596865;47.130642599999995;7.2406203;0.0020000000949949026;1673432346.7782388;-0.035706497728824615;-0.727383017539978;90.14109802246094
22;1673432346.9576871;47.130642599999995;7.2406203;0.003000000026077032;1673432346.9733083;0.0076715294271707535;-0.6648308038711548;89.84730529785156
23;1673432347.182701;47.130642699999996;7.2406203;0.007000000216066837;1673432347.1983266;0.2350812554359436;-0.6739381551742554;89.75312805175781
24;1673432347.3713868;47.1306428;7.2406203;0.009000000543892384;1673432347.3871458;0.17405380308628082;-0.479290246963501;89.27838134765625
25;1673432347.5550454;47.1306431;7.2406203;0.020000001415610313;1673432347.5747013;0.08743445575237274;1.2486028671264648;89.0853500366211
26;1673432347.7678487;47.1306437;7.2406203;0.030000001192092896;1673432347.7883766;0.02379210852086544;2.353126287460327;88.43985748291016
27;1673432347.965995;47.130644499999995;7.2406201999999995;0.0430000014603138;1673432347.9837184;0.059708669781684875;6.610788822174072;87.57720184326172
28;1673432348.1626801;47.1306456;7.2406201999999995;0.05400000140070915;1673432348.1782963;1.2446914911270142;10.884485244750977;86.72048950195312
29;1673432348.3665397;47.130646899999995;7.2406203;0.06400000303983688;1673432348.3811789;3.878676414489746;14.68852424621582;86.76725006103516
30;1673432348.559415;47.1306483;7.2406204;0.08300000429153442;1673432348.5798814;3.825011968612671;16.438650131225586;87.94928741455078
31;1673432348.7678974;47.1306497;7.2406204999999995;0.11500000208616257;1673432348.7866292;3.1023190021514893;18.72690773010254;88.78331756591797
32;1673432349.0004575;47.130651;7.2406207;0.15300001204013824;1673432349.018215;3.0512681007385254;20.3436336517334;89.51261901855469
33;1673432349.1805406;47.1306522;7.240621;0.20400001108646393;1673432349.194193;3.1091837882995605;21.79527473449707;90.05039978027344
34;1673432349.3708973;47.1306529;7.2406213;0.26500001549720764;1673432349.3943605;3.4919633865356445;23.678024291992188;90.43213653564453
35;1673432349.5867314;47.1306533;7.2406215;0.33800002932548523;1673432349.6083164;3.947488784790039;25.60198402404785;90.76263427734375
36;1673432349.799399;47.1306533;7.240621699999999;0.4180000126361847;1673432349.817943;4.514215469360352;27.31856346130371;91.02506256103516
37;1673432350.051939;47.1306528;7.2406217999999996;0.5080000162124634;1673432350.0647547;5.0071845054626465;29.263620376586914;91.20832061767578
38;1673432350.2252953;47.1306517;7.2406217999999996;0.6040000319480896;1673432350.2490685;5.041009426116943;27.96402931213379;91.2864990234375
39;1673432350.3941872;47.1306501;7.2406216;0.7070000171661377;1673432350.408846;4.7992048263549805;25.25811767578125;91.21382141113281
40;1673432350.5639153;47.1306483;7.240621399999999;0.815000057220459;1673432350.5818594;4.60554313659668;22.224390029907227;91.1394271850586
41;1673432350.7695048;47.1306465;7.240621099999999;0.9350000619888306;1673432350.786159;4.233626842498779;19.009113311767578;91.00676727294922
42;1673432350.9817426;47.1306448;7.2406207;1.069000005722046;1673432350.9973605;3.6938297748565674;15.967374801635742;90.93233489990234
43;1673432351.1946223;47.1306434;7.2406204;1.222000002861023;1673432351.2133965;3.3467013835906982;15.382658958435059;90.89974212646484
44;1673432351.3894002;47.1306424;7.2406201;1.3860000371932983;1673432351.4101427;3.0270133018493652;13.380647659301758;90.41609191894531
45;1673432351.593675;47.1306419;7.2406198999999996;1.564000129699707;1673432351.6083004;3.0282609462738037;10.541343688964844;91.43666076660156
46;1673432351.7895787;47.1306418;7.240619799999999;1.755000114440918;1673432351.8063214;2.985924482345581;14.672003746032715;90.89875030517578
47;1673432351.9731374;47.130641999999995;7.240619799999999;1.9490001201629639;1673432351.9916813;3.3387515544891357;18.02290153503418;90.29277038574219
48;1673432352.1805341;47.1306424;7.2406198999999996;2.1430001258850098;1673432352.1992357;3.664973497390747;15.91232681274414;89.97322845458984
49;1673432352.3774521;47.130642699999996;7.2406198999999996;2.3390002250671387;1673432352.394246;3.910621166229248;18.49574851989746;89.6818618774414
50;1673432352.583055;47.130643;7.2406198999999996;2.5420000553131104;1673432352.598885;4.072849750518799;21.379438400268555;89.47025299072266
51;1673432352.7813582;47.130643199999994;7.2406198999999996;2.752000093460083;1673432352.801012;4.0205183029174805;19.567829132080078;89.47343444824219
52;1673432352.969536;47.1306434;7.2406198999999996;2.9650001525878906;1673432352.990041;4.035380840301514;19.677248001098633;89.28467559814453
53;1673432353.1859603;47.1306434;7.2406198999999996;3.1700000762939453;1673432353.2007198;4.074117183685303;22.654054641723633;89.39701843261719
54;1673432353.379453;47.1306434;7.24062;3.377000093460083;1673432353.398649;4.277141571044922;19.624786376953125;89.27054595947266
55;1673432353.563008;47.130643199999994;7.24062;3.575000286102295;1673432353.5796008;4.321281909942627;17.537025451660156;89.34378814697266
56;1673432353.771994;47.1306429;7.2406201;3.769000291824341;1673432353.790538;4.402098655700684;19.36741828918457;89.27261352539062
57;1673432353.9788058;47.130642599999995;7.2406201;3.9640002250671387;1673432353.9984305;4.356616497039795;19.05173110961914;89.2922134399414
58;1673432354.169267;47.1306425;7.2406201;4.1579999923706055;1673432354.1858907;4.102126598358154;15.764608383178711;89.51055145263672
59;1673432354.3654633;47.1306424;7.2406201;4.3480000495910645;1673432354.386201;4.135829448699951;18.407894134521484;89.30443572998047
60;1673432354.5674806;47.1306423;7.2406201;4.5360002517700195;1673432354.5860453;4.1562066078186035;19.26774024963379;89.36663055419922
61;1673432354.7534719;47.1306423;7.2406201;4.7310004234313965;1673432354.7700624;4.1620001792907715;16.047502517700195;89.49221801757812
62;1673432354.949515;47.1306422;7.2406201;4.926000118255615;1673432354.9676228;4.193796157836914;17.860485076904297;89.3781967163086
63;1673432355.159401;47.1306422;7.24062;5.127000331878662;1673432355.1775928;3.9234673976898193;20.046958923339844;89.43944549560547
64;1673432355.3629763;47.1306424;7.2406198999999996;5.330000400543213;1673432355.3825715;3.767352342605591;17.292062759399414;89.55270385742188
65;1673432355.5752842;47.1306425;7.2406198999999996;5.5320000648498535;1673432355.5948048;3.585184097290039;17.993074417114258;89.574462890625
66;1673432355.767868;47.130642599999995;7.240619799999999;5.732000350952148;1673432355.7815418;3.6734189987182617;21.32872772216797;89.46734619140625
67;1673432355.9680068;47.1306428;7.2406198999999996;5.932000160217285;1673432355.9877477;3.9922115802764893;18.804290771484375;89.35609436035156
68;1673432356.171314;47.1306428;7.2406198999999996;6.128000259399414;1673432356.1898675;3.975659132003784;17.915075302124023;89.4791030883789
69;1673432356.3722885;47.130642699999996;7.24062;6.321000099182129;1673432356.3889892;4.105497360229492;20.433002471923828;89.41566467285156
70;1673432356.5772917;47.130642599999995;7.2406201;6.51800012588501;1673432356.6206303;4.197563171386719;19.678539276123047;89.42218780517578
71;1673432356.839103;47.130642599999995;7.2406201;6.714000225067139;1673432356.853764;4.057337284088135;16.994314193725586;89.43800354003906
72;1673432357.0522244;47.1306425;7.2406201;6.910000324249268;1673432357.0639865;4.185925006866455;19.25830841064453;89.44546508789062
73;1673432357.2269354;47.1306425;7.2406201;7.104000568389893;1673432357.2456348;4.023046970367432;19.86960220336914;89.53617095947266
74;1673432357.4281352;47.1306425;7.2406201;7.2950005531311035;1673432357.4420617;3.9217617511749268;16.29560661315918;89.48308563232422
75;1673432357.5904267;47.1306424;7.2406201;7.4860005378723145;1673432357.6052191;4.059584140777588;18.416667938232422;89.45336151123047
76;1673432357.7791865;47.1306424;7.2406201;7.677000522613525;1673432357.795774;4.001492500305176;20.322566986083984;89.4674072265625
77;1673432357.9864028;47.1306424;7.2406201;7.874000549316406;1673432358.0050783;3.9659321308135986;17.394418716430664;89.42927551269531
78;1673432358.1790094;47.1306424;7.2406201;8.072000503540039;1673432358.1986;3.9482624530792236;17.604694366455078;89.39921569824219
79;1673432358.390759;47.1306425;7.2406201;8.270000457763672;1673432358.4104762;3.8847532272338867;21.05415153503418;89.39798736572266
80;1673432358.6019907;47.130642599999995;7.2406201;8.472000122070312;1673432358.628456;3.969754457473755;18.116077423095703;89.34467315673828
81;1673432358.8226712;47.130642699999996;7.2406201;8.672000885009766;1673432358.8386102;3.8057825565338135;17.819467544555664;89.43001556396484
82;1673432359.012168;47.130642599999995;7.2406201;8.86500072479248;1673432359.0279012;4.04302453994751;20.973737716674805;89.4670639038086
83;1673432359.186082;47.130642599999995;7.2406201;9.06100082397461;1673432359.2027156;3.9739909172058105;18.650707244873047;89.50362396240234
84;1673432359.3838892;47.130642599999995;7.2406201;9.259000778198242;1673432359.4037795;3.9629249572753906;17.25575828552246;89.4482421875
85;1673432359.571946;47.130642599999995;7.2406201;9.454000473022461;1673432359.5886674;4.009504318237305;19.872146606445312;89.40045928955078
86;1673432359.7637398;47.130642599999995;7.2406201999999995;9.64900016784668;1673432359.781387;3.937917709350586;19.735219955444336;89.37763977050781
87;1673432359.9650142;47.130642699999996;7.2406201999999995;9.845000267028809;1673432359.9825823;3.948173999786377;16.95244789123535;89.45504760742188
88;1673432360.1551132;47.130642699999996;7.2406201999999995;10.039000511169434;1673432360.1752174;3.9826364517211914;19.367021560668945;89.68458557128906
89;1673432360.3537776;47.130642599999995;7.2406201999999995;10.267000198364258;1673432360.3710656;3.7681400775909424;18.885774612426758;89.64869689941406
90;1673432360.5587864;47.1306425;7.2406201999999995;10.620000839233398;1673432360.5798278;4.132698059082031;19.079349517822266;89.64407348632812
91;1673432360.7867713;47.1306422;7.2406201;11.007000923156738;1673432360.8023736;4.1544718742370605;19.195659637451172;89.48735809326172
92;1673432360.98205;47.1306418;7.2406201;11.402000427246094;1673432361.0054753;3.970341682434082;20.1602840423584;89.4037857055664
93;1673432361.1835341;47.130641399999995;7.2406201;11.802000999450684;1673432361.2023242;3.901963472366333;16.593563079833984;89.42498779296875
94;1673432361.3780122;47.1306412;7.2406201;12.203001022338867;1673432361.3936284;3.8757107257843018;15.105850219726562;89.45360565185547
95;1673432361.582032;47.130641;7.2406201;12.606000900268555;1673432361.5983226;3.988447666168213;18.234142303466797;89.45785522460938
96;1673432361.8179233;47.130640799999995;7.2406201;13.009000778198242;1673432361.8384116;3.912928819656372;17.03311538696289;89.46216583251953
97;1673432362.0663524;47.130640899999996;7.2406201;13.408000946044922;1673432362.0819736;3.8946175575256348;14.882974624633789;89.44461059570312
98;1673432362.2794578;47.130641;7.2406201;13.808000564575195;1673432362.2921624;3.8464345932006836;17.757036209106445;89.46361541748047
99;1673432362.4434288;47.1306412;7.2406201;14.213000297546387;1673432362.4561293;3.952991008758545;18.812734603881836;89.5488052368164
100;1673432362.6176214;47.130641499999996;7.2406201;14.621000289916992;1673432362.6353345;3.909846782684326;16.000732421875;89.48129272460938
101;1673432362.8011444;47.1306416;7.2406201;15.028000831604004;1673432362.820663;3.9926414489746094;19.13585662841797;89.40094757080078
102;1673432362.9981499;47.1306418;7.24062;15.439001083374023;1673432363.0130951;3.940335988998413;20.19692611694336;89.39363861083984
103;1673432363.2043505;47.1306419;7.24062;15.849000930786133;1673432363.2259338;3.804851770401001;17.260770797729492;89.51273345947266
104;1673432363.4132855;47.1306419;7.2406198999999996;16.253000259399414;1673432363.4298894;3.866579294204712;17.95309066772461;89.55487823486328
105;1673432363.5914109;47.1306419;7.2406198999999996;16.65999984741211;1673432363.6089797;3.68644118309021;20.47644805908203;89.41781616210938
106;1673432363.7935705;47.1306419;7.2406198999999996;17.071001052856445;1673432363.8103142;3.997767210006714;17.319055557250977;89.34123229980469
107;1673432364.0042205;47.1306419;7.2406198999999996;17.477001190185547;1673432364.0218885;3.7500267028808594;17.194562911987305;89.4679946899414
108;1673432364.1894233;47.1306418;7.240619799999999;17.881999969482422;1673432364.2079515;3.7689921855926514;19.894041061401367;89.48139190673828
109;1673432364.3859658;47.1306418;7.240619799999999;18.28900146484375;1673432364.4054868;3.645475387573242;17.437328338623047;89.44721984863281
110;1673432364.5937436;47.1306417;7.240619799999999;18.69099998474121;1673432364.613405;3.7958974838256836;16.2277889251709;89.50298309326172
111;1673432364.7972703;47.1306417;7.240619799999999;19.09800148010254;1673432364.817105;3.8499107360839844;18.821842193603516;89.3503646850586
112;1673432364.991601;47.1306418;7.240619799999999;19.50800132751465;1673432365.0083416;3.891012191772461;18.629987716674805;89.4286117553711
113;1673432365.1828873;47.1306419;7.240619799999999;19.915000915527344;1673432365.203546;3.8084514141082764;16.089780807495117;89.4850082397461
114;1673432365.4170597;47.130641999999995;7.240619799999999;20.319000244140625;1673432365.4338043;3.9312782287597656;18.82231903076172;89.42206573486328
115;1673432365.6482005;47.130641999999995;7.240619799999999;20.72300148010254;1673432365.6675007;3.820364475250244;19.76230812072754;89.41878509521484
116;1673432365.8852205;47.130642099999996;7.240619799999999;21.124000549316406;1673432365.9283082;3.7757253646850586;16.826486587524414;89.38109588623047
117;1673432366.0656495;47.1306422;7.2406197;21.5210018157959;1673432366.0818117;3.8694958686828613;18.16265106201172;89.53433990478516
118;1673432366.2212882;47.1306422;7.2406197;21.922000885009766;1673432366.23594;3.858286142349243;20.674924850463867;89.46898651123047
119;1673432366.3912008;47.1306423;7.2406197;22.32200050354004;1673432366.4067705;3.811746835708618;17.527130126953125;89.44801330566406
120;1673432366.5997267;47.1306423;7.2406197;22.72300148010254;1673432366.6172874;3.832538366317749;17.469532012939453;89.32135009765625
121;1673432366.8064787;47.1306423;7.2406197;23.126001358032227;1673432366.828082;3.755347490310669;20.579896926879883;89.4886474609375
122;1673432366.99792;47.1306422;7.2406197;23.533000946044922;1673432367.0164993;3.751783847808838;17.75751304626465;89.53205108642578
123;1673432367.2005668;47.1306422;7.2406197;23.933000564575195;1673432367.2171583;3.7470428943634033;16.492189407348633;89.4703598022461
124;1673432367.410618;47.1306422;7.2406197;24.336000442504883;1673432367.4301763;3.8860597610473633;19.547208786010742;89.42887115478516
125;1673432367.6068387;47.1306422;7.2406197;24.74300193786621;1673432367.6253548;3.842130661010742;18.568483352661133;89.47211456298828
126;1673432367.8042;47.1306422;7.2406196;25.1510009765625;1673432367.825663;3.8860347270965576;16.284833908081055;89.56102752685547
127;1673432367.9996896;47.1306423;7.2406196;25.554000854492188;1673432368.0221372;3.8826239109039307;19.208271026611328;89.46473693847656
128;1673432368.1953456;47.1306422;7.2406196;25.957000732421875;1673432368.2129927;3.727167844772339;19.239320755004883;89.38485717773438
129;1673432368.3934922;47.1306423;7.2406196;26.360000610351562;1673432368.4130754;3.7623236179351807;16.705942153930664;89.47037506103516
130;1673432368.606352;47.1306423;7.2406196;26.757001876831055;1673432368.6241536;3.9081482887268066;18.191701889038086;89.54232025146484
131;1673432368.8059893;47.1306423;7.2406196;27.156002044677734;1673432368.8235388;3.9298465251922607;20.167648315429688;89.44657897949219
132;1673432369.0010345;47.1306424;7.2406197;27.558000564575195;1673432369.0176287;4.063076972961426;17.009565353393555;89.44379425048828
133;1673432369.1860464;47.1306424;7.2406197;27.96000099182129;1673432369.2059052;4.0145416259765625;17.59210777282715;89.34075164794922
134;1673432369.3933823;47.1306424;7.2406196;28.360000610351562;1673432369.4120452;4.0127763748168945;20.49737548828125;89.39982604980469
135;1673432369.6025455;47.1306424;7.2406196;28.76300048828125;1673432369.6231997;3.662534713745117;17.71446990966797;89.40196990966797
136;1673432369.8017602;47.1306423;7.2406196;29.158000946044922;1673432369.820424;3.693193197250366;16.64409828186035;89.54267883300781
137;1673432370.0066721;47.1306423;7.2406196;29.555002212524414;1673432370.0242226;3.9944138526916504;19.806997299194336;89.41156005859375
138;1673432370.189104;47.1306423;7.2406196;29.955001831054688;1673432370.2066739;3.852773666381836;18.394474029541016;89.42730712890625
139;1673432370.386452;47.1306424;7.2406196;30.35700225830078;1673432370.404112;3.8311429023742676;16.475065231323242;89.4992446899414
140;1673432370.5979059;47.1306423;7.2406196;30.759000778198242;1673432370.6139877;3.758780002593994;19.811368942260742;89.45223999023438
141;1673432370.7869465;47.1306423;7.2406196;31.161001205444336;1673432370.8025632;3.7224678993225098;19.026851654052734;89.3766860961914
142;1673432370.9874003;47.1306424;7.240619499999999;31.564001083374023;1673432371.0033746;3.675264835357666;16.491640090942383;89.48918914794922
143;1673432371.1759512;47.1306424;7.2406196;31.96000099182129;1673432371.1965141;3.63639497756958;18.697797775268555;89.53547668457031
144;1673432371.39309;47.1306425;7.2406196;32.362003326416016;1673432371.4135883;3.6912713050842285;20.497135162353516;89.45194244384766
145;1673432371.6189249;47.130642599999995;7.2406196;32.7650032043457;1673432371.6384683;3.7852261066436768;16.737228393554688;89.46112823486328
146;1673432371.8224852;47.1306425;7.2406196;33.16600036621094;1673432371.8439925;3.927642822265625;18.874542236328125;89.38821411132812
147;1673432372.0264812;47.1306424;7.2406197;33.56800079345703;1673432372.0459998;3.9033803939819336;20.429279327392578;89.40383911132812
148;1673432372.2391644;47.1306424;7.2406197;33.97500228881836;1673432372.2606049;3.888059377670288;17.032373428344727;89.41889190673828
149;1673432372.424951;47.1306423;7.2406197;34.374000549316406;1673432372.4418943;3.7729334831237793;17.239238739013672;89.47924041748047
150;1673432372.6296055;47.1306423;7.2406197;34.77400207519531;1673432372.6453784;3.9517672061920166;19.677595138549805;89.32015228271484
151;1673432372.8290772;47.1306423;7.240619799999999;35.178001403808594;1673432372.845677;3.904733896255493;17.40251922607422;89.38298797607422
152;1673432373.0186582;47.1306423;7.240619799999999;35.58000183105469;1673432373.0342755;3.9572086334228516;16.562009811401367;89.53099822998047
153;1673432373.211257;47.1306423;7.240619799999999;35.98400115966797;1673432373.2308936;3.822847604751587;20.008180618286133;89.54264831542969
154;1673432373.3915029;47.1306423;7.240619799999999;36.38800048828125;1673432373.4108233;3.641012668609619;18.347606658935547;89.48213958740234
155;1673432373.5917616;47.1306424;7.240619799999999;36.79100036621094;1673432373.6113021;3.771467924118042;16.562572479248047;89.42157745361328
156;1673432373.7805388;47.1306425;7.240619799999999;37.185001373291016;1673432373.7998393;3.8919968605041504;19.703048706054688;89.43566131591797
157;1673432373.9936266;47.130642599999995;7.2406198999999996;37.586002349853516;1673432374.0111654;3.6907453536987305;19.810089111328125;89.46695709228516
158;1673432374.184473;47.130642599999995;7.2406198999999996;37.9890022277832;1673432374.2037237;3.8752236366271973;16.78420639038086;89.49230194091797
159;1673432374.3850057;47.130642599999995;7.2406198999999996;38.3900032043457;1673432374.4026082;3.8734982013702393;19.474258422851562;89.48133087158203
160;1673432374.5999544;47.1306425;7.24062;38.79500198364258;1673432374.6194825;4.001739978790283;19.489084243774414;89.45335388183594
161;1673432374.832714;47.1306425;7.24062;39.19700241088867;1673432374.850445;3.9387526512145996;17.013587951660156;89.42698669433594
162;1673432375.0192075;47.1306425;7.24062;39.5880012512207;1673432375.0348272;3.9701812267303467;17.82487678527832;89.43548583984375
163;1673432375.195308;47.1306425;7.24062;39.98400115966797;1673432375.2139623;3.912243366241455;20.308738708496094;89.35965728759766
164;1673432375.4048293;47.130642599999995;7.24062;40.38200378417969;1673432375.4223442;3.8806209564208984;17.543231964111328;89.41716766357422
165;1673432375.6148074;47.130642599999995;7.24062;40.781002044677734;1673432375.63338;4.102848052978516;17.42559051513672;89.50969696044922
166;1673432375.8296301;47.1306425;7.24062;41.17900085449219;1673432375.850258;4.024654388427734;20.274070739746094;89.50296783447266
167;1673432376.0482893;47.1306425;7.2406201;41.5780029296875;1673432376.0893846;4.085466384887695;18.144208908081055;89.52682495117188
168;1673432376.2755525;47.1306425;7.24062;41.97700119018555;1673432376.2907321;3.855389356613159;16.518423080444336;89.46497344970703
169;1673432376.4504395;47.1306425;7.24062;42.37000274658203;1673432376.4660554;3.982666492462158;19.58672523498535;89.36360931396484
170;1673432376.6197321;47.130642599999995;7.24062;42.76900100708008;1673432376.6374056;3.9510302543640137;19.655696868896484;89.42903137207031
171;1673432376.8207638;47.130642599999995;7.24062;43.1670036315918;1673432376.8394153;3.9216129779815674;16.73036003112793;89.44322204589844
172;1673432377.0315056;47.130642599999995;7.2406198999999996;43.56800079345703;1673432377.0472941;3.8933463096618652;19.2541446685791;89.4254379272461
173;1673432377.218252;47.130642599999995;7.2406198999999996;43.970001220703125;1673432377.2378833;3.993110179901123;20.110788345336914;89.43656921386719
174;1673432377.4070094;47.130642599999995;7.2406198999999996;44.37200164794922;1673432377.4196978;3.884310483932495;16.90658187866211;89.53284454345703
175;1673432377.6013393;47.1306425;7.2406198999999996;44.7650032043457;1673432377.6208694;3.838852882385254;17.764644622802734;89.5444107055664
176;1673432377.8114903;47.130642599999995;7.240619799999999;45.163002014160156;1673432377.8280857;3.679359197616577;20.501188278198242;89.43666076660156
177;1673432378.003071;47.130642699999996;7.240619799999999;45.56800079345703;1673432378.0235589;3.7158122062683105;17.718103408813477;89.36421203613281
178;1673432378.210919;47.130642699999996;7.2406197;45.96800231933594;1673432378.2294626;3.7086448669433594;17.6362247467041;89.46295928955078
179;1673432378.411977;47.130642599999995;7.2406197;46.367000579833984;1673432378.4344192;3.7399442195892334;20.6966495513916;89.54131317138672
180;1673432378.6024373;47.130642599999995;7.2406197;46.768001556396484;1673432378.6220033;3.6915931701660156;18.712100982666016;89.46549224853516
181;1673432378.7940001;47.130642599999995;7.2406197;47.16800308227539;1673432378.8097682;3.63449764251709;16.75592041015625;89.42687225341797
182;1673432378.995449;47.130642599999995;7.2406197;47.55800247192383;1673432379.014969;3.7268271446228027;19.876022338867188;89.34490203857422
183;1673432379.1986458;47.130642699999996;7.2406197;47.948001861572266;1673432379.2162917;3.7888667583465576;19.037424087524414;89.46019744873047
184;1673432379.3927634;47.130642699999996;7.240619799999999;48.31300354003906;1673432379.4089174;3.934727907180786;17.76409339904785;89.47297668457031
185;1673432379.5964596;47.130642699999996;7.240619799999999;48.630001068115234;1673432379.6154895;3.9541289806365967;20.018428802490234;89.54214477539062
186;1673432379.799096;47.1306428;7.2406198999999996;48.902000427246094;1673432379.8176482;3.904667377471924;19.502187728881836;89.51856231689453
187;1673432379.9905155;47.1306429;7.2406198999999996;49.13100051879883;1673432380.0094678;3.8961451053619385;16.750261306762695;89.50118255615234
188;1673432380.1907294;47.130643199999994;7.2406198999999996;49.31200408935547;1673432380.208341;4.318012237548828;19.837406158447266;89.40699005126953
189;1673432380.3945897;47.130643299999996;7.2406197;49.47500228881836;1673432380.4146426;18.115673065185547;32.84786605834961;95.14141082763672
190;1673432380.5930037;47.1306429;7.2406182999999995;49.62800216674805;1673432380.6120698;25.39728355407715;47.128578186035156;107.42750549316406
191;1673432380.8009663;47.130640899999996;7.2406142;49.75800323486328;1673432380.8197155;22.504085540771484;56.28378677368164;117.17800903320312
192;1673432381.0021234;47.130637199999995;7.240606799999999;49.845001220703125;1673432381.0237315;7.194849014282227;58.57373046875;126.10562896728516
193;1673432381.2004588;47.1306319;7.2405966;49.88800048828125;1673432381.2190397;-9.195511817932129;53.88450622558594;135.81190490722656
194;1673432381.4373336;47.1306254;7.2405843;49.9170036315918;1673432381.456987;-21.81659507751465;50.44502639770508;145.44358825683594
195;1673432381.680726;47.130617799999996;7.240570399999999;49.927001953125;1673432381.7249973;-34.87914276123047;43.793052673339844;157.76805114746094
196;1673432381.890757;47.1306091;7.240554899999999;49.93400192260742;1673432381.901749;-47.7396354675293;41.50385665893555;170.2171630859375
197;1673432382.0725048;47.1305994;7.240537799999999;49.92400360107422;1673432382.0901535;-51.124053955078125;30.912153244018555;-177.481689453125
198;1673432382.261944;47.130589;7.2405193;49.884002685546875;1673432382.2785513;-46.92039108276367;22.64159393310547;-170.7261505126953
199;1673432382.4513285;47.130578199999995;7.240500099999999;49.83500289916992;1673432382.4661348;-46.64046859741211;17.061552047729492;-164.7714080810547
200;1673432382.6432614;47.130567199999994;7.2404804;49.78700256347656;1673432382.6578803;-47.06017303466797;12.241501808166504;-157.57142639160156
201;1673432382.820686;47.130556;7.240460499999999;49.74800109863281;1673432382.8382685;-46.31471252441406;7.381479740142822;-150.14627075195312
202;1673432383.0250776;47.130544699999994;7.2404402;49.72100067138672;1673432383.0426624;-47.37374496459961;2.8063669204711914;-143.73731994628906
203;1673432383.2247639;47.1305335;7.2404196;49.71000289916992;1673432383.241498;-47.59691619873047;-3.3298470973968506;-136.73593139648438
204;1673432383.426204;47.130522199999994;7.2403987999999995;49.70500183105469;1673432383.4518096;-46.263545989990234;-12.63687515258789;-132.3653106689453
205;1673432383.632571;47.130510699999995;7.240378499999999;49.695003509521484;1673432383.6501396;-43.799198150634766;-13.786436080932617;-139.82473754882812
206;1673432383.8267379;47.1304989;7.2403593;49.676002502441406;1673432383.8452837;-38.878631591796875;-7.546171188354492;-153.47694396972656
207;1673432384.0302484;47.130486999999995;7.2403417;49.65800094604492;1673432384.046842;-37.87465286254883;-1.9134083986282349;-163.58367919921875
208;1673432384.2247033;47.1304753;7.240325899999999;49.64200210571289;1673432384.24145;-38.306697845458984;3.9537293910980225;-172.99496459960938
209;1673432384.4240036;47.1304635;7.2403116;49.64800262451172;1673432384.442554;-40.62139129638672;9.212291717529297;178.28610229492188
210;1673432384.6105967;47.130451799999996;7.2402985;49.677001953125;1673432384.6271858;-39.882362365722656;15.8561429977417;168.68296813964844
211;1673432384.8091674;47.1304397;7.2402865;49.715003967285156;1673432384.8296647;-39.323768615722656;24.657976150512695;159.15406799316406
212;1673432385.0273483;47.130427399999995;7.240275199999999;49.77000045776367;1673432385.046869;-38.635623931884766;34.016029357910156;154.42189025878906
213;1673432385.220335;47.1304145;7.2402638999999995;49.827003479003906;1673432385.238949;-41.946014404296875;36.6412353515625;168.68336486816406
214;1673432385.4231696;47.130401299999996;7.240251199999999;49.86100387573242;1673432385.4400737;-45.87691116333008;26.116180419921875;-172.65435791015625
215;1673432385.611509;47.1303882;7.2402371;49.88100051879883;1673432385.6271343;-44.33344650268555;17.86580467224121;-163.36672973632812
216;1673432385.8119729;47.1303753;7.2402219;49.89900207519531;1673432385.831741;-46.2751350402832;14.7733154296875;-157.08082580566406
217;1673432386.0076509;47.1303628;7.2402055;49.92000198364258;1673432386.0271714;-45.77679443359375;9.51310920715332;-148.3495635986328
218;1673432386.2239;47.1303506;7.240188099999999;49.93300247192383;1673432386.2424445;-45.22042465209961;4.38970947265625;-139.46673583984375
219;1673432386.412384;47.1303389;7.2401699;49.94000244140625;1673432386.4299543;-45.23222351074219;-4.534958839416504;-132.163330078125
220;1673432386.6055946;47.1303275;7.2401512;49.96600341796875;1673432386.624311;-48.292335510253906;-10.710569381713867;-133.60511779785156
221;1673432386.8176448;47.130315599999996;7.240132399999999;49.992000579833984;1673432386.8352232;-51.512577056884766;-11.697184562683105;-137.08755493164062
222;1673432387.0269394;47.1303032;7.2401136;50.01700210571289;1673432387.045488;-51.40523147583008;-7.500237941741943;-139.7056427001953
223;1673432387.2323954;47.1302904;7.240094699999999;50.03000259399414;1673432387.2502656;-49.7259635925293;-4.299533367156982;-140.4364013671875
224;1673432387.4392264;47.1302774;7.240075699999999;50.031002044677734;1673432387.4577754;-48.028724670410156;-5.008398532867432;-139.56283569335938
225;1673432387.648034;47.1302643;7.2400566;50.031002044677734;1673432387.6647718;-47.44768142700195;-6.110533237457275;-139.4035186767578
226;1673432387.8367682;47.1302512;7.2400376;50.031002044677734;1673432387.856326;-48.18003845214844;-6.531846046447754;-139.5755615234375
227;1673432388.0506332;47.1302379;7.2400188;50.02100372314453;1673432388.0662363;-48.46290588378906;-7.154974460601807;-139.5511474609375
228;1673432388.246582;47.1302245;7.2400001;50.0160026550293;1673432388.2592719;-47.39888381958008;-7.161011219024658;-139.80335998535156
229;1673432388.4266088;47.130210999999996;7.2399815;50.00700378417969;1673432388.4432049;-47.09200668334961;-5.37291145324707;-140.006591796875
230;1673432388.6387324;47.1301975;7.2399629;49.99400329589844;1673432388.6543477;-46.92800521850586;-5.585007190704346;-139.44174194335938
231;1673432388.8403113;47.130184;7.2399442999999994;49.987003326416016;1673432388.8578503;-47.09885025024414;-5.816067218780518;-139.36866760253906
232;1673432389.0324516;47.1301706;7.239925899999999;49.983001708984375;1673432389.0501692;-47.55745315551758;-6.039997100830078;-139.33291625976562
233;1673432389.2356524;47.1301571;7.2399074;49.983001708984375;1673432389.2551715;-47.761512756347656;-6.194627285003662;-139.28562927246094
234;1673432389.440409;47.1301437;7.2398888999999995;49.97800064086914;1673432389.4589963;-47.70091247558594;-6.29472541809082;-139.2534942626953
235;1673432389.659172;47.130130199999996;7.239870499999999;49.97200393676758;1673432389.6783068;-47.402740478515625;-6.288771629333496;-139.23509216308594
236;1673432389.8491104;47.130116699999995;7.239852099999999;49.97100067138672;1673432389.865749;-47.22916030883789;-6.3182373046875;-139.1722412109375
237;1673432390.0436108;47.1301032;7.239833699999999;49.97100067138672;1673432390.062154;-47.45846176147461;-6.377255916595459;-139.13397216796875
238;1673432390.2401087;47.1300897;7.2398153;49.970001220703125;1673432390.2576787;-47.7258186340332;-6.385885238647461;-139.13763427734375
239;1673432390.44072;47.1300761;7.239796999999999;49.965003967285156;1673432390.4573128;-47.50278091430664;-6.320213794708252;-139.1207275390625
240;1673432390.6410046;47.130062599999995;7.2397787;49.95500183105469;1673432390.6586154;-46.9032096862793;-6.207132816314697;-139.11361694335938
241;1673432390.8429701;47.1300491;7.2397604;49.95000076293945;1673432390.8576028;-46.55672073364258;-6.201700687408447;-139.05166625976562
242;1673432391.0387108;47.1300356;7.2397421;49.945003509521484;1673432391.0572557;-46.9979248046875;-6.301089286804199;-138.9967803955078
243;1673432391.2361472;47.1300222;7.239723799999999;49.94600296020508;1673432391.2559233;-47.39598083496094;-6.305516242980957;-139.03616333007812
244;1673432391.4364097;47.1300087;7.2397056;49.94700241088867;1673432391.4559407;-47.625938415527344;-6.321694850921631;-139.0357666015625
245;1673432391.6513917;47.1299953;7.2396873;49.94600296020508;1673432391.6689677;-47.649078369140625;-6.279576301574707;-139.0700225830078
246;1673432391.8572085;47.129981799999996;7.2396690999999995;49.94900131225586;1673432391.873955;-47.3357048034668;-6.187619686126709;-139.09230041503906
247;1673432392.057898;47.129968299999994;7.2396508;49.94900131225586;1673432392.0754628;-47.46253967285156;-6.227932453155518;-139.07044982910156
248;1673432392.2474601;47.1299548;7.2396324;49.94900131225586;1673432392.2640893;-47.505340576171875;-6.195981979370117;-139.09605407714844
249;1673432392.439269;47.1299413;7.2396141;49.948001861572266;1673432392.455862;-47.4281005859375;-6.156197547912598;-139.07662963867188
250;1673432392.6246066;47.1299278;7.2395958;49.94900131225586;1673432392.6394005;-47.48594665527344;-6.167147159576416;-139.09255981445312
251;1673432392.8249588;47.129914299999996;7.239577499999999;49.94900131225586;1673432392.8435156;-47.480445861816406;-6.121885776519775;-139.10946655273438
252;1673432393.0628471;47.129900799999994;7.239559099999999;49.945003509521484;1673432393.0795197;-47.33169937133789;-6.08906364440918;-139.13539123535156
253;1673432393.2666152;47.1298873;7.239540799999999;49.93800354003906;1673432393.2802813;-47.161075592041016;-6.078579425811768;-139.1458740234375
254;1673432393.4361184;47.1298739;7.239522399999999;49.93300247192383;1673432393.4546623;-46.979740142822266;-6.056929111480713;-139.13311767578125
255;1673432393.6446412;47.1298604;7.239503999999999;49.92900085449219;1673432393.6622555;-47.04228591918945;-6.038249492645264;-139.13636779785156
256;1673432393.8645325;47.1298469;7.2394856999999995;49.927001953125;1673432393.8772209;-47.176849365234375;-6.030605316162109;-139.15869140625
257;1673432394.0602603;47.1298335;7.2394674;49.92900085449219;1673432394.075877;-47.39274215698242;-6.0512375831604;-139.1430206298828
258;1673432394.2282777;47.129819999999995;7.2394491;49.92900085449219;1673432394.2448704;-47.572662353515625;-6.01274299621582;-139.1957550048828
259;1673432394.4588728;47.1298065;7.2394307;49.92900085449219;1673432394.4863343;-47.38279724121094;-5.978394985198975;-139.2061309814453
260;1673432394.720637;47.129793;7.2394123;49.926002502441406;1673432394.7346218;-47.04567337036133;-5.892718315124512;-139.24581909179688
261;1673432394.9096982;47.1297796;7.239394;49.926002502441406;1673432394.9259026;-47.05586624145508;-5.906691551208496;-139.2196044921875
262;1673432395.1072636;47.1297661;7.2393756;49.928001403808594;1673432395.1189756;-47.39493179321289;-5.888400077819824;-139.2501678466797
263;1673432395.3028908;47.129752599999996;7.2393573;49.93100357055664;1673432395.3166003;-47.48914337158203;-5.834875106811523;-139.29299926757812
264;1673432395.4879642;47.129739099999995;7.239338999999999;49.93400192260742;1673432395.5055609;-47.41856384277344;-5.778172016143799;-139.30972290039062
265;1673432395.68532;47.1297256;7.2393206;49.93400192260742;1673432395.7010775;-47.277584075927734;-5.716955184936523;-139.31851196289062
266;1673432395.87169;47.1297121;7.2393022;49.93400192260742;1673432395.885355;-47.27740478515625;-5.669596195220947;-139.36248779296875
267;1673432396.0507896;47.1296986;7.2392838;49.93400192260742;1673432396.0683587;-47.357303619384766;-5.672832489013672;-139.36524963378906
268;1673432396.250273;47.129685099999996;7.2392654;49.935001373291016;1673432396.2668974;-47.361995697021484;-5.635025501251221;-139.4023895263672
269;1673432396.4562173;47.129671599999995;7.239247;49.93600082397461;1673432396.471935;-47.39035415649414;-5.607750415802002;-139.44786071777344
270;1673432396.6542864;47.1296581;7.239228499999999;49.94000244140625;1673432396.6730163;-47.35350036621094;-5.583637714385986;-139.4725799560547
271;1673432396.8379214;47.1296446;7.239210099999999;49.945003509521484;1673432396.8545275;-47.676605224609375;-5.602530002593994;-139.491943359375
272;1673432397.032269;47.129630999999996;7.2391916;49.95000076293945;1673432397.052014;-47.875240325927734;-5.530058860778809;-139.57920837402344
273;1673432397.2356458;47.129617499999995;7.2391730999999995;49.9530029296875;1673432397.2542017;-47.614009857177734;-5.453953266143799;-139.62326049804688
274;1673432397.466361;47.129604;7.2391546;49.9530029296875;1673432397.4974067;-47.43280029296875;-5.388176441192627;-139.6707000732422
275;1673432397.7125823;47.1295904;7.239135999999999;49.95100402832031;1673432397.7268243;-47.2796745300293;-5.389382839202881;-139.68228149414062
276;1673432397.9135728;47.129576899999996;7.2391175;49.94900131225586;1673432397.9389904;-47.15520477294922;-5.347244739532471;-139.75469970703125
277;1673432398.0854242;47.129563399999995;7.2390989;49.94900131225586;1673432398.103974;-47.33494186401367;-5.3081374168396;-139.8156280517578
278;1673432398.2916555;47.1295498;7.2390804;49.94900131225586;1673432398.306983;-47.45839309692383;-5.331506252288818;-139.85211181640625
279;1673432398.4800599;47.1295363;7.239061899999999;49.95100402832031;1673432398.4986138;-47.478477478027344;-5.2287139892578125;-139.95831298828125
280;1673432398.69403;47.1295228;7.2390433;49.95500183105469;1673432398.7106214;-47.450618743896484;-5.197005271911621;-140.00588989257812
281;1673432398.8773296;47.129509299999995;7.239024799999999;49.96200180053711;1673432398.894177;-47.74046325683594;-5.203988552093506;-140.06459045410156
282;1673432399.0689003;47.1294957;7.2390061999999995;49.965003967285156;1673432399.0865533;-47.72227478027344;-5.14926290512085;-140.1526641845703
283;1673432399.2639575;47.1294822;7.2389876;49.965003967285156;1673432399.2825277;-47.48859786987305;-5.032082557678223;-140.27874755859375
284;1673432399.4570212;47.129468599999996;7.238969;49.967002868652344;1673432399.475566;-47.38418960571289;-4.962587833404541;-140.35787963867188
285;1673432399.6558874;47.129455;7.2389503;49.97100067138672;1673432399.6755219;-47.411746978759766;-5.021572589874268;-140.39895629882812
286;1673432399.863796;47.1294414;7.2389318;49.97600173950195;1673432399.8823414;-47.705379486083984;-5.713154315948486;-140.37982177734375
287;1673432400.0692098;47.129427799999995;7.2389133;49.980003356933594;1673432400.0857868;-48.02190017700195;-5.22096061706543;-140.8191375732422
288;1673432400.2770815;47.1294141;7.2388948;49.98500061035156;1673432400.296714;-47.51076889038086;-5.779849052429199;-140.712890625
289;1673432400.4833329;47.1294003;7.238876299999999;49.98600387573242;1673432400.5038424;-47.41573715209961;-6.241908550262451;-140.91586303710938
290;1673432400.7247248;47.129386499999995;7.2388581;49.98800277709961;1673432400.7424662;-47.71007537841797;-5.704929828643799;-141.3039093017578
291;1673432400.9271715;47.1293727;7.238839899999999;49.9900016784668;1673432400.9408693;-47.664146423339844;-5.601855278015137;-141.45582580566406
292;1673432401.1074672;47.1293588;7.238821799999999;49.99100112915039;1673432401.134022;-47.471797943115234;-5.874789714813232;-141.52462768554688
293;1673432401.30783;47.1293449;7.2388037999999995;49.992000579833984;1673432401.3244452;-47.25243377685547;-6.28334903717041;-141.63653564453125
294;1673432401.4985974;47.1293308;7.238785999999999;49.99500274658203;1673432401.5153618;-47.207759857177734;-6.466861724853516;-141.80177307128906
295;1673432401.673632;47.1293168;7.2387684;49.99700164794922;1673432401.6902227;-47.53150939941406;-6.962183952331543;-141.91978454589844
296;1673432401.8808877;47.1293027;7.238751;50.00100326538086;1673432401.8986082;-47.646202087402344;-7.008949279785156;-142.20724487304688
297;1673432402.0948236;47.1292884;7.2387337;50.005001068115234;1673432402.1114519;-47.5671501159668;-6.5315656661987305;-142.5434112548828
298;1673432402.2794254;47.129274099999996;7.2387166;50.00600051879883;1673432402.2989438;-47.52116394042969;-7.181652545928955;-142.27386474609375
299;1673432402.4766042;47.1292597;7.2386997;50.00700378417969;1673432402.4922216;-47.005130767822266;-8.581019401550293;-142.2681427001953
300;1673432402.703386;47.1292453;7.238683099999999;50.009002685546875;1673432402.719004;-45.62089157104492;-7.086850643157959;-143.00010681152344
301;1673432402.9329164;47.129230799999995;7.2386668;50.02100372314453;1673432402.9495094;-36.96785354614258;-7.912062644958496;-142.0941925048828
302;1673432403.1117456;47.129216799999995;7.2386512;50.052001953125;1673432403.1364145;-25.71666717529297;-7.187148094177246;-140.9774932861328
303;1673432403.320759;47.1292039;7.2386368;50.06800079345703;1673432403.3336327;-14.103616714477539;-5.836912631988525;-139.35006713867188
304;1673432403.5206838;47.129192499999995;7.2386238;50.073001861572266;1673432403.5659504;-5.912101745605469;-6.236222267150879;-137.9739532470703
305;1673432403.7488358;47.1291831;7.238612799999999;50.073001861572266;1673432403.7655802;-2.7469019889831543;-5.966997146606445;-137.4818878173828
306;1673432403.932144;47.129175599999996;7.238603599999999;50.07600402832031;1673432403.9745188;-0.738979697227478;-7.856351852416992;-137.3975067138672
307;1673432404.1540484;47.1291698;7.238595999999999;50.08100128173828;1673432404.1698132;-0.6043415069580078;-5.3506083488464355;-139.77415466308594
308;1673432404.3259566;47.1291654;7.238589999999999;50.092002868652344;1673432404.3425999;-4.499201774597168;-5.97706413269043;-139.69223022460938
309;1673432404.5163066;47.1291623;7.2385851;50.10600280761719;1673432404.5291712;-7.657712459564209;-7.913871765136719;-137.4351806640625
310;1673432404.683182;47.12916;7.2385813;50.11900329589844;1673432404.6987984;-12.349865913391113;-9.549063682556152;-137.2694549560547
311;1673432404.8622005;47.1291582;7.2385784;50.130001068115234;1673432404.8791604;-17.072458267211914;-8.836042404174805;-139.2194061279297
312;1673432405.0550606;47.1291565;7.238575999999999;50.163002014160156;1673432405.0745635;-36.63425064086914;-7.99402379989624;-136.60548400878906
313;1673432405.2599833;47.1291544;7.2385725999999995;50.255001068115234;1673432405.2804773;-33.539390563964844;-5.456260681152344;-136.45294189453125
314;1673432405.4645228;47.129152;7.2385682;50.423004150390625;1673432405.4811447;-19.929676055908203;-1.4846869707107544;-137.69760131835938
315;1673432405.6596253;47.1291496;7.2385633;50.68700408935547;1673432405.6775618;-33.3900260925293;-4.972388744354248;-137.97486877441406
316;1673432405.8567936;47.1291467;7.2385573;51.01700210571289;1673432405.873554;-47.919960021972656;-8.793218612670898;-137.54029846191406
317;1673432406.0486743;47.129142099999996;7.2385496;51.37800216674805;1673432406.069198;-53.60280990600586;-11.124627113342285;-138.2547149658203
318;1673432406.2469678;47.1291356;7.2385402;51.707000732421875;1673432406.2664897;-49.74594497680664;-12.147522926330566;-138.65084838867188
319;1673432406.4403868;47.1291277;7.23853;52.02400207519531;1673432406.4589293;-47.8513298034668;-8.88244342803955;-138.61947631835938
320;1673432406.6378677;47.129118999999996;7.2385189;52.327003479003906;1673432406.655515;-44.04446029663086;-9.470454216003418;-138.00851440429688
321;1673432406.8441026;47.1291096;7.238507299999999;52.618003845214844;1673432406.8626454;-40.92644500732422;-8.061838150024414;-138.07884216308594
322;1673432407.0361032;47.1290999;7.2384954;52.913002014160156;1673432407.0551813;-39.82028579711914;-7.539808750152588;-137.6570281982422
323;1673432407.2566884;47.1290901;7.238483199999999;53.21200180053711;1673432407.274258;-38.74433898925781;-7.327453136444092;-137.2952423095703
324;1673432407.457841;47.1290802;7.2384707;53.522003173828125;1673432407.4744327;-38.29230499267578;-6.997540473937988;-137.0416259765625
325;1673432407.6561525;47.129070299999995;7.238458;53.84800338745117;1673432407.6746962;-37.87749481201172;-7.154109477996826;-136.8275909423828
326;1673432407.861113;47.129060599999995;7.2384451;54.18600082397461;1673432407.8787284;-37.47877502441406;-7.493846416473389;-136.6995086669922
327;1673432408.0629966;47.129050799999995;7.2384322;54.538002014160156;1673432408.0825188;-37.43071746826172;-7.554640293121338;-136.66253662109375
328;1673432408.2655087;47.129041199999996;7.2384192;54.89500427246094;1673432408.2940867;-37.35348129272461;-7.7127790451049805;-136.6692657470703
329;1673432408.456588;47.1290316;7.2384061;55.255001068115234;1673432408.4741573;-37.45771789550781;-7.738648414611816;-136.7452850341797
330;1673432408.668881;47.1290221;7.2383931;55.62000274658203;1673432408.6884034;-37.78327941894531;-7.947412014007568;-136.7259521484375
331;1673432408.8690398;47.129012599999996;7.2383801;55.98800277709961;1673432408.8853319;-37.89113998413086;-8.020208358764648;-136.77572631835938
332;1673432409.0578475;47.1290031;7.2383671;56.358001708984375;1673432409.0784912;-37.8187141418457;-7.981475353240967;-136.85342407226562
333;1673432409.2842078;47.1289935;7.238353999999999;56.73400115966797;1673432409.301785;-37.90441131591797;-8.093219757080078;-136.8360137939453
334;1673432409.4862876;47.128983999999996;7.2383409;57.112003326416016;1673432409.510695;-37.80449295043945;-7.990390300750732;-136.88795471191406
335;1673432409.7138996;47.1289745;7.2383279;57.4890022277832;1673432409.730495;-37.94884490966797;-8.066597938537598;-136.85658264160156
336;1673432409.9021246;47.1289649;7.2383149;57.871002197265625;1673432409.9187188;-37.99983215332031;-7.970907211303711;-136.9029998779297
337;1673432410.1054468;47.128955399999995;7.2383017999999995;58.256004333496094;1673432410.1241517;-38.08147048950195;-7.989988803863525;-136.89230346679688
338;1673432410.3063111;47.1289459;7.238288799999999;58.63600158691406;1673432410.3229043;-38.143836975097656;-8.032037734985352;-136.92559814453125
339;1673432410.5138764;47.1289364;7.2382757;59.01400375366211;1673432410.5304422;-38.084903717041016;-8.053945541381836;-136.95469665527344
340;1673432410.702644;47.128926799999995;7.2382626;59.39200210571289;1673432410.718259;-38.175750732421875;-7.909452438354492;-136.93209838867188
341;1673432410.9005783;47.1289172;7.238249499999999;59.7760009765625;1673432410.9161541;-38.215206146240234;-7.918574333190918;-136.91751098632812
342;1673432411.0768497;47.1289077;7.238236499999999;60.15800476074219;1673432411.0944498;-38.32583999633789;-7.839415073394775;-136.94259643554688
343;1673432411.2753983;47.1288981;7.2382233;60.54300308227539;1673432411.294919;-38.24363708496094;-7.790737152099609;-136.946044921875
344;1673432411.494567;47.128888499999995;7.2382101;60.92400360107422;1673432411.5111468;-38.326786041259766;-7.879731178283691;-136.94107055664062
345;1673432411.7080693;47.1288789;7.238196899999999;61.30600357055664;1673432411.7316766;-38.3197021484375;-8.023089408874512;-136.91754150390625
346;1673432411.9010231;47.1288692;7.238183599999999;61.69000244140625;1673432411.916639;-38.299705505371094;-8.051097869873047;-136.94097900390625
347;1673432412.0805883;47.1288596;7.2381704;62.08100128173828;1673432412.0932548;-38.2977180480957;-8.035762786865234;-136.94281005859375
348;1673432412.275911;47.1288499;7.2381571;62.471004486083984;1673432412.2945035;-38.36198425292969;-8.098987579345703;-136.932861328125
349;1673432412.464747;47.1288403;7.2381439;62.858001708984375;1673432412.4813402;-38.37605285644531;-7.941754341125488;-136.96400451660156
350;1673432412.6570659;47.1288306;7.2381306;63.24500274658203;1673432412.6747544;-38.39885330200195;-8.02161979675293;-136.9319305419922
351;1673432412.852622;47.1288209;7.238117399999999;63.62800216674805;1673432412.8713803;-38.437259674072266;-7.97463321685791;-136.93638610839844
352;1673432413.052123;47.1288112;7.238104099999999;64.00900268554688;1673432413.0707612;-38.50374221801758;-7.868668556213379;-136.94436645507812
353;1673432413.2547436;47.128801499999994;7.238090799999999;64.39200592041016;1673432413.2745976;-38.52205276489258;-7.800271987915039;-136.9425048828125
354;1673432413.4777966;47.1287917;7.238077499999999;64.7750015258789;1673432413.4944563;-38.39608383178711;-7.8752946853637695;-136.9287872314453
355;1673432413.6826396;47.128782;7.2380641;65.16100311279297;1673432413.7003803;-38.45641326904297;-7.706121444702148;-136.96841430664062
356;1673432413.9277174;47.1287722;7.2380507;65.5510025024414;1673432413.9472558;-38.39955139160156;-7.87086296081543;-136.91445922851562
357;1673432414.1166058;47.1287625;7.238037299999999;65.93800354003906;1673432414.1302395;-38.445125579833984;-7.806811809539795;-136.927978515625
358;1673432414.299203;47.1287527;7.2380239;66.3270034790039;1673432414.3140013;-38.3507194519043;-7.882225513458252;-136.95138549804688
359;1673432414.485534;47.128743;7.2380105;66.71500396728516;1673432414.501871;-38.48721694946289;-7.924453258514404;-136.91146850585938
360;1673432414.688939;47.1287333;7.237997099999999;67.10200500488281;1673432414.7084942;-38.43833541870117;-7.857259750366211;-136.9751739501953
361;1673432414.8874886;47.1287235;7.2379836;67.48800659179688;1673432414.9050565;-38.39546203613281;-8.01186752319336;-136.92225646972656
362;1673432415.085006;47.1287138;7.2379701999999995;67.87800598144531;1673432415.0986693;-38.528560638427734;-8.054031372070312;-136.9398651123047
363;1673432415.2707968;47.128704;7.2379568;68.27100372314453;1673432415.2884696;-38.39626693725586;-7.853580951690674;-136.9697723388672
364;1673432415.4675026;47.1286943;7.2379434;68.66300201416016;1673432415.4860406;-38.41352462768555;-7.943974018096924;-136.92190551757812
365;1673432415.6570284;47.1286845;7.2379301;69.05000305175781;1673432415.6763294;-38.52906799316406;-7.759284973144531;-136.95382690429688
366;1673432415.8643599;47.1286747;7.2379166999999995;69.44200134277344;1673432415.8848553;-38.42900466918945;-7.845700263977051;-136.9277801513672
367;1673432416.062759;47.128665;7.2379032;69.8290023803711;1673432416.082424;-38.618309020996094;-7.847500801086426;-136.91896057128906
368;1673432416.255938;47.1286552;7.2378898;70.21100616455078;1673432416.2728024;-38.44140625;-7.919330596923828;-136.94229125976562
369;1673432416.4580708;47.128645399999996;7.2378763;70.59500122070312;1673432416.472711;-38.518672943115234;-7.8197245597839355;-136.95956420898438
370;1673432416.6748126;47.128635599999996;7.2378629;70.98200225830078;1673432416.6954522;-38.455562591552734;-7.879854679107666;-136.94419860839844
371;1673432416.8701923;47.128625899999996;7.2378494;71.37200164794922;1673432416.8858123;-38.470279693603516;-7.881755352020264;-136.93612670898438
372;1673432417.0618126;47.128616099999995;7.237836;71.76500701904297;1673432417.0832849;-38.40650939941406;-7.865083694458008;-136.93809509277344
373;1673432417.265108;47.1286063;7.2378225;72.15900421142578;1673432417.2836359;-38.48798751831055;-7.9454755783081055;-136.9534149169922
374;1673432417.48105;47.1285965;7.2378089999999995;72.5530014038086;1673432417.4986176;-38.38887023925781;-7.851201057434082;-136.97035217285156
375;1673432417.6951034;47.1285867;7.2377956;72.94700622558594;1673432417.7136142;-38.39238357543945;-7.971380233764648;-136.92796325683594
376;1673432417.8906372;47.1285769;7.2377820999999996;73.34200286865234;1673432417.9111362;-38.40480041503906;-7.978667736053467;-136.9518280029297
377;1673432418.0839808;47.1285671;7.237768699999999;73.73600006103516;1673432418.1006262;-38.52785110473633;-7.839277267456055;-136.97357177734375
378;1673432418.2704263;47.1285573;7.2377552;74.12800598144531;1673432418.287994;-38.456539154052734;-7.857679843902588;-136.95590209960938
379;1673432418.4830499;47.128547499999996;7.2377417;74.51900482177734;1673432418.5016904;-38.49025344848633;-7.958144187927246;-136.93638610839844
380;1673432418.6787498;47.128537699999995;7.237728199999999;74.91000366210938;1673432418.6964092;-38.501651763916016;-8.01247787475586;-136.9212646484375
381;1673432418.8828204;47.128527899999995;7.2377147;75.3030014038086;1673432418.9023402;-38.582794189453125;-8.007692337036133;-136.94537353515625
382;1673432419.0841105;47.128518;7.2377012;75.69400024414062;1673432419.103632;-38.584014892578125;-7.895196914672852;-136.9673309326172
383;1673432419.2877212;47.1285082;7.2376878;76.0840072631836;1673432419.3023505;-38.492095947265625;-7.96834135055542;-136.9346923828125
384;1673432419.4906588;47.1284983;7.2376743;76.47400665283203;1673432419.5114071;-38.568397521972656;-7.928215026855469;-136.95835876464844
385;1673432419.7009966;47.128488399999995;7.237660699999999;76.86700439453125;1673432419.7197678;-38.51203536987305;-7.976808547973633;-136.9447479248047
386;1673432419.8961265;47.1284785;7.2376472;77.25900268554688;1673432419.9139364;-38.559043884277344;-7.99204158782959;-136.94155883789062
387;1673432420.1121876;47.1284686;7.2376337;77.65299987792969;1673432420.130879;-38.57525634765625;-7.899369239807129;-136.9609375
388;1673432420.3022115;47.128458699999996;7.237620199999999;78.04700469970703;1673432420.3187852;-38.490264892578125;-8.019779205322266;-136.90618896484375
389;1673432420.4983084;47.1284488;7.2376067;78.44300079345703;1673432420.5207684;-38.58300018310547;-7.894445896148682;-136.9451141357422
390;1673432420.683663;47.1284389;7.2375932999999995;78.83900451660156;1673432420.7002547;-38.5594596862793;-7.916637897491455;-136.9303741455078
391;1673432420.8894446;47.128429;7.2375796999999995;79.23400115966797;1673432420.907013;-38.50897216796875;-7.909899711608887;-136.9605712890625
392;1673432421.0782835;47.128419;7.2375662;79.62700653076172;1673432421.0979025;-38.50455093383789;-7.808022499084473;-136.93002319335938
393;1673432421.2940605;47.1284091;7.237552699999999;80.02000427246094;1673432421.310771;-38.5189094543457;-7.89349365234375;-136.9368896484375
394;1673432421.4789279;47.128399099999996;7.237539099999999;80.41800689697266;1673432421.4984539;-38.4708137512207;-7.7900309562683105;-136.91769409179688
395;1673432421.7007172;47.1283891;7.2375256;80.81300354003906;1673432421.7163312;-38.562862396240234;-7.775689125061035;-136.91033935546875
396;1673432421.8983734;47.1283792;7.237512;81.21100616455078;1673432421.9142244;-38.59286117553711;-7.803690433502197;-136.8761444091797
397;1673432422.1036923;47.128369199999995;7.2374985;81.61100769042969;1673432422.1202664;-38.55300521850586;-7.706274032592773;-136.95745849609375
398;1673432422.3078837;47.1283592;7.2374849;82.00800323486328;1673432422.3227074;-38.5286865234375;-7.789681911468506;-136.90338134765625
399;1673432422.514252;47.128349299999996;7.237471299999999;82.4070053100586;1673432422.5310597;-38.5122184753418;-7.73433780670166;-136.9110565185547
400;1673432422.7098544;47.1283393;7.237457699999999;82.8070068359375;1673432422.7274497;-38.499267578125;-7.818357467651367;-136.8780975341797
401;1673432422.916043;47.1283294;7.237444099999999;83.20700073242188;1673432422.9363995;-38.528724670410156;-7.80382776260376;-136.91200256347656
402;1673432423.1240487;47.128319399999995;7.237430499999999;83.61100769042969;1673432423.1436284;-38.494197845458984;-7.791647911071777;-136.8811798095703
403;1673432423.3224502;47.1283095;7.2374168999999995;84.01300048828125;1673432423.3391771;-38.592262268066406;-7.903868198394775;-136.8771209716797
404;1673432423.522378;47.1282997;7.2374032999999995;84.41400146484375;1673432423.5386848;-38.44854736328125;-7.9273247718811035;-136.91525268554688
405;1673432423.7285619;47.128289699999996;7.237389599999999;84.81300354003906;1673432423.7461796;-38.5449333190918;-7.9815239906311035;-136.8810272216797
406;1673432423.9138973;47.1282798;7.237375999999999;85.21000671386719;1673432423.931621;-38.50917053222656;-7.90015983581543;-136.934814453125
407;1673432424.0995173;47.1282698;7.237362399999999;85.60600280761719;1673432424.1170855;-38.38072967529297;-7.93251895904541;-136.8800506591797
408;1673432424.2999303;47.128259899999996;7.2373487;86.00300598144531;1673432424.314575;-38.35102844238281;-7.947589874267578;-136.88333129882812
409;1673432424.4944575;47.12825;7.237335099999999;86.4010009765625;1673432424.5120602;-38.53310775756836;-8.034316062927246;-136.84735107421875
410;1673432424.7079005;47.12824;7.2373214;86.79700469970703;1673432424.7225401;-38.536354064941406;-7.933276176452637;-136.93508911132812
411;1673432424.9149337;47.128230099999996;7.2373078;87.19500732421875;1673432424.9336855;-38.522945404052734;-7.836299419403076;-136.89227294921875
412;1673432425.09375;47.1282201;7.2372942;87.59300231933594;1673432425.1143496;-38.56608200073242;-8.013721466064453;-136.84829711914062
413;1673432425.3050067;47.1282102;7.2372805;87.99300384521484;1673432425.3216352;-38.5356330871582;-7.897331714630127;-136.89031982421875
414;1673432425.5075574;47.128200199999995;7.2372669;88.39100646972656;1673432425.5261803;-38.50963592529297;-7.941999912261963;-136.90016174316406
415;1673432425.7220962;47.1281903;7.2372532;88.79200744628906;1673432425.7387013;-38.44585037231445;-7.92722225189209;-136.88706970214844
416;1673432425.9116008;47.1281803;7.237239499999999;89.19500732421875;1673432425.929727;-38.48678970336914;-8.006706237792969;-136.88128662109375
417;1673432426.099204;47.128170399999995;7.2372258;89.59700775146484;1673432426.1158137;-38.492767333984375;-8.016006469726562;-136.88365173339844
418;1673432426.2995894;47.1281605;7.2372122;89.9990005493164;1673432426.3161833;-38.52024459838867;-7.9422407150268555;-136.90216064453125
419;1673432426.4874222;47.1281505;7.237198599999999;90.39700317382812;1673432426.5050647;-38.548580169677734;-7.744640827178955;-136.91140747070312
