;pos_time;latitude;longitude;altitude;alt_time;pitch;roll;yaw
0;1673431692.1009593;47.1306425;7.2406198999999996;-0.0430000014603138;1673431692.169326;0.029479188844561577;-0.3191281259059906;90.2603759765625
1;1673431692.3206415;47.1306425;7.2406198999999996;-0.04200000315904617;1673431692.4186394;0.025199314579367638;-0.19689159095287323;90.52963256835938
2;1673431692.5895123;47.1306425;7.240619799999999;-0.04200000315904617;1673431692.6510422;-0.12260288745164871;-0.0414191372692585;90.33381652832031
3;1673431692.7434707;47.1306425;7.240619799999999;-0.03800000250339508;1673431692.8160799;-0.031029628589749336;-0.20422637462615967;90.36163330078125
4;1673431692.923881;47.1306425;7.240619799999999;-0.032999999821186066;1673431692.98558;0.22337475419044495;-0.006788985803723335;90.2917709350586
5;1673431693.0854425;47.1306424;7.240619799999999;-0.029000001028180122;1673431693.180106;0.14347811043262482;-0.22782780230045319;90.41881561279297
6;1673431693.3107567;47.1306424;7.240619799999999;-0.029000001028180122;1673431693.3822856;0.01214869786053896;-0.1998865157365799;90.47840118408203
7;1673431693.5073051;47.1306424;7.240619799999999;-0.032999999821186066;1673431693.584069;-0.2520780563354492;-0.11929171532392502;90.33149719238281
8;1673431693.6916924;47.1306424;7.240619799999999;-0.036000002175569534;1673431693.765475;0.017413418740034103;-0.24470290541648865;90.31388854980469
9;1673431693.8814914;47.1306423;7.2406198999999996;-0.0010000000474974513;1673431693.9587374;-0.11940520256757736;-0.7141596674919128;90.31092071533203
10;1673431694.0959303;47.1306424;7.240619799999999;-0.005000000353902578;1673431694.175475;-0.11853276193141937;-0.4997157156467438;90.36287689208984
11;1673431694.2901237;47.1306424;7.2406197;-0.00800000037997961;1673431694.3718214;-0.16283756494522095;-0.5666307806968689;90.33068084716797
12;1673431694.4895532;47.1306424;7.2406197;-0.010000000707805157;1673431694.5725691;-0.2570871412754059;-0.5233371257781982;90.24678802490234
13;1673431694.6970146;47.1306424;7.2406197;-0.012000000104308128;1673431694.7744408;-0.06258869171142578;-0.5244542956352234;90.13263702392578
14;1673431694.8974092;47.1306424;7.2406197;-0.009000000543892384;1673431694.974758;0.05576375126838684;-1.0530658960342407;90.284912109375
15;1673431695.1039298;47.1306424;7.2406197;-0.003000000026077032;1673431695.1791756;0.07972172647714615;-0.6210448741912842;90.3328628540039
16;1673431695.2910645;47.1306424;7.2406197;0.004000000189989805;1673431695.374571;0.09645525366067886;-0.9673041701316833;90.33377838134766
17;1673431695.4904575;47.1306424;7.2406197;0.0020000000949949026;1673431695.57325;0.14685802161693573;-1.2556354999542236;90.39280700683594
18;1673431695.6969607;47.1306424;7.2406197;0.009000000543892384;1673431695.774622;0.03852613642811775;-0.7711696624755859;90.18453979492188
19;1673431695.9110074;47.1306424;7.240619799999999;0.012000000104308128;1673431695.9904423;-0.12489879131317139;-0.8143330812454224;90.38391876220703
20;1673431696.1100376;47.1306424;7.2406197;0.01600000075995922;1673431696.1867852;0.14005565643310547;-0.18172046542167664;90.3388671875
21;1673431696.299871;47.1306424;7.2406197;0.018000001087784767;1673431696.3841512;0.04382696375250816;-0.2687782347202301;90.5681381225586
22;1673431696.5001216;47.1306425;7.2406197;0.023000001907348633;1673431696.5776381;0.20669738948345184;-0.0460042841732502;90.38135528564453
23;1673431696.6992257;47.1306425;7.2406197;0.027000000700354576;1673431696.7788332;0.01695462316274643;-0.36369746923446655;90.5583267211914
24;1673431696.8933818;47.1306425;7.2406197;0.030000001192092896;1673431696.9750957;0.0918905958533287;-0.4074821174144745;90.5745620727539
25;1673431697.0996885;47.1306425;7.240619799999999;0.03100000135600567;1673431697.1776931;0.017235107719898224;-0.08682183921337128;90.31299591064453
26;1673431697.288121;47.130642599999995;7.240619799999999;0.029000001028180122;1673431697.3795118;0.04510727897286415;-0.1736803948879242;90.33832550048828
27;1673431697.5185497;47.1306428;7.240619799999999;0.030000001192092896;1673431697.5992312;0.23863965272903442;1.9129153490066528;91.21217346191406
28;1673431697.7115614;47.130643;7.240619799999999;0.04200000315904617;1673431697.8635142;0.21999046206474304;6.387070655822754;90.7609634399414
29;1673431697.962817;47.130643199999994;7.2406198999999996;0.0560000017285347;1673431698.0386186;2.477642297744751;13.419713020324707;90.35736846923828
30;1673431698.146261;47.1306434;7.2406198999999996;0.08900000154972076;1673431698.223418;2.7489731311798096;10.735180854797363;90.44690704345703
31;1673431698.4354334;47.1306435;7.2406198999999996;0.14100000262260437;1673431698.4908488;2.671102523803711;7.8201093673706055;90.20856475830078
32;1673431698.5888262;47.1306434;7.2406198999999996;0.20400001108646393;1673431698.653742;2.0078601837158203;12.35759449005127;89.27619934082031
33;1673431698.7840402;47.130643299999996;7.2406198999999996;0.2850000262260437;1673431698.8564253;1.351326584815979;9.974393844604492;88.75557708740234
34;1673431698.9697738;47.130643299999996;7.2406198999999996;0.38600000739097595;1673431699.0676935;1.5945217609405518;7.140806674957275;88.67137908935547
35;1673431699.1915915;47.130643299999996;7.240619799999999;0.4970000088214874;1673431699.2570455;2.2068066596984863;11.628277778625488;88.65142059326172
36;1673431699.3477635;47.1306431;7.240619799999999;0.6180000305175781;1673431699.427317;2.879983425140381;10.987993240356445;88.55944061279297
37;1673431699.5527713;47.1306429;7.2406197;0.7520000338554382;1673431699.6912143;2.6721715927124023;6.7067179679870605;88.35789489746094
38;1673431699.7833958;47.130642699999996;7.2406197;0.8980000615119934;1673431699.8498163;2.2542924880981445;9.929712295532227;87.7237319946289
39;1673431699.9631126;47.130642599999995;7.2406197;1.0509999990463257;1673431700.0338452;1.836442470550537;10.269103050231934;87.1171646118164
40;1673431700.1290314;47.1306425;7.2406197;1.224000096321106;1673431700.2066557;1.8287279605865479;6.0785441398620605;87.09384155273438
41;1673431700.320499;47.1306425;7.2406197;1.4110000133514404;1673431700.397262;2.151606559753418;9.554728507995605;87.10334014892578
42;1673431700.5055046;47.1306424;7.2406197;1.6030000448226929;1673431700.6015828;2.600923776626587;11.417628288269043;87.4562759399414
43;1673431700.718289;47.1306422;7.2406196;1.7980000972747803;1673431700.7982569;2.635686159133911;6.429046630859375;87.26189422607422
44;1673431700.9083767;47.1306422;7.2406196;1.9920001029968262;1673431700.985241;2.490983247756958;8.189555168151855;86.99404907226562
45;1673431701.0962589;47.1306422;7.2406196;2.180000066757202;1673431701.1811917;2.3966057300567627;11.065925598144531;86.79827880859375
46;1673431701.3058143;47.1306423;7.2406196;2.378000020980835;1673431701.3940065;2.178277015686035;7.321700096130371;86.83984375
47;1673431701.5117528;47.1306425;7.2406196;2.5810000896453857;1673431701.5940645;1.785185694694519;9.311701774597168;86.86754608154297
48;1673431701.7126544;47.1306425;7.2406196;2.7760000228881836;1673431701.790584;2.4516730308532715;12.651472091674805;86.71707916259766
49;1673431701.9055638;47.1306423;7.2406196;2.9650001525878906;1673431701.9813106;2.6687233448028564;7.669692516326904;86.59741973876953
50;1673431702.1091316;47.1306422;7.240619499999999;3.1580002307891846;1673431702.1860468;2.6843714714050293;6.856173038482666;86.55548858642578
51;1673431702.3290038;47.1306422;7.240619499999999;3.3550002574920654;1673431702.4067893;2.5825958251953125;11.056817054748535;86.65679168701172
52;1673431702.521714;47.1306422;7.240619499999999;3.5490002632141113;1673431702.6021917;1.8195736408233643;8.054226875305176;86.9837875366211
53;1673431702.7192335;47.1306424;7.240619499999999;3.746000289916992;1673431702.7945845;1.469211459159851;8.26992130279541;87.15526580810547
54;1673431702.9233577;47.1306424;7.2406196;3.94100022315979;1673431702.9959917;2.2696733474731445;12.303176879882812;86.8295669555664
55;1673431703.1140385;47.1306423;7.2406196;4.140000343322754;1673431703.192466;2.614816188812256;8.545072555541992;86.57765197753906
56;1673431703.3041081;47.1306422;7.2406197;4.340000152587891;1673431703.3832197;2.7615694999694824;6.637326240539551;86.69476318359375
57;1673431703.4971046;47.1306422;7.2406197;4.539000034332275;1673431703.5769854;2.678723096847534;10.53847599029541;86.88294219970703
58;1673431703.6849241;47.1306423;7.2406196;4.7330002784729;1673431703.7674952;2.528402328491211;10.294953346252441;87.06371307373047
59;1673431703.8772137;47.1306424;7.2406197;4.933000087738037;1673431703.9624162;2.255199909210205;7.666512966156006;87.1370620727539
60;1673431704.0941713;47.1306424;7.2406198999999996;5.136000156402588;1673431704.170957;2.1766324043273926;11.478342056274414;86.82345581054688
61;1673431704.2885013;47.1306422;7.2406198999999996;5.333000183105469;1673431704.3761387;2.282125473022461;9.940720558166504;86.48186492919922
62;1673431704.4982004;47.130642099999996;7.2406198999999996;5.5360002517700195;1673431704.5907078;2.6699368953704834;6.045832633972168;86.67164611816406
63;1673431704.7112536;47.130642099999996;7.2406198999999996;5.736000061035156;1673431704.7917593;2.7806413173675537;9.70525074005127;87.03726959228516
64;1673431704.9211116;47.130642099999996;7.2406198999999996;5.936000347137451;1673431705.0193906;2.9403433799743652;11.385014533996582;87.18484497070312
65;1673431705.155488;47.130642099999996;7.240619799999999;6.133000373840332;1673431705.2386734;2.4343318939208984;7.337280750274658;87.14059448242188
66;1673431705.3917856;47.130642099999996;7.240619799999999;6.331000328063965;1673431705.4573634;1.80129873752594;9.57668399810791;86.78520202636719
67;1673431705.5522103;47.130641999999995;7.240619799999999;6.53000020980835;1673431705.6303566;2.052903413772583;11.236259460449219;86.601318359375
68;1673431705.7368655;47.1306419;7.2406198999999996;6.735000133514404;1673431705.814667;2.2482402324676514;6.455777645111084;86.77887725830078
69;1673431705.9364622;47.1306419;7.240619799999999;6.941000461578369;1673431706.018854;2.389396905899048;7.787995338439941;86.86885833740234
70;1673431706.123459;47.130641999999995;7.240619799999999;7.146000385284424;1673431706.2125216;2.6672909259796143;11.932367324829102;87.00300598144531
71;1673431706.3261137;47.130642099999996;7.2406197;7.345000267028809;1673431706.4175825;2.5891730785369873;8.973672866821289;87.05326843261719
72;1673431706.5502775;47.1306423;7.2406197;7.5450005531311035;1673431706.6305857;2.2282252311706543;8.416542053222656;86.86813354492188
73;1673431706.7395837;47.1306423;7.240619799999999;7.746000289916992;1673431706.815296;2.038555860519409;12.225728034973145;86.63320922851562
74;1673431706.9360662;47.1306422;7.240619799999999;7.942000389099121;1673431707.0076094;1.845737099647522;8.792547225952148;86.6678695678711
75;1673431707.1080637;47.1306422;7.2406198999999996;8.140000343322754;1673431707.19037;2.053241014480591;6.621748447418213;86.94193267822266
76;1673431707.312381;47.1306423;7.240619799999999;8.339000701904297;1673431707.3898787;2.486590623855591;11.851263046264648;87.104736328125
77;1673431707.492028;47.1306423;7.240619799999999;8.539000511169434;1673431707.5786192;2.872286081314087;10.43654727935791;86.96819305419922
78;1673431707.7073739;47.1306423;7.240619799999999;8.737000465393066;1673431707.798366;2.8055219650268555;6.969359874725342;86.86092376708984
79;1673431707.9333143;47.1306423;7.240619799999999;8.931000709533691;1673431708.0205946;2.5034592151641846;10.744423866271973;86.66030883789062
80;1673431708.1438859;47.1306422;7.240619799999999;9.12700080871582;1673431708.222333;2.2706165313720703;9.381406784057617;86.71432495117188
81;1673431708.3372402;47.1306422;7.2406198999999996;9.326000213623047;1673431708.4184952;1.9066296815872192;6.731256484985352;86.90959930419922
82;1673431708.5358555;47.1306423;7.2406198999999996;9.52500057220459;1673431708.6166282;2.116687059402466;10.863824844360352;86.95484924316406
83;1673431708.7366962;47.1306423;7.24062;9.725000381469727;1673431708.8334744;2.9827520847320557;11.559951782226562;86.79087829589844
84;1673431708.9497976;47.1306424;7.24062;9.925000190734863;1673431709.038561;3.0018441677093506;6.865560531616211;86.54508972167969
85;1673431709.1412346;47.1306424;7.24062;10.122000694274902;1673431709.2188144;3.2666420936584473;8.965550422668457;86.52168273925781
86;1673431709.3413453;47.1306423;7.24062;10.381000518798828;1673431709.4253945;3.074371814727783;13.435784339904785;87.1832275390625
87;1673431709.554948;47.130642099999996;7.2406201;10.736000061035156;1673431709.6306586;2.82563853263855;9.722296714782715;87.2834243774414
88;1673431709.732081;47.1306419;7.2406201;11.122000694274902;1673431709.817091;2.3653371334075928;8.458586692810059;87.0203857421875
89;1673431709.9341748;47.1306417;7.24062;11.516000747680664;1673431710.0153806;2.3681423664093018;11.329289436340332;86.91869354248047
90;1673431710.1359189;47.130641399999995;7.24062;11.913000106811523;1673431710.2184474;2.5263431072235107;7.175901412963867;86.93820190429688
91;1673431710.3358464;47.1306412;7.24062;12.31100082397461;1673431710.4200265;2.4646575450897217;5.27332067489624;86.87359619140625
92;1673431710.5317495;47.130641;7.2406198999999996;12.712000846862793;1673431710.6180358;2.5631089210510254;9.41958236694336;86.86356353759766
93;1673431710.746652;47.130641;7.2406198999999996;13.118000984191895;1673431710.82768;2.638944149017334;7.949222087860107;86.90229034423828
94;1673431710.9660053;47.1306411;7.240619799999999;13.52500057220459;1673431711.0361817;2.41218638420105;6.1518402099609375;86.81743621826172
95;1673431711.1663995;47.130641399999995;7.240619799999999;13.9350004196167;1673431711.245942;2.1643779277801514;10.031981468200684;86.71269226074219
96;1673431711.3383195;47.1306416;7.2406197;14.342000961303711;1673431711.4109805;2.1466734409332275;10.361921310424805;86.89178466796875
97;1673431711.5265307;47.1306418;7.2406197;14.747000694274902;1673431711.609946;2.185542345046997;7.2383880615234375;87.20207977294922
98;1673431711.7310507;47.1306419;7.2406197;15.154000282287598;1673431711.8106549;2.2736904621124268;10.631195068359375;87.09967803955078
99;1673431711.9297879;47.1306419;7.2406197;15.563000679016113;1673431712.0106077;2.773198366165161;11.23245906829834;86.97947692871094
100;1673431712.1357653;47.1306419;7.2406197;15.975000381469727;1673431712.2259562;2.753396511077881;7.52871036529541;86.85253143310547
101;1673431712.3523748;47.130641999999995;7.2406196;16.387001037597656;1673431712.4349327;2.377454996109009;8.86694049835205;86.6546630859375
102;1673431712.5526218;47.130641999999995;7.2406196;16.796001434326172;1673431712.6305532;2.3928468227386475;11.300345420837402;86.64923095703125
103;1673431712.7502959;47.130641999999995;7.2406197;17.19900131225586;1673431712.8302464;2.4112374782562256;6.737632751464844;86.98663330078125
104;1673431712.9422424;47.1306419;7.2406197;17.59600067138672;1673431713.0156317;2.3090531826019287;8.248137474060059;87.02618408203125
105;1673431713.1315942;47.1306419;7.2406197;17.993000030517578;1673431713.2109323;2.3742549419403076;11.435379981994629;86.95392608642578
106;1673431713.3149457;47.1306418;7.2406196;18.392000198364258;1673431713.4152844;2.496155023574829;8.149395942687988;86.97462463378906
107;1673431713.548063;47.1306419;7.2406196;18.791000366210938;1673431713.6355588;2.261204242706299;7.8746724128723145;86.8318862915039
108;1673431713.7588453;47.130641999999995;7.2406196;19.192001342773438;1673431713.8360782;2.2226850986480713;11.102360725402832;86.7142562866211
109;1673431713.9355638;47.130641999999995;7.2406196;19.59200096130371;1673431714.0110593;2.4006903171539307;8.171188354492188;86.75523376464844
110;1673431714.1281223;47.130642099999996;7.2406196;19.988000869750977;1673431714.2127113;2.3193819522857666;6.724557876586914;86.98837280273438
111;1673431714.3380995;47.130642099999996;7.2406196;20.384000778198242;1673431714.431597;2.3688061237335205;11.225667953491211;86.97018432617188
112;1673431714.5425217;47.130642099999996;7.2406197;20.784000396728516;1673431714.6771295;2.4184865951538086;9.896307945251465;87.08070373535156
113;1673431714.798761;47.1306422;7.2406197;21.190000534057617;1673431714.9362113;2.2435929775238037;7.15513277053833;87.0427474975586
114;1673431715.0553198;47.1306423;7.2406197;21.599000930786133;1673431715.1111686;2.4365062713623047;10.899300575256348;86.83893585205078
115;1673431715.2024167;47.1306423;7.2406197;22.000001907348633;1673431715.278863;2.589473247528076;11.057056427001953;86.80651092529297
116;1673431715.387812;47.1306423;7.240619799999999;22.397001266479492;1673431715.4805763;2.616760492324829;6.882967948913574;86.82135009765625
117;1673431715.5849323;47.1306423;7.240619799999999;22.788002014160156;1673431715.6710227;2.5100767612457275;8.803970336914062;86.80841064453125
118;1673431715.7958674;47.1306422;7.240619799999999;23.1820011138916;1673431715.8769424;2.5695505142211914;10.523624420166016;86.79461669921875
119;1673431716.0072188;47.1306422;7.240619799999999;23.58100128173828;1673431716.0708365;2.381779909133911;7.57324743270874;87.01693725585938
120;1673431716.18533;47.1306423;7.2406197;23.983001708984375;1673431716.2678761;2.3656258583068848;8.243130683898926;87.14474487304688
121;1673431716.3796546;47.1306424;7.2406196;24.38300132751465;1673431716.4437087;2.148909330368042;12.08268928527832;86.99244689941406
122;1673431716.56352;47.1306424;7.2406196;24.784000396728516;1673431716.638533;2.31817626953125;8.767959594726562;87.01376342773438
123;1673431716.7558453;47.1306424;7.2406196;25.178001403808594;1673431716.8358104;2.151888608932495;7.542457103729248;86.85919952392578
124;1673431716.9676719;47.1306423;7.2406196;25.575000762939453;1673431717.0484922;2.306551456451416;11.121284484863281;86.68255615234375
125;1673431717.2185514;47.1306422;7.240619499999999;25.97800064086914;1673431717.3018951;2.3818752765655518;8.461861610412598;86.79851531982422
126;1673431717.4161637;47.1306423;7.240619499999999;26.382001876831055;1673431717.4910996;2.420154333114624;6.751585006713867;86.92796325683594
127;1673431717.5911174;47.1306425;7.240619499999999;26.781002044677734;1673431717.6747115;2.446417808532715;10.035177230834961;86.87864685058594
128;1673431717.794832;47.130642599999995;7.240619499999999;27.177001953125;1673431717.874069;2.3610424995422363;10.706490516662598;86.88124084472656
129;1673431717.9876854;47.130642599999995;7.240619499999999;27.578001022338867;1673431718.0699167;2.1716933250427246;7.365553379058838;87.028076171875
130;1673431718.168526;47.130642599999995;7.240619499999999;27.97100067138672;1673431718.2473626;2.2038025856018066;10.401947975158691;86.93646240234375
131;1673431718.3613205;47.1306425;7.240619499999999;28.35900115966797;1673431718.4438336;2.411907196044922;11.21174430847168;86.78803253173828
132;1673431718.5576644;47.1306425;7.240619499999999;28.751001358032227;1673431718.6324115;2.6150102615356445;7.540604591369629;86.91130065917969
133;1673431718.7500756;47.130642599999995;7.240619499999999;29.148000717163086;1673431718.827797;2.377190589904785;8.688097953796387;86.74883270263672
134;1673431718.9405735;47.130642699999996;7.240619499999999;29.54400062561035;1673431719.023158;2.505044937133789;11.91458797454834;86.77926635742188
135;1673431719.1369338;47.130642699999996;7.2406194;29.940000534057617;1673431719.220575;2.1864864826202393;7.952125072479248;86.9992446899414
136;1673431719.3388102;47.130642699999996;7.240619499999999;30.329002380371094;1673431719.4239197;2.115992307662964;8.587237358093262;87.00120544433594
137;1673431719.5395913;47.130642599999995;7.240619499999999;30.72500228881836;1673431719.623702;2.3729121685028076;11.41906452178955;86.92864227294922
138;1673431719.7387502;47.1306425;7.2406196;31.12200164794922;1673431719.8228452;2.2989797592163086;9.15665340423584;86.90608215332031
139;1673431719.9369774;47.1306425;7.2406196;31.522001266479492;1673431720.0220623;2.269627571105957;7.2522101402282715;87.06409454345703
140;1673431720.1366222;47.130642599999995;7.2406196;31.918001174926758;1673431720.222794;2.336738109588623;11.622350692749023;86.89873504638672
141;1673431720.3422933;47.130642599999995;7.2406197;32.314002990722656;1673431720.4239018;2.6712889671325684;9.966153144836426;86.85294342041016
142;1673431720.5408876;47.1306425;7.2406197;32.70800018310547;1673431720.6226082;2.4967727661132812;6.591525554656982;86.79737091064453
143;1673431720.7356265;47.1306424;7.2406197;33.095001220703125;1673431720.8219023;2.289154529571533;9.97578239440918;86.75370788574219
144;1673431720.9368484;47.1306424;7.240619799999999;33.48800277709961;1673431721.0191386;2.392956018447876;10.080530166625977;86.86580657958984
145;1673431721.1443744;47.1306424;7.240619799999999;33.887001037597656;1673431721.223634;2.3797929286956787;6.527038097381592;86.98776245117188
146;1673431721.3473642;47.130642599999995;7.240619799999999;34.290000915527344;1673431721.4246385;2.436330795288086;10.228814125061035;86.97450256347656
147;1673431721.544938;47.130642599999995;7.240619799999999;34.69000244140625;1673431721.6221771;2.408069133758545;12.161605834960938;86.98175811767578
148;1673431721.7448797;47.130642599999995;7.2406197;35.086002349853516;1673431721.8290544;2.414944648742676;7.641617774963379;87.02006530761719
149;1673431721.9514685;47.130642599999995;7.2406197;35.47500228881836;1673431722.0321972;2.1549060344696045;9.024940490722656;86.77764129638672
150;1673431722.1517906;47.1306424;7.240619799999999;35.86600112915039;1673431722.2305567;2.3408172130584717;10.975342750549316;86.69007110595703
151;1673431722.3439713;47.1306424;7.240619799999999;36.26300048828125;1673431722.4267178;2.398470163345337;7.8362884521484375;86.78266906738281
152;1673431722.5405333;47.1306425;7.2406197;36.6670036315918;1673431722.6240509;2.374979257583618;7.275061130523682;87.030517578125
153;1673431722.7396483;47.130642599999995;7.2406197;37.06700134277344;1673431722.8231025;2.3357770442962646;12.201072692871094;86.94621276855469
154;1673431722.9425895;47.130642599999995;7.2406197;37.46200180053711;1673431723.0222464;2.134425640106201;9.012017250061035;86.92354583740234
155;1673431723.1392722;47.130642699999996;7.2406197;37.858001708984375;1673431723.2221682;2.2359821796417236;7.881781578063965;86.88485717773438
156;1673431723.338674;47.130642599999995;7.240619799999999;38.24700164794922;1673431723.4224062;2.316507339477539;11.196676254272461;86.88190460205078
157;1673431723.540181;47.130642599999995;7.240619799999999;38.637001037597656;1673431723.6230166;2.4275498390197754;10.502307891845703;86.93199920654297
158;1673431723.7390592;47.130642599999995;7.240619799999999;39.02900314331055;1673431723.821456;2.5248234272003174;7.038017749786377;86.95233154296875
159;1673431723.9468682;47.130642699999996;7.240619799999999;39.427001953125;1673431724.0301325;2.2548863887786865;9.927409172058105;86.68592071533203
160;1673431724.139721;47.130642699999996;7.240619799999999;39.82400131225586;1673431724.2164247;2.422353982925415;10.83230209350586;86.68614959716797
161;1673431724.328789;47.130642699999996;7.240619799999999;40.220001220703125;1673431724.4153364;2.4197826385498047;6.883582592010498;87.00196838378906
162;1673431724.5289068;47.130642599999995;7.240619799999999;40.61000061035156;1673431724.6123095;2.396390914916992;9.429847717285156;87.0439224243164
163;1673431724.7263966;47.130642599999995;7.2406198999999996;41.00300216674805;1673431724.8119783;2.4307591915130615;11.711281776428223;87.04528045654297
164;1673431724.9288566;47.130642599999995;7.2406198999999996;41.4010009765625;1673431725.0093946;2.265852212905884;8.355464935302734;87.14971160888672
165;1673431725.1278014;47.130642699999996;7.2406198999999996;41.801002502441406;1673431725.2100837;2.303093194961548;8.76766300201416;87.06394958496094
166;1673431725.3344288;47.130642699999996;7.2406198999999996;42.20000076293945;1673431725.416196;2.4491567611694336;12.241945266723633;86.73199462890625
167;1673431725.5318997;47.130642599999995;7.2406198999999996;42.60000228881836;1673431725.6118987;2.6294281482696533;7.77315616607666;86.77254486083984
168;1673431725.7258956;47.130642599999995;7.2406198999999996;43.00300216674805;1673431725.8114698;2.429072856903076;7.480289459228516;86.74662017822266
169;1673431725.9313676;47.130642599999995;7.2406198999999996;43.39900207519531;1673431726.0129123;2.427457571029663;10.926019668579102;86.74319458007812
170;1673431726.1258132;47.130642599999995;7.2406198999999996;43.79900360107422;1673431726.2071352;2.3266255855560303;8.511068344116211;86.97982025146484
171;1673431726.3280551;47.130642699999996;7.240619799999999;44.20500183105469;1673431726.4147217;2.2663702964782715;7.958477020263672;87.07884216308594
172;1673431726.540208;47.1306428;7.240619799999999;44.60700225830078;1673431726.6275375;2.292454481124878;12.342434883117676;86.92772674560547
173;1673431726.7601924;47.1306428;7.240619799999999;45.005001068115234;1673431726.8419037;2.4878451824188232;9.411476135253906;86.9025650024414
174;1673431727.0286767;47.130642699999996;7.240619799999999;45.400001525878906;1673431727.149965;2.3208725452423096;7.375833034515381;86.84208679199219
175;1673431727.2572505;47.130642599999995;7.240619799999999;45.788002014160156;1673431727.3340132;2.271263837814331;10.188504219055176;86.76036071777344
176;1673431727.4388845;47.130642599999995;7.240619799999999;46.18300247192383;1673431727.5184658;2.333569049835205;9.925376892089844;86.767578125
177;1673431727.6080546;47.130642599999995;7.2406197;46.583003997802734;1673431727.6749315;2.23026967048645;6.6416778564453125;86.88211822509766
178;1673431727.7912097;47.130642699999996;7.2406197;46.98200225830078;1673431727.8660817;2.1448471546173096;9.968171119689941;86.92749786376953
179;1673431727.9772782;47.130642699999996;7.2406196;47.374000549316406;1673431728.058991;2.160750150680542;12.046025276184082;86.94483184814453
180;1673431728.175083;47.130642699999996;7.2406196;47.768001556396484;1673431728.2516086;2.1418845653533936;8.068276405334473;87.06544494628906
181;1673431728.3584301;47.130642699999996;7.240619499999999;48.156002044677734;1673431728.4418125;2.134371280670166;8.994587898254395;86.76358795166016
182;1673431728.5579858;47.130642699999996;7.2406196;48.48600387573242;1673431728.6367085;2.240906000137329;11.446717262268066;86.85795593261719
183;1673431728.7520566;47.130642699999996;7.2406196;48.76700210571289;1673431728.8295882;2.2954697608947754;8.15744686126709;86.79021453857422
184;1673431728.9494882;47.1306428;7.2406196;49.00400161743164;1673431729.03325;2.150283098220825;7.027760028839111;86.7656021118164
185;1673431729.1471124;47.1306431;7.2406196;49.204002380371094;1673431729.2306821;2.254976749420166;11.588414192199707;86.80254364013672
186;1673431729.3576753;47.130643199999994;7.2406196;49.367000579833984;1673431729.4506745;17.06464958190918;24.092464447021484;91.36091613769531
187;1673431729.5762947;47.1306428;7.2406188;49.51900100708008;1673431729.6626701;27.626014709472656;39.03451919555664;103.59430694580078
188;1673431729.7856681;47.1306412;7.2406158;49.64900207519531;1673431729.8659544;28.331315994262695;51.230140686035156;113.570068359375
189;1673431729.9753797;47.1306377;7.240609699999999;49.76000213623047;1673431730.0530531;17.97634506225586;58.65351486206055;122.26605224609375
190;1673431730.151203;47.1306321;7.2406001;49.840003967285156;1673431730.225946;-0.960695743560791;58.12872314453125;132.1177215576172
191;1673431730.3515797;47.130624499999996;7.2405877;49.880001068115234;1673431730.438903;-15.068166732788086;54.50379943847656;141.612060546875
192;1673431730.5585723;47.130615399999996;7.2405732;49.89600372314453;1673431730.6433866;-26.985572814941406;47.950416564941406;152.44419860839844
193;1673431730.7512193;47.130604899999994;7.2405569;49.89900207519531;1673431730.836723;-39.8347282409668;41.97235870361328;165.0987091064453
194;1673431730.9665377;47.1305931;7.2405389;49.88300323486328;1673431731.0432806;-49.85923385620117;39.39376449584961;177.72378540039062
195;1673431731.1638622;47.1305802;7.2405192;49.84400177001953;1673431731.2534943;-47.13597106933594;26.958330154418945;-170.95626831054688
196;1673431731.38124;47.130566599999995;7.240498;49.77900314331055;1673431731.4589686;-42.914100646972656;20.3112850189209;-166.61160278320312
197;1673431731.6071415;47.1305528;7.2404762;49.70900344848633;1673431731.681218;-46.3544921875;15.868497848510742;-160.22665405273438
198;1673431731.7854984;47.1305386;7.240453899999999;49.65200424194336;1673431731.8599727;-46.44440841674805;10.65792179107666;-152.21485900878906
199;1673431731.9687817;47.130524199999996;7.2404312;49.617000579833984;1673431732.0550294;-46.20796585083008;5.996504306793213;-144.89894104003906
200;1673431732.1770782;47.1305098;7.2404081;49.599002838134766;1673431732.2554264;-47.46609115600586;1.1725674867630005;-138.5741424560547
201;1673431732.374105;47.1304953;7.240385;49.59400177001953;1673431732.4555852;-47.710453033447266;-4.917429447174072;-132.6726837158203
202;1673431732.5681732;47.1304806;7.240361699999999;49.60000228881836;1673431732.6457083;-48.66324234008789;-10.434630393981934;-132.6954803466797
203;1673431732.7605724;47.1304656;7.2403384;49.60100173950195;1673431732.8439436;-46.85946273803711;-8.390448570251465;-136.518798828125
204;1673431732.966127;47.1304502;7.2403156;49.612003326416016;1673431733.0484254;-46.98917007446289;-7.1097412109375;-138.1656494140625
205;1673431733.1631777;47.1304345;7.2402932;49.625003814697266;1673431733.2367656;-48.018802642822266;-6.253108501434326;-138.80165100097656
206;1673431733.3535602;47.1304186;7.2402712;49.647003173828125;1673431733.4458697;-48.79742431640625;-4.671736240386963;-139.63967895507812
207;1673431733.5989532;47.1304022;7.2402495;49.673004150390625;1673431733.6739507;-49.87147521972656;-3.500013589859009;-140.00518798828125
208;1673431733.769055;47.1303856;7.2402279;49.689002990722656;1673431733.8426318;-49.36684036254883;-2.565265655517578;-140.13836669921875
209;1673431733.9539819;47.1303689;7.240206199999999;49.70600128173828;1673431734.0349455;-48.32992172241211;-2.360135793685913;-139.9378662109375
210;1673431734.1669989;47.130351999999995;7.2401845;49.72300338745117;1673431734.2466245;-47.96260070800781;-2.473271608352661;-139.66226196289062
211;1673431734.364343;47.1303352;7.2401627;49.7390022277832;1673431734.4547021;-48.14397430419922;-2.765300750732422;-139.3773956298828
212;1673431734.587322;47.1303183;7.2401409;49.750003814697266;1673431734.6610873;-48.297523498535156;-2.8907248973846436;-139.15701293945312
213;1673431734.775839;47.1303014;7.240119;49.75700378417969;1673431734.8534791;-48.16692352294922;-2.9061262607574463;-139.02381896972656
214;1673431734.9761727;47.1302844;7.2400971;49.75300216674805;1673431735.0657537;-47.43801498413086;-2.8129401206970215;-138.88963317871094
215;1673431735.1867166;47.130267499999995;7.2400752;49.75800323486328;1673431735.2727466;-47.31936264038086;-2.9511613845825195;-138.71966552734375
216;1673431735.3987038;47.1302507;7.240053199999999;49.76300048828125;1673431735.5102024;-47.824562072753906;-3.117373466491699;-138.575439453125
217;1673431735.6236699;47.130233999999994;7.2400312;49.77000045776367;1673431735.7019634;-48.21278762817383;-3.203195571899414;-138.49505615234375
218;1673431735.8030899;47.1302172;7.240009199999999;49.775001525878906;1673431735.8778281;-48.23196792602539;-3.1758620738983154;-138.45419311523438
219;1673431735.9890122;47.1302004;7.239986999999999;49.77900314331055;1673431736.0616653;-47.9031982421875;-3.1128265857696533;-138.43492126464844
220;1673431736.1760426;47.130183599999995;7.2399648;49.785003662109375;1673431736.2512035;-47.905521392822266;-3.3018295764923096;-138.27801513671875
221;1673431736.367888;47.1301668;7.2399426;49.785003662109375;1673431736.4504066;-47.964599609375;-3.2311899662017822;-138.25311279296875
222;1673431736.5788167;47.130150099999994;7.2399203;49.788002014160156;1673431736.6630855;-47.980350494384766;-3.2593626976013184;-138.20962524414062
223;1673431736.7811556;47.1301333;7.239897999999999;49.78900146484375;1673431736.85478;-47.95074462890625;-3.2523512840270996;-138.17945861816406
224;1673431736.9608965;47.1301166;7.2398757;49.78900146484375;1673431737.0431874;-47.828521728515625;-3.2866523265838623;-138.12115478515625
225;1673431737.1705675;47.1300999;7.2398533;49.78900146484375;1673431737.2659297;-47.856571197509766;-3.321809768676758;-138.07716369628906
226;1673431737.4089317;47.1300832;7.239831;49.78900146484375;1673431737.4950523;-47.953670501708984;-3.280109405517578;-138.04283142089844
227;1673431737.6424434;47.1300665;7.239808699999999;49.78600311279297;1673431737.728661;-47.80081558227539;-3.2089240550994873;-138.06121826171875
228;1673431737.8360627;47.130049899999996;7.2397863;49.785003662109375;1673431737.9107172;-47.79856491088867;-3.2417495250701904;-138.03384399414062
229;1673431738.0247877;47.1300332;7.2397637999999995;49.785003662109375;1673431738.1040442;-47.94059371948242;-3.259748697280884;-137.99530029296875
230;1673431738.2092314;47.1300166;7.2397412999999995;49.78600311279297;1673431738.2812603;-48.079078674316406;-3.325648307800293;-137.95062255859375
231;1673431738.4210606;47.1299999;7.2397187999999995;49.7920036315918;1673431738.5022714;-48.26024627685547;-3.251781463623047;-138.00537109375
232;1673431738.6148324;47.1299833;7.239696299999999;49.797000885009766;1673431738.6834702;-48.274986267089844;-3.2875096797943115;-137.96340942382812
233;1673431738.7832491;47.129966599999996;7.239673799999999;49.80000305175781;1673431738.8633332;-48.108734130859375;-3.233294725418091;-137.9806671142578
234;1673431738.9808865;47.12995;7.2396512;49.80000305175781;1673431739.0558887;-48.00522232055664;-3.220548391342163;-137.97361755371094
235;1673431739.1794627;47.1299333;7.2396286;49.803001403808594;1673431739.2737088;-48.00526809692383;-3.234827995300293;-137.97552490234375
236;1673431739.3947258;47.129916699999995;7.239605999999999;49.80800247192383;1673431739.4745038;-48.087486267089844;-3.281266927719116;-137.9451446533203
237;1673431739.597791;47.1299001;7.2395833;49.807003021240234;1673431739.6817884;-47.986419677734375;-3.2201197147369385;-137.99786376953125
238;1673431739.7989285;47.1298835;7.239560699999999;49.80600357055664;1673431739.8822105;-47.81726837158203;-3.164534091949463;-138.0028076171875
239;1673431740.0027063;47.129866799999995;7.239538;49.803001403808594;1673431740.097738;-47.63661193847656;-3.185898542404175;-137.95562744140625
240;1673431740.2376642;47.1298502;7.239515399999999;49.802001953125;1673431740.3163054;-47.68837356567383;-3.1628875732421875;-137.9850616455078
241;1673431740.4367795;47.1298336;7.2394927;49.803001403808594;1673431740.5359411;-47.658042907714844;-3.187424659729004;-137.96051025390625
242;1673431740.6755707;47.129816999999996;7.239470099999999;49.80900192260742;1673431740.750155;-47.91061782836914;-3.203594446182251;-137.94381713867188
243;1673431740.8903975;47.1298004;7.2394475;49.81900405883789;1673431740.955464;-48.228031158447266;-3.111135482788086;-138.00973510742188
244;1673431741.059681;47.1297839;7.2394248999999995;49.827003479003906;1673431741.1422567;-48.20753479003906;-3.14143443107605;-137.9924774169922
245;1673431741.258269;47.1297673;7.2394022;49.83500289916992;1673431741.3420968;-48.19178771972656;-3.123847723007202;-138.0272674560547
246;1673431741.4523404;47.129750699999995;7.2393795;49.845001220703125;1673431741.529844;-48.18440246582031;-3.0640883445739746;-138.05654907226562
247;1673431741.6403759;47.1297341;7.2393567;49.85300064086914;1673431741.7202458;-48.19982147216797;-3.134866237640381;-138.03524780273438
248;1673431741.8238633;47.1297174;7.2393339999999995;49.86100387573242;1673431741.8935437;-48.154605865478516;-3.0846049785614014;-138.08065795898438
249;1673431741.9941785;47.129700799999995;7.2393111999999995;49.868003845214844;1673431742.0806046;-48.19395065307617;-2.984431028366089;-138.09893798828125
250;1673431742.2005901;47.1296841;7.2392883999999995;49.87000274658203;1673431742.2860763;-48.03129959106445;-3.0357563495635986;-138.09555053710938
251;1673431742.403424;47.129667399999995;7.2392655999999995;49.87200164794922;1673431742.4909842;-47.85704803466797;-2.912360191345215;-138.13099670410156
252;1673431742.629816;47.1296507;7.2392427999999995;49.87300109863281;1673431742.7139492;-47.77327346801758;-2.9824492931365967;-138.10769653320312
253;1673431742.8239934;47.1296341;7.2392199999999995;49.874000549316406;1673431742.8929563;-47.817955017089844;-3.0265681743621826;-138.10838317871094
254;1673431743.025624;47.1296174;7.2391971999999996;49.87200164794922;1673431743.100846;-47.67668914794922;-2.985553741455078;-138.14581298828125
255;1673431743.217866;47.1296008;7.2391745;49.87200164794922;1673431743.3091648;-47.640296936035156;-2.911510944366455;-138.1658172607422
256;1673431743.457333;47.1295842;7.2391517;49.875003814697266;1673431743.5444336;-47.74420166015625;-2.9062047004699707;-138.1802215576172
257;1673431743.6829925;47.129567599999994;7.239128999999999;49.87800216674805;1673431743.7538521;-47.90120315551758;-2.9325156211853027;-138.17893981933594
258;1673431743.8568542;47.129551;7.239106199999999;49.88200378417969;1673431743.9319878;-47.96590042114258;-2.869126558303833;-138.2442169189453
259;1673431744.040651;47.1295344;7.2390833;49.88500213623047;1673431744.1161046;-47.8049201965332;-2.9047067165374756;-138.24212646484375
260;1673431744.2288465;47.129517799999995;7.2390605;49.88900375366211;1673431744.3108625;-47.66679382324219;-2.891541004180908;-138.2991180419922
261;1673431744.426155;47.1295012;7.2390377;49.89400100708008;1673431744.4986525;-47.77183532714844;-2.867069959640503;-138.31532287597656
262;1673431744.611666;47.1294846;7.239014999999999;49.90400314331055;1673431744.6926692;-48.08372497558594;-2.787585496902466;-138.37425231933594
263;1673431744.8068008;47.129467999999996;7.238992199999999;49.91400146484375;1673431744.8858469;-48.16521453857422;-2.706141948699951;-138.4375762939453
264;1673431745.011075;47.1294514;7.2389695;49.922000885009766;1673431745.092041;-48.046875;-2.7343125343322754;-138.480712890625
265;1673431745.2187977;47.1294347;7.2389467;49.92900085449219;1673431745.3011644;-47.69585418701172;-3.2994003295898438;-138.40512084960938
266;1673431745.4047089;47.129418099999995;7.2389239;49.93800354003906;1673431745.489064;-48.09929275512695;-2.496898889541626;-138.78929138183594
267;1673431745.606755;47.1294014;7.2389012;49.94700241088867;1673431745.690951;-48.16511917114258;-3.758993625640869;-138.33758544921875
268;1673431745.8113174;47.129384699999996;7.2388784;49.957000732421875;1673431745.8947587;-47.91621017456055;-4.058687686920166;-138.57752990722656
269;1673431746.0474331;47.1293678;7.238855699999999;49.967002868652344;1673431746.1433234;-48.35035705566406;-3.534148931503296;-138.92062377929688
270;1673431746.2594075;47.1293509;7.2388331;49.97300338745117;1673431746.3272848;-48.21318817138672;-3.8058922290802;-138.96456909179688
271;1673431746.427546;47.129334;7.2388106;49.983001708984375;1673431746.494037;-48.19276428222656;-3.7218663692474365;-139.1593017578125
272;1673431746.5993493;47.1293169;7.238788199999999;49.99100112915039;1673431746.6743295;-48.29594039916992;-3.975339889526367;-139.17962646484375
273;1673431746.7963867;47.1292999;7.2387657999999995;49.99400329589844;1673431746.8771868;-47.99103546142578;-4.699756622314453;-139.11412048339844
274;1673431746.990854;47.1292827;7.238743599999999;49.99500274658203;1673431747.0800176;-47.21275329589844;-4.750762939453125;-139.3229217529297
275;1673431747.2293315;47.129265499999995;7.2387216;50.00200271606445;1673431747.3136587;-40.080753326416016;-4.394603252410889;-139.43991088867188
276;1673431747.4592617;47.129248399999994;7.2387;50.02800369262695;1673431747.540993;-27.282712936401367;-4.93071174621582;-138.5215301513672
277;1673431747.6883113;47.129231999999995;7.2386794;50.051002502441406;1673431747.7666452;-12.393345832824707;-3.2849392890930176;-137.8837890625
278;1673431747.8749197;47.1292171;7.2386605;50.06500244140625;1673431747.9455924;-1.0377882719039917;-2.957012891769409;-136.93316650390625
279;1673431748.0508883;47.1292042;7.238644;50.06800079345703;1673431748.1283183;6.337522983551025;-2.1802632808685303;-137.032958984375
280;1673431748.2353842;47.1291934;7.23863;50.06100082397461;1673431748.306655;9.447684288024902;-2.6247944831848145;-137.80508422851562
281;1673431748.4159062;47.129184599999995;7.2386186;50.03900146484375;1673431748.497573;6.684831142425537;-3.410461187362671;-139.7229461669922
282;1673431748.6071193;47.129177899999995;7.238609299999999;50.02300262451172;1673431748.688313;4.878340244293213;-5.577333450317383;-139.35391235351562
283;1673431748.8042457;47.1291729;7.2386022;50.022003173828125;1673431748.8843713;1.529518961906433;-2.8306217193603516;-138.1396026611328
284;1673431749.0010586;47.129169;7.2385966999999996;50.035003662109375;1673431749.078776;-2.699371337890625;-6.822266578674316;-136.68870544433594
285;1673431749.1992753;47.1291659;7.2385924;50.053001403808594;1673431749.2782485;-8.273716926574707;-6.88973331451416;-136.99610900878906
286;1673431749.4027534;47.1291632;7.2385888;50.07100296020508;1673431749.495176;-12.441144943237305;-8.147883415222168;-137.2951202392578
287;1673431749.6077034;47.1291608;7.2385857;50.08400344848633;1673431749.699014;-14.571586608886719;-5.359955787658691;-137.61581420898438
288;1673431749.819485;47.1291586;7.238582699999999;50.095001220703125;1673431749.892197;-14.873014450073242;-2.361809492111206;-138.0232391357422
289;1673431750.0101225;47.1291565;7.2385798999999995;50.10300064086914;1673431750.0843885;-20.676761627197266;-2.350672960281372;-137.66708374023438
290;1673431750.1964593;47.1291544;7.2385768;50.14400100708008;1673431750.2779524;-35.96757125854492;-0.08475188910961151;-137.85179138183594
291;1673431750.398779;47.1291514;7.2385725999999995;50.23400115966797;1673431750.4908288;-26.275300979614258;-0.6671807169914246;-138.01913452148438
292;1673431750.6013732;47.129147599999996;7.2385668;50.387001037597656;1673431750.6917531;-19.103689193725586;-0.8169318437576294;-137.63157653808594
293;1673431750.8112774;47.1291437;7.238560499999999;50.605003356933594;1673431750.8910196;-16.18738555908203;1.0906623601913452;-137.58680725097656
294;1673431750.9981842;47.12914;7.2385541;50.90300369262695;1673431751.0847085;-25.29306411743164;-2.166515588760376;-137.6172637939453
295;1673431751.2012203;47.129135999999995;7.2385474;51.268001556396484;1673431751.282745;-47.218746185302734;-9.309952735900879;-137.03456115722656
296;1673431751.390645;47.1291307;7.2385394;51.6410026550293;1673431751.4696867;-48.79566955566406;-7.792791366577148;-137.18251037597656
297;1673431751.5806856;47.1291237;7.238529799999999;51.98400115966797;1673431751.6618054;-46.116329193115234;-7.30185604095459;-137.28846740722656
298;1673431751.7718332;47.129115299999995;7.2385188;52.30600357055664;1673431751.8624887;-42.83873748779297;-5.772401332855225;-137.12249755859375
299;1673431751.979861;47.1291059;7.2385066;52.6140022277832;1673431752.0646849;-39.14016342163086;-4.003635406494141;-137.81689453125
300;1673431752.187237;47.129095799999995;7.2384938;52.923004150390625;1673431752.2740955;-36.05168151855469;-3.6788113117218018;-137.18911743164062
301;1673431752.3860037;47.129085499999995;7.2384805;53.23500442504883;1673431752.4698613;-33.92848587036133;-2.8252856731414795;-137.29656982421875
302;1673431752.5911567;47.129075099999994;7.238467;53.55600357055664;1673431752.6728506;-32.53989028930664;-2.928804636001587;-136.93714904785156
303;1673431752.7828906;47.1290647;7.2384533;53.88900375366211;1673431752.8635917;-31.762338638305664;-3.1004037857055664;-136.8444366455078
304;1673431752.978156;47.129054499999995;7.2384395999999995;54.233001708984375;1673431753.0664647;-31.28645896911621;-3.650369644165039;-136.6913604736328
305;1673431753.1961246;47.1290445;7.238426;54.58400344848633;1673431753.2912333;-31.37578773498535;-3.993675947189331;-136.6378173828125
306;1673431753.4200351;47.1290346;7.2384124;54.94600296020508;1673431753.5024931;-31.571762084960938;-4.219851493835449;-136.72618103027344
307;1673431753.6286035;47.1290249;7.2383988;55.316001892089844;1673431753.710667;-31.92295265197754;-3.8549013137817383;-136.90232849121094
308;1673431753.8156765;47.1290152;7.2383853;55.69300079345703;1673431753.8995988;-32.26355743408203;-3.902597427368164;-137.0202178955078
309;1673431754.0166678;47.1290055;7.2383717999999995;56.07600402832031;1673431754.098456;-32.544334411621094;-3.698992967605591;-137.10577392578125
310;1673431754.2228196;47.1289958;7.2383583;56.46400451660156;1673431754.3027642;-32.75351333618164;-3.993020534515381;-137.13055419921875
311;1673431754.4276252;47.1289861;7.238344799999999;56.855003356933594;1673431754.500083;-32.74481964111328;-4.710501194000244;-136.89964294433594
312;1673431754.6143334;47.1289764;7.2383314;57.24500274658203;1673431754.6950324;-32.80775833129883;-4.956142425537109;-136.8189239501953
313;1673431754.8174555;47.1289666;7.238317899999999;57.637001037597656;1673431754.9064415;-32.55186080932617;-5.425411224365234;-136.66781616210938
314;1673431755.0255086;47.1289568;7.2383045;58.02800369262695;1673431755.1122062;-32.557247161865234;-4.924188137054443;-136.76904296875
315;1673431755.2242818;47.128947;7.2382911;58.422000885009766;1673431755.3004754;-32.555057525634766;-4.674570560455322;-136.83560180664062
316;1673431755.4100227;47.128937199999996;7.238277699999999;58.81200408935547;1673431755.4891086;-32.747188568115234;-3.9569525718688965;-137.0432586669922
317;1673431755.600375;47.128927399999995;7.2382643;59.20600128173828;1673431755.6786764;-32.69859313964844;-3.952314853668213;-137.00930786132812
318;1673431755.7916942;47.1289176;7.238251;59.59400177001953;1673431755.8737957;-33.0412483215332;-3.594782590866089;-137.08172607421875
319;1673431756.0008416;47.128907899999994;7.2382376;59.98600387573242;1673431756.0815923;-33.04410171508789;-4.243462085723877;-136.89205932617188
320;1673431756.2110243;47.1288981;7.2382243;60.381004333496094;1673431756.2915542;-33.161865234375;-4.585743427276611;-136.82005310058594
321;1673431756.4141076;47.1288883;7.2382108999999994;60.776004791259766;1673431756.4946287;-33.15205764770508;-4.861462593078613;-136.73605346679688
322;1673431756.61168;47.1288785;7.2381974;61.16800308227539;1673431756.6949217;-33.06279754638672;-4.802070617675781;-136.76084899902344
323;1673431756.8114207;47.1288687;7.2381839999999995;61.561004638671875;1673431756.9048967;-32.94931411743164;-4.49645471572876;-136.8900146484375
324;1673431757.0159879;47.128858799999996;7.2381705;61.95100402832031;1673431757.0958612;-33.05573654174805;-3.8417251110076904;-137.05270385742188
325;1673431757.2038126;47.128848999999995;7.2381571;62.340003967285156;1673431757.2873135;-33.0450325012207;-3.65433669090271;-137.11318969726562
326;1673431757.4102185;47.1288391;7.2381436;62.73500442504883;1673431757.4945984;-33.073143005371094;-3.6394994258880615;-137.10342407226562
327;1673431757.621264;47.1288292;7.238130099999999;63.12800216674805;1673431757.699757;-32.92472457885742;-3.954512357711792;-136.97616577148438
328;1673431757.8663607;47.128819299999996;7.2381166;63.52100372314453;1673431757.9387267;-33.15553283691406;-4.327475547790527;-136.83689880371094
329;1673431758.0469935;47.128809399999994;7.2381031;63.91200256347656;1673431758.125356;-33.10147476196289;-4.355224132537842;-136.7806396484375
330;1673431758.2349215;47.1287995;7.2380895999999995;64.3070068359375;1673431758.303699;-33.1458740234375;-4.566500186920166;-136.75572204589844
331;1673431758.414114;47.1287896;7.2380761;64.69900512695312;1673431758.497139;-33.150115966796875;-4.254773139953613;-136.82748413085938
332;1673431758.6587398;47.1287798;7.2380625;65.09400177001953;1673431758.7631404;-33.1446647644043;-3.928774118423462;-136.99551391601562
333;1673431758.8640423;47.128769899999995;7.2380489;65.49600219726562;1673431758.9295435;-33.093994140625;-3.7147321701049805;-137.08009338378906
334;1673431759.0339208;47.12876;7.2380352;65.89400482177734;1673431759.1124208;-32.90034103393555;-3.6022658348083496;-137.12481689453125
335;1673431759.2225776;47.1287501;7.2380216;66.29100036621094;1673431759.2978091;-33.01810836791992;-3.959587335586548;-137.01675415039062
336;1673431759.4172938;47.128740199999996;7.238008;66.68900299072266;1673431759.49998;-32.91954040527344;-4.446891784667969;-136.85183715820312
337;1673431759.617113;47.1287303;7.2379944;67.08800506591797;1673431759.6998117;-33.11960220336914;-4.665057182312012;-136.76837158203125
338;1673431759.8164089;47.1287205;7.2379808;67.48300170898438;1673431759.9043963;-32.9935188293457;-4.931060791015625;-136.72865295410156
339;1673431760.0137691;47.1287106;7.2379672;67.8790054321289;1673431760.0954444;-33.0792236328125;-4.67488431930542;-136.81509399414062
340;1673431760.2153301;47.128700699999996;7.2379536;68.27900695800781;1673431760.3015406;-33.097076416015625;-4.408204078674316;-136.8898468017578
341;1673431760.410025;47.1286908;7.23794;68.677001953125;1673431760.4887993;-33.141212463378906;-3.8413758277893066;-137.0426025390625
342;1673431760.615372;47.1286809;7.2379264999999995;69.06999969482422;1673431760.6988354;-33.042518615722656;-3.6809847354888916;-137.0481414794922
343;1673431760.8194406;47.128671;7.2379128999999995;69.46400451660156;1673431760.9082136;-33.157047271728516;-3.5544016361236572;-137.07296752929688
344;1673431761.0360754;47.128661099999995;7.2378993;69.85700225830078;1673431761.119498;-33.02555465698242;-4.307034015655518;-136.88108825683594
345;1673431761.245663;47.1286511;7.2378857;70.25300598144531;1673431761.3272238;-33.029090881347656;-4.4873366355896;-136.8262481689453
346;1673431761.433766;47.1286412;7.2378721;70.65400695800781;1673431761.5077798;-32.90922927856445;-4.802121162414551;-136.7342071533203
347;1673431761.6148787;47.128631299999995;7.2378583999999995;71.05599975585938;1673431761.7027788;-32.8553466796875;-4.83786678314209;-136.69570922851562
348;1673431761.8131495;47.1286214;7.2378447999999995;71.45600128173828;1673431761.8946269;-32.8603401184082;-4.8517255783081055;-136.73843383789062
349;1673431762.0204992;47.1286115;7.2378312;71.85600280761719;1673431762.1216488;-32.960365295410156;-4.710326194763184;-136.7942657470703
350;1673431762.223563;47.1286017;7.2378176;72.2540054321289;1673431762.3023782;-33.059242248535156;-4.360152721405029;-136.8882598876953
351;1673431762.4320626;47.128591799999995;7.237804;72.64900207519531;1673431762.5098014;-33.18234634399414;-4.264798164367676;-136.9596405029297
352;1673431762.627233;47.128581999999994;7.2377904;73.04600524902344;1673431762.7063813;-33.29771041870117;-3.8587722778320312;-137.03607177734375
353;1673431762.8304486;47.1285721;7.2377768;73.44499969482422;1673431762.914079;-33.14894104003906;-3.828367233276367;-137.04940795898438
354;1673431763.028329;47.1285622;7.2377632;73.84300231933594;1673431763.1118464;-33.11076354980469;-3.75061297416687;-137.06175231933594
355;1673431763.228663;47.128552199999994;7.2377495;74.23700714111328;1673431763.3111353;-33.09238815307617;-3.704651355743408;-137.07835388183594
356;1673431763.4280674;47.1285423;7.237735799999999;74.63500213623047;1673431763.5088537;-33.16593551635742;-3.8030529022216797;-137.00146484375
357;1673431763.6253955;47.1285324;7.237722199999999;75.031005859375;1673431763.7068737;-33.14109420776367;-4.157621383666992;-136.8763885498047
358;1673431763.8349166;47.128522499999995;7.2377085999999995;75.43000030517578;1673431763.91589;-33.04975509643555;-4.254566669464111;-136.88011169433594
359;1673431764.034696;47.1285126;7.2376949999999995;75.83000183105469;1673431764.1161628;-33.13440704345703;-4.524088382720947;-136.78271484375
360;1673431764.2361116;47.1285027;7.237681299999999;76.2280044555664;1673431764.3115366;-33.0947151184082;-4.407572269439697;-136.82888793945312
361;1673431764.4287012;47.1284928;7.237667699999999;76.62700653076172;1673431764.5113373;-33.18190383911133;-4.6119208335876465;-136.78555297851562
362;1673431764.6265275;47.128482899999995;7.237654099999999;77.0250015258789;1673431764.7070239;-33.2857551574707;-4.643217086791992;-136.7922821044922
363;1673431764.8101907;47.1284729;7.2376404999999995;77.42100524902344;1673431764.8932831;-33.123531341552734;-4.346513748168945;-136.84609985351562
364;1673431765.0271637;47.128462999999996;7.2376268999999995;77.81600189208984;1673431765.110686;-33.20895767211914;-4.348753929138184;-136.87440490722656
365;1673431765.2188406;47.128453099999994;7.237613199999999;78.21300506591797;1673431765.3078034;-33.20729064941406;-4.060466766357422;-136.94871520996094
366;1673431765.4189966;47.1284432;7.2375995;78.61100006103516;1673431765.5011528;-33.29526901245117;-4.11833381652832;-136.96206665039062
367;1673431765.625142;47.1284333;7.2375858;79.00700378417969;1673431765.7066247;-33.24332046508789;-4.113746643066406;-136.99330139160156
368;1673431765.8217819;47.128423399999996;7.2375720999999995;79.4020004272461;1673431765.906424;-33.13046646118164;-4.1058549880981445;-137.0023956298828
369;1673431766.0338035;47.1284135;7.2375583;79.79900360107422;1673431766.118392;-33.180877685546875;-4.0792717933654785;-137.01544189453125
370;1673431766.2419896;47.1284035;7.2375446;80.19500732421875;1673431766.3293626;-33.2325439453125;-4.10720682144165;-136.97193908691406
371;1673431766.4385703;47.128393599999995;7.237531;80.59200286865234;1673431766.5220394;-33.11140823364258;-4.337923526763916;-136.90953063964844
372;1673431766.6419387;47.1283836;7.2375172999999995;80.98800659179688;1673431766.7316644;-33.179588317871094;-4.332126140594482;-136.87266540527344
373;1673431766.8560555;47.1283737;7.2375036999999995;81.38200378417969;1673431766.9335825;-33.10672378540039;-4.323066234588623;-136.90931701660156
374;1673431767.0402305;47.1283637;7.237489999999999;81.7770004272461;1673431767.116264;-33.058021545410156;-4.396172523498535;-136.86802673339844
375;1673431767.231733;47.1283538;7.2374763;82.17500305175781;1673431767.31219;-33.02709197998047;-4.453189849853516;-136.875732421875
376;1673431767.4290266;47.128343799999996;7.2374627;82.5770034790039;1673431767.5151;-33.05158996582031;-4.326603889465332;-136.91415405273438
377;1673431767.6259887;47.1283339;7.2374491;82.9800033569336;1673431767.7066948;-33.114864349365234;-4.128575325012207;-136.94200134277344
378;1673431767.816604;47.128324;7.237435499999999;83.3810043334961;1673431767.8930957;-33.128746032714844;-4.091314315795898;-136.95484924316406
379;1673431768.0139604;47.1283141;7.2374218;83.7800064086914;1673431768.1004815;-33.13511657714844;-4.105554580688477;-136.96051025390625
380;1673431768.224988;47.1283041;7.2374082;84.1780014038086;1673431768.3065908;-33.15662384033203;-4.117857933044434;-136.9582061767578
381;1673431768.429454;47.1282942;7.2373945;84.57300567626953;1673431768.5144572;-33.1643180847168;-4.242890357971191;-136.94468688964844
382;1673431768.63069;47.1282843;7.2373809;84.96800231933594;1673431768.7141273;-33.19647979736328;-4.1646809577941895;-136.97364807128906
383;1673431768.8289313;47.128274399999995;7.2373673;85.36500549316406;1673431768.9067972;-33.09138870239258;-4.311396598815918;-136.9231414794922
384;1673431769.0215628;47.1282644;7.2373536;85.76000213623047;1673431769.1062691;-33.3076286315918;-4.336466312408447;-136.93911743164062
385;1673431769.224699;47.1282545;7.23734;86.1520004272461;1673431769.3152754;-33.110809326171875;-4.31997537612915;-136.9329833984375
386;1673431769.4388547;47.1282445;7.2373264;86.54600524902344;1673431769.5181942;-33.0917854309082;-4.472818851470947;-136.9088592529297
387;1673431769.636091;47.1282346;7.2373128;86.94200134277344;1673431769.7177384;-33.17980194091797;-4.376028537750244;-136.90541076660156
388;1673431769.8368611;47.128224599999996;7.2372990999999995;87.33900451660156;1673431769.915286;-32.964168548583984;-4.557078838348389;-136.8863067626953
389;1673431770.0329099;47.1282146;7.2372855;87.73700714111328;1673431770.1114717;-33.066375732421875;-4.401109218597412;-136.90599060058594
390;1673431770.2183962;47.1282047;7.2372719;88.13500213623047;1673431770.3027363;-33.051673889160156;-4.3843536376953125;-136.92503356933594
391;1673431770.4239502;47.128194699999995;7.2372583;88.531005859375;1673431770.5105052;-33.11875915527344;-4.213293075561523;-136.9565887451172
392;1673431770.6293242;47.1281847;7.2372448;88.927001953125;1673431770.718709;-32.95634460449219;-4.1096906661987305;-136.91827392578125
393;1673431770.8356004;47.128174699999995;7.2372312;89.3270034790039;1673431770.9151845;-33.09159851074219;-4.14471435546875;-136.92984008789062
394;1673431771.036694;47.1281647;7.237217599999999;89.72400665283203;1673431771.114123;-32.932430267333984;-4.119100570678711;-136.9020538330078
395;1673431771.2283275;47.128154699999996;7.237203999999999;90.12000274658203;1673431771.3126745;-32.83386993408203;-4.094271659851074;-136.89231872558594
396;1673431771.4521377;47.1281448;7.237190399999999;90.51700592041016;1673431771.5246646;-33.017513275146484;-4.341241359710693;-136.83892822265625
397;1673431771.6244967;47.1281348;7.237176799999999;90.91900634765625;1673431771.7001781;-32.99635314941406;-4.213949203491211;-136.9010009765625
398;1673431771.8093915;47.128124899999996;7.2371631999999995;91.31700134277344;1673431771.8904083;-32.97891616821289;-4.360389709472656;-136.86483764648438
399;1673431772.0133772;47.1281149;7.2371495999999995;91.71300506591797;1673431772.0937853;-33.03019714355469;-4.205306053161621;-136.8938751220703
400;1673431772.2169135;47.128105;7.2371361;92.10800170898438;1673431772.3074257;-32.97545623779297;-4.22974967956543;-136.87522888183594
401;1673431772.4381917;47.128094999999995;7.2371225;92.5050048828125;1673431772.5273094;-32.96931457519531;-4.1568522453308105;-136.8990936279297
402;1673431772.6356525;47.1280851;7.2371089;92.9000015258789;1673431772.7145956;-32.9543342590332;-4.176641464233398;-136.8641357421875
403;1673431772.8413699;47.1280752;7.2370953;93.29600524902344;1673431772.9223402;-33.02351760864258;-4.38175106048584;-136.8578338623047
404;1673431773.04548;47.128065299999996;7.2370816;93.68900299072266;1673431773.1223826;-32.86495590209961;-4.335963249206543;-136.86766052246094
405;1673431773.2385416;47.1280553;7.237068;94.0830078125;1673431773.3199983;-32.96355438232422;-4.34689998626709;-136.85418701171875
406;1673431773.4493115;47.1280453;7.237054499999999;94.48300170898438;1673431773.5351975;-32.91194152832031;-4.178134441375732;-136.88150024414062
407;1673431773.6395512;47.128035399999995;7.237040899999999;94.88200378417969;1673431773.7169526;-32.892616271972656;-4.105345726013184;-136.84446716308594
408;1673431773.848358;47.1280254;7.2370274;95.28300476074219;1673431773.9360564;-32.992923736572266;-4.12470006942749;-136.82937622070312
409;1673431774.0460093;47.1280156;7.237013699999999;95.68400573730469;1673431774.1226351;-33.00556945800781;-4.403942108154297;-136.81756591796875
410;1673431774.2318373;47.128005699999996;7.2370000999999995;96.08600616455078;1673431774.3070793;-33.004844665527344;-4.306982040405273;-136.85818481445312
411;1673431774.4331038;47.1279958;7.2369864999999995;96.48600769042969;1673431774.5265195;-32.94963455200195;-4.297519207000732;-136.8370819091797
412;1673431774.64473;47.1279858;7.236972799999999;96.88300323486328;1673431774.7284334;-33.01531982421875;-4.427213191986084;-136.83172607421875
413;1673431774.8371243;47.127975899999996;7.236959199999999;97.2800064086914;1673431774.9196553;-32.919456481933594;-4.342812538146973;-136.81503295898438
414;1673431775.037213;47.127966;7.2369455;97.6780014038086;1673431775.1189713;-32.959407806396484;-4.369198799133301;-136.8435821533203
415;1673431775.2396183;47.127956;7.2369319;98.07300567626953;1673431775.3218696;-32.965633392333984;-4.284221172332764;-136.83819580078125
416;1673431775.4443939;47.1279462;7.2369182;98.47000122070312;1673431775.5231388;-32.96622085571289;-4.423486232757568;-136.8406219482422
