;pos_time;latitude;longitude;altitude;alt_time;pitch;roll;yaw
0;1673430942.5751274;47.1306425;7.24062;-0.021000001579523087;1673430942.7099743;-0.07885885238647461;-0.7905808091163635;90.70960998535156
1;1673430942.7735977;47.1306425;7.2406201;-0.024000000208616257;1673430942.9113612;0.09982234239578247;0.01612444967031479;90.72063446044922
2;1673430943.0080957;47.1306424;7.2406201;-0.026000000536441803;1673430943.1282735;0.04875127971172333;-0.20927806198596954;90.8132095336914
3;1673430943.1882725;47.1306424;7.2406201;-0.02800000086426735;1673430943.3195088;-0.19401012361049652;-0.07949812710285187;90.66632843017578
4;1673430943.3821502;47.1306424;7.24062;-0.029000001028180122;1673430943.5243776;-0.20918825268745422;-0.13065549731254578;90.78199768066406
5;1673430943.5890028;47.1306424;7.24062;-0.026000000536441803;1673430943.74327;-0.05034681409597397;-0.08038769662380219;90.8207015991211
6;1673430943.798954;47.1306424;7.24062;-0.026000000536441803;1673430943.9226701;-0.09576305001974106;-0.019918346777558327;90.78617858886719
7;1673430943.9887507;47.1306424;7.2406198999999996;-0.029000001028180122;1673430944.1310225;0.22211265563964844;-0.12508636713027954;90.89204406738281
8;1673430944.1997497;47.1306424;7.2406198999999996;-0.030000001192092896;1673430944.3234084;0.2672581970691681;-0.17215730249881744;90.64181518554688
9;1673430944.3825364;47.1306424;7.2406198999999996;-0.030000001192092896;1673430944.5299053;0.08194485306739807;-0.17747506499290466;90.79411315917969
10;1673430944.5927658;47.1306424;7.240619799999999;-0.02800000086426735;1673430944.7568429;-0.1579534262418747;-0.2637470066547394;90.69151306152344
11;1673430944.8234978;47.1306424;7.240619799999999;-0.026000000536441803;1673430944.97534;-0.28261810541152954;-0.0966632068157196;90.65108489990234
12;1673430945.0331287;47.1306424;7.240619799999999;-0.02500000037252903;1673430945.152249;-0.17449109256267548;-0.16625279188156128;90.61534118652344
13;1673430945.2076716;47.1306424;7.2406198999999996;-0.026000000536441803;1673430945.3375506;-0.21662995219230652;0.14665229618549347;90.6744384765625
14;1673430945.3918014;47.1306424;7.2406198999999996;-0.0010000000474974513;1673430945.5116458;-0.13917392492294312;1.2255719900131226;90.62733459472656
15;1673430945.571239;47.1306424;7.2406198999999996;-0.005000000353902578;1673430945.7108262;0.23766623437404633;0.6477238535881042;90.3442611694336
16;1673430945.7793908;47.1306424;7.2406198999999996;-0.007000000216066837;1673430945.9148326;-0.27909600734710693;0.8749799728393555;90.45890045166016
17;1673430945.97461;47.1306424;7.2406198999999996;-0.005000000353902578;1673430946.1207716;-0.35531556606292725;0.5377973318099976;90.61164093017578
18;1673430946.1909323;47.1306423;7.2406198999999996;-0.0020000000949949026;1673430946.3271503;0.10372922569513321;0.7815110087394714;90.6667709350586
19;1673430946.4000647;47.1306423;7.2406198999999996;-0.0010000000474974513;1673430946.5257587;0.2581953704357147;1.0260486602783203;90.49687194824219
20;1673430946.588682;47.1306423;7.2406198999999996;-0.004000000189989805;1673430946.7221947;-0.06803306937217712;1.22126305103302;90.64753723144531
21;1673430946.7870293;47.1306423;7.2406198999999996;0.0;1673430946.9117072;0.143151193857193;1.573601245880127;90.38373565673828
22;1673430946.9833086;47.1306423;7.2406198999999996;0.0010000000474974513;1673430947.131194;0.1483614146709442;1.2320311069488525;90.18295288085938
23;1673430947.1944227;47.1306423;7.2406198999999996;0.005000000353902578;1673430947.3318799;0.0429285392165184;0.7404528260231018;90.7215576171875
24;1673430947.3883932;47.1306423;7.2406198999999996;0.007000000216066837;1673430947.5266454;0.022655483335256577;0.21671518683433533;90.572265625
25;1673430947.5878658;47.1306423;7.2406198999999996;0.010000000707805157;1673430947.7434497;0.17591145634651184;0.1521598845720291;90.59246826171875
26;1673430947.8086088;47.1306422;7.2406198999999996;0.005000000353902578;1673430947.9407341;0.15481670200824738;0.2975808382034302;90.38507843017578
27;1673430948.0087264;47.130642099999996;7.240619799999999;-0.0010000000474974513;1673430948.1429064;0.005012184847146273;0.49968838691711426;90.65564727783203
28;1673430948.20803;47.130641999999995;7.240619799999999;-0.0010000000474974513;1673430948.3346372;0.10746731609106064;0.13811783492565155;91.05961608886719
29;1673430948.4072874;47.1306418;7.240619799999999;0.007000000216066837;1673430948.546713;0.18318884074687958;-0.01692153327167034;91.51404571533203
30;1673430948.616786;47.130641499999996;7.240619799999999;0.02500000037252903;1673430948.7402089;0.2652062773704529;-2.268265724182129;93.36007690429688
31;1673430948.802042;47.130640899999996;7.2406197;0.04200000315904617;1673430948.9365976;0.24298831820487976;-5.183380603790283;96.89322662353516
32;1673430949.0018668;47.1306401;7.2406197;0.05900000408291817;1673430949.1391068;0.2787129282951355;-10.101258277893066;100.53329467773438
33;1673430949.2040493;47.130638999999995;7.2406197;0.07000000029802322;1673430949.33883;1.2125544548034668;-14.52271842956543;101.78114318847656
34;1673430949.3994799;47.1306377;7.2406197;0.08300000429153442;1673430949.5251555;1.0481321811676025;-17.1403865814209;99.8355484008789
35;1673430949.5834339;47.1306364;7.240619499999999;0.10600000619888306;1673430949.7217362;0.45221784710884094;-18.788841247558594;98.17301940917969
36;1673430949.787432;47.1306351;7.2406193;0.1380000114440918;1673430949.9268544;-0.03702474758028984;-20.549562454223633;96.90449523925781
37;1673430949.987558;47.1306339;7.240619;0.1770000010728836;1673430950.118905;-0.6549021601676941;-22.119592666625977;95.87802124023438
38;1673430950.1852164;47.130632999999996;7.2406185999999995;0.22600001096725464;1673430950.331913;-1.4319018125534058;-23.82606315612793;95.03302001953125
39;1673430950.3989906;47.130632299999995;7.2406182;0.28600001335144043;1673430950.5509098;-2.163097620010376;-25.595359802246094;94.3625259399414
40;1673430950.6141853;47.130632;7.2406179999999996;0.35600000619888306;1673430950.733992;-2.956740140914917;-27.42289924621582;93.81967163085938
41;1673430950.795712;47.1306322;7.2406178;0.43700000643730164;1673430950.9587345;-3.798039197921753;-29.267065048217773;93.34771728515625
42;1673430951.0217228;47.130632899999995;7.2406177;0.5230000019073486;1673430951.1553617;-4.440053462982178;-28.917287826538086;92.88438415527344
43;1673430951.2496066;47.130634099999995;7.2406178;0.612000048160553;1673430951.390948;-4.45247220993042;-26.08982276916504;92.53404998779297
44;1673430951.4502983;47.1306358;7.2406179999999996;0.7070000171661377;1673430951.622113;-4.22445821762085;-22.740365982055664;92.24291229248047
45;1673430951.6968982;47.1306376;7.2406184;0.8090000152587891;1673430951.8216019;-3.7837884426116943;-19.962631225585938;92.04623413085938
46;1673430951.877347;47.1306394;7.2406188;0.921000063419342;1673430952.0389452;-3.0322937965393066;-19.163803100585938;92.03742980957031
47;1673430952.0899472;47.130640899999996;7.240619199999999;1.0470000505447388;1673430952.2353525;-2.700416088104248;-13.102164268493652;92.04269409179688
48;1673430952.28631;47.1306422;7.2406196;1.1890000104904175;1673430952.4050596;-2.0636863708496094;-12.425312042236328;92.41075134277344
49;1673430952.471571;47.1306431;7.240619799999999;1.346000075340271;1673430952.5984602;-1.900662899017334;-15.940359115600586;93.1270523071289
50;1673430952.6580846;47.1306435;7.24062;1.5150001049041748;1673430952.7936082;-1.855305790901184;-14.940325736999512;91.90116882324219
51;1673430952.8568108;47.1306435;7.2406201;1.6920000314712524;1673430952.9923134;-1.7812578678131104;-15.141258239746094;92.43379211425781
52;1673430953.0544193;47.1306434;7.2406201;1.8700001239776611;1673430953.1981819;-1.5823895931243896;-20.02557945251465;93.13670349121094
53;1673430953.2564633;47.130643;7.2406201;2.0530002117156982;1673430953.3842068;-1.7188793420791626;-19.539939880371094;93.30612182617188
54;1673430953.4420853;47.130642699999996;7.24062;2.236999988555908;1673430953.5626085;-2.19911527633667;-17.712478637695312;93.33164978027344
55;1673430953.6315148;47.1306425;7.2406198999999996;2.4200000762939453;1673430953.7800894;-2.239445447921753;-21.098161697387695;93.8540267944336
56;1673430953.8476064;47.1306423;7.240619799999999;2.6080000400543213;1673430953.9853163;-2.380732536315918;-21.636507034301758;93.85150909423828
57;1673430954.0523088;47.130642099999996;7.2406197;2.8000001907348633;1673430954.193098;-2.4475927352905273;-18.31551170349121;93.6702880859375
58;1673430954.2791858;47.130641999999995;7.240619799999999;2.989000082015991;1673430954.4055257;-2.371175765991211;-20.824951171875;93.68997192382812
59;1673430954.4667733;47.130641999999995;7.240619799999999;3.1780002117156982;1673430954.594712;-2.1216819286346436;-21.19240951538086;93.84957122802734
60;1673430954.6549444;47.130641999999995;7.2406198999999996;3.3680002689361572;1673430954.7792487;-2.2990095615386963;-17.92786407470703;93.63990783691406
61;1673430954.8395357;47.130642099999996;7.2406198999999996;3.557000160217285;1673430954.9571426;-2.4325485229492188;-19.02931022644043;93.72771453857422
62;1673430955.022347;47.1306422;7.2406198999999996;3.744000196456909;1673430955.1544924;-2.104635715484619;-20.799123764038086;93.95240020751953
63;1673430955.2118628;47.1306423;7.2406198999999996;3.93500018119812;1673430955.3471696;-2.3725156784057617;-17.606935501098633;93.70560455322266
64;1673430955.4119396;47.1306422;7.2406198999999996;4.127000331878662;1673430955.5510852;-2.418365716934204;-18.15297508239746;93.67081451416016
65;1673430955.6258214;47.1306422;7.2406198999999996;4.318000316619873;1673430955.7690246;-2.196640968322754;-20.941843032836914;93.83965301513672
66;1673430955.8339856;47.1306423;7.2406198999999996;4.510000228881836;1673430955.9659228;-2.311920404434204;-18.35858917236328;93.90260314941406
67;1673430956.0306034;47.1306423;7.2406198999999996;4.703000068664551;1673430956.1557426;-2.603595495223999;-17.242046356201172;93.56240844726562
68;1673430956.2141767;47.1306423;7.2406198999999996;4.897000312805176;1673430956.3487725;-2.255870819091797;-20.380468368530273;93.83944702148438
69;1673430956.4118278;47.1306422;7.2406198999999996;5.0960001945495605;1673430956.5528758;-2.4108612537384033;-19.25355339050293;93.74386596679688
70;1673430956.619818;47.130642099999996;7.240619799999999;5.298000335693359;1673430956.758946;-2.479146718978882;-17.721820831298828;93.59376525878906
71;1673430956.8435955;47.130641999999995;7.240619799999999;5.497000217437744;1673430956.9916131;-2.3845889568328857;-20.920976638793945;93.86553955078125
72;1673430957.0552397;47.1306419;7.240619799999999;5.692000389099121;1673430957.1853623;-2.263916492462158;-20.65896987915039;93.89005279541016
73;1673430957.2440808;47.1306419;7.240619799999999;5.88700008392334;1673430957.3865108;-2.501560688018799;-17.675703048706055;93.58892059326172
74;1673430957.456947;47.1306419;7.240619799999999;6.079000473022461;1673430957.5838752;-2.529890537261963;-19.7865047454834;93.76490020751953
75;1673430957.6425815;47.1306419;7.240619799999999;6.275000095367432;1673430957.7740796;-2.4382553100585938;-21.264543533325195;93.89210510253906
76;1673430957.8312356;47.1306417;7.2406197;6.475000381469727;1673430957.9580064;-2.604581117630005;-17.570077896118164;93.61355590820312
77;1673430958.0196235;47.1306416;7.2406197;6.676000118255615;1673430958.1588032;-2.8069071769714355;-20.041183471679688;93.67025756835938
78;1673430958.22772;47.1306416;7.2406197;6.872000217437744;1673430958.3640673;-2.4622631072998047;-21.179548263549805;93.94474792480469
79;1673430958.4306784;47.1306417;7.2406197;7.065000534057617;1673430958.5581875;-2.737583875656128;-17.895692825317383;93.59638214111328
80;1673430958.6223533;47.1306418;7.240619799999999;7.252000331878662;1673430958.7528245;-2.5783050060272217;-18.33711051940918;93.68057250976562
81;1673430958.8168144;47.1306419;7.240619799999999;7.445000171661377;1673430958.9563904;-2.3131449222564697;-21.055702209472656;93.94878387451172
82;1673430959.0436862;47.1306419;7.2406198999999996;7.640000343322754;1673430959.1784549;-2.3989877700805664;-17.992700576782227;93.6999740600586
83;1673430959.2371871;47.1306418;7.2406198999999996;7.835000514984131;1673430959.3628044;-2.478461503982544;-18.069345474243164;93.6136703491211
84;1673430959.427488;47.1306418;7.24062;8.030000686645508;1673430959.5648935;-2.2472002506256104;-21.359159469604492;93.87982177734375
85;1673430959.6250424;47.1306418;7.24062;8.225000381469727;1673430959.8232465;-2.2410364151000977;-19.5120792388916;93.82933807373047
86;1673430959.8778949;47.1306418;7.2406201;8.413000106811523;1673430960.0210068;-2.4316112995147705;-17.278236389160156;93.48564147949219
87;1673430960.0798473;47.1306418;7.2406201;8.60200023651123;1673430960.2397099;-2.2453665733337402;-20.899812698364258;93.87773132324219
88;1673430960.2915902;47.1306418;7.2406201;8.797000885009766;1673430960.4224403;-2.1604599952697754;-19.958620071411133;93.67724609375
89;1673430960.4839325;47.1306417;7.2406201;8.995000839233398;1673430960.6058528;-2.4498746395111084;-17.406709671020508;93.52448272705078
90;1673430960.661564;47.1306416;7.2406201999999995;9.190999984741211;1673430960.794533;-2.2699787616729736;-20.71194076538086;93.89785766601562
91;1673430960.855977;47.1306416;7.2406201999999995;9.385000228881836;1673430960.9881523;-2.145002603530884;-20.386154174804688;93.90140533447266
92;1673430961.050413;47.1306417;7.2406201;9.57800006866455;1673430961.1782672;-2.3915984630584717;-17.734405517578125;93.61332702636719
93;1673430961.239156;47.1306418;7.2406201;9.771000862121582;1673430961.3626049;-2.371884346008301;-19.236064910888672;93.69285583496094
94;1673430961.422802;47.1306418;7.2406201;9.96500015258789;1673430961.5630462;-2.427220582962036;-21.135915756225586;93.83773803710938
95;1673430961.6272204;47.1306418;7.24062;10.168000221252441;1673430961.7672675;-2.1741998195648193;-16.643840789794922;93.40509796142578
96;1673430961.8323712;47.1306418;7.2406201;10.451000213623047;1673430961.9675848;-2.656205177307129;-19.120826721191406;93.7410659790039
97;1673430962.0364425;47.130641999999995;7.2406201;10.818000793457031;1673430962.1732125;-2.3071491718292236;-22.17905044555664;93.8008041381836
98;1673430962.2348633;47.1306423;7.2406201999999995;11.19800090789795;1673430962.3766127;-2.4707796573638916;-18.28338050842285;93.7758560180664
99;1673430962.4409847;47.130642599999995;7.2406201999999995;11.59000015258789;1673430962.5726655;-2.2727644443511963;-15.910955429077148;93.576171875
100;1673430962.6280823;47.1306429;7.2406201999999995;11.98900032043457;1673430962.7553105;-2.268555164337158;-18.326297760009766;93.90412139892578
101;1673430962.8194833;47.130643;7.2406201999999995;12.394001007080078;1673430962.9560728;-2.1396024227142334;-18.093765258789062;93.8105239868164
102;1673430963.028954;47.130643;7.2406203;12.802000999450684;1673430963.166298;-2.3431339263916016;-15.512907028198242;93.5456314086914
103;1673430963.2359576;47.1306429;7.2406203;13.210000991821289;1673430963.3587496;-2.204375982284546;-18.5822696685791;93.7431640625
104;1673430963.4295268;47.1306428;7.2406203;13.617000579833984;1673430963.562167;-1.9298230409622192;-19.333091735839844;93.82492065429688
105;1673430963.6281016;47.130642699999996;7.2406201999999995;14.022000312805176;1673430963.7664557;-2.57391095161438;-16.889339447021484;93.56309509277344
106;1673430963.835562;47.130642699999996;7.2406201999999995;14.429000854492188;1673430963.9748905;-2.369394302368164;-17.90949249267578;93.62806701660156
107;1673430964.0677226;47.130642599999995;7.2406201999999995;14.837000846862793;1673430964.198092;-2.259124755859375;-20.827804565429688;93.79508972167969
108;1673430964.2590718;47.1306425;7.2406201999999995;15.249000549316406;1673430964.4073;-2.2973074913024902;-17.853694915771484;93.65369415283203
109;1673430964.4649622;47.1306423;7.2406201999999995;15.666000366210938;1673430964.5904133;-2.5124619007110596;-18.077091217041016;93.63603210449219
110;1673430964.6506846;47.1306423;7.2406201999999995;16.084001541137695;1673430964.7743778;-2.2373547554016113;-20.942861557006836;93.90361785888672
111;1673430964.8387215;47.1306423;7.2406201999999995;16.492000579833984;1673430964.9767325;-2.203921318054199;-18.40897560119629;93.8211669921875
112;1673430965.0475628;47.1306423;7.2406201999999995;16.898000717163086;1673430965.1791081;-2.3120083808898926;-16.694746017456055;93.54647827148438
113;1673430965.2403514;47.1306424;7.2406201999999995;17.302000045776367;1673430965.3747969;-2.497957706451416;-19.45269775390625;93.75093841552734
114;1673430965.4474268;47.1306424;7.2406201999999995;17.71000099182129;1673430965.5952861;-2.2577080726623535;-19.630069732666016;93.71553039550781
115;1673430965.6556137;47.1306424;7.2406201;18.11600112915039;1673430965.7909236;-2.5521011352539062;-16.715316772460938;93.56855773925781
116;1673430965.858855;47.1306423;7.2406201;18.518001556396484;1673430965.9790323;-2.4263129234313965;-19.111202239990234;93.71211242675781
117;1673430966.0421968;47.1306424;7.24062;18.916000366210938;1673430966.1856735;-2.414172410964966;-20.037996292114258;93.82823181152344
118;1673430966.251612;47.1306424;7.24062;19.310001373291016;1673430966.3911338;-2.395083427429199;-17.130538940429688;93.668701171875
119;1673430966.4775279;47.1306425;7.2406198999999996;19.707000732421875;1673430966.614075;-2.7001328468322754;-17.77373695373535;93.79273223876953
120;1673430966.689898;47.1306425;7.2406198999999996;20.111000061035156;1673430966.8132482;-2.3510618209838867;-20.671899795532227;94.01072692871094
121;1673430966.8724918;47.1306425;7.2406198999999996;20.517000198364258;1673430967.0070958;-2.5447890758514404;-18.228614807128906;93.81934356689453
122;1673430967.0634613;47.1306424;7.2406198999999996;20.922000885009766;1673430967.1915872;-2.5551702976226807;-17.294654846191406;93.67932891845703
123;1673430967.252842;47.1306424;7.2406198999999996;21.32400131225586;1673430967.3838406;-2.368152618408203;-20.409805297851562;93.821533203125
124;1673430967.4578009;47.1306424;7.2406198999999996;21.718000411987305;1673430967.578949;-2.378005027770996;-19.114566802978516;93.75226593017578
125;1673430967.6434293;47.1306424;7.2406198999999996;22.11600112915039;1673430967.7729824;-2.67055606842041;-16.600933074951172;93.56224060058594
126;1673430967.8358793;47.1306425;7.240619799999999;22.51300048828125;1673430967.9705555;-2.4463272094726562;-18.977741241455078;93.8289566040039
127;1673430968.0323656;47.130642599999995;7.240619799999999;22.915000915527344;1673430968.2040348;-2.2540204524993896;-19.792251586914062;93.79801940917969
128;1673430968.263686;47.130642599999995;7.2406198999999996;23.317001342773438;1673430968.3948228;-2.6202545166015625;-16.57742691040039;93.55374145507812
129;1673430968.460167;47.130642599999995;7.2406198999999996;23.71700096130371;1673430968.6135893;-2.442251205444336;-18.346242904663086;93.700439453125
130;1673430968.699104;47.130642599999995;7.2406198999999996;24.119001388549805;1673430968.815067;-2.2631986141204834;-20.024280548095703;93.881591796875
131;1673430968.8741765;47.130642599999995;7.2406198999999996;24.51500129699707;1673430969.0025907;-2.4732518196105957;-17.06642723083496;93.63328552246094
132;1673430969.0952332;47.130642699999996;7.2406198999999996;24.91400146484375;1673430969.2270837;-2.608041524887085;-16.789209365844727;93.62337493896484
133;1673430969.2816167;47.1306428;7.2406198999999996;25.32000160217285;1673430969.414527;-2.4732041358947754;-20.323532104492188;93.92989349365234
134;1673430969.4746377;47.130642699999996;7.240619799999999;25.735000610351562;1673430969.5866072;-2.581796169281006;-18.14542579650879;93.8270263671875
135;1673430969.6419625;47.130642599999995;7.240619799999999;26.145000457763672;1673430969.7676115;-2.6995460987091064;-16.551721572875977;93.5413818359375
136;1673430969.8286808;47.1306425;7.240619799999999;26.551000595092773;1673430969.9717114;-2.5147452354431152;-20.295686721801758;93.88908386230469
137;1673430970.0433693;47.1306425;7.240619799999999;26.948001861572266;1673430970.1724696;-2.277106285095215;-18.907411575317383;93.76261138916016
138;1673430970.238928;47.1306425;7.240619799999999;27.34600067138672;1673430970.3751092;-2.7865030765533447;-16.60877227783203;93.5286865234375
139;1673430970.4489841;47.1306424;7.240619799999999;27.748001098632812;1673430970.5871565;-2.601041078567505;-19.344724655151367;93.81707763671875
140;1673430970.651217;47.1306424;7.240619799999999;28.155000686645508;1673430970.7914524;-2.3893425464630127;-19.97538185119629;93.86042785644531
141;1673430970.8554623;47.1306422;7.240619799999999;28.56100082397461;1673430970.9791358;-2.6669952869415283;-17.026208877563477;93.62727355957031
142;1673430971.0385654;47.1306422;7.240619799999999;28.961000442504883;1673430971.1782825;-2.371049165725708;-19.03653335571289;93.67565155029297
143;1673430971.2433152;47.1306422;7.2406198999999996;29.360000610351562;1673430971.3750834;-2.467714309692383;-20.388294219970703;93.90998840332031
144;1673430971.4421885;47.1306422;7.2406198999999996;29.75200080871582;1673430971.5753977;-2.5095913410186768;-17.64762306213379;93.65128326416016
145;1673430971.6370502;47.1306423;7.2406198999999996;30.147001266479492;1673430971.771313;-2.5958261489868164;-17.446571350097656;93.59666442871094
146;1673430971.8349824;47.1306424;7.2406198999999996;30.549001693725586;1673430971.9752786;-2.459975481033325;-20.47430419921875;93.82356262207031
147;1673430972.0480444;47.1306424;7.2406198999999996;30.954002380371094;1673430972.1950996;-2.631453514099121;-17.98384666442871;93.72818756103516
148;1673430972.2543378;47.1306423;7.2406198999999996;31.358001708984375;1673430972.396449;-2.805884599685669;-16.74433135986328;93.64360809326172
149;1673430972.4548855;47.1306423;7.2406198999999996;31.761001586914062;1673430972.5761235;-2.5627012252807617;-20.196088790893555;93.89632415771484
150;1673430972.6367757;47.1306423;7.2406198999999996;32.15500259399414;1673430972.779024;-2.385434150695801;-18.838525772094727;93.82671356201172
151;1673430972.8461058;47.1306423;7.2406198999999996;32.553001403808594;1673430972.9716597;-2.663800001144409;-16.821338653564453;93.66754913330078
152;1673430973.035437;47.1306423;7.2406198999999996;32.957000732421875;1673430973.1789167;-2.5265021324157715;-18.923009872436523;93.84284973144531
153;1673430973.2388818;47.1306424;7.24062;33.362003326416016;1673430973.3829226;-2.463862657546997;-19.865699768066406;93.81787872314453
154;1673430973.4403653;47.1306424;7.24062;33.7650032043457;1673430973.562244;-2.7028768062591553;-16.784805297851562;93.63765716552734
155;1673430973.6209934;47.1306424;7.24062;34.16400146484375;1673430973.757993;-2.5357320308685303;-18.632431030273438;93.69212341308594
156;1673430973.8381665;47.1306425;7.24062;34.564002990722656;1673430973.9783132;-2.4771676063537598;-20.3233642578125;93.80831909179688
157;1673430974.0556612;47.1306425;7.24062;34.95500183105469;1673430974.185969;-2.6894655227661133;-17.274465560913086;93.57691192626953
158;1673430974.2421324;47.130642599999995;7.24062;35.349002838134766;1673430974.3608396;-2.623791456222534;-16.72373390197754;93.64419555664062
159;1673430974.4244497;47.130642699999996;7.24062;35.75;1673430974.5575252;-2.5027966499328613;-20.075895309448242;93.91421508789062
160;1673430974.624891;47.130642699999996;7.24062;36.15800094604492;1673430974.7868016;-2.5720372200012207;-17.884374618530273;93.69783020019531
161;1673430974.855933;47.130642699999996;7.24062;36.564002990722656;1673430974.9740398;-2.8951332569122314;-16.72028923034668;93.67327117919922
162;1673430975.0409734;47.130642599999995;7.24062;36.96800231933594;1673430975.1785243;-2.6150941848754883;-19.866138458251953;93.78582763671875
163;1673430975.2454338;47.1306425;7.2406198999999996;37.361000061035156;1673430975.4091957;-2.541062831878662;-18.860631942749023;93.79541015625
164;1673430975.4620755;47.1306425;7.2406198999999996;37.759002685546875;1673430975.5899472;-2.772202253341675;-17.116662979125977;93.64554595947266
165;1673430975.6524758;47.130642599999995;7.2406198999999996;38.15700149536133;1673430975.790516;-2.488624095916748;-19.093605041503906;93.83478546142578
166;1673430975.8645148;47.130642599999995;7.24062;38.56100082397461;1673430975.9912436;-2.4982810020446777;-20.338146209716797;93.88856506347656
167;1673430976.0561564;47.1306425;7.24062;38.96800231933594;1673430976.1972919;-2.702000141143799;-16.72452735900879;93.508544921875
168;1673430976.2585962;47.1306425;7.24062;39.37600326538086;1673430976.4114182;-2.8360772132873535;-18.43597984313965;93.65279388427734
169;1673430976.474908;47.1306425;7.2406198999999996;39.78000259399414;1673430976.6319575;-2.547044515609741;-20.221439361572266;93.88426971435547
170;1673430976.695596;47.130642599999995;7.2406198999999996;40.17400360107422;1673430976.8221965;-2.6540539264678955;-17.364267349243164;93.66098022460938
171;1673430976.882429;47.130642599999995;7.2406198999999996;40.56700134277344;1673430977.018575;-2.811746120452881;-17.09749984741211;93.66295623779297
172;1673430977.0831745;47.130642599999995;7.2406198999999996;40.96900177001953;1673430977.2147603;-2.6292724609375;-20.105173110961914;93.9411849975586
173;1673430977.2763338;47.130642599999995;7.2406198999999996;41.37700271606445;1673430977.4236326;-2.6653451919555664;-18.13357162475586;93.68701171875
174;1673430977.5112245;47.1306425;7.2406198999999996;41.785003662109375;1673430977.6617017;-2.730100393295288;-16.938886642456055;93.58406066894531
175;1673430977.7273636;47.1306425;7.2406198999999996;42.189002990722656;1673430977.8754532;-2.649644613265991;-20.08575439453125;93.834228515625
176;1673430977.9292934;47.1306425;7.2406198999999996;42.58300018310547;1673430978.0550127;-2.4771854877471924;-19.092208862304688;93.88032531738281
177;1673430978.1126642;47.1306424;7.2406198999999996;42.97900390625;1673430978.2585952;-2.7540998458862305;-16.900981903076172;93.5828857421875
178;1673430978.3202817;47.1306425;7.2406198999999996;43.37700271606445;1673430978.4460306;-2.810293674468994;-18.439844131469727;93.6573257446289
179;1673430978.4997523;47.1306425;7.2406198999999996;43.781002044677734;1673430978.6254234;-2.648538589477539;-20.273828506469727;93.88740539550781
180;1673430978.6776862;47.1306425;7.2406198999999996;44.1870002746582;1673430978.8112335;-2.994868755340576;-16.833791732788086;93.6343994140625
181;1673430978.870116;47.1306425;7.2406198999999996;44.595001220703125;1673430979.0092442;-3.074612855911255;-18.109506607055664;93.67684173583984
182;1673430979.070437;47.1306425;7.2406198999999996;45.00100326538086;1673430979.1891873;-2.8029448986053467;-20.443092346191406;93.91966247558594
183;1673430979.2493463;47.1306425;7.240619799999999;45.39500045776367;1673430979.3769007;-2.799381732940674;-17.608217239379883;93.78498077392578
184;1673430979.4350216;47.1306425;7.240619799999999;45.79100036621094;1673430979.5786579;-2.9559173583984375;-17.080631256103516;93.57736206054688
185;1673430979.6472042;47.130642599999995;7.2406198999999996;46.191001892089844;1673430979.8110216;-2.7262721061706543;-19.583314895629883;93.86149597167969
186;1673430979.8761895;47.1306425;7.2406198999999996;46.59600067138672;1673430980.0123594;-2.7474606037139893;-18.93441390991211;93.8167953491211
187;1673430980.0832818;47.1306424;7.2406198999999996;46.99800109863281;1673430980.2248409;-2.852066993713379;-16.825185775756836;93.61817932128906
188;1673430980.3168287;47.1306424;7.2406198999999996;47.397003173828125;1673430980.4770021;-2.8712375164031982;-19.589664459228516;93.75275421142578
189;1673430980.538636;47.1306424;7.2406198999999996;47.788002014160156;1673430980.6585999;-2.6367995738983154;-19.540021896362305;93.83748626708984
190;1673430980.726167;47.1306424;7.2406198999999996;48.17900085449219;1673430980.8579671;-3.002837896347046;-17.879878997802734;93.64849853515625
191;1673430980.9204142;47.1306424;7.2406198999999996;48.531002044677734;1673430981.0295784;-2.8057291507720947;-18.7520694732666;93.56108856201172
192;1673430981.079993;47.1306423;7.240619799999999;48.83000183105469;1673430981.2096624;-2.8713016510009766;-20.246137619018555;93.81119537353516
193;1673430981.2678084;47.130642099999996;7.240619799999999;49.082000732421875;1673430981.4060154;-2.9534831047058105;-16.720844268798828;93.62713623046875
194;1673430981.4593718;47.1306419;7.2406197;49.2920036315918;1673430981.597746;3.606839895248413;-11.564194679260254;94.2355728149414
195;1673430981.6599247;47.1306416;7.240619499999999;49.465003967285156;1673430981.7838643;22.30323028564453;13.89421272277832;105.49467468261719
196;1673430981.8494596;47.1306404;7.240617899999999;49.605003356933594;1673430981.988076;28.891738891601562;36.21192932128906;116.65579986572266
197;1673430982.0639338;47.1306373;7.2406136;49.72900390625;1673430982.2000299;26.265609741210938;48.10198211669922;123.16498565673828
198;1673430982.2630656;47.1306315;7.2406054;49.81300354003906;1673430982.3932488;11.107992172241211;47.21874237060547;132.79176330566406
199;1673430982.4558527;47.130623;7.2405938;49.858001708984375;1673430982.5952432;-3.2991065979003906;46.802608489990234;144.0235595703125
200;1673430982.6675446;47.1306121;7.2405794;49.88900375366211;1673430982.7914894;-18.423524856567383;47.55576705932617;153.9285430908203
201;1673430982.8452811;47.1305991;7.2405627;49.919002532958984;1673430982.974518;-33.83500671386719;45.390010833740234;166.73089599609375
202;1673430983.036978;47.130584;7.2405439;49.945003509521484;1673430983.1701882;-45.81644821166992;40.606082916259766;-179.50442504882812
203;1673430983.2426913;47.130566699999996;7.240522599999999;49.9630012512207;1673430983.3903506;-53.72465133666992;34.6894645690918;-167.79054260253906
204;1673430983.4540532;47.130547299999996;7.240498499999999;49.958003997802734;1673430983.5895734;-54.86331558227539;27.554248809814453;-158.1356658935547
205;1673430983.6692212;47.1305264;7.2404717;49.922000885009766;1673430983.7955372;-48.77268981933594;22.212369918823242;-152.49481201171875
206;1673430983.8552458;47.1305045;7.240443099999999;49.85900115966797;1673430983.986557;-47.664154052734375;17.20708656311035;-145.66470336914062
207;1673430984.0573778;47.130482099999995;7.2404131;49.7920036315918;1673430984.1977577;-48.30197525024414;11.854754447937012;-139.46981811523438
208;1673430984.2654874;47.1304593;7.2403821;49.72200393676758;1673430984.401023;-46.06525802612305;9.04214096069336;-132.82093811035156
209;1673430984.463895;47.130436599999996;7.2403505;49.6670036315918;1673430984.6108227;-44.089996337890625;1.6429628133773804;-128.41583251953125
210;1673430984.6687639;47.1304137;7.2403185;49.61100387573242;1673430984.8091009;-42.89939498901367;1.942873477935791;-132.0145721435547
211;1673430984.8732052;47.1303906;7.2402864;49.57200241088867;1673430985.0105045;-44.17665481567383;3.26836895942688;-134.0883026123047
212;1673430985.0756927;47.130367299999996;7.2402543999999995;49.56100082397461;1673430985.224526;-45.9714241027832;4.259576320648193;-134.6736602783203
213;1673430985.2846189;47.1303437;7.2402225;49.57600402832031;1673430985.4225771;-48.224693298339844;5.68536901473999;-135.17811584472656
214;1673430985.4881604;47.130319899999996;7.2401905;49.61100387573242;1673430985.6268957;-48.33123779296875;6.860050678253174;-135.4403839111328
215;1673430985.6805212;47.130296;7.2401585;49.643001556396484;1673430985.8030598;-47.872520446777344;7.286325931549072;-135.31097412109375
216;1673430985.8670428;47.1302719;7.240126;49.68000411987305;1673430986.0083678;-48.301212310791016;7.505326271057129;-135.31991577148438
217;1673430986.0715594;47.1302476;7.2400933;49.72900390625;1673430986.1996527;-48.50407028198242;7.685140609741211;-135.27362060546875
218;1673430986.2671459;47.1302233;7.240060199999999;49.77700424194336;1673430986.4082024;-49.124759674072266;7.4339141845703125;-135.1014404296875
219;1673430986.4700859;47.130198899999996;7.240026899999999;49.82200241088867;1673430986.670969;-48.967132568359375;7.174607753753662;-135.01019287109375
220;1673430986.7189798;47.130174499999995;7.2399932;49.862003326416016;1673430986.8304355;-48.492576599121094;6.929671764373779;-134.9293212890625
221;1673430986.885998;47.1301499;7.2399594;49.89500427246094;1673430987.0119495;-48.33034133911133;6.878057479858398;-134.96934509277344
222;1673430987.071058;47.1301254;7.239925599999999;49.90900421142578;1673430987.202909;-47.49897003173828;6.60910177230835;-134.9148406982422
223;1673430987.2625327;47.1301008;7.239891699999999;49.92500305175781;1673430987.4026542;-47.40026092529297;6.832796096801758;-135.12074279785156
224;1673430987.4637127;47.1300762;7.239857799999999;49.94300079345703;1673430987.6150281;-47.85337448120117;7.032268524169922;-135.22398376464844
225;1673430987.6808014;47.1300515;7.2398237;49.96200180053711;1673430987.8911552;-48.4731330871582;6.9159016609191895;-135.1732177734375
226;1673430987.9360514;47.1300269;7.2397896;49.980003356933594;1673430988.0653903;-48.687255859375;6.764286041259766;-135.15065002441406
227;1673430988.1161842;47.1300022;7.239755499999999;49.993003845214844;1673430988.233398;-48.29352951049805;6.759030342102051;-135.1566925048828
228;1673430988.2871175;47.129977499999995;7.2397214;49.9890022277832;1673430988.416113;-47.428565979003906;6.519707202911377;-135.12303161621094
229;1673430988.476669;47.1299528;7.2396873;49.987003326416016;1673430988.611983;-47.33757400512695;6.772588729858398;-135.33448791503906
230;1673430988.6614394;47.129928;7.239653199999999;49.9900016784668;1673430988.780954;-47.99230194091797;6.9042134284973145;-135.33425903320312
231;1673430988.887452;47.129903299999995;7.2396191;49.992000579833984;1673430989.0527651;-48.47285079956055;6.750919818878174;-135.26707458496094
232;1673430989.1080117;47.1298786;7.239585;49.992000579833984;1673430989.2327065;-48.29555892944336;6.711975574493408;-135.31085205078125
233;1673430989.304654;47.1298539;7.239550899999999;49.987003326416016;1673430989.434725;-47.82924270629883;6.568397521972656;-135.2814483642578
234;1673430989.4913738;47.129829099999995;7.239516699999999;49.97700119018555;1673430989.627809;-47.527313232421875;6.518150806427002;-135.31918334960938
235;1673430989.6820471;47.1298044;7.2394827;49.9630012512207;1673430989.8056273;-47.41143035888672;6.558263301849365;-135.33526611328125
236;1673430989.858595;47.1297797;7.2394488;49.958003997802734;1673430989.9887042;-47.74966049194336;6.654948711395264;-135.37535095214844
237;1673430990.047278;47.1297551;7.2394149;49.95600128173828;1673430990.1849244;-48.12274169921875;6.697690010070801;-135.37969970703125
238;1673430990.252468;47.1297304;7.239381;49.95500183105469;1673430990.3918283;-48.261192321777344;6.607977867126465;-135.3202667236328
239;1673430990.4675386;47.1297056;7.2393469999999995;49.952003479003906;1673430990.6025746;-48.06560516357422;6.519680500030518;-135.25161743164062
240;1673430990.6704743;47.1296809;7.2393130999999995;49.94600296020508;1673430990.7950978;-47.61901092529297;6.597879409790039;-135.27645874023438
241;1673430990.8628583;47.1296562;7.2392791999999995;49.94000244140625;1673430991.0037484;-47.4791374206543;6.492083549499512;-135.23118591308594
242;1673430991.0822482;47.129631499999995;7.2392454;49.93000411987305;1673430991.2174652;-47.33010482788086;6.503477096557617;-135.21424865722656
243;1673430991.2798574;47.1296067;7.2392115;49.92500305175781;1673430991.4608152;-47.57137680053711;6.6642165184021;-135.2743682861328
244;1673430991.5318093;47.129582;7.2391777;49.927001953125;1673430991.710752;-48.038082122802734;6.698567867279053;-135.2142333984375
245;1673430991.7695854;47.129557299999995;7.239143899999999;49.92900085449219;1673430991.8716497;-48.22578048706055;6.533619403839111;-135.10122680664062
246;1673430991.9435313;47.1295326;7.239109999999999;49.927001953125;1673430992.0936222;-47.81068420410156;6.425792694091797;-135.04666137695312
247;1673430992.1750803;47.1295079;7.2390761999999995;49.92400360107422;1673430992.2800925;-47.6224479675293;6.35186767578125;-134.9942626953125
248;1673430992.3399003;47.129483199999996;7.2390422999999995;49.92500305175781;1673430992.456582;-47.67679214477539;6.378416061401367;-134.97633361816406
249;1673430992.5134895;47.1294586;7.2390085;49.92900085449219;1673430992.6358483;-47.931148529052734;6.505782604217529;-134.96487426757812
250;1673430992.6936417;47.129433899999995;7.2389747;49.93600082397461;1673430992.822524;-48.198726654052734;7.181286811828613;-135.06201171875
251;1673430992.8864799;47.1294092;7.238940899999999;49.94600296020508;1673430993.0146308;-47.693241119384766;12.409461975097656;-136.18524169921875
252;1673430993.0943599;47.129384599999995;7.2389069;49.952003479003906;1673430993.2225344;-47.041683197021484;10.357250213623047;-134.33062744140625
253;1673430993.2913876;47.129360299999995;7.238872499999999;49.957000732421875;1673430993.439328;-43.39631271362305;9.26270580291748;-133.5909423828125
254;1673430993.5153823;47.1293363;7.238837999999999;49.97600173950195;1673430993.6601446;-29.924760818481445;10.769676208496094;-134.20957946777344
255;1673430993.7164;47.129312899999995;7.2388039;50.00800323486328;1673430993.8382459;-11.376484870910645;11.311262130737305;-135.23526000976562
256;1673430993.908017;47.129290499999996;7.2387714;50.02400207519531;1673430994.0375407;4.754335403442383;10.250632286071777;-136.82177734375
257;1673430994.0976229;47.1292699;7.2387415;50.0260009765625;1673430994.2276065;16.836124420166016;10.40355396270752;-137.25906372070312
258;1673430994.2881613;47.129251499999995;7.2387152;50.01700210571289;1673430994.415008;23.655664443969727;12.417327880859375;-137.36387634277344
259;1673430994.471915;47.1292355;7.2386927;49.99400329589844;1673430994.6142802;30.336679458618164;9.430435180664062;-137.1721649169922
260;1673430994.6838894;47.129221799999996;7.238673899999999;49.939002990722656;1673430994.8187509;29.394304275512695;9.970605850219727;-137.7853240966797
261;1673430994.8824308;47.1292106;7.2386586;49.897003173828125;1673430995.0073798;30.195598602294922;11.903489112854004;-138.63803100585938
262;1673430995.075217;47.1292018;7.2386463;49.8910026550293;1673430995.2042634;22.632543563842773;12.866647720336914;-138.66873168945312
263;1673430995.279636;47.1291951;7.238636199999999;49.91400146484375;1673430995.4044392;13.428874969482422;13.300589561462402;-137.97023010253906
264;1673430995.4650714;47.1291896;7.2386276;49.948001861572266;1673430995.6021087;5.6979780197143555;9.851688385009766;-136.82830810546875
265;1673430995.6717;47.1291848;7.2386199;49.97500228881836;1673430995.8171558;1.9206913709640503;9.422439575195312;-136.35934448242188
266;1673430995.8796685;47.129180299999994;7.2386127;49.99700164794922;1673430996.0111098;3.085409641265869;9.00102424621582;-136.6032257080078
267;1673430996.074352;47.129175599999996;7.2386057;50.01900100708008;1673430996.21957;6.814092636108398;6.9871745109558105;-137.2855224609375
268;1673430996.2800748;47.1291708;7.238599;50.03700256347656;1673430996.4229927;8.707537651062012;6.450350284576416;-137.93003845214844
269;1673430996.4880197;47.1291662;7.2385927;50.05000305175781;1673430996.6325228;11.72519588470459;6.073760986328125;-138.5512237548828
270;1673430996.700354;47.1291618;7.2385869;50.06100082397461;1673430996.8366094;13.081812858581543;6.595583438873291;-139.06256103515625
271;1673430996.899273;47.1291576;7.2385817999999995;50.07100296020508;1673430997.034603;14.111017227172852;8.347419738769531;-139.3267822265625
272;1673430997.087903;47.1291538;7.238577299999999;50.0880012512207;1673430997.2280896;-10.069918632507324;14.257556915283203;-140.83767700195312
273;1673430997.286214;47.1291501;7.238572899999999;50.137001037597656;1673430997.418984;-20.429733276367188;9.20400333404541;-139.60276794433594
274;1673430997.483455;47.1291454;7.238567;50.23100280761719;1673430997.616163;-17.169214248657227;5.757437229156494;-138.2544708251953
275;1673430997.6747851;47.1291394;7.23856;50.427001953125;1673430997.803197;-20.256420135498047;10.190201759338379;-137.9486083984375
276;1673430997.8721678;47.129132299999995;7.238551999999999;50.72700119018555;1673430998.0029495;-30.41223907470703;16.483999252319336;-137.28662109375
277;1673430998.0695117;47.1291241;7.2385423;51.04500198364258;1673430998.196934;-29.8333740234375;16.61247444152832;-136.36859130859375
278;1673430998.2635515;47.129115;7.2385302;51.37300109863281;1673430998.3987944;-30.547548294067383;18.156160354614258;-136.14573669433594
279;1673430998.4664383;47.1291052;7.2385158;51.73100280761719;1673430998.5964105;-23.175640106201172;14.525697708129883;-135.74752807617188
280;1673430998.6561613;47.1290951;7.2384995;52.12800216674805;1673430998.7942896;-16.550138473510742;10.182581901550293;-136.1985626220703
281;1673430998.8592193;47.1290848;7.2384825;52.54300308227539;1673430998.994514;-8.74521541595459;6.980146884918213;-136.4999237060547
282;1673430999.0631688;47.1290744;7.2384656;52.965003967285156;1673430999.2224107;-3.901871681213379;5.568001747131348;-137.02566528320312
283;1673430999.2957816;47.129064199999995;7.2384495;53.388004302978516;1673430999.4234025;-2.009981870651245;5.963283061981201;-137.65008544921875
284;1673430999.4945054;47.1290541;7.238434499999999;53.810001373291016;1673430999.6629207;-2.1867053508758545;6.940971374511719;-137.62380981445312
285;1673430999.7157056;47.129044199999996;7.2384207;54.233001708984375;1673430999.8564014;-4.121880531311035;7.609344959259033;-137.771240234375
286;1673430999.915973;47.1290346;7.2384078;54.65400314331055;1673431000.0464091;-7.102105617523193;6.600501537322998;-137.4068145751953
287;1673431000.103559;47.1290251;7.238395799999999;55.06900405883789;1673431000.2273748;-9.609590530395508;6.940346717834473;-137.1207733154297
288;1673431000.2852993;47.1290157;7.238383799999999;55.478004455566406;1673431000.418946;-11.475218772888184;7.409181118011475;-137.1971893310547
289;1673431000.4714906;47.129006399999994;7.2383717999999995;55.88600158691406;1673431000.5946174;-12.763964653015137;9.728365898132324;-137.05262756347656
290;1673431000.6600106;47.128997;7.2383595;56.290000915527344;1673431000.8077297;-14.086051940917969;11.819952011108398;-136.7138671875
291;1673431000.8794644;47.1289874;7.2383470999999995;56.69600296020508;1673431001.0264513;-15.075913429260254;13.334172248840332;-136.82888793945312
292;1673431001.0950243;47.1289777;7.2383343;57.10200119018555;1673431001.2335055;-15.512060165405273;13.17441177368164;-136.99713134765625
293;1673431001.289725;47.1289678;7.2383212;57.50400161743164;1673431001.4151866;-15.285955429077148;11.660402297973633;-136.62759399414062
294;1673431001.471805;47.128958;7.2383076;57.90400314331055;1673431001.5998697;-14.406505584716797;8.90620231628418;-136.61805725097656
295;1673431001.6634634;47.128948;7.2382938;58.302001953125;1673431001.8021762;-13.223265647888184;7.289395332336426;-136.6550750732422
296;1673431001.8657763;47.128938;7.2382798;58.70100402832031;1673431002.006581;-11.611724853515625;7.6668596267700195;-136.77777099609375
297;1673431002.0662918;47.128927999999995;7.2382658;59.10000228881836;1673431002.2226667;-10.548044204711914;8.562154769897461;-137.0147705078125
298;1673431002.300301;47.128918;7.2382519;59.50100326538086;1673431002.4357805;-10.369983673095703;11.299460411071777;-137.36727905273438
299;1673431002.4968424;47.128907899999994;7.2382382;59.90300369262695;1673431002.6349142;-10.847342491149902;12.0419340133667;-137.41966247558594
300;1673431002.7000554;47.1288979;7.2382247;60.303001403808594;1673431002.8464215;-11.840176582336426;11.584936141967773;-136.9962615966797
301;1673431002.9169106;47.128887999999996;7.2382113;60.702003479003906;1673431003.0484707;-12.402236938476562;11.054012298583984;-136.82765197753906
302;1673431003.1071804;47.128878099999994;7.238198;61.10600280761719;1673431003.2348886;-12.892427444458008;9.392803192138672;-136.57179260253906
303;1673431003.2942564;47.1288682;7.2381847;61.509002685546875;1673431003.4178684;-12.782395362854004;8.102423667907715;-136.35848999023438
304;1673431003.4727614;47.1288584;7.238171299999999;61.90900421142578;1673431003.6043174;-12.614506721496582;7.2685136795043945;-136.283203125
305;1673431003.6791222;47.1288485;7.2381578;62.30900192260742;1673431003.8440862;-12.596380233764648;7.968112945556641;-136.3914031982422
306;1673431003.9118533;47.128838699999996;7.2381443999999995;62.70700454711914;1673431004.077879;-12.232746124267578;8.805353164672852;-136.636474609375
307;1673431004.144187;47.1288287;7.238131;63.10100173950195;1673431004.2872808;-12.183476448059082;9.540590286254883;-136.59544372558594
308;1673431004.3579829;47.1288187;7.2381174999999995;63.500003814697266;1673431004.475491;-11.895923614501953;11.189498901367188;-136.5670166015625
309;1673431004.536081;47.1288086;7.238104;63.900001525878906;1673431004.6598632;-12.127849578857422;11.891844749450684;-136.7961883544922
310;1673431004.722241;47.1287987;7.2380904;64.30000305175781;1673431004.861863;-12.310972213745117;12.750040054321289;-136.9221649169922
311;1673431004.923813;47.1287887;7.2380768;64.69800567626953;1673431005.0436172;-12.12578010559082;13.076287269592285;-137.14112854003906
312;1673431005.1102788;47.1287788;7.2380631;65.09500122070312;1673431005.25035;-12.663283348083496;12.489866256713867;-137.0009002685547
313;1673431005.3179088;47.1287689;7.2380493999999995;65.49200439453125;1673431005.4457257;-12.769806861877441;12.275075912475586;-136.81739807128906
314;1673431005.4990222;47.128759099999996;7.2380356;65.88800048828125;1673431005.643;-13.040783882141113;11.263469696044922;-136.79115295410156
315;1673431005.7148428;47.1287494;7.238021799999999;66.28800201416016;1673431005.8397746;-13.062484741210938;10.478199005126953;-136.81529235839844
316;1673431005.895575;47.128739599999996;7.2380081;66.68400573730469;1673431006.026429;-13.2277193069458;9.668484687805176;-136.6534423828125
317;1673431006.087503;47.128729799999995;7.2379944;67.08000183105469;1673431006.2179527;-13.216075897216797;9.258275032043457;-136.6359405517578
318;1673431006.2816;47.1287199;7.2379807;67.47700500488281;1673431006.4110563;-12.98912525177002;8.206557273864746;-136.4196014404297
319;1673431006.4859014;47.12871;7.237966999999999;67.87200164794922;1673431006.6261477;-12.710640907287598;7.914991855621338;-136.55799865722656
320;1673431006.6892045;47.128700099999996;7.2379533;68.27300262451172;1673431006.8110764;-12.56086540222168;7.777723789215088;-136.54989624023438
321;1673431006.878865;47.1286902;7.2379397;68.67400360107422;1673431007.0203328;-12.387231826782227;8.016767501831055;-136.56289672851562
322;1673431007.0798807;47.1286802;7.237926;69.07100677490234;1673431007.2228336;-12.3341064453125;8.391913414001465;-136.55482482910156
323;1673431007.2862413;47.128670299999996;7.2379123;69.46700286865234;1673431007.4154997;-11.978363990783691;8.731039047241211;-136.9605712890625
324;1673431007.4910135;47.1286604;7.237898599999999;69.86400604248047;1673431007.6196156;-11.931451797485352;9.363157272338867;-136.84970092773438
325;1673431007.7109435;47.1286504;7.2378849;70.26000213623047;1673431007.8424354;-11.909743309020996;10.129552841186523;-136.7513885498047
326;1673431007.9046555;47.128640499999996;7.2378712;70.65800476074219;1673431008.0283935;-11.938114166259766;10.636335372924805;-136.81678771972656
327;1673431008.0993083;47.1286306;7.237857699999999;71.0580062866211;1673431008.2604694;-12.311434745788574;11.048242568969727;-136.7499542236328
328;1673431008.3272347;47.1286206;7.2378442;71.46000671386719;1673431008.4694226;-12.693548202514648;11.6073637008667;-136.6544952392578
329;1673431008.550806;47.128610699999996;7.2378307;71.86100006103516;1673431008.6863606;-12.871315956115723;11.959880828857422;-136.8984832763672
330;1673431008.7397335;47.1286007;7.237817199999999;72.26300048828125;1673431008.8659067;-12.736613273620605;12.137574195861816;-136.9995574951172
331;1673431008.923569;47.1285907;7.2378035999999994;72.66300201416016;1673431009.0562263;-12.630667686462402;12.210747718811035;-136.99514770507812
332;1673431009.120134;47.1285807;7.2377899999999995;73.06000518798828;1673431009.2466726;-12.486398696899414;12.293460845947266;-137.0399169921875
333;1673431009.3057804;47.1285708;7.237776299999999;73.46000671386719;1673431009.422506;-12.524650573730469;12.573806762695312;-137.11715698242188
334;1673431009.48889;47.1285609;7.2377625;73.86100006103516;1673431009.6285577;-12.599541664123535;12.464452743530273;-137.201904296875
335;1673431009.684335;47.128550999999995;7.237748799999999;74.26300048828125;1673431009.813721;-12.341484069824219;11.90964412689209;-137.03382873535156
336;1673431009.8859982;47.1285412;7.237735;74.66100311279297;1673431010.0308452;-12.709056854248047;11.653993606567383;-137.14990234375
337;1673431010.1008446;47.1285313;7.237721199999999;75.0580062866211;1673431010.2363024;-12.698763847351074;11.236109733581543;-137.06463623046875
338;1673431010.2919736;47.1285214;7.2377075;75.45600128173828;1673431010.4170403;-12.617478370666504;11.141923904418945;-137.0182342529297
339;1673431010.4785178;47.128511499999995;7.2376938;75.8530044555664;1673431010.6027486;-12.742119789123535;11.394325256347656;-137.02906799316406
340;1673431010.674059;47.1285017;7.23768;76.25100708007812;1673431010.8106885;-12.89167594909668;10.898771286010742;-137.01611328125
341;1673431010.8816595;47.1284919;7.2376662;76.6510009765625;1673431011.0208511;-12.916065216064453;10.666186332702637;-136.95932006835938
342;1673431011.091126;47.128482;7.237652499999999;77.052001953125;1673431011.234227;-13.000264167785645;10.255414962768555;-136.7420196533203
343;1673431011.2918403;47.1284722;7.2376388;77.4520034790039;1673431011.4305596;-13.06434440612793;10.266804695129395;-136.7936248779297
344;1673431011.5075982;47.1284622;7.2376252999999995;77.85600280761719;1673431011.6376457;-12.834173202514648;10.316496849060059;-136.84490966796875
345;1673431011.7076979;47.1284522;7.2376116999999995;78.25700378417969;1673431011.8495884;-12.830592155456543;9.800379753112793;-136.82183837890625
346;1673431011.9106467;47.128442299999996;7.2375981;78.656005859375;1673431012.0256023;-12.689400672912598;9.18763542175293;-136.90090942382812
347;1673431012.0870147;47.1284323;7.2375843;79.0510025024414;1673431012.206;-12.732016563415527;9.443456649780273;-136.97743225097656
348;1673431012.2718344;47.1284224;7.2375706;79.44700622558594;1673431012.4150517;-13.085634231567383;9.451014518737793;-136.84288024902344
349;1673431012.4785419;47.128412499999996;7.2375568999999995;79.84300231933594;1673431012.627294;-13.213080406188965;8.982144355773926;-136.5211181640625
350;1673431012.6902006;47.1284026;7.2375433;80.24100494384766;1673431012.8275034;-12.817301750183105;8.662972450256348;-136.3408203125
351;1673431012.8970468;47.1283927;7.2375297;80.64200592041016;1673431013.038284;-12.000957489013672;8.567190170288086;-136.04275512695312
352;1673431013.099022;47.128382699999996;7.2375161;81.04100036621094;1673431013.2332156;-11.76217269897461;9.405920028686523;-136.14610290527344
353;1673431013.2890015;47.1283728;7.2375026;81.44400024414062;1673431013.434449;-11.759099960327148;10.333511352539062;-136.43170166015625
354;1673431013.4960506;47.1283628;7.237489;81.84900665283203;1673431013.617449;-11.85684871673584;10.856956481933594;-136.87478637695312
355;1673431013.686766;47.128352799999995;7.2374754;82.24800109863281;1673431013.8176084;-13.33785629272461;10.366352081298828;-137.24342346191406
356;1673431013.879153;47.1283429;7.237461799999999;82.64300537109375;1673431014.029707;-13.911837577819824;10.293798446655273;-137.18206787109375
357;1673431014.095278;47.128333;7.2374481;83.03800201416016;1673431014.2259624;-14.041784286499023;10.57345962524414;-137.16384887695312
358;1673431014.289424;47.128323099999996;7.2374344;83.43400573730469;1673431014.4182947;-13.498577117919922;10.463128089904785;-137.0508270263672
359;1673431014.4867225;47.1283131;7.2374208;83.83500671386719;1673431014.617244;-11.775130271911621;10.521302223205566;-136.9510498046875
360;1673431014.689952;47.1283032;7.237406999999999;84.23500061035156;1673431014.8304448;-10.84228229522705;10.45486068725586;-136.89329528808594
361;1673431014.895161;47.128293199999995;7.2373933;84.63500213623047;1673431015.026281;-10.849980354309082;10.374613761901855;-136.8980255126953
362;1673431015.0838692;47.1282832;7.2373796;85.03400421142578;1673431015.2198596;-12.613755226135254;10.008803367614746;-136.95404052734375
363;1673431015.2794333;47.1282734;7.2373658999999995;85.4330062866211;1673431015.4149375;-13.416688919067383;10.174163818359375;-136.9362030029297
364;1673431015.4853706;47.128263499999996;7.2373522999999995;85.8340072631836;1673431015.628994;-14.072498321533203;10.203667640686035;-137.0230712890625
365;1673431015.6836436;47.128253699999995;7.2373388;86.23500061035156;1673431015.815751;-13.540440559387207;10.644478797912598;-137.05221557617188
366;1673431015.8757908;47.1282438;7.2373252;86.63200378417969;1673431016.0277603;-12.416658401489258;10.512215614318848;-137.0777587890625
367;1673431016.0943155;47.1282339;7.2373116;87.02800750732422;1673431016.2266212;-11.604463577270508;10.4693021774292;-136.9042510986328
368;1673431016.2844317;47.128223999999996;7.237298;87.42300415039062;1673431016.4161017;-11.208507537841797;10.479913711547852;-136.8797607421875
369;1673431016.4797733;47.128214;7.2372843;87.81600189208984;1673431016.6228235;-11.992714881896973;10.420499801635742;-136.96920776367188
370;1673431016.6882145;47.1282041;7.2372707;88.20500183105469;1673431016.8175855;-13.276886940002441;10.333027839660645;-137.08091735839844
371;1673431016.8862906;47.128194199999996;7.237257;88.59800720214844;1673431017.0052;-14.180340766906738;10.433061599731445;-137.0590362548828
372;1673431017.0757215;47.128184399999995;7.2372434;88.99100494384766;1673431017.2211506;-13.904997825622559;10.606982231140137;-136.94903564453125
373;1673431017.2838001;47.1281745;7.2372298;89.38500213623047;1673431017.4283414;-12.884873390197754;10.608683586120605;-136.99562072753906
374;1673431017.4960802;47.1281646;7.2372162;89.77900695800781;1673431017.6326764;-11.835675239562988;10.476346969604492;-136.87069702148438
375;1673431017.696203;47.128154699999996;7.2372026;90.17400360107422;1673431017.8389661;-11.092731475830078;10.350227355957031;-136.921875
376;1673431017.9043682;47.1281448;7.2371889;90.57000732421875;1673431018.0385478;-11.711129188537598;10.137243270874023;-136.9769287109375
377;1673431018.1082714;47.1281349;7.237175199999999;90.96500396728516;1673431018.223027;-12.96436595916748;10.132416725158691;-137.03114318847656
378;1673431018.2836258;47.128125;7.237161599999999;91.36300659179688;1673431018.4192536;-14.155141830444336;10.352706909179688;-137.09341430664062
379;1673431018.4839022;47.128115099999995;7.2371479999999995;91.75700378417969;1673431018.6240346;-14.165519714355469;10.381953239440918;-137.07081604003906
380;1673431018.6836486;47.1281052;7.2371343999999995;92.15300750732422;1673431018.8258846;-12.970568656921387;10.434066772460938;-136.87681579589844
381;1673431018.9005158;47.1280952;7.2371208;92.54700469970703;1673431019.0307255;-12.407326698303223;10.628963470458984;-136.96690368652344
382;1673431019.0971355;47.128085299999995;7.2371072;92.93400573730469;1673431019.2281992;-11.570747375488281;10.443554878234863;-136.9440460205078
383;1673431019.2896757;47.1280754;7.2370936;93.32500457763672;1673431019.4348187;-11.421636581420898;10.197664260864258;-136.82577514648438
384;1673431019.506225;47.1280654;7.2370798999999995;93.71800231933594;1673431019.6426666;-12.124978065490723;10.252172470092773;-136.87660217285156
385;1673431019.7352002;47.128055499999995;7.2370662999999995;94.1100082397461;1673431019.8655844;-13.611696243286133;10.250314712524414;-137.05935668945312
386;1673431019.9305706;47.1280456;7.2370527;94.5060043334961;1673431020.0610375;-14.51236343383789;10.289276123046875;-137.18557739257812
387;1673431020.1191666;47.1280357;7.2370392;94.9010009765625;1673431020.268345;-13.783113479614258;10.490995407104492;-137.11268615722656
388;1673431020.3265226;47.128025699999995;7.2370256;95.29300689697266;1673431020.4575832;-12.36523723602295;10.265380859375;-136.89161682128906
389;1673431020.5440934;47.1280158;7.237012;95.68900299072266;1673431020.6678703;-11.514274597167969;10.256961822509766;-136.70648193359375
390;1673431020.7198937;47.1280058;7.2369983;96.08500671386719;1673431020.8405645;-11.327895164489746;10.183581352233887;-136.79600524902344
391;1673431020.8994322;47.1279958;7.2369847;96.48200225830078;1673431021.0251756;-12.026888847351074;9.893655776977539;-136.85423278808594
392;1673431021.1061985;47.1279859;7.2369711;96.87500762939453;1673431021.2450306;-13.130459785461426;10.2052583694458;-136.9189453125
393;1673431021.3039024;47.127975899999996;7.2369575;97.26900482177734;1673431021.4552224;-14.074385643005371;10.18616008758545;-137.0258331298828
394;1673431021.5356684;47.1279659;7.2369439;97.66300201416016;1673431021.664263;-14.326691627502441;10.525465965270996;-137.15492248535156
395;1673431021.7126524;47.127956;7.236930399999999;98.05900573730469;1673431021.8480742;-13.231861114501953;10.664091110229492;-137.08055114746094
396;1673431021.9198866;47.127945999999994;7.2369167999999995;98.45500183105469;1673431022.0512133;-11.566429138183594;10.626453399658203;-136.83407592773438
397;1673431022.1099951;47.127936;7.2369031999999995;98.8530044555664;1673431022.2392552;-11.211872100830078;10.206995964050293;-136.6107635498047
398;1673431022.3036823;47.127926099999996;7.236889499999999;99.25200653076172;1673431022.4701104;-11.557501792907715;10.093768119812012;-136.65689086914062
399;1673431022.5321372;47.1279161;7.2368758;99.6510009765625;1673431022.6589804;-12.617101669311523;9.956480979919434;-136.8201446533203
400;1673431022.7251027;47.1279061;7.2368621;100.04900360107422;1673431022.8528035;-13.333858489990234;10.226639747619629;-137.03048706054688
401;1673431022.9164803;47.1278961;7.2368485;100.44500732421875;1673431023.0508866;-13.965497016906738;10.340312004089355;-137.1027374267578
402;1673431023.1268766;47.1278861;7.2368349;100.84200286865234;1673431023.2606041;-13.860105514526367;10.638163566589355;-137.13729858398438
403;1673431023.3333514;47.127876199999996;7.2368213;101.24000549316406;1673431023.4755118;-12.778844833374023;10.665719032287598;-137.0562286376953
404;1673431023.5365756;47.1278663;7.2368077;101.63900756835938;1673431023.6747408;-11.284140586853027;10.442892074584961;-136.87954711914062
405;1673431023.7433214;47.1278563;7.236794;102.03600311279297;1673431023.8745332;-10.831011772155762;10.351107597351074;-136.75277709960938
406;1673431023.937245;47.127846299999995;7.2367802999999995;102.43400573730469;1673431024.0707774;-11.729249954223633;10.11711597442627;-136.75491333007812
407;1673431024.1315317;47.1278363;7.2367666999999996;102.83500671386719;1673431024.2589154;-12.645039558410645;10.14501667022705;-136.7628173828125
408;1673431024.3200085;47.127826299999995;7.236752999999999;103.23800659179688;1673431024.4518642;-13.71955394744873;10.347843170166016;-136.89178466796875
409;1673431024.510076;47.1278163;7.2367395;103.64000701904297;1673431024.6382284;-13.764902114868164;10.614051818847656;-137.04867553710938
410;1673431024.6991513;47.1278065;7.2367259;104.04200744628906;1673431024.8288488;-13.326884269714355;10.524012565612793;-136.98634338378906
411;1673431024.8878272;47.127796599999996;7.2367123;104.44200134277344;1673431025.0178206;-11.938738822937012;10.616606712341309;-136.88494873046875
412;1673431025.088829;47.1277866;7.2366985999999995;104.84100341796875;1673431025.2268498;-11.273962020874023;10.636109352111816;-136.88380432128906
413;1673431025.3011754;47.1277766;7.236684899999999;105.23600769042969;1673431025.442383;-11.01196575164795;10.50603199005127;-136.83668518066406
414;1673431025.507922;47.1277666;7.236671299999999;105.6310043334961;1673431025.6358762;-11.92951488494873;10.358169555664062;-136.79934692382812
415;1673431025.7086945;47.1277567;7.236657699999999;106.02900695800781;1673431025.858752;-13.33691692352295;10.344892501831055;-136.8139190673828
