;pos_time;latitude;longitude;altitude;alt_time;pitch;roll;yaw
0;1673429646.3188832;47.1306425;7.240619799999999;-0.009000000543892384;1673429646.4356084;-0.1440662294626236;-0.10334500670433044;89.92871856689453
1;1673429646.5281105;47.1306425;7.2406197;-0.009000000543892384;1673429646.6510031;-0.07656779140233994;-0.08571363985538483;89.84041595458984
2;1673429646.7312732;47.1306425;7.2406197;-0.01100000087171793;1673429646.843282;-0.04682326316833496;-0.13820701837539673;89.94841003417969
3;1673429646.9316359;47.1306424;7.2406197;-0.012000000104308128;1673429647.0436094;0.06327284872531891;-0.2080661803483963;90.17216491699219
4;1673429647.1340585;47.1306424;7.240619799999999;-0.013000000268220901;1673429647.246006;-0.012725443579256535;-0.061544109135866165;89.91321563720703
5;1673429647.3236933;47.1306424;7.240619799999999;-0.01600000075995922;1673429647.4218316;-0.11737711727619171;-0.24574317038059235;89.968505859375
6;1673429647.5058916;47.1306424;7.240619799999999;-0.01900000125169754;1673429647.6138551;-0.14707446098327637;-0.13404397666454315;89.9098129272461
7;1673429647.7014787;47.1306423;7.240619799999999;-0.023000001907348633;1673429647.8286066;-0.06674214452505112;-0.18168355524539948;89.79292297363281
8;1673429647.9236536;47.1306424;7.240619799999999;-0.024000000208616257;1673429648.0464058;-0.2270677536725998;-0.23180027306079865;89.80582427978516
9;1673429648.1346648;47.1306424;7.240619799999999;-0.02200000174343586;1673429648.2455368;-0.25464093685150146;-0.24558253586292267;89.8366928100586
10;1673429648.3241718;47.1306424;7.240619799999999;-0.021000001579523087;1673429648.4408555;-0.01194361224770546;-0.18895752727985382;89.88385009765625
11;1673429648.5160146;47.1306423;7.240619799999999;-0.021000001579523087;1673429648.6354532;-0.16435518860816956;-0.24008966982364655;89.83064270019531
12;1673429648.7197735;47.1306423;7.240619799999999;-0.021000001579523087;1673429648.8403668;-0.10374478995800018;-0.3401494324207306;89.83613586425781
13;1673429648.9307115;47.1306423;7.240619799999999;0.0010000000474974513;1673429649.0399904;-0.18678881227970123;-0.2220383882522583;89.89647674560547
14;1673429649.1225817;47.1306423;7.2406198999999996;0.005000000353902578;1673429649.2315621;-0.10070299357175827;-0.06334629654884338;89.8674087524414
15;1673429649.3176298;47.1306423;7.2406198999999996;0.010000000707805157;1673429649.4398685;-0.19979168474674225;-0.277193158864975;89.83941650390625
16;1673429649.5265524;47.1306423;7.2406198999999996;0.014000000432133675;1673429649.638637;-0.2800366282463074;-0.20203205943107605;89.97412872314453
17;1673429649.7227156;47.1306423;7.24062;0.01600000075995922;1673429649.8335695;-0.29195070266723633;-0.17370860278606415;90.07051849365234
18;1673429649.9143677;47.1306423;7.24062;0.012000000104308128;1673429650.0315228;-0.1273384988307953;-0.27500173449516296;89.86473846435547
19;1673429650.1204178;47.1306423;7.2406201;0.009000000543892384;1673429650.2315397;-0.1747642606496811;-0.23949162662029266;90.08683776855469
20;1673429650.3164723;47.1306423;7.2406201;0.006000000052154064;1673429650.4383607;-0.06623513251543045;-0.48142287135124207;89.97306060791016
21;1673429650.5326493;47.1306423;7.2406201;0.0;1673429650.6429245;-0.15188957750797272;-0.21141888201236725;89.93140411376953
22;1673429650.7307782;47.1306423;7.2406201;0.0010000000474974513;1673429650.8491635;-0.004722381941974163;0.13137659430503845;90.13020324707031
23;1673429650.9363894;47.1306423;7.2406201;0.0020000000949949026;1673429651.0653834;0.23652516305446625;0.02209087274968624;89.9395751953125
24;1673429651.152488;47.1306423;7.2406201;0.0020000000949949026;1673429651.260382;0.10367511212825775;-0.04498801380395889;90.25977325439453
25;1673429651.37022;47.1306423;7.2406201;0.0020000000949949026;1673429651.4787743;-0.13979566097259521;-0.09462215006351471;90.04676055908203
26;1673429651.5473506;47.1306424;7.2406201;0.0;1673429651.6675162;-0.02506295032799244;-0.05247749760746956;89.81063079833984
27;1673429651.7403762;47.1306424;7.2406201;-0.0010000000474974513;1673429651.8546343;-0.004008307121694088;-0.263595312833786;90.06656646728516
28;1673429651.9445546;47.1306423;7.2406201;-0.0020000000949949026;1673429652.0654957;0.21371899545192719;-0.1914714276790619;89.98493194580078
29;1673429652.151551;47.1306423;7.2406201;-0.003000000026077032;1673429652.2584395;0.20918814837932587;-0.25227585434913635;89.85452270507812
30;1673429652.3416228;47.1306424;7.2406201;-0.003000000026077032;1673429652.4593668;0.8180767297744751;-0.1567288190126419;89.6360092163086
31;1673429652.5435245;47.1306424;7.2406201;0.0;1673429652.65834;2.0149290561676025;-0.6955723762512207;89.07477569580078
32;1673429652.7347775;47.1306424;7.24062;0.007000000216066837;1673429652.848324;1.0838069915771484;-1.3225924968719482;88.40744018554688
33;1673429652.9349573;47.1306424;7.240619799999999;0.027000000700354576;1673429653.0744362;-0.5410658121109009;2.926192045211792;88.30272674560547
34;1673429653.1559284;47.1306425;7.2406196;0.0690000057220459;1673429653.2691724;-0.23387490212917328;-1.9333404302597046;88.73155975341797
35;1673429653.349893;47.1306425;7.240619499999999;0.1210000067949295;1673429653.4646413;-0.028635406866669655;-1.6698707342147827;88.74064636230469
36;1673429653.5403636;47.1306424;7.240619499999999;0.1860000044107437;1673429653.6488547;0.10820135474205017;2.1613965034484863;88.82337188720703
37;1673429653.7270062;47.1306423;7.240619499999999;0.2670000195503235;1673429653.8409681;-0.004162413068115711;-1.1135319471359253;89.1263427734375
38;1673429653.9190562;47.1306424;7.2406196;0.36000001430511475;1673429654.0409944;-0.5201509594917297;-2.258197546005249;89.40361022949219
39;1673429654.1282315;47.1306425;7.2406197;0.4740000367164612;1673429654.2710488;-0.6546974182128906;2.104637384414673;89.15261840820312
40;1673429654.3577313;47.130642599999995;7.240619799999999;0.6030000448226929;1673429654.4711368;0.6442224383354187;0.5214908123016357;89.07849884033203
41;1673429654.553658;47.130642699999996;7.240619799999999;0.7430000305175781;1673429654.672632;0.6018192172050476;-2.7294974327087402;89.32112121582031
42;1673429654.7550142;47.130642599999995;7.240619799999999;0.8970000147819519;1673429654.867027;1.072398066520691;1.0516085624694824;89.15894317626953
43;1673429654.9359133;47.1306425;7.240619799999999;1.065000057220459;1673429655.0418227;0.5581985116004944;1.09638249874115;89.47479248046875
44;1673429655.122834;47.1306424;7.240619799999999;1.2450000047683716;1673429655.2418728;0.1591392308473587;-3.0752928256988525;89.7089614868164
45;1673429655.3400254;47.1306424;7.2406197;1.4320000410079956;1673429655.4656718;-0.5300555229187012;0.07719753682613373;90.51141357421875
46;1673429655.5521047;47.1306425;7.2406197;1.6250001192092896;1673429655.6847186;-0.023864787071943283;2.271465539932251;90.0571517944336
47;1673429655.7643502;47.130642599999995;7.2406196;1.821000099182129;1673429655.8713398;0.2085159868001938;-2.318427801132202;90.03923034667969
48;1673429655.9569643;47.1306425;7.2406196;2.0160000324249268;1673429656.1052194;0.5244476795196533;-1.1829259395599365;89.80693817138672
49;1673429656.1921875;47.1306424;7.2406196;2.2139999866485596;1673429656.2913136;0.45211470127105713;2.1010396480560303;89.61752319335938
50;1673429656.3870134;47.1306424;7.2406196;2.4150002002716064;1673429656.541187;0.16330638527870178;-0.7718842029571533;90.02428436279297
51;1673429656.6057355;47.1306424;7.240619499999999;2.615000009536743;1673429656.7217922;-0.640837550163269;-1.790037989616394;90.02811431884766
52;1673429656.7951775;47.1306425;7.240619499999999;2.819000244140625;1673429656.9032745;-0.7228277325630188;3.1462082862854004;89.86930084228516
53;1673429656.99281;47.130642599999995;7.240619499999999;3.0180001258850098;1673429657.1157713;-0.19321821630001068;0.580946147441864;89.95904541015625
54;1673429657.191993;47.1306425;7.240619499999999;3.2150001525878906;1673429657.3157165;0.2672109603881836;-2.9847311973571777;89.97843933105469
55;1673429657.38569;47.1306424;7.240619499999999;3.4130001068115234;1673429657.4926896;0.5072219967842102;0.8557525873184204;90.11907958984375
56;1673429657.5693812;47.130642099999996;7.2406196;3.6120002269744873;1673429657.6767073;0.40627408027648926;0.48727211356163025;90.0510025024414
57;1673429657.7588603;47.130642099999996;7.2406196;3.811000108718872;1673429657.887546;0.16936202347278595;-3.324519157409668;90.29146575927734
58;1673429657.9678893;47.130642099999996;7.2406196;4.006999969482422;1673429658.0820458;-0.3281753659248352;0.8974425196647644;89.78805541992188
59;1673429658.1643999;47.130642099999996;7.2406196;4.202000141143799;1673429658.2787673;-0.4727555811405182;1.7226146459579468;89.82990264892578
60;1673429658.3842099;47.1306422;7.2406196;4.400000095367432;1673429658.5007913;-0.34337741136550903;-2.8661599159240723;90.31172180175781
61;1673429658.576041;47.130642099999996;7.2406196;4.603000164031982;1673429658.680828;0.27184149622917175;-0.26104071736335754;90.19752502441406
62;1673429658.7527168;47.130641999999995;7.2406196;4.809000015258789;1673429658.8589387;0.528458833694458;1.8373357057571411;90.2035140991211
63;1673429658.9402735;47.1306419;7.2406196;5.011000156402588;1673429659.0543652;0.5344798564910889;-3.0881869792938232;90.11225128173828
64;1673429659.1396112;47.1306419;7.2406196;5.212000370025635;1673429659.2592857;0.3008244037628174;-1.2774959802627563;90.0888442993164
65;1673429659.34286;47.1306419;7.2406197;5.414000034332275;1673429659.457603;-0.24672256410121918;2.1220669746398926;89.97166442871094
66;1673429659.5430624;47.1306419;7.2406197;5.616000175476074;1673429659.6549745;-0.3377164602279663;-1.711717128753662;90.2533950805664
67;1673429659.7312753;47.1306419;7.2406197;5.823000431060791;1673429659.836801;-0.13850995898246765;-2.3297934532165527;90.27217102050781
68;1673429659.9218369;47.1306418;7.2406197;6.027000427246094;1673429660.0451136;0.1781691312789917;1.957180142402649;89.96891021728516
69;1673429660.1354487;47.1306418;7.2406197;6.2270002365112305;1673429660.2529707;0.8888420462608337;-1.476269245147705;90.13899230957031
70;1673429660.3396373;47.1306418;7.240619799999999;6.429000377655029;1673429660.4497528;0.4878805875778198;-2.647322416305542;90.08534240722656
71;1673429660.5402396;47.1306419;7.240619799999999;6.62600040435791;1673429660.6512244;0.2886439263820648;2.3132336139678955;89.88875579833984
72;1673429660.7397344;47.130642099999996;7.240619799999999;6.825000286102295;1673429660.848624;-0.31151440739631653;0.2440522015094757;90.11228942871094
73;1673429660.9350636;47.1306422;7.2406197;7.029000282287598;1673429661.0459802;-0.572704553604126;-2.6864776611328125;90.40042114257812
74;1673429661.119546;47.130642099999996;7.2406197;7.2310004234313965;1673429661.2433057;-0.25453242659568787;1.0997179746627808;90.23848724365234
75;1673429661.3276665;47.130641999999995;7.2406196;7.430000305175781;1673429661.4521687;0.3587168753147125;0.9414612650871277;89.89666748046875
76;1673429661.5392;47.130641999999995;7.2406197;7.633000373840332;1673429661.7032309;0.5242897272109985;-3.3400003910064697;90.03189086914062
77;1673429661.8144083;47.130642099999996;7.2406197;7.832000255584717;1673429661.9371438;0.42476627230644226;0.23375456035137177;90.11083221435547
78;1673429662.0290577;47.130641999999995;7.240619799999999;8.032000541687012;1673429662.1475465;0.23865090310573578;1.7495222091674805;90.0650863647461
79;1673429662.2119777;47.130641999999995;7.2406198999999996;8.229000091552734;1673429662.3281634;-0.11300361901521683;-2.8476078510284424;90.3638687133789
80;1673429662.4023833;47.130641999999995;7.2406198999999996;8.42400074005127;1673429662.4977818;-0.5533374547958374;-0.7452239990234375;89.996826171875
81;1673429662.6013973;47.1306419;7.2406198999999996;8.620000839233398;1673429662.7188563;-0.2762574553489685;2.113614797592163;89.87051391601562
82;1673429662.800091;47.1306419;7.240619799999999;8.815999984741211;1673429662.9187963;0.3940458595752716;-2.9521212577819824;89.99357604980469
83;1673429662.9955027;47.130641999999995;7.240619799999999;9.009000778198242;1673429663.1114168;0.595176100730896;-2.0988783836364746;89.9464340209961
84;1673429663.1959238;47.130642099999996;7.2406198999999996;9.206000328063965;1673429663.302017;0.6908684968948364;2.5158722400665283;89.99517059326172
85;1673429663.3846233;47.1306422;7.2406198999999996;9.405000686645508;1673429663.49431;0.038401324301958084;-0.7920109629631042;90.32294464111328
86;1673429663.5680635;47.1306422;7.2406198999999996;9.604000091552734;1673429663.6720839;-0.05895361304283142;-2.331928014755249;90.32833862304688
87;1673429663.7568154;47.1306422;7.24062;9.805000305175781;1673429663.8740396;-0.3199969530105591;1.6079648733139038;89.80858612060547
88;1673429663.9583294;47.130642099999996;7.24062;10.008000373840332;1673429664.0741186;-0.16865526139736176;-0.25769203901290894;89.90303802490234
89;1673429664.162504;47.1306422;7.2406201;10.220000267028809;1673429664.27046;0.410931795835495;-2.5811965465545654;90.31163787841797
90;1673429664.3459806;47.1306422;7.2406201;10.515000343322754;1673429664.4549491;0.9715385437011719;0.6886807680130005;90.2049560546875
91;1673429664.5360415;47.1306422;7.2406201;10.880000114440918;1673429664.6512582;0.7484052777290344;1.7623140811920166;90.07383728027344
92;1673429664.7433932;47.1306422;7.2406201;11.267000198364258;1673429664.853397;0.19497281312942505;-2.5870115756988525;90.31397247314453
93;1673429664.9303439;47.130642099999996;7.2406201;11.664000511169434;1673429665.0485623;0.028460489585995674;-0.8458844423294067;90.16060638427734
94;1673429665.13057;47.130641999999995;7.2406201;12.065000534057617;1673429665.252773;-0.10297662019729614;1.5695277452468872;89.87924194335938
95;1673429665.3511097;47.130641999999995;7.2406201;12.46500015258789;1673429665.4778244;-0.17051340639591217;-1.6824347972869873;90.17677307128906
96;1673429665.5669067;47.130642099999996;7.2406201;12.867000579833984;1673429665.679633;-0.08663884550333023;-2.220017194747925;90.28545379638672
97;1673429665.754602;47.130642099999996;7.2406201;13.271000862121582;1673429665.8691432;0.04484264552593231;2.318039655685425;89.9640884399414
98;1673429665.9775426;47.1306422;7.2406201;13.67400074005127;1673429666.081591;0.3185640573501587;0.48472777009010315;90.02816009521484
99;1673429666.1623788;47.1306423;7.2406201999999995;14.079000473022461;1673429666.2713466;0.38876527547836304;-2.4321069717407227;90.27742004394531
100;1673429666.3462832;47.1306422;7.2406201999999995;14.486001014709473;1673429666.4561574;0.326680988073349;1.4376040697097778;89.99700927734375
101;1673429666.5336268;47.1306422;7.2406203;14.892001152038574;1673429666.6505628;0.34026601910591125;0.9235935807228088;89.99231719970703
102;1673429666.739588;47.1306422;7.2406203;15.295001029968262;1673429666.8555248;-0.010102062486112118;-2.578763723373413;90.33358764648438
103;1673429666.9586546;47.1306423;7.2406204;15.701001167297363;1673429667.0638597;-0.003981573041528463;0.7129814624786377;90.11067199707031
104;1673429667.1401603;47.1306422;7.2406204;16.110000610351562;1673429667.2496088;-0.3804408311843872;1.0813161134719849;89.78543853759766
105;1673429667.3316636;47.1306422;7.2406203;16.513999938964844;1673429667.459923;0.03323068469762802;-2.489567756652832;90.14369201660156
106;1673429667.551446;47.130642099999996;7.2406203;16.917001724243164;1673429667.6556473;0.06782650947570801;-0.8205581903457642;90.33087921142578
107;1673429667.7446384;47.130641999999995;7.2406203;17.322999954223633;1673429667.8628337;0.34877368807792664;1.7177948951721191;90.03792572021484
108;1673429667.9595015;47.130641999999995;7.2406203;17.735000610351562;1673429668.1133904;0.5664206743240356;-2.4205100536346436;90.11100769042969
109;1673429668.2275019;47.130642099999996;7.2406203;18.147001266479492;1673429668.3732576;0.5126566290855408;-1.6561658382415771;90.07280731201172
110;1673429668.432925;47.130642099999996;7.2406203;18.560001373291016;1673429668.5199044;0.426928848028183;2.0359885692596436;89.98566436767578
111;1673429668.6121998;47.1306422;7.2406203;18.970001220703125;1673429668.7140057;0.12788112461566925;-0.4320409893989563;90.12777709960938
112;1673429668.7901843;47.1306423;7.2406201999999995;19.386001586914062;1673429668.9013214;-0.13737519085407257;-2.0995991230010986;90.3372802734375
113;1673429668.9737225;47.1306423;7.2406201999999995;19.80500030517578;1673429669.0894413;-0.04801911488175392;1.9058188199996948;89.97278594970703
114;1673429669.1566224;47.1306423;7.2406201;20.22100067138672;1673429669.2716439;-0.03637692332267761;0.3050025701522827;90.07750701904297
115;1673429669.3540285;47.1306423;7.2406201;20.632001876831055;1673429669.4767594;0.29769426584243774;-2.5407402515411377;90.30939483642578
116;1673429669.5623484;47.1306424;7.24062;21.040000915527344;1673429669.691871;0.5857576131820679;1.549616813659668;90.13682556152344
117;1673429669.7705235;47.1306424;7.24062;21.448001861572266;1673429669.8895175;0.6269903182983398;1.292008638381958;90.19281005859375
118;1673429669.971127;47.1306424;7.24062;21.85300064086914;1673429670.1035583;0.12919194996356964;-2.8120484352111816;90.21414947509766
119;1673429670.1887984;47.1306423;7.24062;22.25800132751465;1673429670.2939484;0.004832358565181494;-0.2979620397090912;89.96898651123047
120;1673429670.3757515;47.1306422;7.2406198999999996;22.665000915527344;1673429670.4906747;-0.44855278730392456;1.4773433208465576;89.87654876708984
121;1673429670.572287;47.1306422;7.240619799999999;23.071001052856445;1673429670.6833773;-0.2274317890405655;-2.5310616493225098;90.19204711914062
122;1673429670.7632043;47.1306423;7.240619799999999;23.47100067138672;1673429670.871007;-0.3138428032398224;-0.7907746434211731;90.2500228881836
123;1673429670.959437;47.1306424;7.2406197;23.8700008392334;1673429671.0781388;-0.013386529870331287;2.745230197906494;90.026123046875
124;1673429671.1549573;47.1306424;7.2406197;24.26700210571289;1673429671.2587845;0.18266506493091583;-1.545994758605957;90.05394744873047
125;1673429671.3398035;47.1306424;7.240619799999999;24.667001724243164;1673429671.4618251;0.3563418388366699;-1.7057801485061646;90.16432189941406
126;1673429671.5479226;47.1306423;7.240619799999999;25.066001892089844;1673429671.6707792;0.2054554522037506;1.9432437419891357;89.92745971679688
127;1673429671.7479575;47.1306423;7.240619799999999;25.46700096130371;1673429671.8658662;-0.1768294870853424;-0.477433443069458;90.1385498046875
128;1673429671.9602323;47.1306424;7.240619799999999;25.871000289916992;1673429672.0649946;-0.3253156542778015;-2.245731830596924;90.34073638916016
129;1673429672.1412456;47.1306424;7.2406197;26.279001235961914;1673429672.2557328;-0.3329099714756012;2.146313190460205;89.91807556152344
130;1673429672.3472004;47.1306424;7.2406197;26.681001663208008;1673429672.470944;-0.11532370746135712;0.3274767994880676;90.04071807861328
131;1673429672.573171;47.1306424;7.2406197;27.078001022338867;1673429672.6814423;0.204990416765213;-3.094764471054077;90.26081848144531
132;1673429672.757649;47.1306423;7.240619799999999;27.479001998901367;1673429672.8665395;0.38476303219795227;1.0178714990615845;90.176513671875
133;1673429672.9446847;47.1306422;7.240619799999999;27.875001907348633;1673429673.066994;0.4041259288787842;1.218204140663147;90.03689575195312
134;1673429673.1538863;47.1306423;7.240619799999999;28.269001007080078;1673429673.272315;0.02840568870306015;-2.6834075450897217;90.30864715576172
135;1673429673.3599708;47.1306424;7.240619799999999;28.66400146484375;1673429673.4749148;-0.26159176230430603;0.27982446551322937;90.0635757446289
136;1673429673.553033;47.1306424;7.240619799999999;29.06100082397461;1673429673.6588135;-0.23603656888008118;1.9413166046142578;89.88105010986328
137;1673429673.7477717;47.1306424;7.240619799999999;29.45600128173828;1673429673.8640718;-0.37005770206451416;-1.963461995124817;90.13545989990234
138;1673429673.9431274;47.1306424;7.2406197;29.85500144958496;1673429674.0752704;-0.16208742558956146;-1.5422818660736084;90.21839141845703
139;1673429674.1702294;47.1306423;7.2406197;30.256000518798828;1673429674.2830672;0.032576803117990494;2.417902946472168;90.1360092163086
140;1673429674.37248;47.1306424;7.2406197;30.655000686645508;1673429674.4787073;0.38647109270095825;-0.8543192148208618;90.10430145263672
141;1673429674.5632973;47.1306424;7.2406197;31.055002212524414;1673429674.685818;0.4582959711551666;-2.0678586959838867;90.09895324707031
142;1673429674.7704346;47.1306425;7.2406197;31.45600128173828;1673429674.877995;0.07251826673746109;2.205552339553833;89.93692779541016
143;1673429674.9605505;47.1306424;7.2406197;31.856000900268555;1673429675.0841303;0.08554144948720932;0.6676132082939148;90.12065887451172
144;1673429675.1648765;47.1306424;7.2406197;32.25100326538086;1673429675.2855146;-0.16983705759048462;-2.9407174587249756;90.25273132324219
145;1673429675.3687627;47.1306423;7.2406197;32.645999908447266;1673429675.4823043;-0.16831710934638977;0.6459150314331055;90.0589599609375
146;1673429675.5723872;47.1306423;7.2406197;33.04100036621094;1673429675.6949944;-0.2864268124103546;1.335158109664917;89.92453002929688
147;1673429675.8012295;47.1306424;7.2406197;33.439002990722656;1673429675.9130623;0.09507424384355545;-2.614203929901123;90.28032684326172
148;1673429675.9977238;47.1306425;7.2406196;33.8390007019043;1673429676.0946;0.1466231495141983;-0.05531276389956474;90.1593017578125
149;1673429676.183322;47.1306425;7.2406196;34.236000061035156;1673429676.3059216;0.5321555137634277;2.320878028869629;90.0123291015625
150;1673429676.3913872;47.1306425;7.2406196;34.63199996948242;1673429676.5090506;0.21215030550956726;-1.98529851436615;90.18257141113281
151;1673429676.588698;47.1306425;7.2406196;35.031002044677734;1673429676.699809;-0.059006012976169586;-0.9873661398887634;89.99821472167969
152;1673429676.7813857;47.1306424;7.2406197;35.432003021240234;1673429676.899054;-0.2259199619293213;2.278870105743408;89.89952850341797
153;1673429676.978517;47.1306425;7.2406197;35.83300018310547;1673429677.093627;-0.3344508409500122;-1.3258776664733887;90.20474243164062
154;1673429677.1839628;47.130642599999995;7.2406197;36.23400115966797;1673429677.2896042;-0.24167488515377045;-1.8959968090057373;90.29889678955078
155;1673429677.3762429;47.130642699999996;7.240619799999999;36.634002685546875;1673429677.4873414;-0.011228830553591251;2.7080657482147217;89.9397964477539
156;1673429677.5698576;47.130642699999996;7.240619799999999;37.02799987792969;1673429677.683519;0.18183037638664246;-0.016036542132496834;90.07291412353516
157;1673429677.776779;47.130642599999995;7.240619799999999;37.41800308227539;1673429677.8974867;0.49356746673583984;-2.765187978744507;90.19463348388672
158;1673429677.9840665;47.1306425;7.2406198999999996;37.81100082397461;1673429678.1078672;0.3913067877292633;1.4019875526428223;89.98147583007812
159;1673429678.1884708;47.1306425;7.24062;38.20900344848633;1673429678.2964897;0.2536962926387787;1.0013947486877441;90.07405853271484
160;1673429678.3722355;47.130642599999995;7.24062;38.60900115966797;1673429678.4758775;-0.11728467047214508;-2.364854574203491;90.2955551147461
161;1673429678.5600126;47.130642699999996;7.24062;39.00800323486328;1673429678.6785173;-0.3173444867134094;1.0437263250350952;90.1204833984375
162;1673429678.7735126;47.130642699999996;7.24062;39.410003662109375;1673429678.8844254;-0.33632713556289673;1.8883848190307617;89.97721862792969
163;1673429678.973851;47.130642699999996;7.24062;39.80500030517578;1673429679.0830588;-0.15199077129364014;-2.61804461479187;90.15673828125
164;1673429679.159269;47.130642599999995;7.24062;40.202003479003906;1673429679.2726219;0.044318538159132004;-0.2959860563278198;90.19625091552734
165;1673429679.357574;47.1306425;7.2406198999999996;40.60200119018555;1673429679.47111;0.3372459411621094;2.269915819168091;90.04657745361328
166;1673429679.5645247;47.130642599999995;7.2406198999999996;41.00300216674805;1673429679.6831264;0.38817960023880005;-1.5908613204956055;90.07582092285156
167;1673429679.77059;47.130642699999996;7.2406198999999996;41.40700149536133;1673429679.901016;0.2561242878437042;-1.137715220451355;90.15411376953125
168;1673429679.9835386;47.130642699999996;7.2406198999999996;41.80800247192383;1673429680.1051;-0.10382042080163956;2.755988836288452;89.94207763671875
169;1673429680.2200153;47.130642699999996;7.2406198999999996;42.2030029296875;1673429680.3397462;-0.2914091646671295;-0.7714778184890747;90.2073974609375
170;1673429680.429448;47.130642599999995;7.240619799999999;42.599002838134766;1673429680.5378885;-0.35141798853874207;-2.6070878505706787;90.34415435791016
171;1673429680.6322956;47.1306425;7.240619799999999;43.00300216674805;1673429680.7469718;-0.29769089818000793;1.6491085290908813;90.0399398803711
172;1673429680.8563871;47.1306425;7.2406197;43.410003662109375;1673429680.950623;0.13666383922100067;0.46233895421028137;90.04930114746094
173;1673429681.02737;47.130642599999995;7.2406196;43.816001892089844;1673429681.1550934;0.270354300737381;-2.546262264251709;90.14701080322266
174;1673429681.2259328;47.130642599999995;7.2406196;44.21600341796875;1673429681.3270211;0.38880637288093567;0.7525047659873962;90.0420913696289
175;1673429681.3959413;47.130642599999995;7.2406197;44.61000061035156;1673429681.500017;0.09948419779539108;1.4964221715927124;90.11854553222656
176;1673429681.5805695;47.130642599999995;7.2406197;45.00200271606445;1673429681.6916852;-0.10576766729354858;-2.499326229095459;90.28012084960938
177;1673429681.7809043;47.1306425;7.2406196;45.39500045776367;1673429681.9360816;-0.48188042640686035;-0.38406243920326233;89.99870300292969
178;1673429682.0561697;47.1306424;7.2406196;45.78900146484375;1673429682.1633341;-0.2848966121673584;1.962609052658081;89.84263610839844
179;1673429682.2358086;47.1306425;7.240619499999999;46.18400192260742;1673429682.3346379;-0.26334622502326965;-1.2767666578292847;90.1261215209961
180;1673429682.4191597;47.130642599999995;7.240619499999999;46.577003479003906;1673429682.5381389;0.2923901379108429;-1.4409526586532593;90.25703430175781
181;1673429682.657949;47.130642699999996;7.240619499999999;46.974002838134766;1673429682.7811646;0.2603551149368286;2.6525697708129883;90.02452087402344
182;1673429682.91183;47.130642599999995;7.240619499999999;47.36600112915039;1673429682.9748926;0.1864786446094513;-0.5972031354904175;90.2799072265625
183;1673429683.0906372;47.130642599999995;7.240619499999999;47.75200271606445;1673429683.177138;-0.09542503952980042;-2.741659641265869;90.2174301147461
184;1673429683.2533898;47.1306425;7.240619499999999;48.12900161743164;1673429683.3893216;-0.32764893770217896;1.9541314840316772;90.19876098632812
185;1673429683.4842846;47.130642599999995;7.240619499999999;48.458003997802734;1673429683.571213;-0.2974022626876831;0.39034247398376465;89.96651458740234
186;1673429683.639654;47.130642699999996;7.240619499999999;48.7390022277832;1673429683.743319;-0.036817923188209534;-2.5249130725860596;90.16265106201172
187;1673429683.8521495;47.130642699999996;7.240619499999999;48.97300338745117;1673429683.9425728;0.06392492353916168;2.547642230987549;89.97308349609375
188;1673429684.0211954;47.130642699999996;7.2406196;49.16800308227539;1673429684.1226587;0.01957121305167675;0.7669975161552429;90.2135009765625
189;1673429684.206692;47.130642599999995;7.2406196;49.33000183105469;1673429684.3185034;11.831086158752441;9.377657890319824;92.27450561523438
190;1673429684.4001384;47.1306423;7.240619199999999;49.47500228881836;1673429684.517236;25.54222297668457;30.247087478637695;104.1371078491211
191;1673429684.5900168;47.130641;7.240616999999999;49.61100387573242;1673429684.6950924;28.423097610473633;46.63943862915039;114.10604858398438
192;1673429684.7732174;47.1306377;7.240611599999999;49.724002838134766;1673429684.8777683;20.832426071166992;57.16838836669922;122.5503921508789
193;1673429684.9749615;47.1306319;7.2406023;49.801002502441406;1673429685.1052208;2.2771148681640625;59.479347229003906;132.9281005859375
194;1673429685.1915407;47.1306236;7.2405895;49.84600067138672;1673429685.310505;-13.621625900268555;55.07672882080078;143.19334411621094
195;1673429685.388176;47.1306133;7.240573899999999;49.868003845214844;1673429685.50256;-25.846193313598633;47.570091247558594;153.6468505859375
196;1673429685.5919976;47.1306012;7.240556199999999;49.87200164794922;1673429685.7307491;-37.85011291503906;43.12855911254883;164.8250274658203
197;1673429685.8247445;47.1305876;7.240537;49.87000274658203;1673429685.9288273;-47.142337799072266;39.68803787231445;178.13543701171875
198;1673429686.0070307;47.1305726;7.2405159;49.8650016784668;1673429686.1589818;-50.29921340942383;28.863588333129883;-169.00042724609375
199;1673429686.2447453;47.1305566;7.240493;49.82400131225586;1673429686.3463895;-46.41780471801758;21.92876434326172;-163.45433044433594
200;1673429686.4212842;47.130539899999995;7.240469099999999;49.76100158691406;1673429686.5147114;-46.751182556152344;16.4814510345459;-157.37551879882812
201;1673429686.58943;47.1305228;7.2404443999999994;49.702003479003906;1673429686.7024317;-46.141536712646484;11.843071937561035;-150.0207977294922
202;1673429686.7859797;47.1305054;7.2404193;49.65200424194336;1673429686.9038227;-46.540863037109375;5.760762691497803;-142.38461303710938
203;1673429686.9833152;47.1304878;7.2403936;49.618003845214844;1673429687.0925238;-46.2580680847168;4.163940906524658;-136.79893493652344
204;1673429687.1845791;47.1304701;7.2403676;49.59400177001953;1673429687.3059187;-46.564266204833984;-2.56524658203125;-130.9503936767578
205;1673429687.4091806;47.130452299999995;7.2403413;49.58000183105469;1673429687.5141597;-46.47455978393555;-6.55478572845459;-132.30633544921875
206;1673429687.6064904;47.1304344;7.240315;49.579002380371094;1673429687.723887;-46.5680046081543;-5.514286994934082;-135.15757751464844
207;1673429687.8116508;47.1304161;7.2402891;49.58700180053711;1673429687.9508474;-47.9348030090332;-4.367138385772705;-136.4776153564453
208;1673429688.0310678;47.1303974;7.2402636;49.60100173950195;1673429688.145387;-47.62849044799805;-2.6782708168029785;-137.549560546875
209;1673429688.234776;47.1303784;7.240238199999999;49.621002197265625;1673429688.3261297;-48.212738037109375;-1.3940075635910034;-138.03416442871094
210;1673429688.407863;47.1303592;7.2402128;49.64800262451172;1673429688.525624;-48.8460807800293;-0.47743499279022217;-138.34567260742188
211;1673429688.6101565;47.130339799999994;7.2401874;49.67900085449219;1673429688.7232451;-49.33481979370117;0.2247675061225891;-138.4912567138672
212;1673429688.8116193;47.1303203;7.2401618;49.704002380371094;1673429688.9264107;-49.369346618652344;0.49507081508636475;-138.4103240966797
213;1673429689.0147908;47.1303005;7.2401361;49.71900177001953;1673429689.1314833;-47.86445999145508;0.5163753032684326;-138.21209716796875
214;1673429689.2228334;47.1302808;7.2401102999999996;49.730003356933594;1673429689.335637;-47.178531646728516;0.4228070378303528;-137.94952392578125
215;1673429689.4198127;47.130261;7.2400845;49.7390022277832;1673429689.5312114;-47.428688049316406;0.4520934522151947;-137.84767150878906
216;1673429689.6166642;47.1302412;7.240058599999999;49.75400161743164;1673429689.7304764;-47.98287582397461;0.39126914739608765;-137.7106475830078
217;1673429689.8179846;47.1302215;7.240032599999999;49.772003173828125;1673429689.9328263;-48.58293533325195;0.28118810057640076;-137.58847045898438
218;1673429690.0105274;47.1302017;7.2400065;49.7910041809082;1673429690.11267;-48.52350997924805;0.34254908561706543;-137.50588989257812
219;1673429690.1893513;47.130182;7.2399803;49.803001403808594;1673429690.3091536;-48.11537551879883;0.16696128249168396;-137.35211181640625
220;1673429690.3923888;47.130162299999995;7.239954099999999;49.814002990722656;1673429690.510218;-47.91884231567383;0.20847083628177643;-137.29388427734375
221;1673429690.6028197;47.1301425;7.239927799999999;49.81900405883789;1673429690.7268207;-47.81758117675781;0.15958313643932343;-137.1942901611328
222;1673429690.8216527;47.130122799999995;7.239901499999999;49.82600402832031;1673429690.936228;-47.97531509399414;0.21638140082359314;-137.179931640625
223;1673429691.0208297;47.1301031;7.2398751;49.83100128173828;1673429691.1464324;-47.96100997924805;0.12192145735025406;-137.10902404785156
224;1673429691.242944;47.1300835;7.239848599999999;49.836002349853516;1673429691.3548918;-48.08106231689453;0.06270665675401688;-137.07998657226562
225;1673429691.456384;47.130063799999995;7.2398221;49.842002868652344;1673429691.5540037;-48.161338806152344;0.06767111271619797;-137.03680419921875
226;1673429691.675446;47.1300442;7.2397956;49.84400177001953;1673429691.7664044;-48.01071548461914;0.05549471080303192;-137.0394287109375
227;1673429691.841354;47.1300246;7.239769;49.84600067138672;1673429691.940271;-47.94358444213867;-0.018990812823176384;-136.9893798828125
228;1673429692.0111284;47.130005;7.2397424;49.845001220703125;1673429692.124243;-47.899330139160156;0.07470382750034332;-136.9907684326172
229;1673429692.2481048;47.129985399999995;7.2397158;49.84700393676758;1673429692.3510218;-48.12181854248047;0.022535407915711403;-136.9513702392578
230;1673429692.4244843;47.129965899999995;7.239689299999999;49.84800338745117;1673429692.5217052;-48.17390060424805;0.02859346754848957;-136.98623657226562
231;1673429692.6062577;47.1299463;7.2396626;49.85200119018555;1673429692.726066;-48.217369079589844;0.003485279157757759;-136.97447204589844
232;1673429692.812518;47.1299268;7.2396359;49.85700225830078;1673429692.9275336;-48.23518753051758;-0.022252028807997704;-136.97288513183594
233;1673429693.0155156;47.1299072;7.239609199999999;49.85600280761719;1673429693.1247382;-48.05905532836914;-0.07187208533287048;-136.95033264160156
234;1673429693.1965837;47.129887599999996;7.2395824;49.85300064086914;1673429693.3035426;-47.79073715209961;-0.04207358881831169;-136.98695373535156
235;1673429693.390945;47.129868099999996;7.2395556999999995;49.85100173950195;1673429693.5085971;-47.74506378173828;-0.13942654430866241;-136.95445251464844
236;1673429693.5868425;47.1298485;7.2395289;49.855003356933594;1673429693.713886;-48.106258392333984;-0.13104435801506042;-136.9912109375
237;1673429693.8100874;47.129829;7.239502099999999;49.862003326416016;1673429693.9419742;-48.455535888671875;-0.0687703862786293;-137.0082244873047
238;1673429694.0279255;47.1298094;7.2394754;49.868003845214844;1673429694.1361623;-48.40211486816406;-0.05122137814760208;-136.98826599121094
239;1673429694.2150319;47.1297899;7.239448599999999;49.86900329589844;1673429694.3297327;-47.981876373291016;-0.008420828729867935;-137.00965881347656
240;1673429694.4045131;47.1297703;7.2394218;49.87000274658203;1673429694.526257;-47.657005310058594;-0.03535423427820206;-136.99246215820312
241;1673429694.610942;47.129750699999995;7.239395;49.871002197265625;1673429694.7346072;-47.72327423095703;-0.10426340997219086;-136.961181640625
242;1673429694.8212483;47.1297311;7.2393681999999995;49.875003814697266;1673429694.9713762;-47.98741912841797;-0.03811337798833847;-137.01246643066406
243;1673429695.0635574;47.1297115;7.2393414;49.880001068115234;1673429695.167526;-48.228981018066406;-0.06877557188272476;-136.95228576660156
244;1673429695.245263;47.1296919;7.239314599999999;49.88800048828125;1673429695.3531775;-48.393150329589844;-0.01281916256994009;-136.99237060546875
245;1673429695.429831;47.129672299999996;7.2392879;49.89600372314453;1673429695.555399;-48.336585998535156;0.04089616239070892;-136.99563598632812
246;1673429695.6398797;47.1296527;7.239261099999999;49.9010009765625;1673429695.732437;-48.198612213134766;-0.004851986654102802;-136.95997619628906
247;1673429695.8048952;47.1296331;7.2392343;49.90400314331055;1673429695.9148078;-47.961002349853516;-0.05952633544802666;-136.97341918945312
248;1673429695.9911609;47.1296135;7.2392074;49.906002044677734;1673429696.1105719;-48.011531829833984;-0.03223501518368721;-136.96987915039062
249;1673429696.199074;47.129593899999996;7.2391805;49.90900421142578;1673429696.3268123;-48.09003448486328;-0.10610152035951614;-136.94461059570312
250;1673429696.4152265;47.129574299999994;7.239153699999999;49.91100311279297;1673429696.5301626;-48.064292907714844;0.002846353454515338;-136.9759063720703
251;1673429696.6264157;47.1295548;7.2391269;49.913002014160156;1673429696.739438;-47.94343185424805;-0.020318839699029922;-136.9767303466797
252;1673429696.8274186;47.1295352;7.2391001;49.91400146484375;1673429696.9392595;-47.868038177490234;-0.06954248994588852;-136.9435577392578
253;1673429697.0356069;47.1295156;7.2390732;49.91200256347656;1673429697.1621923;-47.723487854003906;-0.058086786419153214;-136.9521026611328
254;1673429697.247762;47.129495999999996;7.239046399999999;49.91400146484375;1673429697.3964202;-47.780052185058594;-0.011777879670262337;-136.9641571044922
255;1673429697.4920876;47.129476399999994;7.2390196;49.91800308227539;1673429697.6542225;-47.939842224121094;-0.015624870546162128;-136.95574951171875
256;1673429697.7115464;47.1294569;7.2389928;49.923004150390625;1673429697.8152988;-48.07691955566406;-0.03792662173509598;-136.93153381347656
257;1673429697.8845778;47.1294373;7.238966;49.92900085449219;1673429697.9749517;-48.14460372924805;-0.2579449713230133;-136.88851928710938
258;1673429698.056509;47.1294177;7.2389392;49.93600082397461;1673429698.1684542;-48.23649978637695;0.9627806544303894;-137.23260498046875
259;1673429698.2525816;47.1293982;7.238912399999999;49.93700408935547;1673429698.3637705;-47.673439025878906;-0.2813010811805725;-136.67872619628906
260;1673429698.4434178;47.1293787;7.2388854;49.939002990722656;1673429698.5430286;-47.39421081542969;-0.6338469386100769;-136.746337890625
261;1673429698.6232984;47.129359099999995;7.2388585999999995;49.94300079345703;1673429698.7360544;-47.998435974121094;-0.18766315281391144;-136.92852783203125
262;1673429698.8150263;47.1293395;7.2388318;49.95100402832031;1673429698.928593;-48.321434020996094;-0.27881404757499695;-136.9302520751953
263;1673429699.0190866;47.1293199;7.2388049;49.96200180053711;1673429699.1252189;-48.44349670410156;0.02025812491774559;-137.01853942871094
264;1673429699.2075374;47.129300199999996;7.238778099999999;49.96900177001953;1673429699.3530958;-42.65984344482422;-0.3817554712295532;-136.7583770751953
265;1673429699.4385993;47.1292806;7.2387514;49.99400329589844;1673429699.5486565;-30.720577239990234;0.07230079174041748;-136.72708129882812
266;1673429699.6312134;47.1292615;7.238725499999999;50.02100372314453;1673429699.742492;-13.455021858215332;0.5846816301345825;-136.5699920654297
267;1673429699.8176901;47.129243699999996;7.2387011;50.03000259399414;1673429699.9414418;0.0448930449783802;0.6189936399459839;-136.3574981689453
268;1673429700.0366843;47.1292276;7.2386792;50.02700424194336;1673429700.1516736;10.401032447814941;-0.5157315731048584;-135.99972534179688
269;1673429700.2287543;47.1292136;7.2386601;50.01300048828125;1673429700.3538303;15.542657852172852;-0.11216078698635101;-136.89927673339844
270;1673429700.4324927;47.129202;7.2386441999999995;49.97200393676758;1673429700.5395613;21.159317016601562;2.0874664783477783;-138.54354858398438
271;1673429700.6162202;47.1291928;7.2386314;49.9010009765625;1673429700.731122;16.174047470092773;2.525954246520996;-138.19583129882812
272;1673429700.81658;47.1291856;7.2386215;49.82600402832031;1673429700.9333322;14.578147888183594;1.8926275968551636;-136.78216552734375
273;1673429701.014946;47.1291802;7.238614;49.77300262451172;1673429701.128963;8.722343444824219;-1.4314254522323608;-136.72825622558594
274;1673429701.2175741;47.129176099999995;7.238607999999999;49.73600387573242;1673429701.3343313;-1.0134412050247192;-3.6740329265594482;-136.92108154296875
275;1673429701.4238203;47.1291728;7.238603299999999;49.7130012512207;1673429701.536755;-10.581199645996094;1.892172932624817;-137.46141052246094
276;1673429701.630035;47.1291698;7.2385991;49.71600341796875;1673429701.7458022;-13.285346031188965;3.0676937103271484;-137.66653442382812
277;1673429701.8322353;47.1291668;7.2385947999999996;49.74100112915039;1673429701.9431205;-11.356712341308594;3.154603958129883;-137.38400268554688
278;1673429702.0228815;47.1291636;7.2385905;49.78600311279297;1673429702.1454692;-7.356286525726318;0.7224291563034058;-136.86270141601562
279;1673429702.2434263;47.129160399999996;7.238586;49.84800338745117;1673429702.3663082;-3.7305192947387695;-1.012464165687561;-136.70155334472656
280;1673429702.4713624;47.129157299999996;7.2385815;49.91200256347656;1673429702.5746784;-2.061091423034668;-2.6593177318573;-136.6792449951172
281;1673429702.6528547;47.1291544;7.238577299999999;49.97200393676758;1673429702.7715402;-21.585195541381836;-2.1711716651916504;-137.27297973632812
282;1673429702.8481917;47.1291514;7.2385731;50.07200241088867;1673429702.9514742;-25.120716094970703;-1.2478315830230713;-137.00482177734375
283;1673429703.026208;47.1291478;7.238567799999999;50.20500183105469;1673429703.133289;-17.523351669311523;0.5404375791549683;-137.65927124023438
284;1673429703.2197897;47.1291434;7.238561799999999;50.40800094604492;1673429703.3345115;-16.256589889526367;3.7310187816619873;-138.17930603027344
285;1673429703.4258254;47.1291388;7.2385553;50.698001861572266;1673429703.5453157;-23.138757705688477;2.392521858215332;-137.87413024902344
286;1673429703.6298006;47.1291338;7.2385481;51.053001403808594;1673429703.7446916;-42.46552276611328;-2.89566969871521;-137.1442413330078
287;1673429703.8293657;47.1291276;7.238539299999999;51.43700408935547;1673429703.9383907;-42.66366958618164;-3.0806026458740234;-136.79371643066406
288;1673429704.0220835;47.1291199;7.2385287;51.81500244140625;1673429704.1233199;-38.61548614501953;-2.9628803730010986;-136.4289093017578
289;1673429704.200467;47.129110999999995;7.2385166;52.176002502441406;1673429704.3186967;-34.40052032470703;-1.6181467771530151;-136.59939575195312
290;1673429704.4045913;47.129101299999995;7.2385037;52.52800369262695;1673429704.5255089;-30.288816452026367;0.578201949596405;-136.99754333496094
291;1673429704.6112967;47.1290911;7.2384901;52.87400436401367;1673429704.7309835;-27.20842170715332;2.56662917137146;-137.48020935058594
292;1673429704.8242583;47.1290808;7.238476299999999;53.21900177001953;1673429704.9401753;-25.475711822509766;3.574976921081543;-137.73056030273438
293;1673429705.0286143;47.1290705;7.2384625;53.56800079345703;1673429705.144418;-24.506153106689453;3.0042612552642822;-137.8408660888672
294;1673429705.2178943;47.1290602;7.2384486;53.92500305175781;1673429705.345648;-23.987104415893555;1.452657699584961;-137.64764404296875
295;1673429705.4294362;47.129050199999995;7.2384347;54.290000915527344;1673429705.5444431;-23.783010482788086;-0.16882938146591187;-137.47023010253906
296;1673429705.6256433;47.1290403;7.2384208999999995;54.66200256347656;1673429705.7366145;-23.837787628173828;-1.7747083902359009;-137.0164031982422
297;1673429705.82223;47.1290305;7.2384072999999995;55.0410041809082;1673429705.939973;-24.103391647338867;-1.6504770517349243;-137.1865997314453
298;1673429706.0255342;47.1290209;7.2383938;55.423004150390625;1673429706.128578;-24.82177734375;-0.471269428730011;-137.54010009765625
299;1673429706.222015;47.129011299999995;7.2383805;55.80600357055664;1673429706.351369;-25.481945037841797;1.7100105285644531;-137.9861602783203
300;1673429706.4357004;47.129001599999995;7.238367299999999;56.191001892089844;1673429706.551734;-25.924829483032227;3.1056747436523438;-138.24159240722656
301;1673429706.6320002;47.128991899999995;7.2383541;56.577003479003906;1673429706.7440293;-26.12578773498535;2.7713117599487305;-138.03118896484375
302;1673429706.819793;47.128982099999995;7.2383409;56.965003967285156;1673429706.9392948;-26.178773880004883;1.8429795503616333;-137.7032470703125
303;1673429707.0228019;47.1289723;7.2383276;57.355003356933594;1673429707.1346724;-26.193567276000977;0.5480371117591858;-137.3832550048828
304;1673429707.2212985;47.1289626;7.238314099999999;57.74900436401367;1673429707.3360906;-25.991132736206055;-0.5796830058097839;-137.20205688476562
305;1673429707.4284708;47.1289528;7.238300499999999;58.1400032043457;1673429707.5453444;-26.024120330810547;-1.3624026775360107;-137.2141876220703
306;1673429707.6306198;47.1289431;7.238287;58.53200149536133;1673429707.7474468;-25.958433151245117;-1.5317720174789429;-137.13819885253906
307;1673429707.816348;47.1289334;7.2382734;58.92500305175781;1673429707.9371254;-25.835203170776367;-1.6698906421661377;-137.0979766845703
308;1673429708.019448;47.1289237;7.2382596999999995;59.3180046081543;1673429708.1519668;-25.72869873046875;-0.7532355189323425;-137.39541625976562
309;1673429708.2401829;47.128913999999995;7.2382461;59.71200180053711;1673429708.337698;-25.64579963684082;-0.14739972352981567;-137.42950439453125
310;1673429708.4209743;47.1289042;7.2382325;60.10400390625;1673429708.5414093;-25.6767635345459;0.5292801260948181;-137.70330810546875
311;1673429708.6317298;47.1288944;7.238219;60.493003845214844;1673429708.7644284;-25.85688018798828;1.3621015548706055;-137.6074676513672
312;1673429708.8432937;47.1288846;7.2382056;60.88500213623047;1673429708.9819274;-25.933202743530273;1.8491137027740479;-137.61473083496094
313;1673429709.0842314;47.1288747;7.2381921;61.281002044677734;1673429709.2117867;-25.794296264648438;2.0050835609436035;-137.7233123779297
314;1673429709.2966852;47.128864899999996;7.2381787;61.67900466918945;1673429709.3931174;-25.817638397216797;1.9177744388580322;-137.46408081054688
315;1673429709.4686093;47.128855099999996;7.2381652999999995;62.07600402832031;1673429709.5946805;-26.100875854492188;1.645907998085022;-137.41233825683594
316;1673429709.678758;47.1288452;7.2381519;62.471004486083984;1673429709.8235214;-25.85222625732422;0.8326524496078491;-137.20480346679688
317;1673429709.8948116;47.1288354;7.2381385;62.8650016784668;1673429710.0189943;-26.20121192932129;0.5001912117004395;-137.17230224609375
318;1673429710.091401;47.1288256;7.2381250999999995;63.25700378417969;1673429710.1876872;-26.325265884399414;-0.6475394368171692;-136.87464904785156
319;1673429710.27029;47.1288158;7.2381116;63.64900207519531;1673429710.3860483;-26.53028678894043;-1.5426814556121826;-136.67645263671875
320;1673429710.4598162;47.128806;7.238098099999999;64.04100036621094;1673429710.5657823;-26.429018020629883;-1.7794111967086792;-136.56521606445312
321;1673429710.6455283;47.1287962;7.238084499999999;64.4330062866211;1673429710.7524974;-26.405838012695312;-1.8734118938446045;-136.64739990234375
322;1673429710.8441315;47.128786399999996;7.238070899999999;64.8270034790039;1673429710.9582837;-26.315664291381836;-1.8371069431304932;-136.6875457763672
323;1673429711.063002;47.1287765;7.2380574;65.22000122070312;1673429711.2104645;-26.443052291870117;-1.2794201374053955;-136.73641967773438
324;1673429711.3280323;47.1287667;7.2380439;65.61000061035156;1673429711.423255;-26.44843292236328;-0.99798184633255;-136.82540893554688
325;1673429711.4975395;47.1287568;7.2380303999999995;66.0009994506836;1673429711.5978975;-26.37706184387207;-0.6769938468933105;-136.86293029785156
326;1673429711.6726766;47.128746799999995;7.238016999999999;66.39300537109375;1673429711.7836266;-26.30453872680664;-0.1938808411359787;-136.8265380859375
327;1673429711.8648605;47.1287368;7.2380036;66.78900146484375;1673429711.960219;-26.438232421875;-0.03218236565589905;-136.80838012695312
328;1673429712.0398512;47.1287269;7.237990099999999;67.18700408935547;1673429712.155761;-26.386255264282227;0.34267672896385193;-136.8780975341797
329;1673429712.2385936;47.1287169;7.2379766;67.58600616455078;1673429712.3607528;-26.37201690673828;0.4190864562988281;-136.92347717285156
330;1673429712.4512477;47.128707;7.237963;67.98500061035156;1673429712.5601478;-26.500917434692383;0.9869014620780945;-137.0463104248047
331;1673429712.640722;47.1286972;7.2379495;68.37800598144531;1673429712.751574;-26.54486656188965;1.2060271501541138;-137.14642333984375
332;1673429712.8272889;47.128687299999996;7.2379358;68.77300262451172;1673429712.971484;-26.6090145111084;1.2644457817077637;-137.14588928222656
333;1673429713.0596645;47.1286774;7.2379222;69.17200469970703;1673429713.1827948;-26.470436096191406;1.272404670715332;-137.150634765625
334;1673429713.2831357;47.1286675;7.2379085;69.56999969482422;1673429713.4066703;-26.64346694946289;1.1885510683059692;-137.0596160888672
335;1673429713.511925;47.1286576;7.2378949;69.96600341796875;1673429713.6128983;-26.665250778198242;1.2103475332260132;-137.0896759033203
336;1673429713.6871672;47.128647699999995;7.2378811999999995;70.36300659179688;1673429713.799013;-26.89336585998535;1.1263501644134521;-137.08172607421875
337;1673429713.8846614;47.1286377;7.237867499999999;70.76300048828125;1673429713.9984858;-26.962360382080078;0.8116127252578735;-136.98255920410156
338;1673429714.0732217;47.1286278;7.2378538;71.15800476074219;1673429714.1785212;-27.020830154418945;0.7555524706840515;-136.98663330078125
339;1673429714.286779;47.128617899999995;7.2378401;71.5530014038086;1673429714.3816514;-26.941225051879883;0.6822627186775208;-136.9747314453125
340;1673429714.454563;47.128608;7.237826399999999;71.95000457763672;1673429714.5537157;-26.8455867767334;0.6964303255081177;-137.0245819091797
341;1673429714.6364725;47.1285981;7.2378126;72.35100555419922;1673429714.7578876;-26.764066696166992;0.5607923269271851;-137.02891540527344
342;1673429714.841599;47.128588199999996;7.2377989;72.75300598144531;1673429714.989157;-26.650341033935547;0.4225649833679199;-136.9615936279297
343;1673429715.0713925;47.1285782;7.2377853;73.15900421142578;1673429715.2522593;-26.64630889892578;0.22147929668426514;-136.915771484375
344;1673429715.3079073;47.1285682;7.237771599999999;73.5580062866211;1673429715.395362;-26.87563133239746;0.1325901746749878;-136.85757446289062
345;1673429715.4673316;47.128558299999995;7.2377579;73.9530029296875;1673429715.589007;-26.85440444946289;0.07014161348342896;-136.82806396484375
346;1673429715.6974041;47.1285484;7.237744299999999;74.35000610351562;1673429715.8330839;-27.000295639038086;-0.026172686368227005;-136.8197021484375
347;1673429715.9023218;47.1285384;7.2377306;74.7490005493164;1673429716.0103128;-27.0390567779541;-0.1233237013220787;-136.84130859375
348;1673429716.0959346;47.128528499999994;7.2377169;75.14800262451172;1673429716.196084;-26.95279884338379;0.023125384002923965;-136.88417053222656
349;1673429716.276667;47.1285185;7.2377031999999994;75.54600524902344;1673429716.384614;-27.01793098449707;-0.053659845143556595;-136.8493194580078
350;1673429716.4681635;47.128508499999995;7.2376895999999995;75.94100189208984;1673429716.5799747;-26.913183212280273;0.0487019382417202;-136.86917114257812
351;1673429716.662549;47.1284986;7.237675899999999;76.33600616455078;1673429716.8326318;-26.92559051513672;0.25752565264701843;-136.90440368652344
352;1673429716.9048452;47.1284886;7.2376622;76.73500061035156;1673429717.0235226;-26.98086929321289;0.17082050442695618;-136.8984832763672
353;1673429717.0904365;47.128478699999995;7.2376485;77.13899993896484;1673429717.1963875;-26.899818420410156;0.15127184987068176;-136.93182373046875
354;1673429717.270357;47.1284687;7.2376347999999995;77.53900146484375;1673429717.3617244;-26.7628173828125;0.3104694187641144;-136.94239807128906
355;1673429717.4354875;47.128458699999996;7.237621099999999;77.93700408935547;1673429717.542475;-26.665205001831055;0.151248037815094;-136.91094970703125
356;1673429717.6518927;47.1284488;7.2376074;78.33300018310547;1673429717.806006;-26.64156150817871;0.14081375300884247;-136.8927001953125
357;1673429717.8982694;47.1284388;7.2375937;78.7300033569336;1673429718.072618;-26.618173599243164;0.17839834094047546;-136.9405517578125
358;1673429718.1288023;47.128428899999996;7.2375801;79.12600708007812;1673429718.2264516;-26.787294387817383;0.12282321602106094;-136.9027557373047
359;1673429718.2972736;47.128419;7.2375663999999995;79.52400207519531;1673429718.3944545;-26.648056030273438;0.24940653145313263;-136.9352264404297
360;1673429718.4721205;47.1284091;7.2375528;79.92100524902344;1673429718.573233;-26.713420867919922;0.1782558262348175;-136.92994689941406
361;1673429718.6589718;47.1283992;7.237539099999999;80.31800079345703;1673429718.7785878;-26.752365112304688;0.05615843087434769;-136.91384887695312
362;1673429718.8681946;47.128389299999995;7.237525499999999;80.71400451660156;1673429718.9801536;-26.768394470214844;0.18363872170448303;-136.9243621826172
363;1673429719.0628755;47.1283795;7.2375118;81.11200714111328;1673429719.175676;-26.80936622619629;0.013839075341820717;-136.91053771972656
364;1673429719.2670953;47.1283696;7.2374982;81.50800323486328;1673429719.3740408;-26.798168182373047;0.13681429624557495;-136.91741943359375
365;1673429719.4575453;47.1283597;7.2374845;81.90400695800781;1673429719.5753741;-26.76612663269043;0.05463334918022156;-136.91647338867188
366;1673429719.6601262;47.128349799999995;7.2374708;82.3010025024414;1673429719.8006053;-26.76087760925293;0.10140851140022278;-136.9246826171875
367;1673429719.8734047;47.1283399;7.2374572;82.69700622558594;1673429719.9740572;-26.573713302612305;0.1665499359369278;-136.94692993164062
368;1673429720.056111;47.1283299;7.2374436;83.09200286865234;1673429720.167113;-26.79471206665039;0.2167859673500061;-136.93222045898438
369;1673429720.242847;47.128319999999995;7.23743;83.48900604248047;1673429720.3577814;-26.813514709472656;0.13695909082889557;-136.91766357421875
370;1673429720.4470737;47.1283101;7.2374163;83.88600158691406;1673429720.5628178;-26.781280517578125;0.27075016498565674;-136.94357299804688
371;1673429720.6524405;47.1283002;7.2374027;84.28600311279297;1673429720.7761645;-26.715072631835938;0.3042486608028412;-136.92138671875
372;1673429720.8597567;47.128290299999996;7.2373891;84.68600463867188;1673429720.9589686;-26.751220703125;0.23510336875915527;-136.9529266357422
373;1673429721.0357344;47.1282804;7.2373753999999995;85.08700561523438;1673429721.1524165;-26.561588287353516;0.17505906522274017;-136.92396545410156
374;1673429721.24669;47.1282705;7.2373617999999995;85.48700714111328;1673429721.368305;-26.762454986572266;0.07791509479284286;-136.92721557617188
375;1673429721.4636037;47.1282606;7.2373482;85.88900756835938;1673429721.623476;-26.842931747436523;0.10791981220245361;-136.94371032714844
376;1673429721.6928833;47.128250699999995;7.2373346;86.29000091552734;1673429721.8042722;-26.78192710876465;0.24991612136363983;-136.95587158203125
377;1673429721.8927536;47.1282408;7.237321;86.68900299072266;1673429721.9987905;-26.619497299194336;0.21670100092887878;-136.93507385253906
378;1673429722.1047359;47.1282308;7.237307299999999;87.08800506591797;1673429722.2058384;-26.772083282470703;0.08709532022476196;-136.91513061523438
379;1673429722.3154466;47.128220899999995;7.2372936999999995;87.48500061035156;1673429722.4130943;-26.80449104309082;0.07243993133306503;-136.92337036132812
380;1673429722.488799;47.128211;7.2372800999999995;87.8790054321289;1673429722.596836;-26.814313888549805;0.0114433029666543;-136.92701721191406
381;1673429722.6795452;47.1282011;7.237266399999999;88.27400207519531;1673429722.7963967;-26.728546142578125;0.19420228898525238;-136.9603271484375
382;1673429722.8683703;47.128191099999995;7.237252799999999;88.67000579833984;1673429722.9762645;-26.479862213134766;0.09962861984968185;-136.92100524902344
383;1673429723.055964;47.1281812;7.237239199999999;89.06500244140625;1673429723.1868854;-26.671463012695312;0.11034154891967773;-136.93722534179688
384;1673429723.2700438;47.1281713;7.2372255999999995;89.46300506591797;1673429723.3819597;-26.69516372680664;0.07512825727462769;-136.91900634765625
385;1673429723.4607627;47.128161299999995;7.2372119999999995;89.86100769042969;1673429723.5726588;-26.725454330444336;0.09842227399349213;-136.93629455566406
386;1673429723.6837015;47.1281514;7.2371985;90.2560043334961;1673429723.8456228;-26.848047256469727;0.21676170825958252;-136.93968200683594
387;1673429723.9464812;47.1281415;7.2371849;90.64700317382812;1673429724.0718625;-26.717342376708984;0.006321803666651249;-136.89862060546875
388;1673429724.132377;47.128131599999996;7.237171399999999;91.03900146484375;1673429724.2178216;-26.826269149780273;0.12105432897806168;-136.9110107421875
389;1673429724.2857172;47.1281216;7.237157799999999;91.4310073852539;1673429724.3839207;-26.80623435974121;0.09083876013755798;-136.90090942382812
390;1673429724.4666123;47.1281117;7.2371441999999995;91.82500457763672;1673429724.5796893;-26.7744083404541;0.1670680195093155;-136.9329376220703
391;1673429724.6576407;47.128101699999995;7.2371307;92.22100067138672;1673429724.775535;-26.774049758911133;0.20449815690517426;-136.8921356201172
392;1673429724.8541706;47.1280917;7.2371171;92.61900329589844;1673429724.9718297;-26.603763580322266;0.14457520842552185;-136.91033935546875
393;1673429725.0572941;47.1280818;7.2371035;93.01700592041016;1673429725.1701288;-26.624732971191406;0.25984689593315125;-136.8876495361328
394;1673429725.258545;47.1280718;7.237089999999999;93.41500091552734;1673429725.3725836;-26.644357681274414;0.23837143182754517;-136.8860626220703
395;1673429725.4591415;47.1280618;7.237076399999999;93.81100463867188;1673429725.5750413;-26.73154067993164;0.2526024580001831;-136.88307189941406
396;1673429725.6680043;47.128051899999996;7.2370627999999995;94.21000671386719;1673429725.7856781;-26.70640754699707;0.23581072688102722;-136.88938903808594
397;1673429725.8712096;47.128042;7.2370491999999995;94.60900115966797;1673429725.988986;-26.653356552124023;0.10357781499624252;-136.88746643066406
398;1673429726.075634;47.1280321;7.2370356;95.00800323486328;1673429726.1815908;-26.67515754699707;0.18099169433116913;-136.9017791748047
399;1673429726.271014;47.128022099999995;7.237022;95.406005859375;1673429726.3772283;-26.61321258544922;0.18354448676109314;-136.89491271972656
400;1673429726.4554029;47.1280122;7.2370084;95.80500793457031;1673429726.5711591;-26.616260528564453;0.21237069368362427;-136.8852081298828
401;1673429726.6478994;47.1280022;7.2369948;96.20600128173828;1673429726.763701;-26.5648193359375;0.19854117929935455;-136.8564910888672
402;1673429726.84917;47.127992299999995;7.2369812;96.6050033569336;1673429726.9599996;-26.640483856201172;0.12679611146450043;-136.84835815429688
403;1673429727.048483;47.1279824;7.2369676;97.0060043334961;1673429727.1516833;-26.51116180419922;0.15046550333499908;-136.86727905273438
404;1673429727.2319953;47.1279724;7.236954;97.4070053100586;1673429727.3497963;-26.576641082763672;0.19455310702323914;-136.86526489257812
405;1673429727.4478083;47.127962499999995;7.2369404;97.8080062866211;1673429727.5735865;-26.538171768188477;0.2141040712594986;-136.86683654785156
406;1673429727.658744;47.1279525;7.2369268;98.2080078125;1673429727.769586;-26.503934860229492;0.1902787834405899;-136.84144592285156
407;1673429727.8601441;47.127942499999996;7.2369132;98.60600280761719;1673429727.9741058;-26.423828125;0.24242989718914032;-136.8373565673828
408;1673429728.0742047;47.1279326;7.2368996;99.0040054321289;1673429728.1891012;-26.459505081176758;0.27116307616233826;-136.86289978027344
409;1673429728.2755795;47.1279227;7.236885999999999;99.40300750732422;1673429728.382426;-26.635339736938477;0.13432832062244415;-136.84661865234375
410;1673429728.471855;47.1279129;7.236872399999999;99.802001953125;1673429728.5814428;-26.6053409576416;0.05603927746415138;-136.8308868408203
411;1673429728.6755083;47.127902999999996;7.236858799999999;100.20000457763672;1673429728.7943072;-26.898950576782227;-0.029370656237006187;-136.84600830078125
412;1673429728.87786;47.127893099999994;7.2368453;100.60000610351562;1673429729.0024326;-26.751066207885742;0.11202975362539291;-136.83917236328125
413;1673429729.0937395;47.1278833;7.2368317;101.00200653076172;1673429729.1850734;-26.867969512939453;0.18108771741390228;-136.8634796142578
414;1673429729.2618742;47.1278733;7.2368181;101.40100860595703;1673429729.3862185;-26.637826919555664;0.13957029581069946;-136.82704162597656
415;1673429729.47473;47.127863399999995;7.2368045;101.8010025024414;1673429729.5847423;-26.77371597290039;0.07651897519826889;-136.83255004882812
