;pos_time;latitude;longitude;altitude;alt_time;pitch;roll;yaw
0;1673432874.5974793;47.1306424;7.24062;-0.013000000268220901;1673432874.640212;0.061091262847185135;-0.42378827929496765;90.26174926757812
1;1673432874.781986;47.1306424;7.2406201;-0.013000000268220901;1673432874.815881;-0.11317334324121475;-0.5271345973014832;90.56349182128906
2;1673432874.9575093;47.1306424;7.2406201;-0.01600000075995922;1673432874.997814;-0.11286618560552597;-0.3422718048095703;90.56343078613281
3;1673432875.1507726;47.1306424;7.2406201999999995;-0.018000001087784767;1673432875.194022;-0.23522213101387024;-0.4138180613517761;90.52957153320312
4;1673432875.343343;47.1306424;7.2406203;-0.015000000596046448;1673432875.3866143;-0.28027209639549255;-0.38895153999328613;90.56353759765625
5;1673432875.552433;47.1306424;7.2406203;-0.012000000104308128;1673432875.5946846;-0.15951378643512726;-0.3391052782535553;90.56068420410156
6;1673432875.7560704;47.1306424;7.2406203;-0.013000000268220901;1673432875.8049831;-0.06743519753217697;-0.40339064598083496;90.45320892333984
7;1673432875.954829;47.1306424;7.2406203;-0.014000000432133675;1673432875.9940588;-0.010794873349368572;-0.3285916745662689;90.3622817993164
8;1673432876.161953;47.1306425;7.2406201999999995;-0.014000000432133675;1673432876.20787;-0.05992472916841507;-0.4778800308704376;90.55113220214844
9;1673432876.3675146;47.1306425;7.2406201999999995;-0.0020000000949949026;1673432876.4147284;0.01600206457078457;-2.2098734378814697;90.62215423583984
10;1673432876.582693;47.1306425;7.2406201;-0.009000000543892384;1673432876.6330142;0.02135767973959446;-1.850676417350769;90.72037506103516
11;1673432876.790186;47.1306425;7.2406201999999995;-0.01100000087171793;1673432876.8304498;-0.06955204904079437;-1.7305724620819092;90.48982238769531
12;1673432876.9848356;47.1306425;7.2406201999999995;-0.014000000432133675;1673432877.0187047;-0.05731409415602684;-1.6266101598739624;90.49822235107422
13;1673432877.1781778;47.1306425;7.2406201999999995;-0.017000000923871994;1673432877.2212465;-0.3052663803100586;-1.6113322973251343;90.5384521484375
14;1673432877.3784568;47.1306425;7.2406201999999995;-0.014000000432133675;1673432877.4283834;-0.19101619720458984;-1.975947618484497;90.5734634399414
15;1673432877.5841165;47.1306425;7.2406201999999995;-0.015000000596046448;1673432877.6248772;-0.018376410007476807;-2.279634952545166;90.4425048828125
16;1673432877.773921;47.130642599999995;7.2406201;0.0;1673432877.8170218;-0.2021983414888382;-2.330251455307007;90.53714752197266
17;1673432877.9808002;47.130642599999995;7.2406201;0.003000000026077032;1673432878.020959;-0.2526361644268036;-1.2880005836486816;90.74002838134766
18;1673432878.1707873;47.130642599999995;7.2406201;0.01100000087171793;1673432878.2065785;-0.007196884602308273;-0.5836545825004578;90.64238739013672
19;1673432878.3662796;47.130642699999996;7.2406201999999995;0.012000000104308128;1673432878.411248;-0.1132601648569107;-0.811306893825531;90.748779296875
20;1673432878.561714;47.1306428;7.2406201999999995;0.012000000104308128;1673432878.599797;-0.1800985038280487;-0.9215182065963745;90.81077575683594
21;1673432878.7481189;47.1306429;7.2406201999999995;0.010000000707805157;1673432878.790097;-0.13905663788318634;-0.8165035247802734;90.55084991455078
22;1673432878.9688811;47.130643;7.2406201999999995;0.012000000104308128;1673432879.0110579;-0.1617697924375534;-0.7541313767433167;90.39105224609375
23;1673432879.1713545;47.1306431;7.2406201999999995;0.01600000075995922;1673432879.2126298;-0.17513610422611237;-0.7242287993431091;90.37861633300781
24;1673432879.3837347;47.1306436;7.2406203;0.013000000268220901;1673432879.4296834;-0.05450085923075676;1.2032781839370728;92.04019927978516
25;1673432879.6141346;47.1306448;7.2406204;0.009000000543892384;1673432879.6492875;-0.01783549040555954;1.5582325458526611;95.50113677978516
26;1673432879.8027287;47.1306465;7.2406204999999995;0.0;1673432879.8459685;0.06563236564397812;6.584393501281738;100.52098846435547
27;1673432879.9992037;47.130648799999996;7.2406206;0.010000000707805157;1673432880.0510354;-0.45972955226898193;11.611098289489746;104.180908203125
28;1673432880.2024894;47.1306517;7.2406207;0.01600000075995922;1673432880.2389333;-0.7230108976364136;15.089367866516113;103.19970703125
29;1673432880.393447;47.1306551;7.240621099999999;0.03500000014901161;1673432880.437467;-0.7061765789985657;16.215444564819336;100.6407699584961
30;1673432880.5841293;47.1306589;7.2406216;0.07000000029802322;1673432880.6243923;-0.4741784334182739;17.78749656677246;98.59042358398438
31;1673432880.784193;47.130662799999996;7.2406223;0.11700000613927841;1673432880.8258069;-0.04298238083720207;19.594738006591797;96.9854965209961
32;1673432880.9779212;47.1306669;7.240623299999999;0.1770000010728836;1673432881.0230474;0.5778924822807312;21.458492279052734;95.72220611572266
33;1673432881.1755254;47.1306709;7.2406244;0.24800001084804535;1673432881.2184935;1.2229092121124268;23.143558502197266;94.70268249511719
34;1673432881.3745482;47.1306748;7.2406254;0.32500001788139343;1673432881.4184854;1.9096235036849976;25.034732818603516;93.86862182617188
35;1673432881.5830996;47.130678499999995;7.2406266;0.3960000276565552;1673432881.6267457;2.627560615539551;26.83920669555664;93.2129898071289
36;1673432881.7908192;47.1306818;7.2406277;0.46000000834465027;1673432881.8310275;3.4178314208984375;28.796628952026367;92.73115539550781
37;1673432881.9702864;47.130684699999996;7.2406289;0.5130000114440918;1673432882.0136707;4.222227573394775;30.599166870117188;92.30477142333984
38;1673432882.1940007;47.1306872;7.2406299;0.5530000329017639;1673432882.2394507;5.002996921539307;32.53300476074219;91.90457153320312
39;1673432882.3947227;47.130689;7.2406307;0.625;1673432882.444633;5.9467010498046875;33.8802490234375;91.22933197021484
40;1673432882.6104188;47.130690099999995;7.2406314;0.7220000624656677;1673432882.6504893;6.8624396324157715;36.61623001098633;90.82867431640625
41;1673432882.7965457;47.1306903;7.2406318;0.8420000672340393;1673432882.833889;7.886898517608643;38.28560256958008;90.494873046875
42;1673432882.9974523;47.1306898;7.240632;0.9580000638961792;1673432883.0440278;8.979525566101074;40.20944595336914;90.06221008300781
43;1673432883.206014;47.1306884;7.2406318;1.0780000686645508;1673432883.2486267;10.033405303955078;42.058448791503906;89.63983917236328
44;1673432883.4033406;47.130686;7.2406314;1.2060000896453857;1673432883.4436288;11.396470069885254;44.00554656982422;89.25958251953125
45;1673432883.5898995;47.1306826;7.240630599999999;1.3320000171661377;1673432883.6310487;12.410232543945312;45.74881362915039;88.73397064208984
46;1673432883.786896;47.1306782;7.2406296;1.4590001106262207;1673432883.8298893;12.371073722839355;42.33068084716797;87.81958770751953
47;1673432883.9936202;47.130673099999996;7.240628399999999;1.5850000381469727;1673432884.0329506;11.148819923400879;37.13479232788086;85.86898040771484
48;1673432884.1902533;47.1306677;7.240627;1.7040001153945923;1673432884.2310638;10.098050117492676;31.803442001342773;85.15495300292969
49;1673432884.4064374;47.1306625;7.2406255999999996;1.8190001249313354;1673432884.4510646;7.980257511138916;26.68497657775879;84.64762878417969
50;1673432884.6181352;47.1306577;7.2406242;1.9260001182556152;1673432884.6552768;6.338529586791992;22.557600021362305;84.40789794921875
51;1673432884.79751;47.1306538;7.2406231;2.0220000743865967;1673432884.8385296;5.3348469734191895;20.396228790283203;84.43426513671875
52;1673432884.9943185;47.1306507;7.2406222;2.119000196456909;1673432885.042933;4.639187812805176;19.313554763793945;84.5502700805664
53;1673432885.1912286;47.1306484;7.2406216;2.2180001735687256;1673432885.2357893;4.9026994705200195;19.912111282348633;84.82493591308594
54;1673432885.3962562;47.130646899999995;7.2406213;2.322000026702881;1673432885.4444597;5.529788494110107;21.972806930541992;84.86996459960938
55;1673432885.5958652;47.1306459;7.2406212;2.442000150680542;1673432885.6374037;6.441813945770264;22.9246883392334;84.8554458618164
56;1673432885.7869606;47.1306454;7.2406212;2.580000162124634;1673432885.83488;7.322920322418213;23.736780166625977;84.6620864868164
57;1673432885.9847488;47.1306452;7.2406213;2.7270002365112305;1673432886.0251436;8.051199913024902;26.9091854095459;84.4595718383789
58;1673432886.1946862;47.130645099999995;7.2406213;2.882000207901001;1673432886.236925;8.618071556091309;27.158496856689453;84.32734680175781
59;1673432886.3920014;47.130645099999995;7.2406213;3.052000045776367;1673432886.4356515;8.74203109741211;26.909879684448242;84.22931671142578
60;1673432886.609595;47.130645;7.2406212;3.2340002059936523;1673432886.6498222;9.13340950012207;28.932132720947266;84.37335968017578
61;1673432886.8135483;47.1306448;7.240621099999999;3.42900013923645;1673432886.8511837;8.880996704101562;28.72442054748535;84.44606018066406
62;1673432887.0164387;47.130644499999995;7.240621;3.625000238418579;1673432887.0579998;8.586149215698242;27.037071228027344;84.39570617675781
63;1673432887.2066066;47.1306443;7.240620799999999;3.825000286102295;1673432887.2447348;8.153889656066895;28.348575592041016;84.59664916992188
64;1673432887.38698;47.130643899999995;7.2406204999999995;4.021000385284424;1673432887.430201;7.966408729553223;27.6102294921875;84.50114440917969
65;1673432887.5994773;47.1306436;7.2406203;4.216000080108643;1673432887.6428773;7.52229118347168;26.001150131225586;84.53826904296875
66;1673432887.8066275;47.1306434;7.2406201;4.4160003662109375;1673432887.8510907;7.422011852264404;27.266326904296875;84.5263900756836
67;1673432888.021629;47.1306431;7.24062;4.615000247955322;1673432888.0641446;7.2760419845581055;26.802968978881836;84.5129623413086
68;1673432888.2125952;47.1306429;7.2406198999999996;4.812000274658203;1673432888.24973;7.392652988433838;25.18424415588379;84.44676971435547
69;1673432888.408733;47.130642699999996;7.24062;5.009000301361084;1673432888.4538517;7.449165344238281;26.806455612182617;84.53019714355469
70;1673432888.6059978;47.130642699999996;7.24062;5.200000286102295;1673432888.66743;7.7823638916015625;27.23399543762207;84.58644104003906
71;1673432888.846428;47.130642699999996;7.2406201;5.391000270843506;1673432888.903225;7.732234954833984;25.5087890625;84.43585205078125
72;1673432889.0919027;47.130642699999996;7.2406201;5.584000110626221;1673432889.1293404;7.804708003997803;27.169666290283203;84.49176788330078
73;1673432889.2828386;47.130642699999996;7.2406201999999995;5.78000020980835;1673432889.321073;8.105021476745605;27.461669921875;84.5426254272461
74;1673432889.4838724;47.130642599999995;7.2406201999999995;5.9730000495910645;1673432889.5365558;7.888102054595947;25.777603149414062;84.43356323242188
75;1673432889.6982272;47.130642599999995;7.2406203;6.1670002937316895;1673432889.731407;8.158954620361328;27.178159713745117;84.5438232421875
76;1673432889.8835707;47.130642599999995;7.2406203;6.365000247955322;1673432889.9177878;8.24133014678955;27.539274215698242;84.57072448730469
77;1673432890.0654857;47.130642599999995;7.2406203;6.560000419616699;1673432890.1028395;7.859102249145508;25.688261032104492;84.38900756835938
78;1673432890.2400196;47.130642599999995;7.2406203;6.754000186920166;1673432890.2811065;7.984183311462402;27.196765899658203;84.43111419677734
79;1673432890.436419;47.130642599999995;7.2406203;6.952000141143799;1673432890.4804828;8.009085655212402;27.602794647216797;84.5813217163086
80;1673432890.6402578;47.130642599999995;7.2406203;7.146000385284424;1673432890.685089;7.865847587585449;25.661890029907227;84.45396423339844
81;1673432890.8458948;47.130642599999995;7.2406204;7.343000411987305;1673432890.8839586;7.9346747398376465;27.182653427124023;84.53614807128906
82;1673432891.034293;47.130642599999995;7.2406204;7.543000221252441;1673432891.0749674;7.9403276443481445;27.5856876373291;84.4693374633789
83;1673432891.222254;47.130642599999995;7.2406204;7.741000175476074;1673432891.2693062;7.977284908294678;25.73771095275879;84.43885040283203
84;1673432891.4280732;47.130642599999995;7.2406204;7.937000274658203;1673432891.4672327;7.937641620635986;26.994367599487305;84.45958709716797
85;1673432891.6330237;47.130642599999995;7.2406204999999995;8.133000373840332;1673432891.6750755;7.917518138885498;27.444929122924805;84.56610107421875
86;1673432891.8338513;47.1306425;7.2406204999999995;8.329999923706055;1673432891.8790195;7.865533351898193;25.745655059814453;84.47152709960938
87;1673432892.0299249;47.130642599999995;7.2406204999999995;8.52400016784668;1673432892.071256;8.048506736755371;27.02313232421875;84.57489776611328
88;1673432892.2240255;47.130642699999996;7.2406206;8.722000122070312;1673432892.2646542;8.273225784301758;27.717092514038086;84.54596710205078
89;1673432892.4334114;47.130642699999996;7.2406207;8.919000625610352;1673432892.4823866;8.172959327697754;25.942157745361328;84.4476089477539
90;1673432892.6650782;47.130642699999996;7.2406207;9.113000869750977;1673432892.7090898;8.206934928894043;27.088226318359375;84.45635223388672
91;1673432892.8657677;47.130642699999996;7.2406207;9.309000015258789;1673432892.906032;8.25723648071289;27.70653533935547;84.47602081298828
92;1673432893.0841706;47.130642699999996;7.2406207;9.503000259399414;1673432893.1223683;8.181232452392578;26.0329647064209;84.42031860351562
93;1673432893.276776;47.130642699999996;7.2406207;9.69800090789795;1673432893.3119304;8.12624740600586;26.964723587036133;84.49652099609375
94;1673432893.5176082;47.1306428;7.2406206;9.893000602722168;1673432893.550639;8.15385913848877;28.090911865234375;84.57609558105469
95;1673432893.6672785;47.1306428;7.2406206;10.089000701904297;1673432893.7016196;8.101144790649414;26.098533630371094;84.36553192138672
96;1673432893.8803253;47.130642699999996;7.2406204999999995;10.3410005569458;1673432893.9146438;7.533029079437256;24.649829864501953;84.12447357177734
97;1673432894.0538998;47.1306424;7.2406203;10.712000846862793;1673432894.0950437;7.9669294357299805;28.810129165649414;84.61917114257812
98;1673432894.267142;47.130641999999995;7.2406201;11.099000930786133;1673432894.302352;7.50101900100708;26.698129653930664;84.50206756591797
99;1673432894.5258088;47.1306416;7.2406201;11.491000175476074;1673432894.5580618;7.322342395782471;24.737104415893555;84.69795227050781
100;1673432894.7146058;47.1306413;7.24062;11.886000633239746;1673432894.746978;7.217504024505615;25.670936584472656;84.73566436767578
101;1673432894.8679557;47.130641;7.2406198999999996;12.28600025177002;1673432894.9060068;7.097599506378174;24.679241180419922;84.61898040771484
102;1673432895.055277;47.130640899999996;7.2406198999999996;12.68600082397461;1673432895.0878665;7.039941310882568;23.6307315826416;84.53670501708984
103;1673432895.262078;47.130640899999996;7.2406198999999996;13.083000183105469;1673432895.303114;7.374140739440918;25.521699905395508;84.60487365722656
104;1673432895.4594336;47.130640899999996;7.24062;13.483000755310059;1673432895.4986227;7.541497230529785;25.159313201904297;84.56659698486328
105;1673432895.6519587;47.1306411;7.24062;13.883000373840332;1673432895.692226;7.385623931884766;24.502426147460938;84.47383880615234
106;1673432895.8442938;47.1306413;7.2406201;14.28800106048584;1673432895.8863091;7.650359630584717;26.62854766845703;84.59308624267578
107;1673432896.0449114;47.130641499999996;7.2406201;14.697000503540039;1673432896.0773737;7.743782043457031;26.482534408569336;84.55937957763672
108;1673432896.234824;47.1306416;7.2406201;15.10400104522705;1673432896.2780557;7.770870685577393;25.363481521606445;84.47944641113281
109;1673432896.4266937;47.1306417;7.2406201;15.515000343322754;1673432896.4773545;7.783792495727539;26.659740447998047;84.46780395507812
110;1673432896.6417835;47.1306417;7.2406201;15.921000480651855;1673432896.6862702;7.762554168701172;26.685325622558594;84.54682922363281
111;1673432896.8605978;47.1306417;7.2406201;16.334001541137695;1673432896.8968563;7.800490379333496;25.233924865722656;84.54046630859375
112;1673432897.0626159;47.1306418;7.2406201;16.748001098632812;1673432897.1125894;7.854608058929443;26.573415756225586;84.56354522705078
113;1673432897.2509112;47.1306418;7.2406201999999995;17.163000106811523;1673432897.2940512;7.694911956787109;26.371938705444336;84.47418212890625
114;1673432897.4421985;47.1306418;7.2406201;17.577001571655273;1673432897.4848113;7.705460548400879;25.02052116394043;84.51277923583984
115;1673432897.6453962;47.1306418;7.2406201;17.98900032043457;1673432897.6893642;7.6595940589904785;26.187423706054688;84.53558349609375
116;1673432897.8466134;47.1306418;7.2406201;18.391000747680664;1673432897.885237;7.762707710266113;26.37813949584961;84.55410766601562
117;1673432898.0500183;47.1306419;7.24062;18.791000366210938;1673432898.0952587;7.555696487426758;25.059659957885742;84.42405700683594
118;1673432898.2630615;47.1306419;7.24062;19.19500160217285;1673432898.3011255;7.805184364318848;26.286392211914062;84.52508544921875
119;1673432898.4543848;47.130641999999995;7.24062;19.602001190185547;1673432898.4975135;7.693387985229492;26.6822509765625;84.50078582763672
120;1673432898.6504297;47.130641999999995;7.24062;20.009000778198242;1673432898.6935956;7.717031478881836;25.072811126708984;84.41761779785156
121;1673432898.8414493;47.130641999999995;7.2406198999999996;20.416000366210938;1673432898.8816137;7.673386573791504;26.096729278564453;84.50993347167969
122;1673432899.027855;47.130642099999996;7.2406198999999996;20.821001052856445;1673432899.0628245;7.6687798500061035;26.91765022277832;84.52458953857422
123;1673432899.211288;47.130642099999996;7.2406198999999996;21.21900177001953;1673432899.2542975;7.678483963012695;25.409120559692383;84.45587921142578
124;1673432899.4086263;47.130642099999996;7.2406198999999996;21.619001388549805;1673432899.453685;7.6314005851745605;26.13622283935547;84.4561767578125
125;1673432899.6349964;47.130642099999996;7.2406198999999996;22.022001266479492;1673432899.6895783;7.786566257476807;26.975055694580078;84.55535125732422
126;1673432899.851147;47.130642099999996;7.2406198999999996;22.424001693725586;1673432899.895452;7.615898609161377;25.248291015625;84.40233612060547
127;1673432900.051463;47.130642099999996;7.2406198999999996;22.826000213623047;1673432900.102841;7.790969371795654;26.024206161499023;84.51934051513672
128;1673432900.2523012;47.130642099999996;7.2406198999999996;23.229001998901367;1673432900.293054;7.692612648010254;26.84477424621582;84.514892578125
129;1673432900.4606304;47.130642099999996;7.2406198999999996;23.626001358032227;1673432900.49797;7.679156303405762;25.490764617919922;84.48744201660156
130;1673432900.6519926;47.1306422;7.240619799999999;24.030000686645508;1673432900.691168;7.78946590423584;25.85186004638672;84.42271423339844
131;1673432900.8497987;47.1306422;7.240619799999999;24.43600082397461;1673432900.897357;7.7804484367370605;27.14085578918457;84.57795715332031
132;1673432901.061838;47.1306422;7.240619799999999;24.841001510620117;1673432901.101025;7.649763584136963;25.609760284423828;84.46466064453125
133;1673432901.2618437;47.1306422;7.240619799999999;25.24700164794922;1673432901.3038144;7.7271904945373535;25.899974822998047;84.49037170410156
134;1673432901.4592254;47.1306423;7.240619799999999;25.656002044677734;1673432901.4985616;7.664867877960205;27.20069694519043;84.58534240722656
135;1673432901.6557772;47.1306423;7.240619799999999;26.06300163269043;1673432901.697645;7.667787551879883;25.796066284179688;84.42298889160156
136;1673432901.8392744;47.1306423;7.240619799999999;26.45400047302246;1673432901.8828568;7.557041168212891;25.68642234802246;84.47954559326172
137;1673432902.0435138;47.1306422;7.240619799999999;26.84600067138672;1673432902.0862207;7.880373001098633;27.08230209350586;84.59234619140625
138;1673432902.2431207;47.1306422;7.2406198999999996;27.239002227783203;1673432902.2881482;7.7534708976745605;25.593833923339844;84.44169616699219
139;1673432902.433855;47.1306422;7.2406198999999996;27.632001876831055;1673432902.4709845;7.674407958984375;25.646377563476562;84.3971176147461
140;1673432902.629881;47.1306422;7.2406198999999996;28.027000427246094;1673432902.6738944;7.851172924041748;26.92421531677246;84.55828857421875
141;1673432902.8279583;47.1306422;7.2406198999999996;28.423002243041992;1673432902.882944;7.595340728759766;25.961809158325195;84.56664276123047
142;1673432903.0498855;47.1306422;7.2406198999999996;28.812002182006836;1673432903.0932078;7.733774185180664;25.4481201171875;84.50548553466797
143;1673432903.2429836;47.1306422;7.2406198999999996;29.21000099182129;1673432903.285578;7.734103679656982;27.051740646362305;84.54286193847656
144;1673432903.4350405;47.1306422;7.2406198999999996;29.610000610351562;1673432903.4731402;7.682044982910156;25.986957550048828;84.49664306640625
145;1673432903.624046;47.1306422;7.2406198999999996;30.009000778198242;1673432903.666431;7.581762313842773;25.453786849975586;84.46292114257812
146;1673432903.8428361;47.1306422;7.24062;30.411001205444336;1673432903.8854942;7.934713840484619;26.999814987182617;84.52925872802734
147;1673432904.048209;47.1306423;7.24062;30.81300163269043;1673432904.0892825;7.815619468688965;26.511125564575195;84.47091674804688
148;1673432904.2486389;47.1306422;7.24062;31.21200180053711;1673432904.302361;7.737096309661865;25.208038330078125;84.44305419921875
149;1673432904.4487538;47.1306422;7.2406201;31.60500144958496;1673432904.483007;7.729728698730469;26.703659057617188;84.45539093017578
150;1673432904.622525;47.1306422;7.2406201;32.00200271606445;1673432904.6675477;7.904620170593262;25.905786514282227;84.46805572509766
151;1673432904.8392048;47.1306422;7.2406201999999995;32.40299987792969;1673432904.8825338;7.893837928771973;25.14911651611328;84.48371887207031
152;1673432905.0464823;47.1306422;7.2406201999999995;32.80900192260742;1673432905.0850873;7.969616413116455;26.79732322692871;84.55620574951172
153;1673432905.242217;47.1306423;7.2406201999999995;33.21500015258789;1673432905.2903051;7.844283103942871;26.393413543701172;84.532958984375
154;1673432905.461203;47.1306423;7.2406201999999995;33.61800003051758;1673432905.506578;7.717996597290039;25.246082305908203;84.45161437988281
155;1673432905.6712987;47.1306423;7.2406201999999995;34.01300048828125;1673432905.7174966;7.797967433929443;26.59258270263672;84.56826782226562
156;1673432905.8563068;47.1306424;7.2406201999999995;34.415000915527344;1673432905.897994;7.801806926727295;26.63532829284668;84.53938293457031
157;1673432906.0583272;47.1306424;7.2406201999999995;34.81700134277344;1673432906.10241;7.709804534912109;25.442737579345703;84.42150115966797
158;1673432906.2541807;47.1306425;7.2406201999999995;35.220001220703125;1673432906.302181;7.880578994750977;26.748693466186523;84.4996566772461
159;1673432906.4679854;47.130642599999995;7.2406201999999995;35.624000549316406;1673432906.5120704;7.859323978424072;26.864973068237305;84.52738952636719
160;1673432906.6451352;47.130642599999995;7.2406201999999995;36.027000427246094;1673432906.6857228;7.741763591766357;25.599075317382812;84.46266174316406
161;1673432906.8490396;47.130642599999995;7.2406201999999995;36.43100357055664;1673432906.886373;7.68297815322876;26.64466667175293;84.49642944335938
162;1673432907.0394466;47.130642599999995;7.2406201999999995;36.823001861572266;1673432907.0853326;7.801941871643066;26.961809158325195;84.5658187866211
163;1673432907.233451;47.130642599999995;7.2406201999999995;37.22100067138672;1673432907.2752426;7.740776062011719;25.403369903564453;84.45948791503906
164;1673432907.4342299;47.130642699999996;7.2406201999999995;37.62300109863281;1673432907.4786994;7.793243885040283;26.71766471862793;84.5219955444336
165;1673432907.642645;47.130642699999996;7.2406201999999995;38.02300262451172;1673432907.685845;7.8958868980407715;26.942203521728516;84.53817749023438
166;1673432907.8364468;47.130642699999996;7.2406201999999995;38.42300033569336;1673432907.8779993;7.83407735824585;25.6198673248291;84.47747039794922
167;1673432908.032587;47.130642699999996;7.2406201999999995;38.82400131225586;1673432908.0825534;8.00741958618164;26.266477584838867;84.45675659179688
168;1673432908.2241693;47.130642699999996;7.2406201999999995;39.21500015258789;1673432908.267348;7.844307899475098;27.041101455688477;84.54052734375
169;1673432908.45099;47.130642599999995;7.2406201999999995;39.612003326416016;1673432908.4945047;7.87868595123291;25.547622680664062;84.50526428222656
170;1673432908.6744123;47.130642699999996;7.2406201999999995;40.01400375366211;1673432908.7077398;7.936155319213867;26.17363166809082;84.47832489013672
171;1673432908.8628876;47.130642699999996;7.2406201999999995;40.4170036315918;1673432908.9059615;7.994992733001709;27.217988967895508;84.51378631591797
172;1673432909.064776;47.130642699999996;7.2406201999999995;40.820003509521484;1673432909.103864;7.825545310974121;25.78707504272461;84.46705627441406
173;1673432909.2603004;47.130642599999995;7.2406201999999995;41.22100067138672;1673432909.3143916;7.743998050689697;25.949413299560547;84.48140716552734
174;1673432909.4694605;47.130642599999995;7.2406201;41.62000274658203;1673432909.5041056;7.898265361785889;27.06360626220703;84.56854248046875
175;1673432909.657383;47.130642599999995;7.2406201;42.009002685546875;1673432909.7286851;7.7888689041137695;25.758329391479492;84.40239715576172
176;1673432909.8867066;47.130642599999995;7.2406201;42.402000427246094;1673432909.9190798;7.828869819641113;25.762197494506836;84.47476959228516
177;1673432910.1258852;47.130642599999995;7.2406201;42.79800033569336;1673432910.1630473;7.736950874328613;27.239042282104492;84.53462982177734
178;1673432910.3013802;47.130642599999995;7.2406201;43.195003509521484;1673432910.3366635;7.738400936126709;25.985841751098633;84.46804809570312
179;1673432910.46131;47.130642599999995;7.2406201;43.59400177001953;1673432910.4992356;7.741209506988525;25.690279006958008;84.41120147705078
180;1673432910.6546283;47.130642599999995;7.2406201;43.992000579833984;1673432910.7018437;7.8659186363220215;27.143232345581055;84.55512237548828
181;1673432910.8508246;47.130642599999995;7.2406201;44.38200378417969;1673432910.8971186;7.688333511352539;26.0502986907959;84.48091125488281
182;1673432911.093511;47.1306425;7.24062;44.781002044677734;1673432911.1339204;7.694396495819092;25.512683868408203;84.4370346069336
183;1673432911.2907794;47.1306425;7.24062;45.18300247192383;1673432911.3301837;7.7350897789001465;27.03713607788086;84.57388305664062
184;1673432911.4786267;47.1306425;7.24062;45.58500289916992;1673432911.5188577;7.7631330490112305;26.183761596679688;84.49128723144531
185;1673432911.6551242;47.1306425;7.2406201;45.98400115966797;1673432911.6919582;7.675965309143066;25.208181381225586;84.42741394042969
186;1673432911.8472972;47.1306425;7.2406201;46.384002685546875;1673432911.891327;7.810673713684082;27.091630935668945;84.55343627929688
187;1673432912.0524056;47.130642599999995;7.2406201;46.785003662109375;1673432912.094422;7.836363315582275;26.409154891967773;84.52155303955078
188;1673432912.2603836;47.130642599999995;7.2406201;47.17400360107422;1673432912.3021982;7.790878772735596;25.531005859375;84.4251937866211
189;1673432912.4664881;47.130642599999995;7.2406201;47.570003509521484;1673432912.5119376;7.953250408172607;27.03441047668457;84.50568389892578
190;1673432912.6759748;47.130642599999995;7.2406201;47.96600341796875;1673432912.7208877;7.819759368896484;26.417156219482422;84.59210968017578
191;1673432912.8739622;47.130642599999995;7.2406201;48.340003967285156;1673432912.9143991;8.033308982849121;26.094263076782227;84.46728515625
192;1673432913.0721526;47.130642699999996;7.2406201;48.66100311279297;1673432913.118175;7.897219657897949;27.2103214263916;84.59954833984375
193;1673432913.293217;47.1306429;7.2406201999999995;48.93400192260742;1673432913.3322568;8.003877639770508;26.684350967407227;84.60631561279297
194;1673432913.4818554;47.130643199999994;7.2406203;49.14900207519531;1673432913.5249972;8.193853378295898;26.653076171875;84.50989532470703
195;1673432913.6729963;47.1306435;7.2406204;49.33400344848633;1673432913.7165082;10.4485445022583;29.988605499267578;84.88917541503906
196;1673432913.8816588;47.1306436;7.2406201999999995;49.50100326538086;1673432913.9585211;24.733976364135742;39.48075485229492;93.30735778808594
197;1673432914.102521;47.130643199999994;7.2406185999999995;49.65400314331055;1673432914.1424587;29.472496032714844;51.290958404541016;105.18119812011719
198;1673432914.2921293;47.130641399999995;7.2406142;49.77700424194336;1673432914.3472574;25.933176040649414;58.43696975708008;114.14289855957031
199;1673432914.4993358;47.1306383;7.240606799999999;49.8390007019043;1673432914.5426555;8.19782543182373;52.25993347167969;122.5403060913086
200;1673432914.6723328;47.1306345;7.240597299999999;49.862003326416016;1673432914.7068534;-4.455532073974609;46.760215759277344;132.51119995117188
201;1673432914.8574426;47.1306304;7.2405864;49.86300277709961;1673432914.900935;-17.01713752746582;44.81053161621094;142.78933715820312
202;1673432915.061739;47.1306258;7.240574199999999;49.87600326538086;1673432915.1066928;-32.28769302368164;44.53012466430664;152.86912536621094
203;1673432915.25621;47.1306206;7.240560899999999;49.88900375366211;1673432915.293984;-44.39186477661133;38.64676284790039;166.83177185058594
204;1673432915.4538555;47.1306145;7.2405463;49.89800262451172;1673432915.494413;-50.671974182128906;28.41497230529785;179.5739288330078
205;1673432915.6431983;47.1306077;7.240530499999999;49.887001037597656;1673432915.6897805;-49.218196868896484;21.837936401367188;-173.8052215576172
206;1673432915.8388915;47.1306004;7.2405140999999995;49.855003356933594;1673432915.878107;-49.2476921081543;18.093225479125977;-168.0730743408203
207;1673432916.060772;47.130592799999995;7.2404972999999995;49.814002990722656;1673432916.1240988;-47.53779602050781;11.315023422241211;-159.95701599121094
208;1673432916.2710092;47.130584899999995;7.24048;49.77400207519531;1673432916.3108633;-44.53228759765625;4.692997455596924;-156.3223876953125
209;1673432916.4597893;47.1305772;7.2404627999999995;49.704002380371094;1673432916.5058143;-29.080379486083984;2.6091511249542236;-167.78126525878906
210;1673432916.6541197;47.13057;7.2404468;49.61000061035156;1673432916.6982303;-17.25314712524414;2.2414228916168213;177.81338500976562
211;1673432916.850991;47.130564;7.2404328;49.52000045776367;1673432916.8910508;-18.939002990722656;7.384133338928223;163.45391845703125
212;1673432917.0553272;47.130559;7.2404207;49.487003326416016;1673432917.0984266;-30.17966079711914;19.1416072845459;151.6433563232422
213;1673432917.2624884;47.1305542;7.2404106;49.54500198364258;1673432917.3057413;-39.868431091308594;34.81613540649414;139.86245727539062
214;1673432917.4604294;47.1305482;7.2404021;49.60700225830078;1673432917.4981894;-30.26688575744629;47.71665573120117;133.0498504638672
215;1673432917.6498682;47.130541199999996;7.240393699999999;49.673004150390625;1673432917.6954618;-20.538402557373047;47.42575454711914;126.58180236816406
216;1673432917.850529;47.1305336;7.2403851999999995;49.73100280761719;1673432917.8947732;-15.954890251159668;47.001529693603516;124.16839599609375
217;1673432918.055797;47.130525299999995;7.240376599999999;49.78200149536133;1673432918.0900905;-14.155000686645508;45.87531280517578;127.54839324951172
218;1673432918.2356043;47.1305167;7.2403676;49.833003997802734;1673432918.298303;-14.787485122680664;48.178672790527344;130.18313598632812
219;1673432918.4474752;47.130507699999995;7.240358;49.874000549316406;1673432918.4914422;-15.992321968078613;47.83462142944336;132.90602111816406
220;1673432918.6460197;47.1304984;7.2403476;49.90400314331055;1673432918.6888504;-18.52932357788086;49.44926071166992;133.71803283691406
221;1673432918.8450067;47.130488799999995;7.2403363;49.93100357055664;1673432918.8850358;-19.617652893066406;49.16964340209961;134.50489807128906
222;1673432919.0476847;47.1304788;7.240324299999999;49.9530029296875;1673432919.0880659;-20.425825119018555;48.034210205078125;134.75660705566406
223;1673432919.2412982;47.130468699999994;7.2403118;49.9630012512207;1673432919.282454;-20.976520538330078;46.47199630737305;134.6123809814453
224;1673432919.4384253;47.1304583;7.240298999999999;49.9630012512207;1673432919.4824924;-21.23288917541504;44.02582931518555;134.08706665039062
225;1673432919.6352465;47.1304478;7.240286299999999;49.967002868652344;1673432919.6745744;-22.23198699951172;42.73164367675781;131.73934936523438
226;1673432919.831419;47.1304373;7.2402738;49.97500228881836;1673432919.8733754;-21.077178955078125;42.80418014526367;128.1652069091797
227;1673432920.0404155;47.1304267;7.2402621;49.96000289916992;1673432920.0848603;-17.963815689086914;36.16824722290039;128.54391479492188
228;1673432920.2587872;47.130416399999994;7.240251;49.948001861572266;1673432920.3062396;-18.889535903930664;33.13979721069336;128.5285186767578
229;1673432920.4640973;47.1304063;7.2402408;49.94400405883789;1673432920.5087588;-24.524539947509766;31.585206985473633;129.3955841064453
230;1673432920.6568053;47.1303966;7.2402318;49.954002380371094;1673432920.6974616;-32.072628021240234;25.814115524291992;134.05322265625
231;1673432920.8376331;47.1303872;7.2402244;49.954002380371094;1673432920.879793;-29.420610427856445;12.22982120513916;148.2025604248047
232;1673432921.039077;47.1303784;7.2402187;50.00200271606445;1673432921.083221;-18.641225814819336;7.750764846801758;161.7039337158203
233;1673432921.241326;47.130371;7.2402142;50.060001373291016;1673432921.2844317;-16.159711837768555;17.248579025268555;170.98451232910156
234;1673432921.4457893;47.1303649;7.2402096;50.12300109863281;1673432921.4898307;-27.554140090942383;33.72165298461914;178.9040985107422
235;1673432921.6474388;47.1303596;7.240203299999999;50.18300247192383;1673432921.696624;-49.63378143310547;33.01421356201172;-174.0830078125
236;1673432921.8675003;47.1303543;7.2401941;50.21800231933594;1673432921.928414;-56.06122589111328;23.090017318725586;-159.67861938476562
237;1673432922.1218333;47.1303487;7.2401817;50.23200225830078;1673432922.156093;-47.941890716552734;15.389142990112305;-149.3467559814453
238;1673432922.3239567;47.1303433;7.2401672999999995;50.22500228881836;1673432922.3918412;-44.358238220214844;4.939685821533203;-142.0218048095703
239;1673432922.51866;47.130337999999995;7.240151699999999;50.23800277709961;1673432922.556705;-50.960243225097656;-4.269126892089844;-135.342041015625
240;1673432922.698327;47.1303324;7.2401352;50.25400161743164;1673432922.7455332;-52.17022705078125;-17.238693237304688;-130.8638153076172
241;1673432922.8739817;47.130326;7.2401184999999995;50.262001037597656;1673432922.9144168;-50.710472106933594;-15.942045211791992;-143.00595092773438
242;1673432923.069348;47.1303187;7.2401025;50.23200225830078;1673432923.1072452;-43.69761657714844;-8.683452606201172;-156.52891540527344
243;1673432923.2624319;47.130311;7.2400879;50.19900131225586;1673432923.3072762;-42.22993087768555;-2.394221305847168;-165.70477294921875
244;1673432923.479092;47.130303;7.2400749;50.17000198364258;1673432923.5228536;-41.43156814575195;3.4748482704162598;-174.93128967285156
245;1673432923.6813626;47.130294799999994;7.2400632;50.147003173828125;1673432923.724496;-42.366127014160156;11.691713333129883;175.16270446777344
246;1673432923.893365;47.1302865;7.2400528;50.130001068115234;1673432923.9340894;-41.44023513793945;17.855384826660156;166.04470825195312
247;1673432924.1029127;47.130277899999996;7.2400433;50.130001068115234;1673432924.137215;-38.079383850097656;26.080556869506836;156.65737915039062
248;1673432924.2768986;47.1302691;7.2400343;50.124000549316406;1673432924.3200774;-32.18502426147461;31.97905921936035;147.49432373046875
249;1673432924.4741383;47.130260299999996;7.2400259;50.108001708984375;1673432924.5136256;-24.327556610107422;33.477699279785156;137.763671875
250;1673432924.6778727;47.1302516;7.2400179;50.10000228881836;1673432924.7174716;-18.098222732543945;37.15037155151367;126.41358184814453
251;1673432924.8639526;47.1302428;7.2400104;50.12700271606445;1673432924.9063537;-15.105944633483887;46.7088623046875;119.8803482055664
252;1673432925.0558128;47.1302338;7.2400031;50.1400032043457;1673432925.0986338;-12.577155113220215;45.877891540527344;125.01604461669922
253;1673432925.2560384;47.1302246;7.2399955;50.143001556396484;1673432925.2995617;-14.02486515045166;45.48625564575195;131.64039611816406
254;1673432925.4548693;47.1302154;7.2399872;50.130001068115234;1673432925.524442;-19.849599838256836;40.469940185546875;145.60302734375
255;1673432925.6759255;47.1302063;7.239978;50.12300109863281;1673432925.718297;-31.212743759155273;39.471778869628906;159.10870361328125
256;1673432925.8664215;47.1301974;7.2399673;50.137001037597656;1673432925.904141;-43.14609146118164;38.51038360595703;174.0929412841797
257;1673432926.0532856;47.130188399999994;7.2399548;50.13900375366211;1673432926.0944939;-44.84123611450195;25.636959075927734;-173.90350341796875
258;1673432926.2754521;47.1301796;7.239940799999999;50.125003814697266;1673432926.314109;-43.14910888671875;19.13705825805664;-168.423095703125
259;1673432926.4643106;47.130171;7.239925899999999;50.12000274658203;1673432926.5058532;-47.38397979736328;14.335548400878906;-162.3409881591797
260;1673432926.7076464;47.130162399999996;7.2399103;50.11900329589844;1673432926.7418518;-49.601226806640625;7.8422136306762695;-154.61737060546875
261;1673432926.891906;47.130153799999995;7.2398941;50.121002197265625;1673432926.9351265;-49.5769157409668;2.3876876831054688;-147.5009002685547
262;1673432927.0639553;47.1301451;7.239877399999999;50.12600326538086;1673432927.1102655;-48.826446533203125;-9.166709899902344;-143.5087890625
263;1673432927.2741704;47.130136099999994;7.2398609;50.09400177001953;1673432927.3144562;-39.38197708129883;-4.4071478843688965;-159.01651000976562
264;1673432927.4900405;47.1301272;7.2398457;50.048004150390625;1673432927.5343955;-34.86391830444336;0.8889341354370117;-171.75856018066406
265;1673432927.6794395;47.130118599999996;7.2398321;50.005001068115234;1673432927.7186468;-35.413272857666016;6.911098003387451;178.07797241210938
266;1673432927.874078;47.1301104;7.2398202;49.98500061035156;1673432927.9123602;-39.7235107421875;15.121216773986816;168.07423400878906
267;1673432928.056693;47.130102199999996;7.2398095;49.98600387573242;1673432928.095736;-40.55990982055664;22.908950805664062;158.83642578125
268;1673432928.2533073;47.130093599999995;7.2397997;49.99700164794922;1673432928.2982697;-37.18152618408203;33.141143798828125;149.65367126464844
269;1673432928.4643602;47.1300848;7.2397905;49.99700164794922;1673432928.5060408;-26.756832122802734;35.287410736083984;141.6372528076172
270;1673432928.6583657;47.130075999999995;7.239781499999999;49.97800064086914;1673432928.7026846;-16.32349967956543;33.00624465942383;130.78648376464844
271;1673432928.8496368;47.130067399999994;7.2397731;49.98100280761719;1673432928.8916433;-10.407950401306152;42.14573669433594;119.63417053222656
272;1673432929.0432074;47.130058899999995;7.239764999999999;49.99800109863281;1673432929.082388;-4.898837089538574;44.37592697143555;122.59176635742188
273;1673432929.2425172;47.130050499999996;7.2397566;50.00400161743164;1673432929.2883875;-4.213171005249023;42.601924896240234;132.02206420898438
274;1673432929.4912958;47.130042499999995;7.2397472;50.00400161743164;1673432929.59752;-10.352842330932617;41.384178161621094;143.01950073242188
275;1673432929.7703078;47.1300349;7.239736799999999;50.00400161743164;1673432929.8256295;-22.082706451416016;40.966461181640625;157.66342163085938
276;1673432929.9549654;47.1300277;7.2397249;50.012001037597656;1673432929.9930382;-35.94023513793945;39.28777313232422;177.12538146972656
277;1673432930.1426387;47.1300209;7.2397108999999995;50.02400207519531;1673432930.1799047;-44.43278121948242;33.17206573486328;-167.96646118164062
278;1673432930.3230646;47.1300144;7.239694699999999;50.01900100708008;1673432930.3630805;-43.0530891418457;18.94441795349121;-165.70166015625
279;1673432930.5069501;47.1300083;7.2396777;49.97700119018555;1673432930.5480473;-30.321205139160156;12.927371978759766;-178.16751098632812
280;1673432930.699719;47.1300026;7.239661399999999;49.910003662109375;1673432930.7433193;-18.242938995361328;7.863251209259033;164.674560546875
281;1673432930.8953195;47.1299977;7.2396468;49.845001220703125;1673432930.9311564;-21.247671127319336;13.420231819152832;146.49920654296875
282;1673432931.1060846;47.1299934;7.2396347;49.85100173950195;1673432931.1526244;-39.14748001098633;26.114683151245117;131.8135223388672
283;1673432931.310818;47.1299887;7.2396253999999995;49.90300369262695;1673432931.3548005;-34.39278793334961;29.8791561126709;123.18880462646484
284;1673432931.5157914;47.1299834;7.2396188;49.952003479003906;1673432931.555258;-36.181095123291016;23.615034103393555;125.39800262451172
285;1673432931.7039335;47.1299778;7.239615;50.00100326538086;1673432931.7464912;-36.67516326904297;19.545530319213867;131.38848876953125
286;1673432931.895484;47.1299722;7.2396135;50.038002014160156;1673432931.9401994;-33.38644027709961;14.539098739624023;133.44393920898438
287;1673432932.099279;47.1299668;7.239613899999999;50.06300354003906;1673432932.1395411;-30.181415557861328;14.499970436096191;133.69729614257812
288;1673432932.2913496;47.1299618;7.239615799999999;50.070003509521484;1673432932.3309863;-27.804105758666992;10.379108428955078;133.87806701660156
289;1673432932.4967344;47.1299573;7.2396192;50.08100128173828;1673432932.541853;-28.714216232299805;13.685809135437012;132.97488403320312
290;1673432932.712324;47.129953199999996;7.2396236;50.086002349853516;1673432932.754442;-33.20451354980469;16.563121795654297;133.7317657470703
291;1673432932.9052234;47.1299492;7.239629;50.099002838134766;1673432932.9417055;-34.23643112182617;16.912389755249023;142.78607177734375
292;1673432933.0948906;47.1299451;7.2396348999999995;50.1150016784668;1673432933.145461;-38.76909255981445;11.870047569274902;155.4705352783203
293;1673432933.298329;47.1299408;7.2396411;50.117000579833984;1673432933.3396628;-41.97114562988281;12.799490928649902;164.9287109375
294;1673432933.5141;47.1299359;7.239646899999999;50.121002197265625;1673432933.554305;-38.78264617919922;10.829425811767578;174.85919189453125
295;1673432933.703218;47.1299308;7.2396517;50.1150016784668;1673432933.7418272;-38.00048828125;17.644466400146484;-178.1173858642578
296;1673432933.8929634;47.1299256;7.239654799999999;50.10900115966797;1673432933.930111;-41.823543548583984;27.033384323120117;-169.21165466308594
297;1673432934.0918844;47.1299207;7.239654499999999;50.10200119018555;1673432934.130493;-46.014408111572266;29.80085563659668;-159.95025634765625
298;1673432934.2852902;47.1299162;7.239649999999999;50.073001861572266;1673432934.3251715;-47.980445861816406;22.1840877532959;-150.16714477539062
299;1673432934.4867842;47.1299122;7.239642399999999;50.035003662109375;1673432934.532936;-44.17034912109375;15.054076194763184;-141.27305603027344
300;1673432934.7010632;47.129908699999994;7.2396319;50.00800323486328;1673432934.741084;-42.09003829956055;5.849201679229736;-133.38597106933594
301;1673432934.8968318;47.129905699999995;7.239619299999999;50.01700210571289;1673432934.9390981;-51.14176940917969;0.5982527136802673;-130.74887084960938
302;1673432935.091143;47.129902699999995;7.2396047999999995;50.03600311279297;1673432935.1352062;-54.26425552368164;-4.14263916015625;-132.15817260742188
303;1673432935.3149683;47.129898999999995;7.239588299999999;50.06100082397461;1673432935.3599565;-55.150089263916016;-7.355180263519287;-135.0146942138672
304;1673432935.5130749;47.1298943;7.2395707;50.08700180053711;1673432935.5493386;-53.77935028076172;-9.86697006225586;-136.14833068847656
305;1673432935.7090085;47.1298885;7.239552799999999;50.09300231933594;1673432935.7516146;-52.625579833984375;-9.5029935836792;-137.10206604003906
306;1673432935.9359727;47.1298818;7.2395346;50.09300231933594;1673432935.977561;-51.2463493347168;-7.879347801208496;-138.34255981445312
307;1673432936.1230261;47.1298746;7.239516399999999;50.08100128173828;1673432936.165192;-48.84084701538086;-6.511875629425049;-139.63352966308594
308;1673432936.3194954;47.129866899999996;7.2394982;50.07500076293945;1673432936.3614466;-49.05870819091797;-7.028611183166504;-140.11563110351562
309;1673432936.5133948;47.129858899999995;7.239480299999999;50.070003509521484;1673432936.5549266;-48.426815032958984;-7.512127876281738;-145.84332275390625
310;1673432936.7097697;47.129850499999996;7.2394628999999995;50.04300308227539;1673432936.7475555;-42.521812438964844;-1.3069368600845337;-157.77789306640625
311;1673432936.9029293;47.129841899999995;7.2394468;50.009002685546875;1673432936.9442043;-40.822330474853516;3.516862392425537;-166.4210205078125
312;1673432937.102875;47.129833399999995;7.2394317;49.97600173950195;1673432937.1468298;-38.247535705566406;8.79863166809082;-175.72096252441406
313;1673432937.2976637;47.129825;7.2394177;49.958003997802734;1673432937.3372602;-37.67892074584961;14.771562576293945;174.8238525390625
314;1673432937.4844754;47.1298168;7.2394047;49.95100402832031;1673432937.5276065;-36.67390823364258;21.033567428588867;164.93997192382812
315;1673432937.6863363;47.1298086;7.2393927;49.954002380371094;1673432937.7305164;-33.92300796508789;27.802953720092773;155.0681610107422
316;1673432937.8905408;47.1298003;7.2393814;49.96600341796875;1673432937.9345205;-31.02465057373047;35.98021697998047;145.1471405029297
317;1673432938.100125;47.1297918;7.2393706;49.97900390625;1673432938.1457183;-24.12523078918457;40.73580551147461;135.3197479248047
318;1673432938.3000023;47.1297831;7.2393602999999995;49.98800277709961;1673432938.3392215;-16.020116806030273;42.277069091796875;124.88687133789062
319;1673432938.5136135;47.1297742;7.2393503;50.018001556396484;1673432938.5641322;-10.341558456420898;46.66057586669922;119.55728912353516
320;1673432938.7121186;47.1297651;7.239340599999999;50.0260009765625;1673432938.7551663;-7.607742786407471;42.953338623046875;124.374267578125
321;1673432938.9120579;47.129756;7.2393307;50.02400207519531;1673432938.9501975;-9.52984619140625;42.129791259765625;128.2420196533203
322;1673432939.1013002;47.129747099999996;7.2393206;50.031002044677734;1673432939.1488192;-13.512697219848633;45.71384048461914;130.1509552001953
323;1673432939.2922897;47.1297381;7.2393101;50.04500198364258;1673432939.3315578;-17.964353561401367;48.4565544128418;131.26382446289062
324;1673432939.5051355;47.129728799999995;7.2392992;50.05400085449219;1673432939.5466723;-21.919212341308594;46.59943771362305;132.88803100585938
325;1673432939.708401;47.129719099999996;7.239287999999999;50.06500244140625;1673432939.7509098;-25.796598434448242;46.972984313964844;132.61280822753906
326;1673432939.911196;47.1297089;7.2392768;50.06300354003906;1673432939.9525542;-27.719186782836914;44.4399528503418;132.84475708007812
327;1673432940.114237;47.1296981;7.2392658999999995;50.06100082397461;1673432940.1562343;-31.265527725219727;42.468502044677734;131.72386169433594
328;1673432940.316637;47.129687;7.2392558;50.0420036315918;1673432940.3572023;-31.428857803344727;39.140254974365234;130.89768981933594
329;1673432940.5193455;47.1296756;7.239246499999999;50.00300216674805;1673432940.561856;-28.129505157470703;31.21664047241211;136.13844299316406
330;1673432940.7243164;47.129664299999995;7.2392382;49.93700408935547;1673432940.7633758;-24.502246856689453;19.775606155395508;149.782470703125
331;1673432940.9204602;47.1296539;7.2392308;49.90500259399414;1673432940.9577706;-38.99971008300781;18.32478141784668;162.9876708984375
332;1673432941.144035;47.1296436;7.2392242;49.91200256347656;1673432941.1793356;-51.778343200683594;8.618049621582031;179.9176025390625
333;1673432941.3307312;47.129632699999995;7.239217999999999;49.91800308227539;1673432941.3699658;-47.47206497192383;2.26889705657959;-172.25486755371094
334;1673432941.517176;47.1296216;7.239212299999999;49.935001373291016;1673432941.5654738;-48.279048919677734;-1.8437377214431763;-167.07115173339844
335;1673432941.7222962;47.129610199999995;7.2392069;49.954002380371094;1673432941.7669148;-49.945125579833984;-5.088354587554932;-161.6041259765625
336;1673432941.9294486;47.1295985;7.2392018;49.95900344848633;1673432941.973637;-49.17366409301758;-1.8891546726226807;-155.30807495117188
337;1673432942.1345823;47.1295868;7.2391961;49.93800354003906;1673432942.1667917;-40.998741149902344;7.084460258483887;-145.970703125
338;1673432942.3001025;47.1295759;7.239189199999999;49.8900032043457;1673432942.3428023;-29.31525993347168;13.793630599975586;-132.97116088867188
339;1673432942.4938564;47.1295669;7.2391808;49.858001708984375;1673432942.5337305;-33.06848907470703;13.740394592285156;-132.00827026367188
340;1673432942.6945891;47.12956;7.2391706;49.85100173950195;1673432942.731435;-38.82621765136719;16.412179946899414;-135.23635864257812
341;1673432942.8940284;47.1295548;7.2391584;49.8640022277832;1673432942.958661;-43.03073501586914;14.95626449584961;-134.84837341308594
342;1673432943.2188516;47.1295509;7.239144;49.897003173828125;1673432943.2525833;-46.708919525146484;14.679226875305176;-134.75979614257812
343;1673432943.3830402;47.1295479;7.2391276;49.927001953125;1673432943.4182768;-47.07711410522461;9.299199104309082;-132.34283447265625
344;1673432943.569464;47.1295454;7.2391092;49.967002868652344;1673432943.6135716;-52.06088638305664;8.036930084228516;-134.02508544921875
345;1673432943.7865844;47.1295429;7.239089;50.00200271606445;1673432943.8342042;-52.71589660644531;4.484251499176025;-133.88584899902344
346;1673432943.9745467;47.1295402;7.239067299999999;50.04900360107422;1673432944.0119119;-55.639564514160156;2.14176607131958;-134.58583068847656
347;1673432944.173109;47.1295369;7.239044499999999;50.07400131225586;1673432944.2133338;-55.078399658203125;0.15396296977996826;-135.0850067138672
348;1673432944.3412251;47.129533099999996;7.239020999999999;50.07400131225586;1673432944.3783429;-49.11415100097656;3.1240930557250977;-142.83287048339844
349;1673432944.5176003;47.129528699999995;7.2389975;50.05000305175781;1673432944.5593295;-39.3601188659668;8.222819328308105;-154.27720642089844
350;1673432944.712641;47.1295243;7.2389749;50.01000213623047;1673432944.7558527;-32.386016845703125;12.772469520568848;-164.8777618408203
351;1673432944.910167;47.1295201;7.2389532999999995;49.98100280761719;1673432944.954033;-30.204883575439453;19.388839721679688;-175.59201049804688
352;1673432945.1157212;47.1295162;7.2389326;49.97900390625;1673432945.1585321;-32.467010498046875;31.100008010864258;173.17608642578125
353;1673432945.3053463;47.129512299999995;7.2389122;50.00200271606445;1673432945.3543892;-30.80503273010254;41.931007385253906;163.38848876953125
354;1673432945.499336;47.129508099999995;7.2388916;50.025001525878906;1673432945.542006;-21.717121124267578;42.471405029296875;154.7640380859375
355;1673432945.704463;47.129503799999995;7.238871;50.03400421142578;1673432945.7469873;-11.041693687438965;42.69207763671875;142.5784912109375
356;1673432945.9101317;47.1294993;7.2388504;50.06300354003906;1673432945.9514356;2.546466588973999;52.70298767089844;129.21925354003906
357;1673432946.103963;47.129494199999996;7.238829699999999;50.105003356933594;1673432946.142726;20.11246681213379;51.5986328125;114.74837493896484
358;1673432946.3026392;47.129488599999995;7.238808499999999;50.12200164794922;1673432946.3479013;24.36919593811035;42.332984924316406;113.69770050048828
359;1673432946.5044398;47.129483;7.238786999999999;50.08000183105469;1673432946.5479274;12.118229866027832;31.543901443481445;122.20693969726562
360;1673432946.7467618;47.129478;7.2387659;50.02900314331055;1673432946.7957015;4.993274688720703;35.746177673339844;130.59555053710938
361;1673432946.936578;47.1294737;7.2387453;50.01400375366211;1673432946.9747245;-2.5011863708496094;45.09489059448242;132.8000030517578
362;1673432947.1337419;47.1294693;7.238724899999999;50.02100372314453;1673432947.1732512;-13.689094543457031;49.739234924316406;131.80528259277344
363;1673432947.3151836;47.129464399999996;7.2387049999999995;50.022003173828125;1673432947.3578877;-22.77206039428711;44.40605926513672;131.37652587890625
364;1673432947.5105145;47.1294586;7.2386862999999995;50.01000213623047;1673432947.5550027;-31.03829002380371;36.01325988769531;130.6776885986328
365;1673432947.7099059;47.129452099999995;7.238669799999999;49.98400115966797;1673432947.7545164;-40.28276824951172;25.68950653076172;130.4430389404297
366;1673432947.913313;47.1294451;7.2386566;49.94900131225586;1673432947.9570081;-44.39903259277344;14.077744483947754;131.8771209716797
367;1673432948.125905;47.1294379;7.2386477;49.90800094604492;1673432948.1680167;-43.44626998901367;5.921080112457275;132.80186462402344
368;1673432948.3154502;47.129430899999996;7.2386433;49.87800216674805;1673432948.360474;-44.80998992919922;2.5050971508026123;134.34878540039062
369;1673432948.513813;47.1294243;7.238643499999999;49.880001068115234;1673432948.5568993;-44.88054275512695;6.564082622528076;133.8072052001953
370;1673432948.7719095;47.1294179;7.238647599999999;49.913002014160156;1673432948.8110843;-38.65082931518555;11.381706237792969;134.49203491210938
371;1673432948.973678;47.1294118;7.2386539;49.93600082397461;1673432949.0147138;-29.507753372192383;9.754851341247559;135.45668029785156
372;1673432949.1549861;47.1294063;7.2386612999999995;49.94300079345703;1673432949.1873002;-23.61167335510254;12.596220970153809;134.0
373;1673432949.3405674;47.1294015;7.2386694;49.94600296020508;1673432949.3854947;-26.465436935424805;14.601541519165039;133.28665161132812
374;1673432949.5477734;47.1293973;7.2386779;49.95900344848633;1673432949.5947766;-39.15781784057617;18.592756271362305;132.15113830566406
375;1673432949.7473323;47.1293929;7.238687199999999;49.97300338745117;1673432949.7893453;-48.84974670410156;19.95277214050293;133.19688415527344
376;1673432949.9709935;47.1293876;7.2386976;49.99800109863281;1673432950.0063133;-49.44960021972656;16.178539276123047;135.4425506591797
377;1673432950.2550402;47.129381599999995;7.2387095;50.009002685546875;1673432950.3247564;-45.413570404052734;19.71351432800293;134.6440887451172
378;1673432950.4711664;47.129374899999995;7.2387220999999995;50.01100158691406;1673432950.5220613;-38.98661804199219;22.41827392578125;134.70358276367188
379;1673432950.6854684;47.1293678;7.2387348;50.00800323486328;1673432950.7226715;-29.762304306030273;19.628616333007812;135.64002990722656
380;1673432950.8804936;47.129360899999995;7.238747099999999;49.99500274658203;1673432950.9179835;-17.633907318115234;19.51145362854004;132.95693969726562
381;1673432951.0545437;47.1293547;7.238758499999999;49.98500061035156;1673432951.0935862;-19.01817512512207;25.087343215942383;131.4330596923828
382;1673432951.251004;47.1293491;7.2387688;49.97600173950195;1673432951.2919295;-30.378036499023438;19.974658966064453;132.2566680908203
383;1673432951.4291286;47.129343899999995;7.238778699999999;49.97800064086914;1673432951.463333;-25.40230941772461;21.956186294555664;132.755126953125
384;1673432951.6056345;47.1293388;7.2387881;49.97600173950195;1673432951.6457434;-26.3294734954834;27.77604103088379;134.01547241210938
385;1673432951.806267;47.1293338;7.2387967;49.98100280761719;1673432951.855625;-24.612462997436523;38.61164093017578;147.77064514160156
386;1673432952.0200777;47.1293286;7.238802799999999;49.98400115966797;1673432952.0608418;-27.893205642700195;45.42168426513672;158.99180603027344
387;1673432952.2149222;47.129323299999996;7.2388053;49.98100280761719;1673432952.2551262;-31.671905517578125;45.1184196472168;169.66529846191406
388;1673432952.4132998;47.1293181;7.2388037;49.95600128173828;1673432952.4563117;-38.668113708496094;36.92989730834961;177.6650848388672
389;1673432952.6284192;47.1293131;7.238798399999999;49.939002990722656;1673432952.6785262;-44.58174133300781;27.15927505493164;-173.77578735351562
390;1673432952.843531;47.1293079;7.2387906;49.92900085449219;1673432952.8845513;-48.87855911254883;23.518157958984375;-163.97067260742188
391;1673432953.0666223;47.1293024;7.2387802;49.92000198364258;1673432953.1058097;-48.17867660522461;11.605366706848145;-154.39077758789062
392;1673432953.2956142;47.129296599999996;7.2387679;49.92000198364258;1673432953.3309045;-50.59368133544922;3.668060302734375;-147.18069458007812
393;1673432953.475007;47.129290499999996;7.2387543;49.922000885009766;1673432953.5180607;-51.93208694458008;-4.185168743133545;-138.65695190429688
394;1673432953.6598115;47.129283699999995;7.2387396;49.93000411987305;1673432953.6930034;-51.82086944580078;-12.097162246704102;-132.50057983398438
395;1673432953.8394983;47.129276399999995;7.2387242999999994;49.93400192260742;1673432953.8873677;-50.104068756103516;-17.32373046875;-135.03871154785156
396;1673432954.0526564;47.1292683;7.2387092;49.93400192260742;1673432954.098658;-48.70456314086914;-14.368230819702148;-140.49473571777344
397;1673432954.250041;47.1292596;7.2386946;49.927001953125;1673432954.2960181;-47.06357955932617;-14.107596397399902;-142.76844787597656
398;1673432954.4583738;47.129250299999995;7.2386807;49.923004150390625;1673432954.4985883;-46.70184326171875;-13.960126876831055;-144.19007873535156
399;1673432954.6341527;47.129240499999995;7.238667599999999;49.93000411987305;1673432954.6792605;-48.08720016479492;-10.90748405456543;-145.87493896484375
400;1673432954.8429976;47.1292304;7.2386551;49.935001373291016;1673432954.8865678;-49.30686569213867;-6.782441139221191;-147.482421875
401;1673432955.0381799;47.129219899999995;7.2386428;49.94000244140625;1673432955.0779433;-48.80431365966797;-6.8835272789001465;-147.07720947265625
402;1673432955.254241;47.1292093;7.2386306;49.94400405883789;1673432955.2944782;-42.36016845703125;-14.394708633422852;-146.27337646484375
403;1673432955.486466;47.129198599999995;7.2386193;49.974002838134766;1673432955.5495944;-35.476226806640625;-10.236405372619629;-148.41067504882812
404;1673432955.709904;47.129188299999996;7.238608999999999;50.00700378417969;1673432955.7430906;-26.630319595336914;-11.032405853271484;-144.63967895507812
405;1673432955.921894;47.1291788;7.238599799999999;50.02700424194336;1673432955.9593835;-17.94052505493164;-9.242241859436035;-142.96298217773438
406;1673432956.1129293;47.129170699999996;7.2385918;50.0410041809082;1673432956.153557;-12.004586219787598;-8.646919250488281;-141.6121826171875
407;1673432956.2979214;47.1291643;7.238585199999999;50.048004150390625;1673432956.3330634;-9.013338088989258;-8.93716812133789;-140.8311767578125
408;1673432956.490769;47.1291594;7.2385798999999995;50.05000305175781;1673432956.531761;-9.780816078186035;-9.551637649536133;-140.2041778564453
409;1673432956.6734731;47.129156099999996;7.2385759;50.053001403808594;1673432956.7134883;-21.25150489807129;-9.076720237731934;-138.1517791748047
410;1673432956.8698823;47.129153699999996;7.2385722999999995;50.15300369262695;1673432956.9157543;-44.51363754272461;-8.737184524536133;-135.889404296875
411;1673432957.066257;47.1291508;7.2385674;50.34800338745117;1673432957.106275;-49.0851936340332;-9.431304931640625;-135.9397735595703
412;1673432957.252633;47.1291468;7.238560499999999;50.60700225830078;1673432957.3192134;-36.02247619628906;-4.158814907073975;-138.04193115234375
413;1673432957.4812489;47.129142699999996;7.2385527;50.91800308227539;1673432957.5285625;-24.87184715270996;-5.687622547149658;-137.56930541992188
414;1673432957.6856084;47.129138999999995;7.2385448;51.2920036315918;1673432957.7189274;-47.4632568359375;-15.59679889678955;-135.4265899658203
415;1673432957.8625581;47.1291343;7.2385364;51.678001403808594;1673432957.9028015;-56.210453033447266;-14.863081932067871;-137.7168426513672
416;1673432958.052127;47.129127999999994;7.2385268;52.03300094604492;1673432958.0982559;-51.31404495239258;-11.937673568725586;-139.8092041015625
417;1673432958.2514887;47.129120799999995;7.2385167;52.36100387573242;1673432958.2945983;-51.45893096923828;-12.330376625061035;-140.09446716308594
418;1673432958.4508405;47.1291126;7.2385060999999995;52.663002014160156;1673432958.4889054;-48.0873908996582;-11.658639907836914;-139.81903076171875
