;pos_time;latitude;longitude;altitude;alt_time;pitch;roll;yaw
0;1673434412.6939313;47.1306425;7.2406201999999995;-0.012000000104308128;1673434412.8499112;0.0406087189912796;0.0860985815525055;90.33704376220703
1;1673434412.8846197;47.1306425;7.24062;-0.01100000087171793;1673434413.058467;0.29987943172454834;0.17206478118896484;90.24390411376953
2;1673434413.099603;47.1306425;7.24062;-0.010000000707805157;1673434413.2671056;-0.05657073110342026;0.21477839350700378;90.40908813476562
3;1673434413.297764;47.1306425;7.2406198999999996;-0.009000000543892384;1673434413.4656823;-0.022549165412783623;0.10570631176233292;90.41545867919922
4;1673434413.499395;47.1306425;7.240619799999999;-0.01100000087171793;1673434413.6590126;0.1451847106218338;0.22335144877433777;90.38978576660156
5;1673434413.6951718;47.1306425;7.2406197;-0.013000000268220901;1673434413.8627956;-0.030079403892159462;0.024853408336639404;90.52969360351562
6;1673434413.9035146;47.1306425;7.2406197;-0.014000000432133675;1673434414.0622137;-0.22527773678302765;0.32123708724975586;90.25618743896484
7;1673434414.1037643;47.1306425;7.2406196;-0.017000000923871994;1673434414.268958;-0.10436311364173889;0.07774386554956436;90.46800231933594
8;1673434414.312983;47.1306425;7.2406196;-0.020000001415610313;1673434414.4671662;0.09117992967367172;0.30988115072250366;90.27738189697266
9;1673434414.5065122;47.1306424;7.2406197;-0.01900000125169754;1673434414.6820083;0.0757266953587532;0.10780550539493561;90.38868713378906
10;1673434414.722991;47.1306424;7.2406197;-0.018000001087784767;1673434414.9126673;-0.21077191829681396;0.24099445343017578;90.25989532470703
11;1673434414.9470062;47.1306424;7.2406197;-0.020000001415610313;1673434415.0855381;0.0019662638660520315;0.06316857039928436;90.36522674560547
12;1673434415.1178784;47.1306424;7.2406197;-0.02500000037252903;1673434415.2692423;-0.2916918992996216;0.2949356734752655;90.29598999023438
13;1673434415.3064804;47.1306424;7.2406197;-0.026000000536441803;1673434415.5008962;-0.07321808487176895;-0.5150358080863953;90.37458038330078
14;1673434415.5496867;47.1306424;7.2406196;0.0010000000474974513;1673434415.7107036;-0.24571599066257477;-1.1991922855377197;90.22116088867188
15;1673434415.7451355;47.1306424;7.2406197;0.004000000189989805;1673434415.882243;0.07302901148796082;-0.8507598042488098;90.17108154296875
16;1673434415.9244606;47.1306424;7.2406197;0.004000000189989805;1673434416.0913517;-0.020815987139940262;-0.8542587757110596;90.19157409667969
17;1673434416.129413;47.1306424;7.2406197;0.005000000353902578;1673434416.2906978;-0.107170470058918;-0.9123476147651672;90.17725372314453
18;1673434416.3288798;47.1306425;7.2406197;0.004000000189989805;1673434416.4882953;-0.14002546668052673;-1.1363335847854614;90.27043151855469
19;1673434416.5266247;47.1306425;7.2406196;0.0020000000949949026;1673434416.7016554;0.02427358366549015;-1.5227042436599731;90.07855224609375
20;1673434416.742274;47.1306425;7.2406196;0.0020000000949949026;1673434416.922917;0.14383020997047424;-1.512276530265808;90.07373809814453
21;1673434416.9572334;47.1306425;7.2406196;0.0010000000474974513;1673434417.110274;0.22219204902648926;-2.1475002765655518;89.94685363769531
22;1673434417.1474268;47.1306425;7.2406196;0.0010000000474974513;1673434417.3440075;0.12771503627300262;-1.1392816305160522;89.54335021972656
23;1673434417.3826675;47.1306425;7.2406196;0.007000000216066837;1673434417.505034;0.006475552450865507;-0.6045607924461365;89.48716735839844
24;1673434417.5333707;47.1306425;7.240619499999999;0.013000000268220901;1673434417.7019253;0.4790935516357422;-0.8946042060852051;89.42375183105469
25;1673434417.7629843;47.130642599999995;7.240619499999999;0.013000000268220901;1673434417.902307;0.3890123963356018;-0.8094552755355835;88.85694885253906
26;1673434417.9335296;47.130642699999996;7.2406194;0.01600000075995922;1673434418.0834763;0.31814759969711304;-0.590731143951416;87.55609130859375
27;1673434418.1187274;47.1306428;7.2406194;0.02200000174343586;1673434418.2903807;0.06380558013916016;-0.6162057518959045;84.97146606445312
28;1673434418.3278995;47.1306431;7.2406194;0.024000000208616257;1673434418.4830139;-0.041096240282058716;-0.21569280326366425;79.61886596679688
29;1673434418.5214703;47.1306436;7.240619199999999;0.02200000174343586;1673434418.677481;0.05620306730270386;1.3774874210357666;70.83162689208984
30;1673434418.7176445;47.1306446;7.2406185999999995;0.009000000543892384;1673434418.8736792;-0.3665359318256378;1.9921374320983887;62.78620147705078
31;1673434418.9176424;47.1306461;7.2406177;-0.007000000216066837;1673434419.0697994;0.6410534977912903;1.2926764488220215;60.63444137573242
32;1673434419.1113622;47.1306483;7.2406162;-0.007000000216066837;1673434419.2855237;0.06391862779855728;6.8371758460998535;59.560707092285156
33;1673434419.3186932;47.130651099999994;7.2406139;0.0010000000474974513;1673434419.4862497;-0.8395422101020813;12.730104446411133;61.89921569824219
34;1673434419.5223734;47.1306545;7.2406109;0.014000000432133675;1673434419.673729;-1.6108300685882568;14.008042335510254;63.65492248535156
35;1673434419.7127733;47.1306582;7.2406074;0.03200000151991844;1673434419.8789394;-2.1654064655303955;16.715892791748047;64.92237091064453
36;1673434419.9112039;47.130662199999996;7.2406033999999995;0.055000003427267075;1673434420.0698016;-2.7315943241119385;19.235246658325195;65.88629913330078
37;1673434420.1057749;47.1306662;7.240599199999999;0.07800000160932541;1673434420.3031547;-3.5261003971099854;20.949752807617188;66.77406311035156
38;1673434420.3439562;47.1306703;7.240595;0.10000000149011612;1673434420.492634;-4.356100559234619;22.918743133544922;67.43962097167969
39;1673434420.5280285;47.1306742;7.240590699999999;0.12200000882148743;1673434420.6999106;-5.262977123260498;24.96782875061035;68.00167846679688
40;1673434420.736002;47.130677899999995;7.240586599999999;0.14500001072883606;1673434420.8959036;-6.184652328491211;26.780147552490234;68.51885223388672
41;1673434420.9311576;47.1306813;7.2405827;0.17500001192092896;1673434421.0981734;-7.173768520355225;28.71430778503418;68.93264770507812
42;1673434421.1335595;47.1306844;7.2405792;0.2070000171661377;1673434421.3120615;-8.158562660217285;30.639789581298828;69.37154388427734
43;1673434421.3541148;47.130686999999995;7.2405762;0.24000000953674316;1673434421.54925;-9.202256202697754;32.46498489379883;69.77461242675781
44;1673434421.5747492;47.1306891;7.2405737;0.2760000228881836;1673434421.7101963;-10.29847526550293;34.38108825683594;70.19686126708984
45;1673434421.7474313;47.130690699999995;7.2405718;0.320000022649765;1673434421.893967;-11.41219425201416;36.21656036376953;70.52051544189453
46;1673434421.934155;47.1306917;7.2405706;0.36400002241134644;1673434422.0981247;-12.596905708312988;38.14607620239258;70.95977020263672
47;1673434422.1402931;47.130691999999996;7.2405702;0.4100000262260437;1673434422.2863626;-13.925436019897461;40.000892639160156;71.45819854736328
48;1673434422.3226266;47.1306916;7.2405705;0.4580000340938568;1673434422.474045;-15.293318748474121;41.877681732177734;71.9847183227539
49;1673434422.5158262;47.1306904;7.240571699999999;0.5080000162124634;1673434422.7087033;-16.934343338012695;43.723411560058594;72.66377258300781
50;1673434422.7745707;47.1306884;7.2405737;0.5590000152587891;1673434422.9331439;-18.90910530090332;45.447505950927734;73.45539855957031
51;1673434422.966521;47.1306855;7.2405767;0.6140000224113464;1673434423.1120977;-20.89755630493164;46.408477783203125;74.48772430419922
52;1673434423.147423;47.130681599999996;7.2405808;0.6720000505447388;1673434423.322934;-19.501001358032227;42.4896354675293;76.22748565673828
53;1673434423.3545005;47.130677;7.240585599999999;0.7190000414848328;1673434423.5074103;-17.290109634399414;37.53718948364258;77.39561462402344
54;1673434423.5504172;47.130671899999996;7.2405909;0.7620000243186951;1673434423.7020643;-14.603228569030762;32.02067565917969;78.05938720703125
55;1673434423.7350092;47.1306667;7.2405963;0.7990000247955322;1673434423.9112053;-11.55208969116211;26.545711517333984;78.2366943359375
56;1673434423.9466455;47.1306617;7.2406014;0.831000030040741;1673434424.0891922;-8.909690856933594;22.21694564819336;77.99246215820312
57;1673434424.1264246;47.130657299999996;7.2406058;0.8600000143051147;1673434424.2794406;-7.364200115203857;19.560216903686523;77.68461608886719
58;1673434424.3189206;47.130653699999996;7.240609399999999;0.8850000500679016;1673434424.4741144;-6.875356674194336;18.321382522583008;77.29283905029297
59;1673434424.519474;47.1306508;7.2406121;0.909000039100647;1673434424.6914184;-6.963257312774658;18.769132614135742;76.97476959228516
60;1673434424.729483;47.1306486;7.2406139;0.9330000281333923;1673434424.8856804;-7.678170204162598;20.46199607849121;76.6378402709961
61;1673434424.922769;47.1306472;7.240615099999999;0.9620000720024109;1673434425.083943;-8.685457229614258;22.19536018371582;76.40045928955078
62;1673434425.1249845;47.130646299999995;7.2406156;1.0010000467300415;1673434425.2899494;-10.018567085266113;23.230545043945312;76.22911834716797
63;1673434425.3299754;47.130645799999996;7.2406158;1.0490000247955322;1673434425.4893427;-10.612159729003906;26.604053497314453;75.72842407226562
64;1673434425.5265296;47.1306456;7.2406158;1.1130000352859497;1673434425.6929855;-10.894213676452637;27.09821128845215;75.41169738769531
65;1673434425.7272966;47.1306453;7.2406158;1.187000036239624;1673434425.900124;-11.528313636779785;25.442461013793945;75.30109405517578
66;1673434425.9344323;47.1306452;7.2406159;1.2710000276565552;1673434426.112666;-11.270417213439941;27.913150787353516;74.76136016845703
67;1673434426.1524293;47.130645099999995;7.240615999999999;1.371000051498413;1673434426.3119233;-10.586675643920898;28.72242546081543;74.48905181884766
68;1673434426.3470588;47.1306449;7.2406163;1.4850000143051147;1673434426.5070899;-10.55042552947998;26.505264282226562;74.79551696777344
69;1673434426.5433142;47.1306447;7.2406166;1.6130000352859497;1673434426.7062068;-10.962756156921387;26.788475036621094;76.78736877441406
70;1673434426.7433803;47.130644499999995;7.2406171;1.7540000677108765;1673434426.9115212;-9.82158088684082;28.567602157592773;76.48198699951172
71;1673434426.9545984;47.1306442;7.240617599999999;1.8990000486373901;1673434427.1187963;-9.543237686157227;26.201637268066406;76.70941925048828
72;1673434427.150163;47.1306438;7.2406182;2.0530002117156982;1673434427.3454418;-9.513769149780273;25.44001579284668;76.64456176757812
73;1673434427.378798;47.1306436;7.2406185999999995;2.2190001010894775;1673434427.5226693;-8.986254692077637;27.543519973754883;76.24958801269531
74;1673434427.5549026;47.130643299999996;7.240619;2.3980000019073486;1673434427.7421567;-8.67933464050293;26.693195343017578;76.37705993652344
75;1673434427.7745492;47.1306431;7.2406193;2.5830001831054688;1673434427.9426472;-8.96679401397705;24.91326141357422;76.5450210571289
76;1673434427.973994;47.130643;7.240619499999999;2.7720000743865967;1673434428.1322794;-8.765851974487305;26.601238250732422;76.10816192626953
77;1673434428.1714678;47.1306428;7.2406196;2.9610002040863037;1673434428.3276713;-8.608363151550293;26.496957778930664;76.07686614990234
78;1673434428.3569508;47.130642699999996;7.240619799999999;3.1460001468658447;1673434428.5218904;-9.131882667541504;24.453166961669922;76.4495849609375
79;1673434428.5550842;47.130642599999995;7.240619799999999;3.330000162124634;1673434428.7126892;-9.344284057617188;26.387685775756836;76.23614501953125
80;1673434428.7615306;47.130642599999995;7.2406197;3.516000270843506;1673434428.914361;-9.18828296661377;27.40570831298828;76.10254669189453
81;1673434428.9477642;47.130642699999996;7.2406196;3.700000286102295;1673434429.1007428;-9.570112228393555;25.319189071655273;76.43831634521484
82;1673434429.1428492;47.130642699999996;7.240619499999999;3.885000228881836;1673434429.3184037;-9.88182544708252;26.30870819091797;76.37427520751953
83;1673434429.3526828;47.130642699999996;7.2406194;4.072000026702881;1673434429.5267894;-9.626087188720703;27.777544021606445;76.17475128173828
84;1673434429.5613365;47.130642699999996;7.2406194;4.261000156402588;1673434429.721632;-9.862689971923828;25.259641647338867;76.46932220458984
85;1673434429.7548869;47.130642599999995;7.2406194;4.446000099182129;1673434429.9281828;-9.973114967346191;25.815956115722656;76.40045928955078
86;1673434429.961647;47.130642599999995;7.240619499999999;4.633000373840332;1673434430.118154;-9.36408805847168;27.90888023376465;76.02468872070312
87;1673434430.1552603;47.130642699999996;7.240619499999999;4.822000026702881;1673434430.3280952;-9.503335952758789;26.14564323425293;76.4028549194336
88;1673434430.362364;47.1306428;7.2406196;5.010000228881836;1673434430.5172977;-9.60896110534668;25.894325256347656;76.54914855957031
89;1673434430.5516112;47.1306428;7.2406197;5.193000316619873;1673434430.7045028;-9.147529602050781;27.866533279418945;76.08273315429688
90;1673434430.7428079;47.130642699999996;7.240619799999999;5.377000331878662;1673434430.9066837;-9.242045402526855;26.216894149780273;76.29645538330078
91;1673434430.9449294;47.130642699999996;7.240619799999999;5.564000129699707;1673434431.1031885;-9.470730781555176;25.302730560302734;76.45721435546875
92;1673434431.1465178;47.130642699999996;7.2406198999999996;5.753000259399414;1673434431.3090136;-9.268621444702148;27.744495391845703;76.12957000732422
93;1673434431.3414185;47.1306428;7.2406198999999996;5.943000316619873;1673434431.5181816;-9.015071868896484;26.912710189819336;76.21815490722656
94;1673434431.5503802;47.1306428;7.2406198999999996;6.133000373840332;1673434431.7110581;-9.476774215698242;25.421710968017578;76.52870178222656
95;1673434431.7473254;47.1306428;7.2406198999999996;6.322000503540039;1673434431.9169087;-9.385231018066406;27.24979019165039;76.21171569824219
96;1673434432.0096517;47.1306428;7.2406198999999996;6.509000301361084;1673434432.1539626;-9.198226928710938;27.392282485961914;76.13313293457031
97;1673434432.1913536;47.130642699999996;7.2406198999999996;6.699000358581543;1673434432.3474216;-9.508625984191895;25.241056442260742;76.50791931152344
98;1673434432.3788185;47.130642699999996;7.2406198999999996;6.892000198364258;1673434432.544239;-9.624563217163086;26.616939544677734;76.38468933105469
99;1673434432.5774329;47.130642699999996;7.2406198999999996;7.085000514984131;1673434432.7337453;-9.375967979431152;27.77852439880371;76.13796997070312
100;1673434432.7700124;47.1306428;7.2406198999999996;7.279000282287598;1673434432.9251812;-9.428096771240234;25.511213302612305;76.4725112915039
101;1673434432.9643106;47.1306428;7.2406198999999996;7.474000453948975;1673434433.126192;-9.621000289916992;26.115446090698242;76.31837463378906
102;1673434433.1663637;47.130642699999996;7.2406198999999996;7.668000221252441;1673434433.3255897;-9.248201370239258;27.84684181213379;76.06378936767578
103;1673434433.3589697;47.130642699999996;7.2406198999999996;7.8600006103515625;1673434433.5218887;-9.484148025512695;25.666805267333984;76.36730194091797
104;1673434433.56194;47.130642699999996;7.24062;8.053000450134277;1673434433.782072;-9.64563274383545;25.584157943725586;76.4666748046875
105;1673434433.8133516;47.130642699999996;7.24062;8.244000434875488;1673434433.956936;-9.075030326843262;27.84122657775879;76.10411834716797
106;1673434433.9903395;47.1306428;7.2406201;8.439000129699707;1673434434.1410122;-9.090470314025879;26.732280731201172;76.31922149658203
107;1673434434.180206;47.1306428;7.2406201;8.63700008392334;1673434434.3341615;-9.482973098754883;25.421722412109375;76.49773406982422
108;1673434434.3664963;47.1306428;7.2406201;8.833000183105469;1673434434.5233767;-9.349987983703613;27.432090759277344;76.17500305175781
109;1673434434.5654306;47.130642699999996;7.2406201;9.027000427246094;1673434434.73546;-9.21593952178955;26.983871459960938;76.26431274414062
110;1673434434.7715874;47.130642699999996;7.2406201;9.226000785827637;1673434434.9440017;-9.646710395812988;25.047121047973633;76.46881866455078
111;1673434434.9841223;47.130642599999995;7.2406201;9.426000595092773;1673434435.139333;-9.543569564819336;26.74398422241211;76.26795959472656
112;1673434435.173488;47.130642699999996;7.2406201;9.62700080871582;1673434435.3152118;-9.132712364196777;27.662097930908203;76.15385437011719
113;1673434435.3523853;47.1306428;7.2406201;9.829000473022461;1673434435.5094903;-9.337854385375977;25.413311004638672;76.59529113769531
114;1673434435.546678;47.1306428;7.2406201;10.029000282287598;1673434435.7165828;-9.657760620117188;25.318721771240234;76.30618286132812
115;1673434435.7547865;47.1306428;7.2406201;10.254000663757324;1673434435.9179516;-8.309086799621582;26.19667625427246;75.91681671142578
116;1673434435.9625282;47.130642599999995;7.2406203;10.596000671386719;1673434436.1447904;-9.751267433166504;28.441478729248047;76.05677795410156
117;1673434436.1741557;47.1306423;7.2406206;10.991000175476074;1673434436.336421;-9.43396282196045;25.420934677124023;76.64549255371094
118;1673434436.3706026;47.1306419;7.240620799999999;11.386000633239746;1673434436.5510275;-8.994645118713379;26.271236419677734;76.519775390625
119;1673434436.5955002;47.1306417;7.240621099999999;11.78700065612793;1673434436.7510173;-8.507828712463379;24.986169815063477;76.5244140625
120;1673434436.785871;47.130641499999996;7.2406212;12.193000793457031;1673434436.9495711;-8.834415435791016;23.503435134887695;76.58174133300781
121;1673434436.9879372;47.1306413;7.2406213;12.599000930786133;1673434437.1483743;-8.571623802185059;24.95195960998535;76.2583236694336
122;1673434437.186553;47.1306412;7.2406213;12.998000144958496;1673434437.3424954;-8.664525032043457;24.744495391845703;76.22608184814453
123;1673434437.375689;47.1306412;7.2406212;13.403000831604004;1673434437.534763;-8.894936561584473;23.592893600463867;76.40231323242188
124;1673434437.5665436;47.1306413;7.240621099999999;13.808000564575195;1673434437.7307456;-8.942764282226562;25.750768661499023;76.2567138671875
125;1673434437.7708046;47.130641499999996;7.2406209;14.212000846862793;1673434437.9261925;-8.877694129943848;26.42084312438965;76.24365997314453
126;1673434437.9666078;47.1306417;7.240620799999999;14.617000579833984;1673434438.1309323;-9.227519035339355;24.878192901611328;76.51184844970703
127;1673434438.1663477;47.1306419;7.2406206;15.023000717163086;1673434438.3154385;-9.241334915161133;26.14496612548828;76.32676696777344
128;1673434438.3497515;47.130641999999995;7.2406204999999995;15.427000999450684;1673434438.5117037;-8.938069343566895;27.209640502929688;76.19100189208984
129;1673434438.5470839;47.130641999999995;7.2406204;15.826001167297363;1673434438.7146573;-9.163067817687988;25.27404022216797;76.34909057617188
130;1673434438.7509153;47.130641999999995;7.2406203;16.231000900268555;1673434438.9234495;-9.303946495056152;25.55063819885254;76.36347198486328
131;1673434438.9558907;47.130642099999996;7.2406201999999995;16.641000747680664;1673434439.1180632;-9.107414245605469;27.080764770507812;76.18590545654297
132;1673434439.1525803;47.1306422;7.2406201999999995;17.05000114440918;1673434439.3253033;-9.220900535583496;25.686412811279297;76.42536163330078
133;1673434439.363426;47.1306422;7.2406201;17.45400047302246;1673434439.5064533;-9.372612953186035;25.26296043395996;76.43112182617188
134;1673434439.5399504;47.1306422;7.2406201;17.858001708984375;1673434439.7026184;-9.200626373291016;26.998291015625;76.31703186035156
135;1673434439.7472317;47.1306422;7.2406201;18.256000518798828;1673434439.917899;-9.132552146911621;25.66254997253418;76.40017700195312
136;1673434439.957255;47.130642099999996;7.2406201;18.659000396728516;1673434440.1292462;-9.438985824584961;24.790271759033203;76.46671295166016
137;1673434440.163449;47.130642099999996;7.2406201;19.062000274658203;1673434440.3261166;-9.09079360961914;26.635894775390625;76.26854705810547
138;1673434440.3630943;47.130642099999996;7.2406201;19.463001251220703;1673434440.5205388;-8.815796852111816;26.066204071044922;76.2997817993164
139;1673434440.5581949;47.1306422;7.2406201;19.86400032043457;1673434440.7259722;-9.230203628540039;24.60963249206543;76.46400451660156
140;1673434440.7585075;47.1306422;7.24062;20.26300048828125;1673434440.915224;-9.1084623336792;26.34288787841797;76.16920471191406
141;1673434440.9431934;47.1306422;7.24062;20.665000915527344;1673434441.1245143;-8.94761848449707;26.459217071533203;76.2603530883789
142;1673434441.1627107;47.1306422;7.24062;21.06100082397461;1673434441.322199;-9.212029457092285;24.685855865478516;76.4509048461914
143;1673434441.3576343;47.1306422;7.24062;21.45800018310547;1673434441.5177076;-9.107784271240234;26.36150550842285;76.30841064453125
144;1673434441.556758;47.1306423;7.24062;21.860000610351562;1673434441.7183208;-8.935504913330078;26.859560012817383;76.21839904785156
145;1673434441.7537026;47.1306423;7.24062;22.261001586914062;1673434441.9192872;-9.247050285339355;25.123090744018555;76.50070190429688
146;1673434441.9654453;47.1306423;7.24062;22.660001754760742;1673434442.12922;-9.252546310424805;25.66510581970215;76.3516616821289
147;1673434442.1702538;47.1306423;7.24062;23.058000564575195;1673434442.319109;-8.858128547668457;26.994897842407227;76.12725067138672
148;1673434442.352293;47.1306423;7.24062;23.450000762939453;1673434442.5144277;-9.132794380187988;25.125751495361328;76.41230010986328
149;1673434442.5466685;47.1306422;7.24062;23.843000411987305;1673434442.7062175;-9.25434684753418;25.457124710083008;76.38867950439453
150;1673434442.740686;47.1306422;7.2406201;24.238000869750977;1673434442.911159;-8.891002655029297;26.942617416381836;76.23296356201172
151;1673434442.951221;47.1306423;7.2406201;24.634000778198242;1673434443.118522;-8.853580474853516;25.324630737304688;76.40310668945312
152;1673434443.151744;47.1306423;7.2406201999999995;25.033000946044922;1673434443.3158674;-9.109949111938477;25.031896591186523;76.4216537475586
153;1673434443.3503742;47.1306423;7.2406201999999995;25.433000564575195;1673434443.506127;-8.87721061706543;26.846853256225586;76.18927001953125
154;1673434443.5416133;47.1306423;7.2406201;25.834001541137695;1673434443.7111514;-8.909590721130371;25.96194076538086;76.2754898071289
155;1673434443.7497616;47.1306423;7.2406201;26.22800064086914;1673434443.9238503;-9.315850257873535;24.948108673095703;76.44447326660156
156;1673434443.9599612;47.1306423;7.2406201;26.624000549316406;1673434444.1196415;-9.04819107055664;26.825660705566406;76.30147552490234
157;1673434444.149083;47.1306424;7.2406201;27.024002075195312;1673434444.310633;-8.957491874694824;26.371212005615234;76.22624206542969
158;1673434444.3514967;47.1306424;7.24062;27.423002243041992;1673434444.5317814;-9.281460762023926;24.79475975036621;76.51815032958984
159;1673434444.5659363;47.1306425;7.24062;27.819002151489258;1673434444.7266183;-8.99659538269043;26.396089553833008;76.21349334716797
160;1673434444.7647207;47.1306425;7.24062;28.215002059936523;1673434444.92994;-8.931726455688477;26.64914894104004;76.21317291259766
161;1673434444.9712276;47.1306425;7.24062;28.60500144958496;1673434445.154005;-9.175406455993652;24.79648780822754;76.38777160644531
162;1673434445.1826384;47.1306425;7.24062;28.999000549316406;1673434445.3567283;-9.210943222045898;26.06475067138672;76.26631164550781
163;1673434445.391034;47.1306425;7.24062;29.394001007080078;1673434445.53804;-8.760741233825684;26.992691040039062;76.1567611694336
164;1673434445.5751762;47.1306425;7.24062;29.78900146484375;1673434445.7376413;-9.023323059082031;25.236555099487305;76.40003204345703
165;1673434445.7744532;47.1306425;7.24062;30.187002182006836;1673434445.9491751;-9.319003105163574;25.696699142456055;76.3725357055664
166;1673434445.9834406;47.1306425;7.24062;30.58500099182129;1673434446.1425455;-8.813057899475098;27.105670928955078;76.16461944580078
167;1673434446.178263;47.1306425;7.24062;30.983001708984375;1673434446.3342707;-8.990898132324219;25.485706329345703;76.37311553955078
168;1673434446.3657234;47.1306424;7.24062;31.374000549316406;1673434446.5292516;-9.117714881896973;25.234169006347656;76.40363311767578
169;1673434446.5656242;47.1306424;7.24062;31.7710018157959;1673434446.70864;-8.935898780822754;27.00725555419922;76.18084716796875
170;1673434446.746274;47.1306425;7.2406198999999996;32.17000198364258;1673434446.9067695;-8.910504341125488;25.898452758789062;76.37188720703125
171;1673434446.9444034;47.1306424;7.2406198999999996;32.569000244140625;1673434447.1225111;-9.276667594909668;24.89411735534668;76.48628997802734
172;1673434447.158795;47.1306424;7.240619799999999;32.967002868652344;1673434447.3250253;-9.158886909484863;26.742597579956055;76.35081481933594
173;1673434447.3729177;47.1306424;7.240619799999999;33.36600112915039;1673434447.5298603;-9.016579627990723;26.305328369140625;76.29405212402344
174;1673434447.5593147;47.1306424;7.240619799999999;33.759002685546875;1673434447.7087321;-9.262472152709961;24.650144577026367;76.49187469482422
175;1673434447.7433257;47.1306424;7.240619799999999;34.15400314331055;1673434447.9085062;-9.015263557434082;26.56806182861328;76.2263412475586
176;1673434447.951274;47.1306424;7.240619799999999;34.55000305175781;1673434448.1143942;-8.830763816833496;26.664690017700195;76.22669982910156
177;1673434448.1587038;47.1306424;7.240619799999999;34.94700241088867;1673434448.3129635;-9.055251121520996;24.789897918701172;76.45323181152344
178;1673434448.3499262;47.1306424;7.240619799999999;35.34400177001953;1673434448.5135775;-9.018964767456055;26.19232177734375;76.29476928710938
179;1673434448.5589502;47.1306424;7.240619799999999;35.74300003051758;1673434448.7138164;-8.849443435668945;26.852771759033203;76.26331329345703
180;1673434448.749223;47.1306425;7.240619799999999;36.14200210571289;1673434448.9112222;-9.01745891571045;24.953815460205078;76.49820709228516
181;1673434448.947562;47.1306425;7.240619799999999;36.534000396728516;1673434449.1122565;-9.070104598999023;26.0698299407959;76.27139282226562
182;1673434449.1465547;47.1306425;7.240619799999999;36.93100357055664;1673434449.3108113;-8.844502449035645;26.917566299438477;76.15576171875
183;1673434449.3489244;47.1306425;7.2406197;37.332000732421875;1673434449.5216029;-9.117082595825195;25.287242889404297;76.34777069091797
184;1673434449.5551434;47.1306424;7.2406197;37.73400115966797;1673434449.7227626;-9.345853805541992;25.249114990234375;76.3454360961914
185;1673434449.75807;47.1306423;7.2406197;38.13500213623047;1673434449.9163709;-9.028648376464844;26.8470458984375;76.15752410888672
186;1673434449.9620767;47.1306424;7.2406196;38.534000396728516;1673434450.121403;-9.108194351196289;25.55382537841797;76.32652282714844
187;1673434450.1610074;47.1306424;7.2406196;38.92500305175781;1673434450.3292809;-9.370779991149902;25.25374412536621;76.44547271728516
188;1673434450.3663692;47.1306424;7.2406196;39.319000244140625;1673434450.5285747;-8.85351848602295;26.94009017944336;76.25997924804688
189;1673434450.5703294;47.1306424;7.2406196;39.7140007019043;1673434450.75436;-9.017523765563965;26.039112091064453;76.34649658203125
190;1673434450.7925763;47.1306424;7.2406196;40.112003326416016;1673434450.939793;-9.25737190246582;24.747543334960938;76.53386688232422
191;1673434450.9710689;47.1306424;7.2406196;40.5150032043457;1673434451.1289284;-9.11902904510498;26.480510711669922;76.2826919555664
192;1673434451.166989;47.1306424;7.2406196;40.92100143432617;1673434451.3323324;-8.778144836425781;26.441335678100586;76.23056030273438
193;1673434451.3665428;47.1306424;7.240619499999999;41.32500076293945;1673434451.558042;-9.073172569274902;24.87571907043457;76.39411163330078
194;1673434451.5942013;47.1306425;7.240619499999999;41.72200012207031;1673434451.8076544;-8.877520561218262;26.34723663330078;76.17241668701172
195;1673434451.8362293;47.1306425;7.240619499999999;42.12000274658203;1673434451.9934657;-8.728301048278809;26.77237892150879;76.16815185546875
196;1673434452.0267718;47.1306425;7.240619499999999;42.518001556396484;1673434452.1948383;-9.174239158630371;24.92066192626953;76.45387268066406
197;1673434452.2346883;47.1306425;7.240619499999999;42.91400146484375;1673434452.3819194;-9.271352767944336;25.927160263061523;76.33391571044922
198;1673434452.4134893;47.1306425;7.2406194;43.31500244140625;1673434452.5612485;-8.876826286315918;27.18960952758789;76.11083221435547
199;1673434452.5984635;47.1306425;7.2406194;43.717002868652344;1673434452.7559395;-8.925623893737793;25.347713470458984;76.3851547241211
200;1673434452.789723;47.1306425;7.2406194;44.112003326416016;1673434452.9474876;-9.224750518798828;25.67162322998047;76.43893432617188
201;1673434452.983755;47.1306425;7.2406194;44.509002685546875;1673434453.1332834;-8.899301528930664;27.17184829711914;76.2063217163086
202;1673434453.165491;47.130642599999995;7.2406194;44.910003662109375;1673434453.3215466;-8.994625091552734;25.793163299560547;76.45305633544922
203;1673434453.35867;47.1306425;7.2406194;45.31100082397461;1673434453.5222604;-9.268278121948242;25.311084747314453;76.33723449707031
204;1673434453.5595498;47.1306425;7.2406194;45.71000289916992;1673434453.794532;-8.969399452209473;27.060253143310547;76.25164031982422
205;1673434453.8239248;47.1306424;7.2406193;46.108001708984375;1673434453.9772463;-8.964932441711426;25.983192443847656;76.30670928955078
206;1673434454.0076008;47.1306424;7.2406193;46.505001068115234;1673434454.157825;-9.284006118774414;24.94769859313965;76.51834106445312
207;1673434454.1911626;47.1306424;7.2406194;46.89600372314453;1673434454.344934;-8.979166984558105;26.692516326904297;76.25630187988281
208;1673434454.3781438;47.1306423;7.2406194;47.29100036621094;1673434454.5634227;-8.79175090789795;26.254959106445312;76.25005340576172
209;1673434454.594787;47.1306423;7.240619499999999;47.69000244140625;1673434454.7389965;-9.158183097839355;24.828527450561523;76.50635528564453
210;1673434454.7731574;47.1306422;7.240619499999999;48.083003997802734;1673434454.9309607;-9.14543628692627;26.70162010192871;76.37661743164062
211;1673434454.9677665;47.1306423;7.2406194;48.432003021240234;1673434455.1373727;-9.185853958129883;26.58942985534668;76.40510559082031
212;1673434455.1744757;47.1306424;7.240619199999999;48.72800064086914;1673434455.3319945;-9.500373840332031;26.031272888183594;76.4823989868164
213;1673434455.3641138;47.130642599999995;7.2406191;48.96600341796875;1673434455.5377088;-9.507354736328125;27.897302627563477;76.33613586425781
214;1673434455.5749106;47.1306429;7.2406188;49.1670036315918;1673434455.742013;-9.773091316223145;28.043115615844727;76.34207153320312
215;1673434455.7799518;47.1306431;7.2406185;49.33400344848633;1673434455.9424367;6.358918190002441;36.53780746459961;83.49510955810547
216;1673434455.9805284;47.130643;7.240617899999999;49.48200225830078;1673434456.160863;18.276378631591797;48.507774353027344;95.60108947753906
217;1673434456.2011056;47.130641999999995;7.2406155;49.6140022277832;1673434456.3619049;21.5848445892334;56.79179763793945;104.79995727539062
218;1673434456.3941045;47.1306392;7.2406098;49.72100067138672;1673434456.5537114;12.127697944641113;56.5034294128418;112.31608581542969
219;1673434456.5919456;47.1306345;7.2406004;49.77100372314453;1673434456.751991;-0.9268816709518433;49.2568244934082;121.98766326904297
220;1673434456.7883425;47.130628599999994;7.2405877;49.790000915527344;1673434456.9441242;-14.405997276306152;51.25106430053711;130.7694091796875
221;1673434456.9821873;47.1306215;7.2405728;49.80000305175781;1673434457.1322556;-29.59246826171875;47.31330108642578;142.66357421875
222;1673434457.1650033;47.1306132;7.240556;49.80600357055664;1673434457.3229022;-41.68454360961914;44.716209411621094;155.91334533691406
223;1673434457.358618;47.130603699999995;7.240537;49.81200408935547;1673434457.5109587;-47.667503356933594;36.85414505004883;167.67599487304688
224;1673434457.5473042;47.1305932;7.2405158;49.794002532958984;1673434457.7280798;-45.930137634277344;26.03577995300293;175.70558166503906
225;1673434457.7701206;47.130581899999996;7.2404929;49.750003814697266;1673434457.9351618;-44.635826110839844;19.872299194335938;-178.7143096923828
226;1673434457.975358;47.1305705;7.2404689;49.70600128173828;1673434458.1513922;-47.52632522583008;13.092790603637695;-170.96107482910156
227;1673434458.187521;47.130558799999996;7.2404442;49.6670036315918;1673434458.3528483;-41.10243606567383;6.733092308044434;-173.47702026367188
228;1673434458.390281;47.130547;7.2404190999999996;49.60000228881836;1673434458.5462658;-23.791513442993164;3.211799144744873;172.75210571289062
229;1673434458.5856802;47.1305355;7.2403948;49.50300216674805;1673434458.7493627;-17.132369995117188;3.448004961013794;158.27943420410156
230;1673434458.7865632;47.130525299999995;7.240372;49.39900207519531;1673434458.9487724;-21.55752182006836;10.380967140197754;144.8237762451172
231;1673434458.9812376;47.1305165;7.2403509999999995;49.362003326416016;1673434459.1451294;-38.443119049072266;21.446548461914062;134.00607299804688
232;1673434459.1834972;47.1305084;7.2403318;49.41100311279297;1673434459.3461947;-39.57598876953125;41.79136276245117;124.38186645507812
233;1673434459.3869553;47.1304995;7.240315;49.499000549316406;1673434459.5390775;-36.81264114379883;45.521690368652344;126.53871154785156
234;1673434459.577085;47.130489399999995;7.240298999999999;49.5890007019043;1673434459.7373257;-37.78118896484375;43.50466537475586;132.58200073242188
235;1673434459.7712066;47.1304782;7.240283;49.67100143432617;1673434459.945413;-41.57548904418945;39.95891189575195;136.52682495117188
236;1673434459.9852974;47.1304661;7.2402669;49.733001708984375;1673434460.1537316;-37.1556510925293;30.754737854003906;137.30389404296875
237;1673434460.1918347;47.1304532;7.240251;49.75400161743164;1673434460.3450909;-35.00477981567383;24.35106658935547;135.36801147460938
238;1673434460.3792512;47.1304403;7.2402356999999995;49.755001068115234;1673434460.5368311;-39.53166580200195;19.334632873535156;134.2459716796875
239;1673434460.5793512;47.130427499999996;7.2402219;49.76300048828125;1673434460.7787287;-44.813079833984375;6.0643391609191895;134.88134765625
240;1673434460.8138645;47.130415;7.240209999999999;49.77100372314453;1673434460.9743617;-43.547481536865234;-10.914966583251953;132.79373168945312
241;1673434461.007114;47.1304033;7.2402012;49.781002044677734;1673434461.1740322;-40.783451080322266;-18.141590118408203;130.75634765625
242;1673434461.2102587;47.130393399999996;7.2401963;49.80000305175781;1673434461.359919;-37.432342529296875;-23.438461303710938;132.49290466308594
243;1673434461.3921602;47.1303857;7.240194799999999;49.81700134277344;1673434461.5344381;-32.279014587402344;-18.797334671020508;130.3619842529297
244;1673434461.5740662;47.130380099999996;7.2401960999999995;49.832000732421875;1673434461.7538803;-40.492713928222656;-0.013310311362147331;129.15040588378906
245;1673434461.790976;47.1303761;7.2401995999999995;49.871002197265625;1673434461.9512973;-39.12309646606445;43.43172836303711;130.77975463867188
246;1673434461.9843614;47.130372;7.2402038;49.92000198364258;1673434462.1459634;-32.5162467956543;46.7532844543457;151.4333038330078
247;1673434462.1871135;47.130366599999995;7.240204899999999;49.927001953125;1673434462.362506;-25.835046768188477;41.75749588012695;158.5684814453125
248;1673434462.3996918;47.1303607;7.240201399999999;49.90900421142578;1673434462.5466774;-26.301998138427734;31.59563446044922;167.3120880126953
249;1673434462.5822153;47.1303547;7.2401941;49.90400314331055;1673434462.7520938;-37.666259765625;30.678998947143555;175.38174438476562
250;1673434462.7862868;47.1303486;7.2401833;49.922000885009766;1673434462.9457326;-48.02661895751953;25.547565460205078;-175.4772186279297
251;1673434462.9848135;47.1303421;7.240169099999999;49.957000732421875;1673434463.1479733;-52.65872573852539;15.84088134765625;-166.02572631835938
252;1673434463.1856375;47.1303348;7.240151699999999;49.987003326416016;1673434463.3667362;-49.68210983276367;6.546461582183838;-156.06300354003906
253;1673434463.3993006;47.1303267;7.2401317999999995;50.0160026550293;1673434463.5495489;-51.757259368896484;-4.212673187255859;-149.1643829345703
254;1673434463.5814054;47.1303181;7.2401101;50.053001403808594;1673434463.7436626;-53.710655212402344;-8.731889724731445;-158.2621307373047
255;1673434463.7843726;47.1303085;7.2400877999999995;50.070003509521484;1673434463.9451377;-50.73212432861328;-1.3935670852661133;-173.04205322265625
256;1673434463.9873366;47.1302978;7.240065899999999;50.07100296020508;1673434464.1667323;-45.849300384521484;4.32758903503418;176.44000244140625
257;1673434464.2075658;47.130286399999996;7.2400449;50.057003021240234;1673434464.369015;-41.939693450927734;10.513623237609863;166.63612365722656
258;1673434464.4109411;47.1302747;7.2400250999999995;50.03900146484375;1673434464.6123435;-39.72212219238281;17.058561325073242;156.91688537597656
259;1673434464.643736;47.130263;7.2400063999999995;50.01700210571289;1673434464.792752;-35.749759674072266;22.661989212036133;147.16859436035156
260;1673434464.8365326;47.1302512;7.239988599999999;50.00400161743164;1673434464.9793122;-32.04366683959961;29.398883819580078;137.28854370117188
261;1673434465.0068283;47.130239499999995;7.239971499999999;50.00600051879883;1673434465.1396945;-28.992074966430664;36.69143295288086;127.60887908935547
262;1673434465.1748815;47.1302278;7.239954999999999;50.03000259399414;1673434465.3481722;-30.423049926757812;44.023502349853516;122.64421081542969
263;1673434465.3834593;47.1302157;7.239939;50.06700134277344;1673434465.5629978;-31.403697967529297;43.86132049560547;127.42401885986328
264;1673434465.605887;47.1302029;7.2399233;50.105003356933594;1673434465.7721908;-37.36188888549805;45.232566833496094;133.03048706054688
265;1673434465.8134723;47.1301894;7.2399074;50.12600326538086;1673434465.9738092;-38.87720489501953;34.80966567993164;138.33804321289062
266;1673434466.0078847;47.1301754;7.2398912;50.11000061035156;1673434466.174749;-31.00328254699707;19.75952911376953;138.06802368164062
267;1673434466.2277033;47.1301613;7.239875499999999;50.05500411987305;1673434466.385538;-32.799476623535156;10.786751747131348;135.6085205078125
268;1673434466.4228916;47.130148;7.239860999999999;50.000003814697266;1673434466.568102;-39.8702507019043;-7.128880500793457;136.08119201660156
269;1673434466.5994174;47.1301357;7.2398487;49.9640007019043;1673434466.7580094;-39.63622283935547;-15.583725929260254;131.61709594726562
270;1673434466.794268;47.1301251;7.2398400999999994;49.94000244140625;1673434466.982693;-36.33763885498047;-28.010435104370117;133.19102478027344
271;1673434467.0188;47.130116699999995;7.2398354;49.919002532958984;1673434467.1866097;-26.417564392089844;-16.7347354888916;127.54657745361328
272;1673434467.2218568;47.1301108;7.2398337999999995;49.89600372314453;1673434467.3741038;-32.252315521240234;-23.498695373535156;133.94969177246094
273;1673434467.4076312;47.1301071;7.2398345;49.90700149536133;1673434467.5840733;-36.9381217956543;-20.893695831298828;137.26629638671875
274;1673434467.6350791;47.130105199999996;7.2398374;49.928001403808594;1673434467.795191;-38.40999984741211;6.579480171203613;145.3789825439453
275;1673434467.8430192;47.130103899999995;7.2398422;49.97200393676758;1673434467.995473;-43.14971160888672;35.2205696105957;158.74241638183594
276;1673434468.0632029;47.130102;7.239845799999999;50.01400375366211;1673434468.2190063;-46.748199462890625;35.75833511352539;175.65386962890625
277;1673434468.2502415;47.1300988;7.2398451999999995;49.99700164794922;1673434468.3946593;-29.77806854248047;23.167367935180664;-171.06082153320312
278;1673434468.4240925;47.130095;7.2398394999999995;49.952003479003906;1673434468.5689313;-35.46049118041992;20.02984619140625;-172.68836975097656
279;1673434468.6109345;47.1300913;7.2398304;49.94200134277344;1673434468.8044531;-43.85850143432617;14.49303913116455;-162.71664428710938
280;1673434468.850116;47.1300873;7.239818499999999;49.957000732421875;1673434469.0165179;-50.227333068847656;0.4315504729747772;-151.30508422851562
281;1673434469.1112223;47.1300825;7.2398036999999995;50.00100326538086;1673434469.222732;-55.318660736083984;-8.218368530273438;-144.06021118164062
282;1673434469.251304;47.1300764;7.239786499999999;50.066001892089844;1673434469.4064026;-54.57792663574219;-16.829195022583008;-139.7461395263672
283;1673434469.4416833;47.130069;7.2397674;50.12300109863281;1673434469.583214;-54.694461822509766;-17.386545181274414;-151.2582550048828
284;1673434469.621279;47.1300598;7.2397477;50.160003662109375;1673434469.7775443;-52.910743713378906;-10.248085021972656;-163.6111602783203
285;1673434469.812787;47.130049199999995;7.2397284;50.1670036315918;1673434469.9749699;-48.757423400878906;-2.139294385910034;-173.4025421142578
286;1673434470.007833;47.1300376;7.239709899999999;50.1670036315918;1673434470.1647096;-49.35840606689453;5.267054080963135;178.34251403808594
287;1673434470.2058747;47.130025499999995;7.2396921;50.172000885009766;1673434470.3708937;-47.690670013427734;12.254552841186523;169.27403259277344
288;1673434470.402358;47.130012799999996;7.2396749;50.1670036315918;1673434470.552431;-43.617061614990234;17.624942779541016;160.3455047607422
289;1673434470.5863266;47.1299998;7.2396581;50.15200424194336;1673434470.7772026;-37.218017578125;20.997106552124023;151.28265380859375
290;1673434470.8106468;47.129986699999996;7.239641799999999;50.11900329589844;1673434470.9579525;-28.840391159057617;21.33163833618164;141.59744262695312
291;1673434470.9911933;47.129974;7.2396261;50.06700134277344;1673434471.147493;-23.668872833251953;23.962764739990234;130.25875854492188
292;1673434471.1829162;47.1299618;7.2396112;50.03200149536133;1673434471.3473165;-27.11545753479004;37.11948013305664;120.21314239501953
293;1673434471.382558;47.129950099999995;7.239596799999999;50.04600143432617;1673434471.5508885;-26.564178466796875;41.98758316040039;123.79535675048828
294;1673434471.5959241;47.1299382;7.239583;50.07200241088867;1673434471.7594578;-31.32664680480957;45.62824630737305;130.9602813720703
295;1673434471.8002725;47.129925799999995;7.2395686999999995;50.11300277709961;1673434471.9758143;-36.654388427734375;48.06861877441406;136.51466369628906
296;1673434472.021065;47.1299126;7.2395536;50.13900375366211;1673434472.1812863;-28.401968002319336;33.981590270996094;140.85543823242188
297;1673434472.231293;47.129898999999995;7.2395375;50.10900115966797;1673434472.3866563;-20.046110153198242;23.010656356811523;137.6078338623047
298;1673434472.4177008;47.129886;7.2395211999999995;50.04300308227539;1673434472.5652924;-27.54398536682129;29.976076126098633;130.67527770996094
299;1673434472.598126;47.129873599999996;7.2395052;50.02400207519531;1673434472.7678034;-38.01192855834961;36.29862976074219;127.65057373046875
300;1673434472.8072302;47.1298612;7.23949;50.048004150390625;1673434472.9728553;-32.150108337402344;-1.7455761432647705;137.16993713378906
301;1673434473.0109007;47.1298489;7.239476;50.08000183105469;1673434473.1786323;-30.380638122558594;-36.000213623046875;137.11854553222656
302;1673434473.2169516;47.1298384;7.2394649;50.07500076293945;1673434473.3785222;-17.991199493408203;-18.848173141479492;128.2701416015625
303;1673434473.4148073;47.1298308;7.239456799999999;49.99700164794922;1673434473.5749626;-1.7512885332107544;-19.94076156616211;151.16265869140625
304;1673434473.6068685;47.129826099999995;7.239450499999999;49.93600082397461;1673434473.7954252;9.458508491516113;-32.00929641723633;167.87757873535156
305;1673434473.8508282;47.129824199999995;7.2394454999999995;49.92100143432617;1673434474.020341;15.099103927612305;-31.55657196044922;178.21356201171875
306;1673434474.0803287;47.129825;7.239442299999999;49.926002502441406;1673434474.2258945;17.23381233215332;-35.01021957397461;-174.59568786621094
307;1673434474.264856;47.1298282;7.2394411;49.945003509521484;1673434474.4343367;3.6812710762023926;-37.39945602416992;176.4486846923828
308;1673434474.4636986;47.1298332;7.2394418;49.96800231933594;1673434474.605718;-24.04122543334961;-34.16904830932617;160.59837341308594
309;1673434474.6435177;47.129839499999996;7.239444799999999;50.018001556396484;1673434474.7936275;-45.00153732299805;-5.493794918060303;139.64256286621094
310;1673434474.8237593;47.1298458;7.2394497;50.07200241088867;1673434474.971349;-51.705039978027344;16.598072052001953;129.8907470703125
311;1673434475.0115218;47.129850399999995;7.239456;50.125003814697266;1673434475.1775434;-54.44200897216797;26.014942169189453;128.51815795898438
312;1673434475.2151601;47.1298524;7.2394625999999995;50.16100311279297;1673434475.3689392;-46.940494537353516;20.874814987182617;133.01649475097656
313;1673434475.3993304;47.1298519;7.2394691;50.17900085449219;1673434475.576748;-41.374820709228516;20.584630966186523;133.25076293945312
314;1673434475.6089563;47.1298496;7.239474899999999;50.19300079345703;1673434475.808967;-38.48503112792969;18.538293838500977;133.7359619140625
315;1673434475.8475454;47.129846199999996;7.2394799999999995;50.208003997802734;1673434475.9863975;-37.02178955078125;20.61885643005371;142.30093383789062
316;1673434476.0157819;47.129841899999995;7.239484;50.22300338745117;1673434476.1643312;-39.099090576171875;17.790874481201172;154.4848175048828
317;1673434476.199067;47.1298367;7.2394862;50.23100280761719;1673434476.3656378;-37.613277435302734;16.540124893188477;164.41232299804688
318;1673434476.401116;47.129830999999996;7.239486599999999;50.230003356933594;1673434476.5711646;-33.811424255371094;19.531982421875;173.37400817871094
319;1673434476.607126;47.129824899999996;7.239484699999999;50.230003356933594;1673434476.7728243;-34.848567962646484;12.999267578125;-177.3744659423828
320;1673434476.8149056;47.129818799999995;7.2394802;50.22700119018555;1673434476.9891224;-37.500308990478516;8.255516052246094;-169.57766723632812
321;1673434477.0245566;47.129812699999995;7.2394734;50.230003356933594;1673434477.1753294;-48.13066101074219;14.409728050231934;-161.6581573486328
322;1673434477.205028;47.1298064;7.239464;50.24400329589844;1673434477.356351;-57.05016326904297;4.408553123474121;-151.71356201171875
323;1673434477.3930068;47.1297996;7.239451;50.259002685546875;1673434477.5458157;-58.855690002441406;-4.381561756134033;-142.15103149414062
324;1673434477.5873215;47.1297916;7.2394345;50.243003845214844;1673434477.7526174;-49.724971771240234;-11.011058807373047;-134.69033813476562
325;1673434477.7897193;47.1297827;7.2394152;50.2130012512207;1673434477.9790914;-47.27128219604492;-14.747926712036133;-133.859619140625
326;1673434478.0231588;47.1297734;7.2393942;50.18800354003906;1673434478.1701927;-49.550540924072266;-17.718379974365234;-137.3806610107422
327;1673434478.2076132;47.129763399999995;7.2393721;50.185001373291016;1673434478.3669527;-52.66244125366211;-17.176300048828125;-140.05047607421875
328;1673434478.3995056;47.129752599999996;7.2393494;50.18400192260742;1673434478.5587032;-50.26295852661133;-14.638915061950684;-141.16268920898438
329;1673434478.5954227;47.129740999999996;7.2393263;50.169002532958984;1673434478.7595246;-48.24517822265625;-16.96780776977539;-142.36839294433594
330;1673434478.7967188;47.129728899999996;7.2393031;50.143001556396484;1673434478.96281;-47.157493591308594;-15.17748737335205;-151.7345428466797
331;1673434478.9977534;47.1297162;7.239280099999999;50.1150016784668;1673434479.174021;-45.6993293762207;-8.531789779663086;-162.5804901123047
332;1673434479.2183633;47.1297031;7.239257899999999;50.10000228881836;1673434479.3818672;-46.41278076171875;-3.002960681915283;-171.1864013671875
333;1673434479.4153903;47.129689899999995;7.239236699999999;50.090003967285156;1673434479.567176;-44.95964431762695;3.747814178466797;179.605224609375
334;1673434479.601994;47.129676499999995;7.2392163;50.083003997802734;1673434479.7833154;-43.35751724243164;10.167485237121582;170.84780883789062
335;1673434479.8184617;47.129663099999995;7.239196799999999;50.079002380371094;1673434479.9825711;-41.01710510253906;16.208906173706055;161.8889617919922
336;1673434480.0218594;47.129649799999996;7.239178099999999;50.073001861572266;1673434480.1650774;-36.579261779785156;19.42934226989746;152.91064453125
337;1673434480.2006428;47.1296367;7.239160099999999;50.05000305175781;1673434480.3573925;-31.645442962646484;20.7670955657959;143.10958862304688
338;1673434480.3977773;47.129624;7.2391428;50.0260009765625;1673434480.5713546;-29.838741302490234;24.750288009643555;131.99160766601562
339;1673434480.6181595;47.1296116;7.2391264;50.01300048828125;1673434480.7712224;-36.55785369873047;33.243072509765625;122.00285339355469
340;1673434480.8057563;47.1295996;7.2391112;50.03300094604492;1673434480.970191;-38.2729606628418;34.60895538330078;123.56697082519531
341;1673434481.0028458;47.129587199999996;7.2390973999999995;50.05800247192383;1673434481.1632705;-42.94389724731445;35.745750427246094;128.9422607421875
342;1673434481.1980784;47.1295742;7.2390848;50.08700180053711;1673434481.372385;-46.6588134765625;33.3934211730957;136.3946533203125
343;1673434481.4073625;47.1295605;7.239072999999999;50.10000228881836;1673434481.5692828;-40.343772888183594;23.065181732177734;139.17086791992188
344;1673434481.6048322;47.1295463;7.239061599999999;50.07500076293945;1673434481.7813532;-35.76333236694336;18.233566284179688;137.53919982910156
345;1673434481.819515;47.129532399999995;7.239051;50.035003662109375;1673434481.9915452;-43.967872619628906;22.166839599609375;141.76637268066406
346;1673434482.026008;47.1295187;7.239041299999999;50.025001525878906;1673434482.1824045;-32.02033615112305;28.599550247192383;156.56234741210938
347;1673434482.223081;47.1295049;7.2390316;50.0410041809082;1673434482.3933468;-28.947664260864258;35.666603088378906;166.3553466796875
348;1673434482.4287508;47.129491699999996;7.239020099999999;50.04600143432617;1673434482.5904934;-34.88533401489258;40.935245513916016;175.39463806152344
349;1673434482.625542;47.1294793;7.2390057;50.01700210571289;1673434482.7906785;-32.036659240722656;30.885238647460938;-170.06163024902344
350;1673434482.8297198;47.1294681;7.2389876;49.97800064086914;1673434482.9878047;-35.77566909790039;25.66274642944336;-165.40760803222656
351;1673434483.0224063;47.1294581;7.2389668;49.94900131225586;1673434483.190212;-42.18404006958008;17.032535552978516;-157.06329345703125
352;1673434483.2255626;47.129449;7.2389439;49.93700408935547;1673434483.3836884;-47.67009353637695;5.369054317474365;-147.53854370117188
353;1673434483.4190078;47.1294404;7.238919;49.9530029296875;1673434483.5749993;-51.097023010253906;-5.402177333831787;-139.70126342773438
354;1673434483.6114688;47.1294316;7.2388924999999995;49.98600387573242;1673434483.767293;-52.02302169799805;-17.02729606628418;-144.683349609375
355;1673434483.8022237;47.1294221;7.238865499999999;50.00800323486328;1673434483.9629216;-47.230777740478516;-12.719192504882812;-160.2827911376953
356;1673434483.9992511;47.1294117;7.2388395;49.99800109863281;1673434484.172611;-43.495033264160156;-7.357722759246826;-171.78245544433594
357;1673434484.2047234;47.1294008;7.2388151;49.98200225830078;1673434484.3787534;-44.11726379394531;-4.210326671600342;-179.7693634033203
358;1673434484.4158227;47.1293897;7.2387926;49.965003967285156;1673434484.5776224;-42.69215774536133;0.8767236471176147;170.14340209960938
359;1673434484.615195;47.1293785;7.238772099999999;49.952003479003906;1673434484.7709382;-44.308109283447266;7.138973712921143;160.7401580810547
360;1673434484.8056908;47.1293672;7.238753399999999;49.952003479003906;1673434484.9790158;-44.707923889160156;11.871847152709961;151.71881103515625
361;1673434485.0164645;47.1293558;7.2387367;49.95600128173828;1673434485.1806412;-43.33946228027344;17.29271697998047;142.05816650390625
362;1673434485.2138586;47.1293441;7.2387217999999995;49.95900344848633;1673434485.377341;-42.264808654785156;21.723114013671875;132.91908264160156
363;1673434485.4100869;47.129332299999994;7.2387087999999995;49.96000289916992;1673434485.5717323;-43.36143493652344;27.259815216064453;126.58942413330078
364;1673434485.618413;47.129320299999996;7.2386975;49.97500228881836;1673434485.7835996;-48.97514343261719;31.32513427734375;127.59709167480469
365;1673434485.8190734;47.1293077;7.2386878999999995;49.99700164794922;1673434485.9812524;-46.79175567626953;28.03536033630371;135.0085906982422
366;1673434486.017307;47.1292944;7.2386795;49.992000579833984;1673434486.1772578;-39.44363784790039;20.596324920654297;137.9454345703125
367;1673434486.2158668;47.1292808;7.2386716;49.954002380371094;1673434486.3751898;-34.800960540771484;16.511632919311523;135.93275451660156
368;1673434486.412349;47.129267399999996;7.238664399999999;49.90300369262695;1673434486.5713847;-38.38430404663086;14.047650337219238;134.33892822265625
369;1673434486.603942;47.129254599999996;7.238658;49.87700271606445;1673434486.7659383;-44.7253532409668;15.459819793701172;133.8273162841797
370;1673434486.8060975;47.1292422;7.2386528;49.874000549316406;1673434486.9847536;-37.80638885498047;18.78706169128418;140.8515167236328
371;1673434487.024174;47.129229699999996;7.2386488;49.89400100708008;1673434487.1763995;-13.531880378723145;17.11386489868164;155.80697631835938
372;1673434487.2156217;47.1292178;7.2386443;49.91800308227539;1673434487.3794286;-5.863760471343994;24.02205467224121;162.2152557373047
373;1673434487.417695;47.1292075;7.2386382;49.93700408935547;1673434487.5817037;-9.0321626663208;26.803621292114258;171.0198211669922
374;1673434487.6227376;47.1291991;7.2386297;49.95000076293945;1673434487.7829633;-24.855430603027344;14.394322395324707;-179.0087890625
375;1673434487.818723;47.1291922;7.238619;49.96600341796875;1673434487.9857354;-28.967039108276367;-9.38122272491455;-166.89767456054688
376;1673434488.0203204;47.1291862;7.238607099999999;49.99700164794922;1673434488.1712496;-24.343778610229492;-24.60812759399414;-160.4673614501953
377;1673434488.2074172;47.1291806;7.2385958;50.0260009765625;1673434488.3940194;-9.506531715393066;-28.58612632751465;-151.23281860351562
378;1673434488.431811;47.1291754;7.2385858999999995;50.04500198364258;1673434488.5848997;-1.2194037437438965;-29.324237823486328;-143.1049346923828
379;1673434488.6258643;47.1291711;7.2385775;50.060001373291016;1673434488.7853012;-8.2872953414917;-33.57622528076172;-151.17727661132812
380;1673434488.8200839;47.1291675;7.238570999999999;50.07500076293945;1673434488.9852102;-15.605255126953125;-33.591670989990234;-160.89764404296875
381;1673434489.0218644;47.1291644;7.238566199999999;50.08500289916992;1673434489.181672;-20.81938934326172;-29.656505584716797;-166.2550048828125
382;1673434489.2183387;47.1291617;7.2385632;50.09800338745117;1673434489.389138;-39.26740646362305;-15.05518913269043;-158.17530822753906
383;1673434489.4288585;47.1291588;7.238561;50.16200256347656;1673434489.5899842;-37.94154739379883;-7.859781742095947;-145.31983947753906
384;1673434489.6202288;47.129154899999996;7.2385573999999995;50.28200149536133;1673434489.7751083;-20.40219497680664;-2.6336796283721924;-133.84165954589844
385;1673434489.811923;47.1291509;7.2385512;50.461002349853516;1673434489.962084;-29.171466827392578;-9.625496864318848;-131.98614501953125
386;1673434489.9972599;47.1291473;7.238543;50.737003326416016;1673434490.1927545;-32.54073715209961;-25.23384666442871;-133.6750030517578
387;1673434490.2308538;47.1291436;7.238533299999999;51.08100128173828;1673434490.3892248;-41.484901428222656;-38.20030212402344;-135.71786499023438
388;1673434490.4234865;47.129138499999996;7.2385231;51.44900131225586;1673434490.5832832;-41.8519401550293;-32.007938385009766;-139.00735473632812
389;1673434490.6230924;47.129131199999996;7.238513299999999;51.798004150390625;1673434490.7867892;-40.8997802734375;-29.39661979675293;-139.8442840576172
390;1673434490.8219862;47.1291225;7.2385034;52.1510009765625;1673434490.9895022;-39.46213150024414;-26.775501251220703;-139.5404510498047
391;1673434491.0288908;47.129112799999994;7.238493399999999;52.50300216674805;1673434491.180583;-37.13179397583008;-24.100969314575195;-138.95726013183594
392;1673434491.2138479;47.129102499999995;7.238483;52.85400390625;1673434491.3744793;-35.012107849121094;-22.373565673828125;-138.24603271484375
393;1673434491.41135;47.1290917;7.2384721;53.21000289916992;1673434491.5782897;-33.30531692504883;-20.93478775024414;-137.33428955078125
394;1673434491.6186101;47.1290809;7.2384607;53.57100296020508;1673434491.7775822;-31.796165466308594;-20.486082077026367;-136.53836059570312
395;1673434491.8143163;47.1290701;7.2384488;53.93000411987305;1673434491.9790978;-30.78402328491211;-19.832834243774414;-136.51461791992188
396;1673434492.0173426;47.1290595;7.2384365;54.298004150390625;1673434492.1843584;-30.561071395874023;-19.987695693969727;-136.4300537109375
397;1673434492.2175593;47.1290492;7.2384239;54.67500305175781;1673434492.373318;-29.967884063720703;-20.457088470458984;-136.51251220703125
398;1673434492.4062793;47.129039;7.2384109;55.05400085449219;1673434492.5872478;-30.173133850097656;-21.05291175842285;-136.5850067138672
399;1673434492.6199956;47.1290291;7.2383977999999995;55.439002990722656;1673434492.7695236;-30.212936401367188;-21.814903259277344;-136.66326904296875
400;1673434492.805976;47.1290194;7.2383844999999996;55.827003479003906;1673434492.9702566;-30.48975372314453;-22.290504455566406;-136.77310180664062
401;1673434493.008738;47.1290098;7.2383712;56.21600341796875;1673434493.1783488;-30.6181697845459;-22.68901252746582;-136.8353271484375
402;1673434493.2203171;47.1290002;7.238358;56.59800338745117;1673434493.37436;-30.84393310546875;-22.97128677368164;-136.87228393554688
403;1673434493.410141;47.128990699999996;7.238344799999999;56.98500442504883;1673434493.5741296;-31.040868759155273;-22.950843811035156;-136.9285430908203
404;1673434493.6155434;47.1289811;7.2383317;57.375003814697266;1673434493.788522;-31.11357307434082;-23.01386070251465;-136.96792602539062
405;1673434493.8214903;47.1289716;7.2383187;57.7660026550293;1673434493.9894617;-31.09691047668457;-22.910907745361328;-136.9958953857422
406;1673434494.0243106;47.128962099999995;7.2383057;58.15800094604492;1673434494.1871867;-31.297237396240234;-22.886960983276367;-136.9641571044922
407;1673434494.231538;47.1289525;7.2382927;58.54900360107422;1673434494.402452;-31.1763973236084;-22.880653381347656;-136.9900360107422
408;1673434494.4382854;47.128943;7.2382798;58.928001403808594;1673434494.5905795;-31.174280166625977;-22.62488555908203;-137.01651000976562
409;1673434494.6353123;47.1289334;7.2382668;59.30900192260742;1673434494.7972403;-31.295488357543945;-22.611448287963867;-136.97592163085938
410;1673434494.8356373;47.1289237;7.2382538;59.69000244140625;1673434494.9936411;-31.29983139038086;-22.56564712524414;-136.9879608154297
411;1673434495.0327234;47.128914099999996;7.2382408;60.073001861572266;1673434495.2088385;-31.316865921020508;-22.52020835876465;-136.99984741210938
412;1673434495.2421424;47.1289045;7.2382278;60.46000289916992;1673434495.4018154;-31.374540328979492;-22.443601608276367;-136.99095153808594
413;1673434495.4350336;47.1288949;7.2382146999999994;60.84700393676758;1673434495.5903027;-31.370025634765625;-22.623756408691406;-136.9947967529297
414;1673434495.6323295;47.1288853;7.2382016;61.23400115966797;1673434495.810339;-31.41839027404785;-22.472454071044922;-137.0186309814453
415;1673434495.846497;47.128875699999995;7.2381885;61.61000442504883;1673434496.0116396;-31.3830509185791;-22.573705673217773;-137.01954650878906
416;1673434496.044883;47.128866099999996;7.238175399999999;61.98800277709961;1673434496.2238848;-31.423297882080078;-22.608869552612305;-137.00228881835938
417;1673434496.2584412;47.1288564;7.2381622;62.368003845214844;1673434496.3889327;-31.476186752319336;-22.650514602661133;-136.99688720703125
418;1673434496.422156;47.1288468;7.238149099999999;62.75100326538086;1673434496.595691;-31.510604858398438;-22.611888885498047;-136.98855590820312
419;1673434496.6364024;47.1288372;7.2381359;63.13600158691406;1673434496.784458;-31.531997680664062;-22.63467025756836;-136.99960327148438
420;1673434496.8181996;47.1288275;7.238122799999999;63.518001556396484;1673434496.9734635;-31.519542694091797;-22.596193313598633;-137.01805114746094
