;pos_time;latitude;longitude;altitude;alt_time;pitch;roll;yaw
0;1673433595.251815;47.1306423;7.2406197;-0.023000001907348633;1673433595.2703748;-0.09806667268276215;-0.1208173930644989;90.36292266845703
1;1673433595.4588757;47.1306423;7.2406197;-0.02200000174343586;1673433595.4744918;-0.16503292322158813;-0.2243667095899582;90.4351806640625
2;1673433595.6721308;47.1306423;7.2406196;-0.02200000174343586;1673433595.68981;-0.0638873428106308;-0.2950226962566376;90.47634887695312
3;1673433595.8535695;47.1306424;7.2406196;-0.018000001087784767;1673433595.8701918;0.21909722685813904;-0.26444515585899353;90.4947509765625
4;1673433596.041307;47.1306424;7.240619499999999;-0.017000000923871994;1673433596.058062;0.13367576897144318;-0.16110631823539734;90.28981018066406
5;1673433596.2365253;47.1306424;7.240619499999999;-0.017000000923871994;1673433596.258162;0.04090474918484688;-0.16776405274868011;90.25457000732422
6;1673433596.455486;47.1306424;7.2406196;-0.018000001087784767;1673433596.4752328;-0.26675570011138916;-0.309109091758728;90.33190155029297
7;1673433596.649757;47.1306424;7.2406197;-0.017000000923871994;1673433596.6663148;-0.19225482642650604;-0.19566945731639862;90.20918273925781
8;1673433596.84867;47.1306424;7.2406197;-0.014000000432133675;1673433596.8672822;-0.1404198259115219;-0.3754057288169861;90.19070434570312
9;1673433597.0550103;47.1306424;7.2406197;-0.01100000087171793;1673433597.0746295;-0.2995123565196991;-0.3164657652378082;90.35653686523438
10;1673433597.2653518;47.1306424;7.2406197;-0.007000000216066837;1673433597.2829185;-0.32489702105522156;-0.18334685266017914;90.24441528320312
11;1673433597.456235;47.1306424;7.240619799999999;-0.004000000189989805;1673433597.4740975;-0.1456783413887024;-0.2180931717157364;90.20205688476562
12;1673433597.6536865;47.1306424;7.240619799999999;-0.0020000000949949026;1673433597.6713672;-0.1954544633626938;-0.2536269426345825;90.35301208496094
13;1673433597.8575914;47.1306424;7.2406197;-0.004000000189989805;1673433597.8752139;0.20897279679775238;-0.25218847393989563;90.31585693359375
14;1673433598.0609121;47.1306424;7.2406197;-0.0010000000474974513;1673433598.0787725;0.024028737097978592;-0.7178370356559753;90.5028076171875
15;1673433598.2371917;47.1306425;7.2406197;-0.005000000353902578;1673433598.255007;-0.17130441963672638;-0.6198562979698181;90.4111557006836
16;1673433598.4541595;47.1306425;7.2406197;-0.006000000052154064;1673433598.4717276;-0.27085092663764954;-0.5971227288246155;90.35899353027344
17;1673433598.675324;47.1306425;7.2406197;-0.005000000353902578;1673433598.6919115;-0.29967689514160156;-0.6032310128211975;90.37579345703125
18;1673433598.8785603;47.1306424;7.2406197;-0.0020000000949949026;1673433598.924676;0.05029885098338127;-0.5213522911071777;90.45724487304688
19;1673433599.1093366;47.1306424;7.240619799999999;-0.0020000000949949026;1673433599.1249723;-0.001951486337929964;-0.47392594814300537;90.25798034667969
20;1673433599.3018613;47.1306423;7.240619799999999;-0.007000000216066837;1673433599.315552;0.08893213421106339;-1.0256658792495728;90.21875
21;1673433599.504767;47.1306424;7.240619799999999;-0.01100000087171793;1673433599.5215597;0.043296996504068375;-0.8976159691810608;90.2585678100586
22;1673433599.698053;47.1306424;7.2406198999999996;-0.003000000026077032;1673433599.7181025;0.03695940971374512;-0.7943311333656311;90.4361343383789
23;1673433599.8868015;47.1306424;7.2406198999999996;-0.005000000353902578;1673433599.901461;-0.0937427207827568;-0.21625716984272003;90.33861541748047
24;1673433600.0756893;47.1306424;7.2406198999999996;-0.007000000216066837;1673433600.0928624;0.33228355646133423;-0.8817912936210632;90.42366790771484
25;1673433600.2712185;47.1306424;7.2406198999999996;-0.006000000052154064;1673433600.2917154;0.18536917865276337;-0.5810784697532654;90.76959228515625
26;1673433600.472992;47.1306424;7.24062;-0.006000000052154064;1673433600.4905732;0.312398225069046;-0.5088145732879639;90.76207733154297
27;1673433600.6569293;47.1306425;7.24062;-0.007000000216066837;1673433600.6725788;0.09949492663145065;-0.5174573063850403;90.5766830444336
28;1673433600.8613799;47.1306425;7.2406201;-0.009000000543892384;1673433600.8809013;0.017569834366440773;-0.2626633644104004;90.17642211914062
29;1673433601.0778728;47.130642599999995;7.2406201999999995;-0.006000000052154064;1673433601.0964353;0.31282153725624084;-0.8147072792053223;90.05815887451172
30;1673433601.309073;47.130642599999995;7.2406201999999995;-0.004000000189989805;1673433601.3247201;0.9268109202384949;-0.5258651375770569;89.41972351074219
31;1673433601.497699;47.130642699999996;7.2406201;-0.005000000353902578;1673433601.5133958;1.7832233905792236;-0.14333654940128326;87.2566146850586
32;1673433601.6884341;47.1306429;7.240619799999999;0.0;1673433601.7081132;0.6238926649093628;3.7996230125427246;77.23963165283203
33;1673433601.8755765;47.130643;7.2406194;0.013000000268220901;1673433601.8931456;-0.24009762704372406;9.735580444335938;73.54774475097656
34;1673433602.0687375;47.1306431;7.2406188;0.03400000184774399;1673433602.0872831;-3.1685268878936768;13.01513385772705;76.89105224609375
35;1673433602.2491996;47.1306431;7.2406184;0.07700000703334808;1673433602.266769;-4.649163722991943;6.6541008949279785;79.5252914428711
36;1673433602.4647439;47.130643199999994;7.2406182;0.1380000114440918;1673433602.4823122;-6.483395576477051;8.795828819274902;80.87815856933594
37;1673433602.6817763;47.1306431;7.2406181;0.2120000123977661;1673433602.7014577;-5.877623558044434;11.594560623168945;81.91819763183594
38;1673433602.8588996;47.1306429;7.2406182;0.3020000159740448;1673433602.8745186;-5.525989532470703;8.050668716430664;83.36467742919922
39;1673433603.042244;47.1306428;7.2406182;0.4020000100135803;1673433603.0598464;-5.6913299560546875;6.768566608428955;84.6465835571289
40;1673433603.2322583;47.130642699999996;7.2406184;0.5230000019073486;1673433603.250964;-5.336091041564941;11.073628425598145;84.96923828125
41;1673433603.4434779;47.130642699999996;7.2406185999999995;0.6540000438690186;1673433603.4620428;-4.933563232421875;8.38167667388916;85.85951232910156
42;1673433603.6599662;47.130642699999996;7.240618899999999;0.7950000166893005;1673433603.6786623;-4.9935688972473145;6.1807756423950195;86.3968734741211
43;1673433603.8589194;47.1306425;7.240619199999999;0.9540000557899475;1673433603.8785548;-5.017237186431885;10.386636734008789;86.07860565185547
44;1673433604.043767;47.1306423;7.2406194;1.1290000677108765;1673433604.0661988;-4.104759693145752;7.8344597816467285;86.41649627685547
45;1673433604.2674668;47.1306422;7.240619499999999;1.3160001039505005;1673433604.287042;-4.246801853179932;5.19969367980957;87.00939178466797
46;1673433604.4736998;47.130642099999996;7.2406196;1.5090000629425049;1673433604.4922447;-4.055784702301025;9.276805877685547;85.36416625976562
47;1673433604.6738124;47.130641999999995;7.2406196;1.7020000219345093;1673433604.6904044;-4.035025119781494;8.880719184875488;85.76126098632812
48;1673433604.8641276;47.130641999999995;7.2406196;1.8920000791549683;1673433604.8836477;-4.589108467102051;4.8322038650512695;86.53104400634766
49;1673433605.081315;47.130641999999995;7.2406196;2.0900001525878906;1673433605.0852163;-5.1762919425964355;8.81624984741211;86.24884796142578
50;1673433605.2662785;47.1306419;7.2406196;2.2880001068115234;1673433605.2809184;-4.847455978393555;9.113710403442383;86.11573791503906
51;1673433605.4558878;47.1306419;7.2406196;2.491000175476074;1673433605.474438;-4.831169128417969;4.738912105560303;86.56212615966797
52;1673433605.6708639;47.130641999999995;7.2406196;2.695000171661377;1673433605.6906772;-4.9534077644348145;8.560242652893066;86.50293731689453
53;1673433605.9046745;47.130642099999996;7.2406196;2.8960001468658447;1673433605.9203405;-4.93663215637207;10.740285873413086;86.43467712402344
54;1673433606.1077259;47.1306422;7.2406196;3.0910000801086426;1673433606.1248791;-5.128103256225586;5.96931266784668;86.91027069091797
55;1673433606.2958188;47.1306423;7.2406197;3.2910001277923584;1673433606.3146286;-5.042895317077637;7.995649337768555;86.54923248291016
56;1673433606.5035079;47.1306422;7.240619799999999;3.494000196456909;1673433606.5230887;-4.742969036102295;10.22332763671875;86.0273208618164
57;1673433606.70031;47.1306422;7.2406198999999996;3.696000099182129;1673433606.718865;-4.6406049728393555;6.117555618286133;86.4669189453125
58;1673433606.9226248;47.1306423;7.24062;3.9060001373291016;1673433606.9528885;-4.684029579162598;7.25594425201416;86.6352310180664
59;1673433607.1317046;47.1306424;7.24062;4.1060004234313965;1673433607.1455488;-4.272648811340332;11.283485412597656;86.18522644042969
60;1673433607.313945;47.1306424;7.24062;4.296000003814697;1673433607.332059;-4.288447380065918;7.0747575759887695;86.5722885131836
61;1673433607.5204027;47.1306423;7.24062;4.491000175476074;1673433607.5381303;-4.720706939697266;6.0449700355529785;86.60004425048828
62;1673433607.7079313;47.1306422;7.2406198999999996;4.690999984741211;1673433607.724092;-4.95729398727417;10.829011917114258;86.16206359863281
63;1673433607.8856156;47.1306422;7.2406198999999996;4.894000053405762;1673433607.9051368;-4.914680004119873;7.128356456756592;86.56770324707031
64;1673433608.1027365;47.1306423;7.2406198999999996;5.099000453948975;1673433608.1180463;-5.070626258850098;5.8157219886779785;86.805908203125
65;1673433608.2863367;47.1306425;7.240619799999999;5.310000419616699;1673433608.3029294;-4.889083385467529;11.194900512695312;86.29207611083984
66;1673433608.4826171;47.1306425;7.240619799999999;5.519000053405762;1673433608.4982338;-4.604754447937012;8.712507247924805;86.56878662109375
67;1673433608.7084534;47.1306425;7.2406197;5.7230000495910645;1673433608.7255933;-4.850034713745117;5.677322864532471;86.59748840332031
68;1673433608.888235;47.1306425;7.2406197;5.926000118255615;1673433608.9049146;-4.787511348724365;10.575794219970703;86.27030181884766
69;1673433609.0823548;47.1306425;7.2406197;6.130000114440918;1673433609.1019356;-4.7558465003967285;8.895971298217773;86.41029357910156
70;1673433609.2763689;47.1306425;7.2406197;6.3470001220703125;1673433609.30284;-4.944009304046631;5.636836051940918;86.8030776977539
71;1673433609.4835432;47.130642699999996;7.2406197;6.545000076293945;1673433609.5022042;-4.9934868812561035;10.029915809631348;86.24369049072266
72;1673433609.6834064;47.1306428;7.2406197;6.749000549316406;1673433609.7019384;-4.8576579093933105;10.669377326965332;86.273681640625
73;1673433609.880313;47.130642699999996;7.2406197;6.950000286102295;1673433609.900907;-4.9042887687683105;5.862181663513184;86.68767547607422
74;1673433610.077725;47.130642599999995;7.2406197;7.146000385284424;1673433610.1002166;-4.959498405456543;9.315009117126465;86.49159240722656
75;1673433610.3077116;47.1306425;7.2406197;7.338000297546387;1673433610.3387277;-4.654909133911133;9.948609352111816;86.46321868896484
76;1673433610.502489;47.1306424;7.2406197;7.535000324249268;1673433610.5220373;-4.968843936920166;5.378485202789307;86.78524017333984
77;1673433610.6865158;47.1306425;7.2406197;7.7360005378723145;1673433610.7014842;-5.11646032333374;8.347099304199219;86.45150756835938
78;1673433610.8752842;47.130642599999995;7.2406197;7.936000347137451;1673433610.8948185;-4.846506118774414;11.05927848815918;86.23958587646484
79;1673433611.056626;47.130642599999995;7.2406197;8.131999969482422;1673433611.0732317;-5.077620506286621;5.910362720489502;86.81562805175781
80;1673433611.245784;47.1306425;7.2406197;8.32800006866455;1673433611.2636566;-4.97079610824585;7.7695112228393555;86.59878540039062
81;1673433611.4686785;47.1306425;7.2406197;8.526000022888184;1673433611.489202;-4.620819091796875;10.65569019317627;86.26084899902344
82;1673433611.6843631;47.1306425;7.2406197;8.729000091552734;1673433611.702357;-4.904107093811035;6.315547943115234;86.6244888305664
83;1673433611.8844545;47.130642599999995;7.2406197;8.930000305175781;1673433611.9021182;-5.096441745758057;7.418656349182129;86.48298645019531
84;1673433612.0726416;47.1306428;7.240619799999999;9.131000518798828;1673433612.088256;-4.928455829620361;11.672040939331055;86.06590270996094
85;1673433612.2500954;47.130642699999996;7.240619799999999;9.333000183105469;1673433612.2648964;-4.901595592498779;7.018441677093506;86.6404037475586
86;1673433612.4571826;47.1306428;7.240619799999999;9.534000396728516;1673433612.4747803;-5.019824028015137;7.078469276428223;86.52406311035156
87;1673433612.6672697;47.1306428;7.2406198999999996;9.732000350952148;1673433612.6852279;-4.8015828132629395;11.197406768798828;86.13603973388672
88;1673433612.866918;47.1306428;7.2406198999999996;9.93600082397461;1673433612.8836462;-4.303321361541748;7.681713581085205;86.45185089111328
89;1673433613.0712132;47.1306429;7.24062;10.136000633239746;1673433613.09171;-4.6348042488098145;6.556605339050293;86.57030487060547
90;1673433613.2767975;47.1306429;7.2406201;10.397000312805176;1673433613.293549;-4.858341693878174;10.840314865112305;86.11426544189453
91;1673433613.4741683;47.1306428;7.2406201999999995;10.750000953674316;1673433613.494826;-5.202167510986328;10.825788497924805;86.52772521972656
92;1673433613.6768446;47.1306425;7.2406204;11.128000259399414;1673433613.693431;-4.797131061553955;5.595181465148926;86.87693786621094
93;1673433613.8793416;47.1306422;7.2406204999999995;11.520000457763672;1673433613.89885;-4.4483232498168945;8.718193054199219;86.33916473388672
94;1673433614.0740948;47.1306419;7.2406206;11.932000160217285;1673433614.094649;-3.9831385612487793;8.867688179016113;86.31983947753906
95;1673433614.2682273;47.1306418;7.2406207;12.319000244140625;1673433614.2867725;-3.922697067260742;4.739607334136963;86.70030975341797
96;1673433614.4678447;47.1306419;7.2406207;12.721000671386719;1673433614.4850712;-4.211690902709961;6.81545877456665;86.61150360107422
97;1673433614.6626492;47.1306419;7.2406206;13.125000953674316;1673433614.682519;-4.273838520050049;10.107605934143066;86.37064361572266
98;1673433614.86322;47.1306419;7.2406206;13.547000885009766;1673433614.8801918;-4.497663974761963;5.446146488189697;86.66663360595703
99;1673433615.0639899;47.130641999999995;7.2406204999999995;13.939001083374023;1673433615.0817456;-4.711311340332031;6.911711692810059;86.37415313720703
100;1673433615.2616518;47.1306422;7.2406204;14.343000411987305;1673433615.2901697;-4.637392997741699;10.672775268554688;86.0723876953125
101;1673433615.5034804;47.1306423;7.2406203;14.749000549316406;1673433615.5161695;-4.663082122802734;7.994155406951904;86.47857666015625
102;1673433615.7008526;47.1306424;7.2406203;15.152000427246094;1673433615.7223349;-4.8556294441223145;6.809356689453125;86.75482177734375
103;1673433615.8922749;47.1306425;7.2406201999999995;15.551000595092773;1673433615.9088678;-4.5262980461120605;11.09522533416748;86.3677978515625
104;1673433616.1361;47.1306425;7.2406201999999995;15.947000503540039;1673433616.1537411;-4.494258403778076;8.120200157165527;86.49079895019531
105;1673433616.3164477;47.1306424;7.2406201999999995;16.34600067138672;1673433616.3330617;-5.140704154968262;5.7981061935424805;86.42253875732422
106;1673433616.5068157;47.1306424;7.2406201;16.74100112915039;1673433616.5225694;-5.030716419219971;10.001507759094238;85.98177337646484
107;1673433616.6804106;47.1306423;7.2406201;17.135000228881836;1673433616.6981087;-4.849510192871094;9.063362121582031;86.21394348144531
108;1673433616.8911412;47.1306423;7.2406201;17.5310001373291;1673433616.910662;-4.802923202514648;5.589384078979492;86.77030944824219
109;1673433617.084814;47.1306424;7.2406201;17.935001373291016;1673433617.1015441;-4.82522439956665;9.303462982177734;86.44725799560547
110;1673433617.2798476;47.1306424;7.2406201999999995;18.339000701904297;1673433617.2983773;-4.313292980194092;10.074660301208496;86.35179138183594
111;1673433617.5017874;47.1306423;7.2406201999999995;18.73900032043457;1673433617.5170038;-4.603757381439209;5.448064804077148;86.68666076660156
112;1673433617.7268167;47.1306424;7.2406201999999995;19.137001037597656;1673433617.7454011;-4.80063009262085;8.086649894714355;86.46534729003906
113;1673433617.9199011;47.1306424;7.2406201999999995;19.52800178527832;1673433617.9376564;-4.704822063446045;10.137313842773438;86.21113586425781
114;1673433618.1211712;47.1306425;7.2406201;19.92300033569336;1673433618.1377962;-4.610902309417725;6.63810396194458;86.56087493896484
115;1673433618.2925177;47.130642699999996;7.2406201;20.317001342773438;1673433618.310085;-4.817797660827637;6.943585395812988;86.6227798461914
116;1673433618.4752927;47.130642699999996;7.2406201;20.73000144958496;1673433618.4929385;-4.561357498168945;11.470849990844727;86.21863555908203
117;1673433618.7035131;47.130642599999995;7.2406201;21.113000869750977;1673433618.719114;-4.534344673156738;7.481658935546875;86.57227325439453
118;1673433618.899813;47.130642599999995;7.24062;21.512001037597656;1673433618.9165485;-4.73866605758667;6.315247535705566;86.77809143066406
119;1673433619.0803204;47.1306425;7.24062;21.908000946044922;1673433619.0979779;-4.711788177490234;10.553367614746094;86.31620788574219
120;1673433619.2910647;47.1306425;7.24062;22.306001663208008;1673433619.3086166;-4.434586524963379;8.323280334472656;86.3816909790039
121;1673433619.4770138;47.1306425;7.2406198999999996;22.711000442504883;1673433619.4937093;-4.916046142578125;5.511508941650391;86.56277465820312
122;1673433619.6751578;47.1306425;7.240619799999999;23.115001678466797;1673433619.6907752;-5.027896881103516;9.899328231811523;86.14836883544922
123;1673433619.8819728;47.1306425;7.240619799999999;23.519001007080078;1673433619.9015179;-4.778087615966797;9.400052070617676;86.25096893310547
124;1673433620.0886624;47.1306425;7.2406197;23.924001693725586;1673433620.1101265;-5.118258953094482;5.77177095413208;86.7570571899414
125;1673433620.2884398;47.1306425;7.2406197;24.343000411987305;1673433620.3051474;-5.062474727630615;8.012709617614746;86.53006744384766
126;1673433620.4920244;47.130642599999995;7.2406197;24.72300148010254;1673433620.5105884;-4.399291038513184;10.380158424377441;86.32076263427734
127;1673433620.6913273;47.130642699999996;7.2406197;25.123001098632812;1673433620.7100103;-4.428490161895752;6.513923645019531;86.66346740722656
128;1673433620.880778;47.1306428;7.2406197;25.520000457763672;1673433620.8993611;-4.785496711730957;8.006820678710938;86.3157730102539
129;1673433621.0797641;47.1306428;7.240619799999999;25.921001434326172;1673433621.0944154;-4.636916160583496;11.352088928222656;86.03707122802734
130;1673433621.2867177;47.130642699999996;7.240619799999999;26.32200050354004;1673433621.2876654;-4.706838130950928;6.829184532165527;86.55589294433594
131;1673433621.461842;47.130642699999996;7.240619799999999;26.72800064086914;1673433621.4784274;-4.801265716552734;7.242885112762451;86.64570617675781
132;1673433621.656301;47.130642599999995;7.240619799999999;27.125001907348633;1673433621.6791458;-4.315587043762207;10.917474746704102;86.41990661621094
133;1673433621.893972;47.130642599999995;7.2406197;27.548002243041992;1673433621.9155977;-4.384613990783691;7.634842395782471;86.44500732421875
134;1673433622.090979;47.130642699999996;7.2406196;27.939001083374023;1673433622.1036696;-4.868162631988525;6.452367305755615;86.47032165527344
135;1673433622.3207572;47.130642699999996;7.2406196;28.339000701904297;1673433622.3364136;-4.813898086547852;10.681131362915039;86.0896224975586
136;1673433622.50321;47.130642599999995;7.2406196;28.735000610351562;1673433622.5315425;-4.789417266845703;8.836542129516602;86.44738006591797
137;1673433622.687806;47.130642599999995;7.2406196;29.134000778198242;1673433622.7014723;-4.893014907836914;5.83062219619751;86.71534729003906
138;1673433622.8873835;47.130642599999995;7.2406196;29.533000946044922;1673433622.9069054;-4.851081848144531;10.008373260498047;86.31189727783203
139;1673433623.1128507;47.130642599999995;7.2406196;29.94300079345703;1673433623.1305416;-4.592012882232666;10.12979793548584;86.26508331298828
140;1673433623.3240232;47.130642599999995;7.2406196;30.32400131225586;1673433623.3388743;-4.616334915161133;6.135711193084717;86.71942901611328
141;1673433623.5467813;47.130642599999995;7.2406196;30.73400115966797;1673433623.5624464;-4.870614051818848;8.908693313598633;86.49739837646484
142;1673433623.7397454;47.1306425;7.2406196;31.112001419067383;1673433623.756899;-4.393982887268066;10.804855346679688;86.39568328857422
143;1673433623.9631348;47.1306424;7.2406196;31.51000213623047;1673433623.9769294;-4.816870212554932;5.941586017608643;86.53045654296875
144;1673433624.1378677;47.1306424;7.2406196;31.913002014160156;1673433624.1550007;-5.035562992095947;7.59220027923584;86.4190902709961
145;1673433624.319212;47.1306423;7.2406196;32.3120002746582;1673433624.3349774;-4.860655307769775;10.374202728271484;85.99396514892578
146;1673433624.5029414;47.1306424;7.2406196;32.71500015258789;1673433624.5187001;-4.754639625549316;6.705881595611572;86.54637145996094
147;1673433624.7052188;47.1306425;7.2406196;33.117000579833984;1673433624.7227871;-4.933043956756592;7.0373358726501465;86.77020263671875
148;1673433624.9000487;47.1306425;7.2406196;33.51900100708008;1673433624.9198098;-4.453343868255615;11.172731399536133;86.29528045654297
149;1673433625.1299381;47.1306424;7.2406196;33.92500305175781;1673433625.1465445;-4.6149001121521;7.265778064727783;86.40824890136719
150;1673433625.3358097;47.1306424;7.2406196;34.329002380371094;1673433625.3484511;-5.03555154800415;6.205300331115723;86.48822784423828
151;1673433625.565172;47.1306424;7.2406196;34.733001708984375;1673433625.5819097;-4.879949569702148;10.54556941986084;86.04476928710938
152;1673433625.7416625;47.1306425;7.2406196;35.12900161743164;1673433625.7582948;-4.692416667938232;8.546584129333496;86.38285827636719
153;1673433625.9198587;47.130642599999995;7.2406196;35.527000427246094;1673433625.938501;-4.927388668060303;6.212229251861572;86.7590103149414
154;1673433626.101149;47.130642699999996;7.2406196;35.92400360107422;1673433626.1177769;-4.9362359046936035;9.867708206176758;86.40492248535156
155;1673433626.2953997;47.130642699999996;7.2406196;36.320003509521484;1673433626.314938;-4.500051498413086;9.696334838867188;86.4151611328125
156;1673433626.5159385;47.130642599999995;7.2406197;36.720001220703125;1673433626.530604;-4.789596080780029;6.007131099700928;86.6470947265625
157;1673433626.69802;47.130642599999995;7.2406197;37.125;1673433626.7156293;-5.080824375152588;9.036186218261719;86.35641479492188
158;1673433626.8808093;47.130642699999996;7.2406197;37.52300262451172;1673433626.9022775;-4.84744930267334;10.433625221252441;86.12754821777344
159;1673433627.0962572;47.130642699999996;7.2406197;37.926002502441406;1673433627.1158733;-4.878027439117432;6.391357898712158;86.6512680053711
160;1673433627.3042924;47.1306428;7.2406197;38.329002380371094;1673433627.3247874;-4.999582767486572;8.048157691955566;86.4122543334961
161;1673433627.5053766;47.1306428;7.2406197;38.72700119018555;1673433627.524976;-4.660387992858887;11.15395450592041;86.13317108154297
162;1673433627.7231174;47.130642599999995;7.240619799999999;39.124000549316406;1673433627.7387178;-4.575058937072754;7.805519104003906;86.54373168945312
163;1673433627.905051;47.130642599999995;7.2406198999999996;39.53700256347656;1673433627.9421754;-4.649731636047363;6.566621780395508;86.73745727539062
164;1673433628.131924;47.130642599999995;7.2406198999999996;39.91800308227539;1673433628.1466048;-4.713893413543701;10.797119140625;86.32141876220703
165;1673433628.3190331;47.130642699999996;7.2406198999999996;40.310001373291016;1673433628.3356254;-4.593175888061523;7.970986366271973;86.6112060546875
166;1673433628.5098166;47.1306428;7.24062;40.70900344848633;1673433628.5304549;-4.975722789764404;6.394158363342285;86.56103515625
167;1673433628.7157311;47.1306428;7.24062;41.112003326416016;1673433628.7323685;-4.786639213562012;10.819416046142578;86.13301849365234
168;1673433628.9046266;47.130642699999996;7.2406198999999996;41.53200149536133;1673433628.9213898;-4.545211315155029;8.837200164794922;86.22001647949219
169;1673433629.1002023;47.130642599999995;7.2406198999999996;41.919002532958984;1673433629.117923;-4.8233642578125;5.906368732452393;86.55270385742188
170;1673433629.3083417;47.130642599999995;7.240619799999999;42.32500076293945;1673433629.3225353;-4.7438154220581055;9.71362590789795;86.39955139160156
171;1673433629.4979975;47.130642699999996;7.240619799999999;42.72300338745117;1673433629.5146036;-4.6056084632873535;10.238879203796387;86.43923950195312
172;1673433629.7146416;47.130642699999996;7.240619799999999;43.12600326538086;1673433629.734161;-4.836233139038086;6.162502765655518;86.75497436523438
173;1673433629.893544;47.130642699999996;7.240619799999999;43.52900314331055;1673433629.910108;-5.134302139282227;8.676026344299316;86.36692810058594
174;1673433630.0789964;47.130642699999996;7.240619799999999;43.92900085449219;1673433630.0965648;-4.483202934265137;10.694642066955566;86.05696105957031
175;1673433630.2620409;47.130642599999995;7.240619799999999;44.3280029296875;1673433630.2826233;-4.588427543640137;6.061443328857422;86.46973419189453
176;1673433630.4869657;47.130642599999995;7.240619799999999;44.72600173950195;1673433630.503793;-4.909533977508545;8.034562110900879;86.52865600585938
177;1673433630.6707609;47.130642599999995;7.240619799999999;45.12700271606445;1673433630.6883621;-4.708693027496338;11.019795417785645;86.28866577148438
178;1673433630.87279;47.130642599999995;7.2406197;45.522003173828125;1673433630.8923247;-4.810354709625244;7.369630336761475;86.63471984863281
179;1673433631.0869038;47.130642699999996;7.2406197;45.919002532958984;1673433631.1083758;-5.120382785797119;6.829494953155518;86.71537780761719
180;1673433631.291417;47.130642599999995;7.2406197;46.31900405883789;1673433631.309962;-4.803107261657715;11.154162406921387;86.23004913330078
181;1673433631.4947886;47.1306425;7.2406197;46.72100067138672;1673433631.5141473;-4.797248840332031;7.980251789093018;86.4263687133789
182;1673433631.7027643;47.1306425;7.2406197;47.125003814697266;1673433631.7193444;-4.994518280029297;5.9218339920043945;86.52124786376953
183;1673433631.9110715;47.1306425;7.2406197;47.52800369262695;1673433631.92865;-4.850725173950195;10.223664283752441;86.12588500976562
184;1673433632.0984917;47.130642599999995;7.2406197;47.922000885009766;1673433632.1142483;-4.421210289001465;9.236298561096191;86.35690307617188
185;1673433632.2928412;47.130642599999995;7.2406197;48.28900146484375;1673433632.309432;-5.0271430015563965;6.795407772064209;86.56720733642578
186;1673433632.5054271;47.130642699999996;7.2406197;48.6140022277832;1673433632.5221472;-4.936239242553711;10.654642105102539;86.29570770263672
187;1673433632.7041867;47.130642599999995;7.2406197;48.86900329589844;1673433632.7227385;-4.710195541381836;8.962389945983887;86.45330047607422
188;1673433632.9076931;47.130642699999996;7.2406196;49.099002838134766;1673433632.928239;-5.112794399261475;5.876084804534912;86.74503326416016
189;1673433633.1121156;47.1306428;7.240619499999999;49.27400207519531;1673433633.1257796;-5.236733913421631;10.103757858276367;86.32392883300781
190;1673433633.2942917;47.1306429;7.240619199999999;49.43300247192383;1673433633.3118563;8.007790565490723;22.9193115234375;89.20402526855469
191;1673433633.4844184;47.1306423;7.2406179999999996;49.57100296020508;1673433633.5020556;22.234384536743164;39.141597747802734;101.70703887939453
192;1673433633.6791856;47.130640199999995;7.2406142;49.69400405883789;1673433633.6957762;25.75284767150879;52.05397415161133;111.89519500732422
193;1673433633.8700213;47.1306358;7.2406066;49.790000915527344;1673433633.890669;16.894380569458008;58.64049530029297;119.64396667480469
194;1673433634.0733514;47.130628699999995;7.2405949;49.84600067138672;1673433634.0909233;-0.08066284656524658;56.329498291015625;129.40399169921875
195;1673433634.2874017;47.130620199999996;7.2405814;49.87300109863281;1673433634.30497;-13.994514465332031;54.116920471191406;139.0553436279297
196;1673433634.501349;47.130609799999995;7.2405650999999995;49.880001068115234;1673433634.5179415;-26.228235244750977;48.825477600097656;149.77914428710938
197;1673433634.7148042;47.1305981;7.2405466;49.880001068115234;1673433634.7344117;-39.38884353637695;42.73423767089844;162.28323364257812
198;1673433634.9041982;47.1305848;7.2405263;49.86000061035156;1673433634.9188387;-49.45534133911133;40.835655212402344;174.5806427001953
199;1673433635.1056113;47.130570399999996;7.2405037;49.81100082397461;1673433635.1251426;-47.10468673706055;27.16856575012207;-173.95693969726562
200;1673433635.3295205;47.1305547;7.240479;49.74400329589844;1673433635.3461187;-43.40647888183594;20.0578670501709;-169.2650604248047
201;1673433635.5289626;47.130539899999995;7.2404554;49.69200134277344;1673433635.5436027;-47.76851272583008;15.461549758911133;-162.4091796875
202;1673433635.773152;47.130524199999996;7.2404302;49.64400100708008;1673433635.7867875;-47.47339630126953;9.0721435546875;-153.81414794921875
203;1673433635.9408388;47.1305081;7.2404044;49.60900115966797;1673433635.9584165;-46.18711471557617;3.76058292388916;-146.8491973876953
204;1673433636.1279247;47.130492;7.2403786;49.59700393676758;1673433636.1455812;-47.81398391723633;0.9971188902854919;-141.14669799804688
205;1673433636.3209136;47.1304757;7.2403523;49.59100341796875;1673433636.3414526;-46.604923248291016;-5.814052104949951;-133.84786987304688
206;1673433636.5161119;47.1304593;7.2403258;49.599002838134766;1673433636.5327034;-47.377471923828125;-12.744683265686035;-132.95697021484375
207;1673433636.708211;47.130442599999995;7.2402995;49.612003326416016;1673433636.7267697;-47.103126525878906;-11.669398307800293;-136.76095581054688
208;1673433636.912495;47.1304255;7.2402738;49.625003814697266;1673433636.9300642;-47.03523254394531;-10.126554489135742;-138.93994140625
209;1673433637.118464;47.130407999999996;7.240248599999999;49.64600372314453;1673433637.13408;-47.797264099121094;-9.154009819030762;-139.7703399658203
210;1673433637.306302;47.1303902;7.2402241;49.67100143432617;1673433637.3239734;-48.589481353759766;-7.440605163574219;-140.5025634765625
211;1673433637.501578;47.1303714;7.2401988;49.69700241088867;1673433637.5193293;-49.70820999145508;-5.856661319732666;-141.08648681640625
212;1673433637.7055337;47.130353799999995;7.2401754;49.715003967285156;1673433637.7261305;-49.09766387939453;-5.274896621704102;-140.99041748046875
213;1673433637.91078;47.1303353;7.240151;49.730003356933594;1673433637.9295063;-47.98464584350586;-5.008447170257568;-140.7473602294922
214;1673433638.1060421;47.130316699999995;7.2401266;49.746002197265625;1673433638.124749;-47.606197357177734;-5.23829460144043;-140.35147094726562
215;1673433638.299009;47.130297999999996;7.240102299999999;49.75700378417969;1673433638.3178065;-47.36668395996094;-5.436674118041992;-140.03895568847656
216;1673433638.482338;47.1302794;7.240077899999999;49.7660026550293;1673433638.5019417;-47.4036865234375;-5.6496758460998535;-139.8042449951172
217;1673433638.689829;47.13026;7.2400527;49.77000045776367;1673433638.710479;-47.192264556884766;-5.656114101409912;-139.60671997070312
218;1673433638.8901217;47.1302422;7.2400293;49.775001525878906;1673433638.907987;-46.9887809753418;-5.770174026489258;-139.43600463867188
219;1673433639.0950704;47.1302236;7.2400049;49.785003662109375;1673433639.1157165;-47.1957893371582;-5.846146106719971;-139.28282165527344
220;1673433639.2997692;47.130205;7.2399805;49.798004150390625;1673433639.3192902;-47.49494552612305;-5.963474273681641;-139.1268310546875
221;1673433639.5040069;47.1301864;7.2399561;49.80900192260742;1673433639.5225444;-47.88828659057617;-5.972590923309326;-139.08331298828125
222;1673433639.7289038;47.1301679;7.239931599999999;49.81800079345703;1673433639.7465024;-47.79874801635742;-5.979371070861816;-138.99905395507812
223;1673433639.9274087;47.1301493;7.2399071;49.81700134277344;1673433639.9470172;-47.23719024658203;-5.821402549743652;-138.94203186035156
224;1673433640.2057462;47.130130799999996;7.2398826;49.81800079345703;1673433640.2174463;-46.77077102661133;-5.790250778198242;-138.86099243164062
225;1673433640.3825877;47.1301123;7.239858099999999;49.82600402832031;1673433640.3972106;-47.183040618896484;-5.9062819480896;-138.7644805908203
226;1673433640.561162;47.1300939;7.2398335;49.83400344848633;1673433640.5799708;-47.996742248535156;-5.999951362609863;-138.75738525390625
227;1673433640.7432258;47.130075399999996;7.2398088;49.8380012512207;1673433640.7617712;-48.0689697265625;-5.958444118499756;-138.78199768066406
228;1673433640.9303894;47.1300569;7.2397841;49.8390007019043;1673433640.9504547;-47.523765563964844;-5.88596773147583;-138.7638397216797
229;1673433641.123356;47.1300376;7.2397583;49.8380012512207;1673433641.143123;-47.227874755859375;-5.8167500495910645;-138.71812438964844
230;1673433641.3068986;47.1300199;7.2397345;49.83400344848633;1673433641.3225265;-47.302207946777344;-5.8174872398376465;-138.6505584716797
231;1673433641.4889956;47.1300015;7.2397098;49.833003997802734;1673433641.5067153;-47.45368957519531;-5.788941860198975;-138.675048828125
232;1673433641.7185698;47.1299831;7.239685;49.83500289916992;1673433641.7392302;-47.676918029785156;-5.857858180999756;-138.65853881835938
233;1673433641.918761;47.129964799999996;7.2396601;49.840003967285156;1673433641.9365149;-47.90745544433594;-5.869478702545166;-138.67063903808594
234;1673433642.1196938;47.129946399999994;7.2396353;49.83700180053711;1673433642.1367812;-47.7886848449707;-5.868539810180664;-138.6714324951172
235;1673433642.3676755;47.1299281;7.2396104;49.8390007019043;1673433642.3812711;-47.643699645996094;-5.848767280578613;-138.68316650390625
236;1673433642.520777;47.1299097;7.239585399999999;49.83700180053711;1673433642.538355;-47.5662841796875;-5.861535549163818;-138.6767120361328
237;1673433642.7218359;47.1298914;7.239560399999999;49.83400344848633;1673433642.7385628;-47.4457893371582;-5.850203990936279;-138.6852264404297
238;1673433642.9146934;47.129872999999996;7.239535399999999;49.83100128173828;1673433642.9343283;-47.40020751953125;-5.86157751083374;-138.71023559570312
239;1673433643.119179;47.129854699999996;7.2395103;49.832000732421875;1673433643.137766;-47.44877624511719;-5.880456924438477;-138.69593811035156
240;1673433643.3201454;47.1298363;7.239485299999999;49.832000732421875;1673433643.3388457;-47.56900405883789;-5.846569538116455;-138.71762084960938
241;1673433643.5117688;47.129818;7.239460299999999;49.83700180053711;1673433643.5313063;-47.628414154052734;-5.869821548461914;-138.74606323242188
242;1673433643.7179308;47.1297996;7.2394352;49.8390007019043;1673433643.7404416;-47.52228927612305;-5.815485954284668;-138.7544708251953
243;1673433643.9266806;47.1297812;7.2394102;49.845001220703125;1673433643.945238;-47.63505172729492;-5.7908220291137695;-138.78707885742188
244;1673433644.1373487;47.129762899999996;7.2393851;49.85400390625;1673433644.1556365;-47.77417755126953;-5.78714656829834;-138.80067443847656
245;1673433644.3103964;47.129744599999995;7.2393601;49.86300277709961;1673433644.3270047;-48.06433868408203;-5.80865478515625;-138.80929565429688
246;1673433644.489931;47.1297262;7.239334899999999;49.867000579833984;1673433644.5096095;-47.937007904052734;-5.732161045074463;-138.870361328125
247;1673433644.7021406;47.1297077;7.2393098;49.87000274658203;1673433644.7227697;-47.61237716674805;-5.665907382965088;-138.87149047851562
248;1673433644.9094987;47.129689299999995;7.2392845999999995;49.871002197265625;1673433644.926084;-47.49345016479492;-5.647435665130615;-138.87646484375
249;1673433645.107044;47.1296708;7.2392594;49.87300109863281;1673433645.1267142;-47.54840087890625;-5.6015119552612305;-138.9175262451172
250;1673433645.3260677;47.1296524;7.2392343;49.874000549316406;1673433645.3456964;-47.70423889160156;-5.61641788482666;-138.91891479492188
251;1673433645.529845;47.129633999999996;7.2392091999999995;49.87700271606445;1673433645.5484166;-47.73573684692383;-5.5446882247924805;-138.99781799316406
252;1673433645.7273898;47.1296156;7.239184;49.87800216674805;1673433645.7450657;-47.558692932128906;-5.52065372467041;-138.99026489257812
253;1673433645.954232;47.1295972;7.2391589;49.87800216674805;1673433645.967896;-47.54386901855469;-5.483299255371094;-139.0413818359375
254;1673433646.136756;47.1295788;7.2391337;49.87900161743164;1673433646.1533492;-47.47698974609375;-5.4575982093811035;-139.08831787109375
255;1673433646.3282065;47.129559699999994;7.2391076;49.87900161743164;1673433646.3506851;-47.4546012878418;-5.389110088348389;-139.11953735351562
256;1673433646.5440116;47.129542099999995;7.239083399999999;49.88200378417969;1673433646.5617387;-47.42574691772461;-5.3617777824401855;-139.1747283935547
257;1673433646.7566428;47.1295237;7.2390582;49.88600158691406;1673433646.7712843;-47.59598159790039;-5.369623184204102;-139.21287536621094
258;1673433646.928078;47.1295053;7.239033;49.88900375366211;1673433646.9457982;-47.76835632324219;-5.309308052062988;-139.30970764160156
259;1673433647.1075125;47.129486799999995;7.2390077999999995;49.89200210571289;1673433647.1271937;-47.64194107055664;-5.237626552581787;-139.34559631347656
260;1673433647.3173354;47.1294676;7.2389816;49.897003173828125;1673433647.3370442;-47.471107482910156;-5.120614528656006;-139.44325256347656
261;1673433647.5268967;47.1294499;7.238957399999999;49.90300369262695;1673433647.5464478;-47.60584259033203;-5.140200138092041;-139.48692321777344
262;1673433647.7162669;47.129431499999995;7.2389320999999995;49.90900421142578;1673433647.7338347;-47.63948059082031;-6.178217887878418;-139.33761596679688
263;1673433647.912717;47.129413;7.2389069;49.9160041809082;1673433647.9313087;-47.73528289794922;-5.766269683837891;-139.8741455078125
264;1673433648.1192904;47.1293945;7.2388819;49.926002502441406;1673433648.1397994;-47.44424057006836;-7.308045864105225;-139.5077667236328
265;1673433648.3262796;47.1293751;7.238855999999999;49.93800354003906;1673433648.34492;-47.690895080566406;-7.405961036682129;-140.07861328125
266;1673433648.521823;47.1293571;7.238832299999999;49.948001861572266;1673433648.538541;-48.21054458618164;-7.264803886413574;-140.31292724609375
267;1673433648.7164183;47.1293382;7.2388078;49.961002349853516;1673433648.7369688;-48.014469146728516;-8.341419219970703;-140.32972717285156
268;1673433648.9254692;47.1293192;7.238783499999999;49.96800231933594;1673433648.9449914;-47.77813720703125;-8.42074966430664;-140.70582580566406
269;1673433649.13851;47.1293;7.238759399999999;49.97100067138672;1673433649.1580462;-47.25399398803711;-9.218668937683105;-140.7889404296875
270;1673433649.360377;47.1292808;7.238735699999999;49.97700119018555;1673433649.3786292;-43.44623565673828;-8.54090404510498;-141.5307159423828
271;1673433649.5519345;47.1292616;7.2387125;50.00200271606445;1673433649.5675533;-30.19718360900879;-10.08218002319336;-140.3143768310547
272;1673433649.752146;47.1292432;7.2386905;50.02300262451172;1673433649.7718322;-12.577963829040527;-8.20500373840332;-139.4058380126953
273;1673433649.9522254;47.1292256;7.2386696;50.03400421142578;1673433649.971745;1.5112903118133545;-5.946081638336182;-137.54193115234375
274;1673433650.1566274;47.1292111;7.238652;50.03700256347656;1673433650.174266;11.539504051208496;-4.858910083770752;-136.8901824951172
275;1673433650.3636193;47.1291996;7.2386377;50.01900100708008;1673433650.3821602;18.49390983581543;-7.384583950042725;-136.06329345703125
276;1673433650.5948362;47.1291899;7.2386254;49.965003967285156;1673433650.6105564;19.959453582763672;-6.241549968719482;-135.783203125
277;1673433650.7772107;47.1291825;7.2386155;49.884002685546875;1673433650.7918603;16.078500747680664;-12.077777862548828;-134.89576721191406
278;1673433650.9474638;47.1291771;7.2386080999999995;49.8390007019043;1673433650.963113;11.978184700012207;-6.931680679321289;-137.62667846679688
279;1673433651.1325183;47.129173099999996;7.2386026999999995;49.8280029296875;1673433651.1510687;6.899094104766846;-15.303951263427734;-137.01036071777344
280;1673433651.3273468;47.129169999999995;7.238599;49.84300231933594;1673433651.3440769;-2.549816370010376;-12.95890998840332;-136.4905242919922
281;1673433651.531011;47.129166999999995;7.2385961;49.887001037597656;1673433651.5501575;-10.63611125946045;-14.10239315032959;-136.2720489501953
282;1673433651.7310395;47.1291642;7.2385934;49.93600082397461;1673433651.7486167;-14.333524703979492;-10.241076469421387;-135.7500457763672
283;1673433651.9260228;47.1291614;7.2385905;49.97700119018555;1673433651.9427664;-14.70283317565918;-7.851007461547852;-134.39442443847656
284;1673433652.1390336;47.1291587;7.2385871999999996;50.009002685546875;1673433652.1575825;-12.404583930969238;-4.267510414123535;-133.42666625976562
285;1673433652.3399637;47.129156099999996;7.238583599999999;50.03600311279297;1673433652.357265;-8.452512741088867;-3.3991315364837646;-133.1310272216797
286;1673433652.5483432;47.129153699999996;7.238579799999999;50.060001373291016;1673433652.570893;-9.950960159301758;-6.11469030380249;-133.69412231445312
287;1673433652.7310681;47.129151199999995;7.238575699999999;50.118003845214844;1673433652.7476661;-31.225868225097656;-6.855092525482178;-137.43482971191406
288;1673433652.926973;47.1291479;7.2385701;50.220001220703125;1673433652.943676;-27.330095291137695;-5.168400287628174;-139.3814697265625
289;1673433653.1578634;47.129143899999995;7.2385630999999995;50.37900161743164;1673433653.1637247;-16.225690841674805;-1.5692535638809204;-138.8326873779297
290;1673433653.3405926;47.1291399;7.2385554999999995;50.630001068115234;1673433653.361228;-15.801192283630371;0.30158981680870056;-138.041259765625
291;1673433653.5552316;47.1291358;7.2385473;50.9630012512207;1673433653.5708518;-27.560556411743164;-5.058269023895264;-137.87640380859375
292;1673433653.7771978;47.129131099999995;7.2385382;51.329002380371094;1673433653.7931721;-45.509986877441406;-17.753150939941406;-136.98825073242188
293;1673433653.9417856;47.129124399999995;7.2385278;51.70000076293945;1673433653.9622805;-44.26736831665039;-13.065114974975586;-138.44393920898438
294;1673433654.152473;47.129115899999995;7.2385164;52.05800247192383;1673433654.171045;-40.527732849121094;-11.902596473693848;-137.74737548828125
295;1673433654.362918;47.1291063;7.238504;52.40300369262695;1673433654.381456;-35.927711486816406;-9.57835865020752;-138.4276885986328
296;1673433654.5924065;47.129095899999996;7.2384911;52.74100112915039;1673433654.6088238;-31.4471378326416;-7.84184455871582;-138.08181762695312
297;1673433654.8205729;47.1290853;7.2384778999999995;53.086002349853516;1673433654.8352032;-29.813030242919922;-6.494981288909912;-137.71023559570312
298;1673433654.9851716;47.129074499999994;7.2384645999999995;53.43700408935547;1673433655.0000176;-27.35177993774414;-6.228599548339844;-137.26536560058594
299;1673433655.1688812;47.1290639;7.2384512;53.79600143432617;1673433655.1867058;-25.944746017456055;-6.427207946777344;-136.9971466064453
300;1673433655.359452;47.1290535;7.2384376999999995;54.16400146484375;1673433655.3760378;-25.243494033813477;-7.018211841583252;-136.6973114013672
301;1673433655.5327854;47.1290434;7.238424299999999;54.53400421142578;1673433655.5493581;-25.31890106201172;-7.881446838378906;-136.5099334716797
302;1673433655.737464;47.129033199999995;7.2384103;54.926002502441406;1673433655.7590117;-25.566198348999023;-8.230169296264648;-136.55322265625
303;1673433655.9566698;47.1290239;7.238397399999999;55.288002014160156;1673433655.9732656;-26.004262924194336;-8.046920776367188;-136.7537078857422
304;1673433656.1427915;47.129014399999996;7.2383839;55.672000885009766;1673433656.1623132;-26.920127868652344;-7.182058811187744;-137.0535125732422
305;1673433656.3381455;47.1290045;7.23837;56.077003479003906;1673433656.355786;-27.76033592224121;-6.7560248374938965;-137.2288818359375
306;1673433656.5375407;47.1289954;7.238357199999999;56.452003479003906;1673433656.5541666;-28.167543411254883;-6.7188215255737305;-137.358642578125
307;1673433656.729146;47.128985799999995;7.2383438;56.84400177001953;1673433656.7467096;-28.26943588256836;-8.073015213012695;-137.1138153076172
308;1673433656.9552538;47.1289758;7.2383299;57.24800109863281;1673433656.973962;-28.418949127197266;-9.237771987915039;-136.75917053222656
309;1673433657.1660454;47.1289665;7.2383171;57.62300109863281;1673433657.1846316;-28.13685417175293;-9.800594329833984;-136.658935546875
310;1673433657.366536;47.128956699999996;7.2383036;58.0150032043457;1673433657.3813272;-27.775663375854492;-10.181349754333496;-136.59371948242188
311;1673433657.586604;47.1289468;7.2382902;58.40700149536133;1673433657.6041825;-27.66915512084961;-9.635408401489258;-136.72625732421875
312;1673433657.7724178;47.128937;7.238276699999999;58.79600143432617;1673433657.7890139;-27.61644744873047;-8.773361206054688;-136.89060974121094
313;1673433657.9500003;47.1289271;7.2382632;59.189002990722656;1673433657.9675684;-27.72849464416504;-8.004165649414062;-136.92239379882812
314;1673433658.152315;47.1289169;7.2382493;59.59800338745117;1673433658.169925;-27.811092376708984;-7.429760932922363;-137.07298278808594
315;1673433658.347958;47.1289071;7.2382358;59.99400329589844;1673433658.364554;-27.97203254699707;-7.054025650024414;-137.06639099121094
316;1673433658.5424874;47.128897599999995;7.238223;60.37300109863281;1673433658.5620773;-27.98666763305664;-6.402709484100342;-137.16970825195312
317;1673433658.755586;47.1288878;7.2382095;60.77000427246094;1673433658.7741303;-28.043140411376953;-6.675082683563232;-137.1761932373047
318;1673433658.9619286;47.128878;7.2381961;61.16400146484375;1673433658.977529;-28.1446590423584;-6.910377502441406;-137.1011505126953
319;1673433659.1647782;47.1288682;7.238182699999999;61.557003021240234;1673433659.1813345;-27.812009811401367;-7.945557594299316;-136.86549377441406
320;1673433659.3508797;47.1288584;7.2381693;61.94900131225586;1673433659.36975;-28.062313079833984;-8.556634902954102;-136.7216033935547
321;1673433659.5664327;47.1288486;7.2381559;62.340003967285156;1673433659.5859902;-28.044591903686523;-8.97262191772461;-136.7082061767578
322;1673433659.7587264;47.1288388;7.2381424;62.733001708984375;1673433659.78215;-28.124588012695312;-9.444494247436523;-136.55633544921875
323;1673433659.9604306;47.128828999999996;7.238129;63.125003814697266;1673433659.9781694;-28.049795150756836;-9.62331771850586;-136.59091186523438
324;1673433660.162767;47.1288191;7.2381155999999995;63.51400375366211;1673433660.1814551;-28.226009368896484;-9.703193664550781;-136.52249145507812
325;1673433660.3469121;47.1288093;7.2381021;63.90700149536133;1673433660.3674092;-28.208986282348633;-9.339803695678711;-136.63580322265625
326;1673433660.5532463;47.1287994;7.238088599999999;64.30599975585938;1673433660.570106;-28.266294479370117;-8.937833786010742;-136.7065887451172
327;1673433660.7467072;47.128789499999996;7.2380751;64.69900512695312;1673433660.7662275;-28.178329467773438;-8.516189575195312;-136.82142639160156
328;1673433660.9407876;47.1287793;7.2380609;65.1050033569336;1673433660.9593003;-28.423686981201172;-8.020586967468262;-137.02178955078125
329;1673433661.1431339;47.1287698;7.2380479;65.48200225830078;1673433661.161678;-28.455678939819336;-7.70664644241333;-137.0681610107422
330;1673433661.3651845;47.128759599999995;7.2380337;65.89200592041016;1673433661.3866608;-28.53181266784668;-7.495792388916016;-137.1542205810547
331;1673433661.5827441;47.1287497;7.2380201;66.28800201416016;1673433661.5973835;-28.680431365966797;-7.096198558807373;-137.2201690673828
332;1673433661.775939;47.128740199999996;7.238007;66.66900634765625;1673433661.791674;-28.520505905151367;-7.215246677398682;-137.1778106689453
333;1673433661.9558108;47.1287302;7.2379934;67.06400299072266;1673433661.9813006;-28.493967056274414;-7.613320350646973;-136.9970245361328
334;1673433662.1672566;47.1287203;7.2379798;67.45899963378906;1673433662.1877677;-28.34960174560547;-7.7248854637146;-137.01527404785156
335;1673433662.3762698;47.128710299999995;7.2379663;67.85400390625;1673433662.3948152;-28.466445922851562;-7.589530944824219;-136.99183654785156
336;1673433662.5815997;47.1287003;7.2379527999999995;68.2490005493164;1673433662.5984082;-28.548412322998047;-8.106083869934082;-136.80166625976562
337;1673433662.7861886;47.1286902;7.2379392;68.64900207519531;1673433662.8068805;-28.646909713745117;-8.207921981811523;-136.71051025390625
338;1673433663.0028646;47.1286802;7.2379256;69.04900360107422;1673433663.0219886;-28.526134490966797;-8.480799674987793;-136.66091918945312
339;1673433663.2026978;47.128670199999995;7.237911899999999;69.44600677490234;1673433663.221317;-28.50341033935547;-8.72066593170166;-136.6594696044922
340;1673433663.393542;47.128659899999995;7.2378976999999995;69.85800170898438;1673433663.4151297;-28.55963134765625;-8.606306076049805;-136.66421508789062
341;1673433663.5922184;47.1286504;7.2378845;70.24000549316406;1673433663.6079247;-28.30523681640625;-8.975895881652832;-136.64414978027344
342;1673433663.7843158;47.128640499999996;7.2378708;70.64200592041016;1673433663.7979743;-28.38658905029297;-9.104641914367676;-136.6501922607422
343;1673433663.9773555;47.1286305;7.237857099999999;71.04500579833984;1673433663.9949296;-28.16156005859375;-9.170551300048828;-136.6961212158203
344;1673433664.1822815;47.1286206;7.237843499999999;71.44700622558594;1673433664.2027786;-28.17731285095215;-9.030367851257324;-136.73007202148438
345;1673433664.3804586;47.128610699999996;7.2378298999999995;71.85000610351562;1673433664.3950703;-28.21520233154297;-8.925025939941406;-136.77049255371094
346;1673433664.5868773;47.1286007;7.2378162999999995;72.2490005493164;1673433664.6026628;-28.312679290771484;-8.713451385498047;-136.77992248535156
347;1673433664.7774746;47.1285908;7.2378027;72.64400482177734;1673433664.796079;-28.23723030090332;-8.493889808654785;-136.82505798339844
348;1673433664.979078;47.128580899999996;7.2377891;73.03800201416016;1673433664.9946935;-28.401079177856445;-8.484282493591309;-136.83016967773438
349;1673433665.1623447;47.128571;7.237775399999999;73.42900085449219;1673433665.1800642;-28.47540283203125;-8.38306713104248;-136.91854858398438
350;1673433665.3480258;47.1285612;7.2377617;73.82400512695312;1673433665.3677697;-28.602428436279297;-8.349907875061035;-136.91973876953125
351;1673433665.5567951;47.1285513;7.237748099999999;74.21800231933594;1673433665.5753396;-28.72307777404785;-8.294312477111816;-136.92013549804688
352;1673433665.754755;47.128541;7.237734;74.6310043334961;1673433665.7752604;-28.781248092651367;-8.302574157714844;-136.90939331054688
353;1673433665.948686;47.1285314;7.237720899999999;75.01300048828125;1673433665.9663851;-28.786277770996094;-8.066299438476562;-136.9398193359375
354;1673433666.1647637;47.1285214;7.237707299999999;75.41300201416016;1673433666.1813562;-28.78968620300293;-8.04824161529541;-136.96847534179688
355;1673433666.3573205;47.1285114;7.2376936999999995;75.81100463867188;1673433666.376124;-28.621292114257812;-7.823864459991455;-136.99075317382812
356;1673433666.57084;47.1285014;7.2376800999999995;76.2090072631836;1673433666.5895784;-28.67301368713379;-7.736632347106934;-136.9432373046875
357;1673433666.7562912;47.128491499999996;7.237666399999999;76.60600280761719;1673433666.7748349;-28.637840270996094;-7.648508548736572;-137.00218200683594
358;1673433666.9569776;47.1284815;7.2376526;77.00700378417969;1673433666.973557;-28.29256248474121;-8.02286148071289;-136.9605712890625
359;1673433667.164154;47.1284716;7.237638899999999;77.40400695800781;1673433667.181838;-28.325674057006836;-7.926578521728516;-136.9690399169922
360;1673433667.3595052;47.1284616;7.2376252;77.802001953125;1673433667.3780499;-28.378074645996094;-7.96918249130249;-136.96205139160156
361;1673433667.5659864;47.1284517;7.237611599999999;78.2020034790039;1673433667.5856957;-28.27932357788086;-8.091326713562012;-136.8806915283203
362;1673433667.806431;47.1284418;7.237597999999999;78.6050033569336;1673433667.8210793;-28.542917251586914;-8.13652515411377;-136.88807678222656
363;1673433667.9761033;47.128431899999995;7.237584399999999;79.0060043334961;1673433667.9956336;-28.49711036682129;-8.091526985168457;-136.93495178222656
364;1673433668.1842234;47.128422;7.2375707;79.406005859375;1673433668.2047873;-28.523786544799805;-8.216536521911621;-136.89501953125
365;1673433668.3950613;47.1284121;7.237557;79.802001953125;1673433668.410682;-28.46408462524414;-8.18701171875;-136.93154907226562
366;1673433668.6023521;47.1284022;7.2375434;80.19800567626953;1673433668.6183114;-28.45372772216797;-8.123713493347168;-136.90602111816406
367;1673433668.8004818;47.128392299999994;7.2375297;80.59400177001953;1673433668.8209863;-28.57904624938965;-8.250113487243652;-136.9010467529297
368;1673433669.0065887;47.1283824;7.2375161;80.99200439453125;1673433669.0227356;-28.445043563842773;-8.263566970825195;-136.91204833984375
369;1673433669.205331;47.1283725;7.2375023999999994;81.38900756835938;1673433669.219981;-28.52507209777832;-8.28148365020752;-136.9260711669922
370;1673433669.4049609;47.128362599999996;7.2374887999999995;81.78900146484375;1673433669.4217687;-28.498891830444336;-8.27139663696289;-136.9196319580078
371;1673433669.6111975;47.1283527;7.237475099999999;82.18900299072266;1673433669.6291502;-28.580589294433594;-8.33121109008789;-136.9053497314453
372;1673433669.8071609;47.1283428;7.237461499999999;82.59100341796875;1673433669.8218124;-28.31402587890625;-8.201183319091797;-136.93260192871094
373;1673433669.9924438;47.1283325;7.2374474;83.00700378417969;1673433670.009206;-28.45730972290039;-8.194330215454102;-136.90272521972656
374;1673433670.1764612;47.1283229;7.237434299999999;83.39000701904297;1673433670.1943736;-28.3845157623291;-8.12020492553711;-136.92518615722656
375;1673433670.3797457;47.128313;7.2374206;83.78900146484375;1673433670.4013681;-28.38703727722168;-8.154352188110352;-136.92218017578125
376;1673433670.5972714;47.1283031;7.237406999999999;84.18900299072266;1673433670.6138725;-28.496849060058594;-8.292548179626465;-136.9152069091797
377;1673433670.8002148;47.128293199999995;7.2373933;84.59100341796875;1673433670.818917;-28.43923568725586;-8.270323753356934;-136.9297332763672
378;1673433671.0052354;47.1282834;7.2373797;84.99000549316406;1673433671.0208776;-28.43160629272461;-8.248591423034668;-136.9424285888672
379;1673433671.2407138;47.1282734;7.2373661;85.38800048828125;1673433671.2553997;-28.393362045288086;-8.16840648651123;-136.9404754638672
380;1673433671.421853;47.1282631;7.237352;85.802001953125;1673433671.4384916;-28.27532958984375;-8.229158401489258;-136.9151611328125
381;1673433671.6122127;47.1282536;7.237338899999999;86.18400573730469;1673433671.6268623;-28.500234603881836;-8.231829643249512;-136.9341278076172
382;1673433671.8360405;47.1282437;7.237325299999999;86.58100128173828;1673433671.8536117;-28.527172088623047;-8.252761840820312;-136.94342041015625
383;1673433672.0026968;47.1282338;7.2373116;86.98100280761719;1673433672.015441;-28.427080154418945;-8.277176856994629;-136.9204559326172
384;1673433672.1935065;47.1282235;7.2372974999999995;87.39800262451172;1673433672.2159607;-28.355255126953125;-8.28218936920166;-136.92930603027344
385;1673433672.3897889;47.1282139;7.2372844999999995;87.7760009765625;1673433672.4088151;-28.491849899291992;-8.26067066192627;-136.9282989501953
386;1673433672.5979288;47.1282036;7.2372703;88.18800354003906;1673433672.6194017;-28.458765029907227;-8.237049102783203;-136.91229248046875
387;1673433672.8026655;47.128193599999996;7.2372568;88.5840072631836;1673433672.817511;-28.4285945892334;-8.203816413879395;-136.89776611328125
388;1673433672.9792333;47.1281841;7.2372437;88.96500396728516;1673433672.9951534;-28.420528411865234;-8.29310417175293;-136.8682403564453
389;1673433673.1590388;47.128174099999995;7.2372301;89.36700439453125;1673433673.177707;-28.310880661010742;-8.252119064331055;-136.93858337402344
390;1673433673.376942;47.1281642;7.2372165;89.76300048828125;1673433673.398416;-28.434465408325195;-8.288535118103027;-136.9154510498047
391;1673433673.5831108;47.1281543;7.2372029;90.1570053100586;1673433673.5997918;-28.381057739257812;-8.451803207397461;-136.89553833007812
392;1673433673.79773;47.128144299999995;7.2371893;90.55500793457031;1673433673.8142295;-28.373598098754883;-8.341887474060059;-136.91497802734375
393;1673433673.9868968;47.1281344;7.237175799999999;90.9540023803711;1673433674.0044634;-28.434953689575195;-8.466313362121582;-136.89193725585938
394;1673433674.1833155;47.1281244;7.2371623;91.3550033569336;1673433674.2014682;-28.450801849365234;-8.208688735961914;-136.8932647705078
395;1673433674.3999338;47.1281144;7.2371488;91.75100708007812;1673433674.4165401;-28.34493064880371;-8.129199981689453;-136.90182495117188
396;1673433674.5961077;47.1281044;7.2371352;92.14400482177734;1673433674.615007;-28.261207580566406;-7.982428073883057;-136.8636932373047
397;1673433674.8028214;47.128094;7.2371212;92.55500793457031;1673433674.8233154;-28.2789306640625;-7.947723865509033;-136.8566436767578
398;1673433675.0063367;47.1280844;7.2371082;92.93800354003906;1673433675.0288737;-28.243139266967773;-7.934169292449951;-136.8419647216797
399;1673433675.2087145;47.1280745;7.2370946;93.33800506591797;1673433675.2214086;-28.3959903717041;-8.160918235778809;-136.82986450195312
400;1673433675.3856118;47.1280642;7.2370804;93.75200653076172;1673433675.4022038;-28.236635208129883;-8.196553230285645;-136.84469604492188
401;1673433675.5725553;47.1280547;7.2370673;94.13200378417969;1673433675.5901227;-28.226776123046875;-8.254944801330566;-136.853515625
402;1673433675.760192;47.1280448;7.2370537;94.5300064086914;1673433675.7826545;-28.196950912475586;-8.168793678283691;-136.85865783691406
403;1673433675.9841292;47.128034899999996;7.2370401;94.92900085449219;1673433676.0036476;-28.316911697387695;-8.21251392364502;-136.85552978515625
404;1673433676.1876442;47.128024599999996;7.237025999999999;95.34600830078125;1673433676.206219;-28.231056213378906;-8.235069274902344;-136.85450744628906
405;1673433676.3946357;47.1280151;7.2370129;95.73100280761719;1673433676.4152863;-28.313079833984375;-8.464176177978516;-136.81698608398438
406;1673433676.612007;47.1280052;7.2369993;96.13300323486328;1673433676.6276257;-28.311595916748047;-8.37828540802002;-136.84811401367188
407;1673433676.8234067;47.127995299999995;7.236985799999999;96.53400421142578;1673433676.8401406;-28.31604766845703;-8.189913749694824;-136.85116577148438
408;1673433677.0173645;47.1279853;7.236972199999999;96.93500518798828;1673433677.038152;-28.291027069091797;-8.193741798400879;-136.8409881591797
409;1673433677.201531;47.1279754;7.2369587;97.33500671386719;1673433677.2151954;-28.328723907470703;-8.230813026428223;-136.83404541015625
410;1673433677.4002578;47.127965499999995;7.2369451;97.73400115966797;1673433677.4207535;-28.36144256591797;-8.20933723449707;-136.8368377685547
411;1673433677.60598;47.1279556;7.2369315;98.13300323486328;1673433677.6255016;-28.427276611328125;-8.137794494628906;-136.83212280273438
412;1673433677.782975;47.127945399999994;7.2369173;98.54800415039062;1673433677.7995641;-28.427658081054688;-8.545220375061035;-136.8014678955078
413;1673433677.9803607;47.1279359;7.2369042;98.94500732421875;1673433677.9989054;-28.277782440185547;-8.281082153320312;-136.8603515625
414;1673433678.191782;47.1279259;7.2368906;99.3280029296875;1673433678.2114332;-28.267602920532227;-8.30418872833252;-136.84567260742188
415;1673433678.4085317;47.1279159;7.2368768999999995;99.72500610351562;1673433678.426173;-28.174297332763672;-8.182136535644531;-136.84010314941406
416;1673433678.5947807;47.127905999999996;7.2368632999999996;100.12100219726562;1673433678.6182387;-28.209768295288086;-8.217617988586426;-136.80662536621094
417;1673433678.7978995;47.127896;7.2368497;100.52100372314453;1673433678.8144908;-28.22433853149414;-8.127763748168945;-136.8097381591797
418;1673433678.98633;47.1278862;7.236835999999999;100.92000579833984;1673433679.0059621;-28.261781692504883;-8.41299819946289;-136.79827880859375
419;1673433679.195351;47.1278763;7.236822399999999;101.31900787353516;1673433679.2139065;-28.27733039855957;-8.27865982055664;-136.85189819335938
