;pos_time;latitude;longitude;altitude;alt_time;pitch;roll;yaw
0;1673435991.3468716;47.1306425;7.24062;-0.006000000052154064;1673435991.5339708;-0.257525771856308;-0.04045770317316055;90.72415924072266
1;1673435991.5677137;47.1306425;7.24062;-0.003000000026077032;1673435991.7419815;-0.14945067465305328;0.04935391992330551;90.8003921508789
2;1673435991.7965925;47.1306425;7.24062;-0.003000000026077032;1673435991.9465775;-0.30987831950187683;0.08830462396144867;90.78490447998047
3;1673435991.9818966;47.1306424;7.24062;-0.003000000026077032;1673435992.129093;-0.3968190550804138;0.20383769273757935;90.68868255615234
4;1673435992.168273;47.1306424;7.24062;-0.005000000353902578;1673435992.3296757;-0.39724472165107727;0.05626416206359863;90.74201202392578
5;1673435992.362512;47.1306424;7.24062;-0.004000000189989805;1673435992.5589857;-0.31995582580566406;0.07917654514312744;90.82450866699219
6;1673435992.6000931;47.1306424;7.24062;0.0;1673435992.7503738;-0.36703845858573914;0.1006689965724945;90.7204360961914
7;1673435992.7866468;47.1306424;7.24062;0.0;1673435992.9828618;-0.2143491506576538;0.1175844743847847;90.6106948852539
8;1673435993.013815;47.1306424;7.24062;-0.0010000000474974513;1673435993.1437173;-0.4073331356048584;0.041975002735853195;90.75668334960938
9;1673435993.176192;47.1306424;7.24062;-0.0020000000949949026;1673435993.338567;-0.37069353461265564;0.05104243755340576;90.84664154052734
10;1673435993.3745294;47.1306424;7.24062;-0.003000000026077032;1673435993.5373185;-0.5075581669807434;0.019791249185800552;90.7654037475586
11;1673435993.5798335;47.1306424;7.24062;0.0;1673435993.7454853;-0.5217735171318054;0.1340850442647934;90.76358032226562
12;1673435993.780298;47.1306424;7.2406201;0.004000000189989805;1673435993.9247885;-0.5081259608268738;0.16747890412807465;90.62005615234375
13;1673435993.9552817;47.1306424;7.2406201;0.007000000216066837;1673435994.1102393;-0.6532894968986511;0.44419506192207336;90.64329528808594
14;1673435994.149828;47.1306424;7.2406201;-0.0020000000949949026;1673435994.3094451;-0.48066455125808716;1.732419490814209;90.70123291015625
15;1673435994.3466065;47.1306425;7.2406201999999995;0.0;1673435994.5176275;-0.3088393807411194;0.8886857628822327;90.7860336303711
16;1673435994.5545006;47.1306425;7.2406201999999995;-0.0010000000474974513;1673435994.7340016;-0.48140183091163635;1.232384443283081;90.61469268798828
17;1673435994.7691677;47.1306425;7.2406201999999995;-0.0020000000949949026;1673435994.9270542;-0.3097430467605591;1.0129777193069458;90.85343170166016
18;1673435994.9589217;47.1306425;7.2406201999999995;-0.0020000000949949026;1673435995.116245;-0.4347341060638428;1.081997275352478;90.7868423461914
19;1673435995.1553435;47.1306425;7.2406201999999995;0.0;1673435995.323754;-0.5948125123977661;2.0104563236236572;90.77378845214844
20;1673435995.358469;47.1306425;7.2406201999999995;0.0;1673435995.5134633;-0.6423777341842651;1.4769225120544434;90.82393646240234
21;1673435995.5501199;47.1306425;7.2406201999999995;-0.0020000000949949026;1673435995.7169976;-0.6499524116516113;1.7418161630630493;90.55707550048828
22;1673435995.7641017;47.1306425;7.2406201999999995;0.0;1673435995.936669;-0.564275324344635;0.08540423214435577;90.54093170166016
23;1673435995.9719882;47.1306424;7.2406201999999995;0.004000000189989805;1673435996.1316242;-0.8647095561027527;0.7360903024673462;90.60555267333984
24;1673435996.1679022;47.1306424;7.2406201999999995;0.006000000052154064;1673435996.3268044;-0.6232329607009888;0.7633697986602783;90.49451446533203
25;1673435996.3650007;47.1306424;7.2406201;0.009000000543892384;1673435996.5220127;-0.7207805514335632;0.9626303911209106;90.61045837402344
26;1673435996.5616257;47.1306424;7.2406201;0.010000000707805157;1673435996.7351058;-0.6335902810096741;0.8259596228599548;89.99280548095703
27;1673435996.7738106;47.1306423;7.2406201;0.014000000432133675;1673435996.9439182;-0.928593099117279;0.9321375489234924;89.1847915649414
28;1673435996.9815786;47.130642099999996;7.2406201;0.017000000923871994;1673435997.1412003;-0.7213140726089478;0.9162269234657288;86.56114196777344
29;1673435997.1778424;47.1306418;7.2406201999999995;0.01900000125169754;1673435997.3455026;0.027903804555535316;0.4535905420780182;79.95347595214844
30;1673435997.381276;47.1306412;7.2406206;0.020000001415610313;1673435997.536937;-0.15414398908615112;-1.1304105520248413;70.83341979980469
31;1673435997.5704508;47.13064;7.240621399999999;0.020000001415610313;1673435997.729838;0.06698644906282425;-4.850669860839844;71.1209716796875
32;1673435997.7631404;47.1306382;7.240622699999999;0.021000001579523087;1673435997.92006;1.676828145980835;-9.055068016052246;77.79341125488281
33;1673435997.9577217;47.130635899999994;7.240624599999999;0.027000000700354576;1673435998.1257482;5.04374885559082;-12.458755493164062;80.86795043945312
34;1673435998.16399;47.1306332;7.240627;0.04200000315904617;1673435998.321421;7.017845153808594;-16.188003540039062;80.74934387207031
35;1673435998.3571236;47.1306302;7.2406299;0.07000000029802322;1673435998.5296438;7.364075660705566;-17.914121627807617;80.70558166503906
36;1673435998.579575;47.1306271;7.240633;0.1120000034570694;1673435998.733723;8.06514835357666;-19.045406341552734;80.6066665649414
37;1673435998.7642066;47.130624;7.2406364;0.17000000178813934;1673435998.9201782;9.02477741241455;-20.564252853393555;80.5438232421875
38;1673435998.9629016;47.1306209;7.2406399;0.23900000751018524;1673435999.1348853;10.070590019226074;-22.163827896118164;80.58309936523438
39;1673435999.1733434;47.1306179;7.2406432999999994;0.32200002670288086;1673435999.3465173;11.225873947143555;-23.583759307861328;80.6444320678711
40;1673435999.3831754;47.130615;7.2406467;0.35600000619888306;1673435999.5421007;12.548124313354492;-25.232641220092773;80.77972412109375
41;1673435999.577101;47.130612299999996;7.24065;0.3110000193119049;1673435999.7498217;13.842763900756836;-26.690921783447266;80.83063507080078
42;1673435999.7869666;47.130609799999995;7.240653099999999;0.26100000739097595;1673435999.9495535;15.180217742919922;-28.349802017211914;80.952880859375
43;1673435999.9881697;47.1306077;7.2406557;0.20900000631809235;1673436000.1797051;16.558887481689453;-29.97181510925293;81.12310028076172
44;1673436000.211297;47.1306061;7.240657799999999;0.16500000655651093;1673436000.346194;18.07877540588379;-31.510669708251953;81.43937683105469
45;1673436000.3771234;47.130604899999994;7.2406593;0.13199999928474426;1673436000.5360584;16.541521072387695;-28.893085479736328;83.92876434326172
46;1673436000.577097;47.1306042;7.2406602;0.11500000208616257;1673436000.765822;16.026744842529297;-27.389551162719727;85.01332092285156
47;1673436000.801229;47.1306041;7.2406605;0.11600000411272049;1673436001.0010834;16.399578094482422;-28.28474235534668;82.76532745361328
48;1673436001.0284111;47.1306041;7.240660699999999;0.13100001215934753;1673436001.1534326;17.30718994140625;-30.73642349243164;79.86328125
49;1673436001.1824417;47.130604299999995;7.240660699999999;0.15400001406669617;1673436001.3253522;17.956832885742188;-34.05805206298828;76.93170928955078
50;1673436001.3580992;47.1306045;7.240660699999999;0.17100000381469727;1673436001.5123062;18.235790252685547;-37.73900604248047;73.5918960571289
51;1673436001.5477002;47.1306048;7.2406606;0.18400001525878906;1673436001.719417;18.014362335205078;-42.217079162597656;69.37432098388672
52;1673436001.7602923;47.1306053;7.240660399999999;0.19600000977516174;1673436001.9496863;16.7904109954834;-48.086082458496094;63.49214553833008
53;1673436002.0050704;47.1306059;7.2406600999999995;0.20400001108646393;1673436002.184426;13.745304107666016;-55.914794921875;54.568111419677734
54;1673436002.2271652;47.1306069;7.2406596;0.19700001180171967;1673436002.3576427;3.0357794761657715;-53.076324462890625;50.209197998046875
55;1673436002.3874705;47.1306085;7.2406581;0.1510000079870224;1673436002.5337398;-5.3488969802856445;-47.130340576171875;49.96293640136719
56;1673436002.5694406;47.130610999999995;7.2406552;0.11000000685453415;1673436002.7388573;-4.206276893615723;-44.90021514892578;49.81719207763672
57;1673436002.7735674;47.1306142;7.240652099999999;0.08900000154972076;1673436002.9513464;-4.630878448486328;-41.334835052490234;50.48310852050781
58;1673436002.9856157;47.1306176;7.2406488;0.07800000160932541;1673436003.134727;-3.102613925933838;-35.73161697387695;51.21918869018555
59;1673436003.174145;47.130621399999995;7.2406451;0.06400000303983688;1673436003.3308454;-2.571643114089966;-31.42047691345215;52.25547409057617
60;1673436003.3678753;47.1306249;7.2406421;0.06800000369548798;1673436003.5337677;-0.6479374766349792;-29.197038650512695;53.15781784057617
61;1673436003.5670044;47.1306278;7.2406402;0.09800000488758087;1673436003.7325342;0.9922165274620056;-27.884336471557617;53.923789978027344
62;1673436003.7692077;47.1306301;7.240639;0.13900001347064972;1673436003.9293666;2.2205379009246826;-28.456707000732422;54.5828971862793
63;1673436003.964714;47.130631799999996;7.2406383;0.1850000023841858;1673436004.1126935;3.2092642784118652;-29.105323791503906;55.00735855102539
64;1673436004.1468623;47.1306331;7.240637899999999;0.22200001776218414;1673436004.319927;4.394685745239258;-29.391948699951172;55.517417907714844
65;1673436004.3570392;47.130634;7.240636899999999;0.2590000033378601;1673436004.510241;3.3704400062561035;-30.810909271240234;55.956363677978516
66;1673436004.5463967;47.1306345;7.240636299999999;0.2850000262260437;1673436004.7346866;3.393106698989868;-31.908084869384766;56.04053497314453
67;1673436004.7698808;47.1306346;7.240635999999999;0.3070000112056732;1673436004.9321659;3.285618543624878;-31.570905685424805;56.36180114746094
68;1673436004.97027;47.1306345;7.2406356999999995;0.320000022649765;1673436005.1413057;3.320080280303955;-34.45290756225586;56.76162338256836
69;1673436005.1776047;47.1306343;7.2406353999999995;0.328000009059906;1673436005.3461046;3.0881998538970947;-34.11793518066406;57.15129089355469
70;1673436005.3787215;47.130634099999995;7.2406349;0.33400002121925354;1673436005.5333629;2.852241277694702;-33.58201217651367;57.558929443359375
71;1673436005.5749037;47.1306339;7.2406342;0.3370000123977661;1673436005.7348452;2.8645730018615723;-35.08677291870117;58.07724380493164
72;1673436005.7702138;47.130634199999996;7.2406329;0.359000027179718;1673436005.9395845;1.8912897109985352;-32.157806396484375;58.58121109008789
73;1673436005.9804912;47.1306345;7.2406315;0.3800000250339508;1673436006.133335;7.823397159576416;-33.83263397216797;59.171791076660156
74;1673436006.171268;47.1306345;7.240630899999999;0.4150000214576721;1673436006.331317;7.293115139007568;-33.33997344970703;62.12248611450195
75;1673436006.3665361;47.130634199999996;7.2406305;0.4360000193119049;1673436006.5272782;4.228802680969238;-32.893184661865234;61.913612365722656
76;1673436006.5635931;47.130634;7.2406298;0.4620000123977661;1673436006.743333;4.276839256286621;-33.14241027832031;61.835018157958984
77;1673436006.7757006;47.1306338;7.240628999999999;0.5049999952316284;1673436006.9308171;3.331430673599243;-33.08469009399414;62.05101013183594
78;1673436006.9699893;47.130634099999995;7.2406277999999995;0.5800000429153442;1673436007.1397865;2.892890214920044;-32.10996627807617;62.25947189331055
79;1673436007.1761382;47.1306343;7.2406266;0.6640000343322754;1673436007.354439;1.9887868165969849;-30.422815322875977;62.61017608642578
80;1673436007.391076;47.1306344;7.2406254;0.7580000162124634;1673436007.5507002;1.8572231531143188;-31.105222702026367;62.999244689941406
81;1673436007.5824683;47.1306343;7.2406244;0.8630000352859497;1673436007.7313578;1.3165647983551025;-31.77849769592285;63.25214385986328
82;1673436007.7636592;47.130634199999996;7.2406235;0.9860000610351562;1673436007.9323676;0.8781652450561523;-30.120162963867188;63.54951858520508
83;1673436007.9729724;47.130634199999996;7.2406228;1.121000051498413;1673436008.145686;0.8456080555915833;-31.352550506591797;63.85822296142578
84;1673436008.1791475;47.130634199999996;7.2406220999999995;1.2610000371932983;1673436008.3348613;0.6925527453422546;-31.45326805114746;63.876914978027344
85;1673436008.3706005;47.130634699999995;7.2406216;1.4180001020431519;1673436008.5283592;1.462888240814209;-29.035423278808594;63.95089340209961
86;1673436008.563185;47.130635;7.2406212;1.571000099182129;1673436008.7292848;4.557921409606934;-30.492816925048828;73.7979965209961
87;1673436008.766656;47.130635;7.2406209;1.717000126838684;1673436008.9364295;3.6384096145629883;-31.190303802490234;73.72344970703125
88;1673436008.9787698;47.130634799999996;7.2406204999999995;1.8640000820159912;1673436009.143504;2.3371925354003906;-29.943151473999023;73.79437255859375
89;1673436009.1874688;47.130634699999995;7.2406201;2.0190000534057617;1673436009.3463821;2.089385747909546;-31.791683197021484;73.71605682373047
90;1673436009.3830404;47.1306346;7.2406197;2.1760001182556152;1673436009.5428507;1.0461229085922241;-32.38450622558594;73.63542938232422
91;1673436009.5770934;47.130635;7.2406194;2.3450000286102295;1673436009.7394996;1.4713058471679688;-30.104761123657227;73.49919128417969
92;1673436009.775314;47.1306352;7.2406191;2.5160000324249268;1673436009.9380887;0.5316900014877319;-32.34933853149414;73.44451141357422
93;1673436009.9698646;47.130635299999994;7.2406187;2.683000087738037;1673436010.128714;0.40336695313453674;-33.2395133972168;73.39743041992188
94;1673436010.1610782;47.1306355;7.2406185;2.8350000381469727;1673436010.312023;0.3219417631626129;-31.623699188232422;73.39977264404297
95;1673436010.3462048;47.1306357;7.2406182999999995;2.9630000591278076;1673436010.5155017;0.591270923614502;-32.80594253540039;73.31834411621094
96;1673436010.552671;47.1306362;7.2406182;3.075000047683716;1673436010.72823;0.912150502204895;-32.45471954345703;73.33586120605469
97;1673436010.7643478;47.1306368;7.2406182;3.184000253677368;1673436010.9273825;1.3742855787277222;-30.46455192565918;73.2900619506836
98;1673436010.9685783;47.1306376;7.2406184;3.3030002117156982;1673436011.1391943;2.641260862350464;-31.042165756225586;73.37078094482422
99;1673436011.177816;47.130638399999995;7.2406185;3.4100000858306885;1673436011.3511028;2.4817299842834473;-30.087968826293945;73.49280548095703
100;1673436011.3865452;47.1306392;7.2406185;3.513000249862671;1673436011.5290236;3.382575750350952;-28.329975128173828;73.48442077636719
101;1673436011.5622368;47.1306399;7.2406185;3.6130001544952393;1673436011.743285;3.488492488861084;-29.44284439086914;73.63963317871094
102;1673436011.7841275;47.1306405;7.2406185999999995;3.7140002250671387;1673436011.9536936;3.370070457458496;-28.80353546142578;73.49539947509766
103;1673436011.9896512;47.130641;7.2406185999999995;3.817000150680542;1673436012.138088;3.619697332382202;-27.796634674072266;73.59730529785156
104;1673436012.1716087;47.130641499999996;7.2406187;3.937000274658203;1673436012.3391144;4.109958171844482;-29.675031661987305;73.66087341308594
105;1673436012.376737;47.1306418;7.2406188;4.055000305175781;1673436012.575334;3.8323147296905518;-28.64511489868164;73.63621520996094
106;1673436012.6277597;47.130642099999996;7.240618899999999;4.169000148773193;1673436012.8059876;3.734236717224121;-28.174198150634766;73.63848114013672
107;1673436012.8333557;47.1306423;7.240618899999999;4.285000324249268;1673436012.9771771;3.847048282623291;-30.04540252685547;73.45478057861328
108;1673436013.008727;47.1306425;7.240618899999999;4.406000137329102;1673436013.1486402;3.456953525543213;-28.95238494873047;73.5841064453125
109;1673436013.1892111;47.130642599999995;7.240618899999999;4.53000020980835;1673436013.3463655;3.861192464828491;-28.71409034729004;73.54735565185547
110;1673436013.3825564;47.130642699999996;7.240618899999999;4.659000396728516;1673436013.543435;3.545811891555786;-30.226139068603516;73.46727752685547
111;1673436013.5770242;47.1306429;7.240618899999999;4.801000118255615;1673436013.7350614;3.694718599319458;-28.915451049804688;73.4862289428711
112;1673436013.779246;47.130643;7.240618899999999;4.945000171661377;1673436013.9460526;3.8664016723632812;-28.44308090209961;73.53612518310547
113;1673436013.9814239;47.1306431;7.240618899999999;5.088000297546387;1673436014.1552556;3.8440473079681396;-30.04756736755371;73.4441909790039
114;1673436014.199417;47.130643199999994;7.2406188;5.232000350952148;1673436014.3516488;3.464374303817749;-28.704755783081055;73.62437438964844
115;1673436014.3875866;47.130643299999996;7.2406187;5.379000186920166;1673436014.5339699;3.8093607425689697;-28.226648330688477;73.58587646484375
116;1673436014.569109;47.1306434;7.2406185;5.53000020980835;1673436014.7278075;3.4345951080322266;-29.771108627319336;73.54420471191406
117;1673436014.7621348;47.1306434;7.2406185;5.687000274658203;1673436014.942085;3.5710904598236084;-28.422401428222656;73.58648681640625
118;1673436014.976394;47.1306435;7.2406184;5.839000225067139;1673436015.141646;3.679672956466675;-28.18595314025879;73.49862670898438
119;1673436015.1792734;47.1306436;7.2406182999999995;5.993000507354736;1673436015.3370578;3.7930920124053955;-29.923490524291992;73.44822692871094
120;1673436015.3712046;47.1306436;7.2406182;6.151000499725342;1673436015.529673;3.3062124252319336;-28.125511169433594;73.53814697265625
121;1673436015.5650632;47.1306436;7.2406181;6.311000347137451;1673436015.7249482;3.675109386444092;-28.45929718017578;73.46598052978516
122;1673436015.7630148;47.1306436;7.240617899999999;6.473000526428223;1673436015.9160476;3.29915189743042;-29.788816452026367;73.6047134399414
123;1673436015.948265;47.1306436;7.2406178;6.639000415802002;1673436016.1162102;3.1988985538482666;-28.124074935913086;73.49431610107422
124;1673436016.163236;47.1306435;7.2406178;6.809000492095947;1673436016.328787;3.7893621921539307;-28.688730239868164;73.54121398925781
125;1673436016.3632412;47.1306435;7.240617899999999;6.984000205993652;1673436016.5345984;3.649242639541626;-30.169118881225586;73.49838256835938
126;1673436016.5698934;47.1306434;7.240617899999999;7.156000137329102;1673436016.7308064;3.4222054481506348;-28.35333251953125;73.53675842285156
127;1673436016.775712;47.1306434;7.2406178;7.329000473022461;1673436016.9377413;3.784327507019043;-28.3277587890625;73.50430297851562
128;1673436016.9751787;47.1306434;7.2406177;7.50100040435791;1673436017.1360533;3.5904715061187744;-29.88231086730957;73.46541595458984
129;1673436017.1771026;47.1306434;7.240617599999999;7.676000595092773;1673436017.3492832;3.334869623184204;-28.283308029174805;73.50662231445312
130;1673436017.3989668;47.130643299999996;7.240617599999999;7.8550004959106445;1673436017.5555763;4.015108585357666;-28.78429412841797;73.47352600097656
131;1673436017.590277;47.130643299999996;7.240617599999999;8.03700065612793;1673436017.7405357;3.587531089782715;-29.847238540649414;73.46733093261719
132;1673436017.77579;47.130643299999996;7.2406175;8.220000267028809;1673436017.9313102;3.3962790966033936;-28.13096046447754;73.57649230957031
133;1673436017.966996;47.1306434;7.2406174;8.403000831604004;1673436018.1342428;3.608978271484375;-28.24884033203125;73.45465850830078
134;1673436018.1754088;47.1306434;7.2406172;8.59000015258789;1673436018.3424025;3.199138879776001;-29.563413619995117;73.45635986328125
135;1673436018.3776298;47.130643299999996;7.2406171;8.779000282287598;1673436018.5406392;3.108776092529297;-28.043739318847656;73.57779693603516
136;1673436018.5768669;47.130643299999996;7.240616999999999;8.972000122070312;1673436018.7301452;3.220867395401001;-28.459402084350586;73.53256225585938
137;1673436018.7664049;47.130643199999994;7.2406172;9.164999961853027;1673436018.9257643;3.5786235332489014;-29.747371673583984;73.48812866210938
138;1673436018.9630141;47.1306431;7.240617299999999;9.357000350952148;1673436019.1412802;3.551243782043457;-28.323143005371094;73.5411605834961
139;1673436019.17739;47.1306431;7.240617299999999;9.551000595092773;1673436019.3421938;3.5510964393615723;-28.606727600097656;73.52655792236328
140;1673436019.3898492;47.130643;7.2406172;9.747000694274902;1673436019.5494325;3.3517894744873047;-30.003854751586914;73.47038269042969
141;1673436019.5902133;47.130643;7.2406172;9.944000244140625;1673436019.7487755;3.300821304321289;-28.23749542236328;73.55171203613281
142;1673436019.785674;47.1306429;7.2406171;10.146000862121582;1673436019.9485857;3.74172306060791;-26.11184310913086;73.80171966552734
143;1673436019.9859204;47.130643;7.2406172;10.437000274658203;1673436020.1450932;4.239712715148926;-30.200092315673828;73.77259063720703
144;1673436020.184584;47.130643199999994;7.2406171;10.817000389099121;1673436020.346499;3.329875946044922;-28.64833641052246;73.60627746582031
145;1673436020.3806732;47.1306435;7.2406168;11.214000701904297;1673436020.5468621;3.12742018699646;-27.491350173950195;73.3082046508789
146;1673436020.5810297;47.1306437;7.2406165;11.61500072479248;1673436020.729588;2.581644058227539;-28.235366821289062;73.26029968261719
147;1673436020.7611213;47.130643899999995;7.2406162;12.020000457763672;1673436020.9303508;2.5154213905334473;-26.24766731262207;73.38602447509766
148;1673436020.9655354;47.130644;7.240615999999999;12.427000999450684;1673436021.1221416;2.4359865188598633;-26.68291664123535;73.55217742919922
149;1673436021.1563036;47.1306441;7.2406159;12.834000587463379;1673436021.3449879;2.3675501346588135;-27.815486907958984;73.4506607055664
150;1673436021.401246;47.1306441;7.2406160999999996;13.237000465393066;1673436021.5569544;3.034829616546631;-26.601091384887695;73.43174743652344
151;1673436021.5894861;47.130644;7.2406163999999995;13.641000747680664;1673436021.7383566;3.4402215480804443;-27.605079650878906;73.4287338256836
152;1673436021.7745943;47.130643899999995;7.2406166;14.050000190734863;1673436021.9425013;3.435903787612915;-28.55496597290039;73.50273132324219
153;1673436021.982797;47.130643899999995;7.2406169;14.4660005569458;1673436022.143094;3.6221888065338135;-27.278156280517578;73.53761291503906
154;1673436022.1798756;47.1306438;7.2406171;14.881000518798828;1673436022.3428407;3.7663028240203857;-28.021926879882812;73.49479675292969
155;1673436022.3818917;47.1306438;7.2406172;15.294000625610352;1673436022.5503964;3.4044017791748047;-28.549856185913086;73.510498046875
156;1673436022.5886993;47.1306437;7.2406174;15.697000503540039;1673436022.761201;3.909287691116333;-27.458127975463867;73.43516540527344
157;1673436022.797856;47.1306437;7.240617599999999;16.10500144958496;1673436022.9479015;3.8149096965789795;-28.08353042602539;73.49481201171875
158;1673436022.9821045;47.1306437;7.2406177;16.51300048828125;1673436023.1553843;3.6373589038848877;-28.808950424194336;73.50804138183594
159;1673436023.1926527;47.1306436;7.2406177;16.922000885009766;1673436023.353444;3.67153000831604;-27.442350387573242;73.49878692626953
160;1673436023.387176;47.1306436;7.2406177;17.33100128173828;1673436023.5462728;3.5859997272491455;-28.1577205657959;73.52915954589844
161;1673436023.5887806;47.1306436;7.2406178;17.740001678466797;1673436023.756302;3.3651254177093506;-28.73249626159668;73.47600555419922
162;1673436023.7929022;47.1306436;7.2406178;18.14900016784668;1673436023.9620245;3.419992685317993;-27.278221130371094;73.54520416259766
163;1673436023.9943342;47.1306435;7.2406179999999996;18.54800033569336;1673436024.1540184;3.8108794689178467;-28.15606117248535;73.53862762451172
164;1673436024.196758;47.1306434;7.2406181;18.94900131225586;1673436024.3595726;3.558903932571411;-28.812761306762695;73.4684066772461
165;1673436024.3962252;47.1306434;7.2406182;19.356000900268555;1673436024.5593505;3.4946510791778564;-27.411678314208984;73.51276397705078
166;1673436024.5955827;47.1306434;7.2406182;19.762001037597656;1673436024.7489877;3.852511167526245;-28.245878219604492;73.50881958007812
167;1673436024.7920637;47.1306434;7.2406182999999995;20.168001174926758;1673436024.9656494;3.6169257164001465;-28.73680305480957;73.50602722167969
168;1673436024.9991384;47.1306434;7.2406184;20.575000762939453;1673436025.1548243;3.8326845169067383;-27.42148780822754;73.5146713256836
169;1673436025.1905372;47.1306434;7.2406185;20.975000381469727;1673436025.3502843;3.9626941680908203;-28.148967742919922;73.54544067382812
170;1673436025.3904858;47.130643299999996;7.2406185999999995;21.37700080871582;1673436025.545235;3.8882479667663574;-28.689172744750977;73.53880310058594
171;1673436025.5805545;47.130643299999996;7.2406187;21.786001205444336;1673436025.7333841;3.9125382900238037;-27.649059295654297;73.56611633300781
172;1673436025.768642;47.130643299999996;7.2406187;22.196001052856445;1673436025.9293313;3.9313879013061523;-27.979257583618164;73.49144744873047
173;1673436025.9696112;47.130643299999996;7.2406187;22.606000900268555;1673436026.138029;3.7165541648864746;-28.754913330078125;73.57194519042969
174;1673436026.1944616;47.130643299999996;7.2406187;23.01500129699707;1673436026.3619242;3.6563050746917725;-27.43838882446289;73.55821990966797
175;1673436026.398738;47.130643199999994;7.2406187;23.421001434326172;1673436026.563509;3.7957301139831543;-28.20400619506836;73.48961639404297
176;1673436026.5969589;47.130643199999994;7.2406187;23.816001892089844;1673436026.746051;3.6872692108154297;-28.812301635742188;73.57986450195312
177;1673436026.7863834;47.130643199999994;7.2406188;24.213001251220703;1673436026.9484124;3.762256622314453;-27.48495864868164;73.51995086669922
178;1673436026.9880886;47.130643199999994;7.2406188;24.613000869750977;1673436027.152761;3.8591387271881104;-28.292884826660156;73.45252990722656
179;1673436027.195586;47.1306431;7.2406188;25.01300048828125;1673436027.3565419;3.629173755645752;-28.819625854492188;73.5091781616211
180;1673436027.4105284;47.1306431;7.2406188;25.41400146484375;1673436027.5678275;3.651994466781616;-27.39909553527832;73.5412368774414
181;1673436027.6060147;47.1306431;7.240618899999999;25.817001342773438;1673436027.766456;3.7907192707061768;-28.370594024658203;73.47103881835938
182;1673436027.797263;47.130643;7.240618899999999;26.21200180053711;1673436027.9577014;3.5976879596710205;-28.755353927612305;73.5281982421875
183;1673436027.9910603;47.1306431;7.240619;26.612001419067383;1673436028.1351125;3.6384215354919434;-27.262664794921875;73.47946166992188
184;1673436028.1673243;47.1306431;7.240619;27.016000747680664;1673436028.3327384;3.9739763736724854;-28.570756912231445;73.44852447509766
185;1673436028.3698652;47.130643;7.2406191;27.423002243041992;1673436028.5582983;3.7149405479431152;-28.60768699645996;73.50444030761719
186;1673436028.5944223;47.130643;7.2406191;27.82900047302246;1673436028.7533898;3.83349347114563;-27.498046875;73.55168151855469
187;1673436028.791626;47.130643;7.2406191;28.233001708984375;1673436028.947449;3.9888174533843994;-28.4505615234375;73.4948501586914
188;1673436028.9776924;47.130643;7.240619199999999;28.636001586914062;1673436029.1432374;3.7581605911254883;-28.450204849243164;73.5188980102539
189;1673436029.1793447;47.130643;7.240619199999999;29.030000686645508;1673436029.3461568;4.024942874908447;-27.3604793548584;73.52692413330078
190;1673436029.3864105;47.130643;7.2406193;29.427001953125;1673436029.5537307;4.117954730987549;-28.525985717773438;73.4593734741211
191;1673436029.5898447;47.1306429;7.2406193;29.83100128173828;1673436029.7478666;3.7227189540863037;-28.657808303833008;73.5704116821289
192;1673436029.7791212;47.1306429;7.2406193;30.239002227783203;1673436029.9619148;3.9885916709899902;-27.469255447387695;73.57211303710938
193;1673436029.9952364;47.1306429;7.2406193;30.645002365112305;1673436030.1635945;3.9606406688690186;-28.44244956970215;73.51224517822266
194;1673436030.20278;47.1306429;7.2406193;31.049001693725586;1673436030.3598428;3.807687759399414;-28.5877628326416;73.51435089111328
195;1673436030.3930118;47.1306429;7.2406193;31.444002151489258;1673436030.553729;3.9045004844665527;-27.252824783325195;73.4862060546875
196;1673436030.5908487;47.1306429;7.2406194;31.838001251220703;1673436030.7544656;3.9317209720611572;-28.71078109741211;73.50878143310547
197;1673436030.817245;47.1306429;7.2406194;32.23500061035156;1673436031.0129032;3.9228668212890625;-28.68367576599121;73.52455139160156
198;1673436031.045111;47.1306429;7.240619499999999;32.638999938964844;1673436031.2130558;3.9670732021331787;-27.288909912109375;73.49967956542969
199;1673436031.2498825;47.1306429;7.2406194;33.03900146484375;1673436031.401761;4.065987586975098;-28.539039611816406;73.55695343017578
200;1673436031.4335685;47.1306429;7.2406194;33.439002990722656;1673436031.5800471;3.859614133834839;-28.29815101623535;73.49629211425781
201;1673436031.612721;47.1306429;7.240619499999999;33.84000015258789;1673436031.7793548;4.1804585456848145;-27.270544052124023;73.53419494628906
202;1673436031.8131354;47.1306428;7.240619499999999;34.233001708984375;1673436031.997695;4.266714572906494;-28.718074798583984;73.54894256591797
203;1673436032.027088;47.1306428;7.2406196;34.630001068115234;1673436032.181053;3.851449966430664;-28.2968807220459;73.4791259765625
204;1673436032.2265613;47.130642699999996;7.2406196;35.031002044677734;1673436032.3786466;4.211638927459717;-27.271696090698242;73.63060760498047
205;1673436032.422665;47.130642699999996;7.2406196;35.43300247192383;1673436032.6172292;3.9919729232788086;-28.83659553527832;73.5040283203125
206;1673436032.655279;47.130642699999996;7.240619499999999;35.8390007019043;1673436032.8311193;3.985877513885498;-28.255733489990234;73.47805786132812
207;1673436032.8772478;47.130642599999995;7.240619499999999;36.24500274658203;1673436033.0099306;4.079340934753418;-27.482484817504883;73.54300689697266
208;1673436033.0695813;47.130642599999995;7.2406196;36.6400032043457;1673436033.203332;4.044511795043945;-28.916790008544922;73.50782775878906
209;1673436033.2297492;47.1306425;7.2406196;37.03900146484375;1673436033.3812685;3.78910231590271;-28.182188034057617;73.58546447753906
210;1673436033.4167745;47.1306425;7.240619499999999;37.44200134277344;1673436033.571088;3.920719623565674;-27.528078079223633;73.52409362792969
211;1673436033.6128914;47.1306425;7.240619499999999;37.84400177001953;1673436033.7695405;3.8920600414276123;-28.854467391967773;73.45036315917969
212;1673436033.8017383;47.1306425;7.240619499999999;38.25;1673436033.9591336;3.84795880317688;-28.13232421875;73.510498046875
213;1673436033.9934402;47.1306424;7.2406194;38.652000427246094;1673436034.1536727;3.888937473297119;-27.53264045715332;73.54335021972656
214;1673436034.1936605;47.1306424;7.2406194;39.053001403808594;1673436034.356957;3.868100643157959;-28.78250503540039;73.46996307373047
215;1673436034.3990958;47.1306424;7.2406194;39.44600296020508;1673436034.5546594;3.911590099334717;-27.93825912475586;73.55396270751953
216;1673436034.5924528;47.1306424;7.2406194;39.84300231933594;1673436034.7615793;4.158370018005371;-27.30115509033203;73.5442123413086
217;1673436034.8036141;47.1306424;7.240619499999999;40.24300003051758;1673436034.9842668;4.013773441314697;-28.865095138549805;73.54218292236328
218;1673436035.0200186;47.1306424;7.240619499999999;40.64600372314453;1673436035.1832914;4.04525899887085;-28.19145965576172;73.53926849365234
219;1673436035.223479;47.1306423;7.240619499999999;41.052001953125;1673436035.3792984;4.091922760009766;-27.56062889099121;73.48030853271484
220;1673436035.4130363;47.1306423;7.2406196;41.45500183105469;1673436035.5627043;4.155947685241699;-28.81926727294922;73.55269622802734
221;1673436035.5919957;47.1306423;7.2406196;41.849002838134766;1673436035.7901015;3.959923505783081;-27.93527603149414;73.55519104003906
222;1673436035.8234508;47.1306423;7.2406196;42.246002197265625;1673436036.0106497;4.08501672744751;-27.33687973022461;73.51982116699219
223;1673436036.0507736;47.1306423;7.2406196;42.650001525878906;1673436036.2038276;4.1908183097839355;-28.918052673339844;73.58932495117188
224;1673436036.2334266;47.1306423;7.2406196;43.05500030517578;1673436036.36975;4.01289176940918;-27.949562072753906;73.45881652832031
225;1673436036.405003;47.1306422;7.2406197;43.45900344848633;1673436036.561524;4.232492446899414;-27.518394470214844;73.61212921142578
226;1673436036.6046262;47.1306422;7.2406197;43.86300277709961;1673436036.7607672;4.038066864013672;-28.838542938232422;73.5348892211914
227;1673436036.7949302;47.1306422;7.240619799999999;44.268001556396484;1673436036.967018;4.1002197265625;-28.015213012695312;73.49187469482422
228;1673436037.006065;47.1306423;7.240619799999999;44.660003662109375;1673436037.1698887;4.402019023895264;-27.25975227355957;73.57331085205078
229;1673436037.211013;47.1306423;7.2406198999999996;45.053001403808594;1673436037.3631685;4.337002277374268;-28.922821044921875;73.52851867675781
230;1673436037.4013786;47.1306423;7.2406198999999996;45.452003479003906;1673436037.5679188;4.228163242340088;-27.88119125366211;73.49247741699219
231;1673436037.6071184;47.1306422;7.24062;45.85300064086914;1673436037.760837;4.285007476806641;-27.41168212890625;73.64911651611328
232;1673436037.8344557;47.1306422;7.24062;46.25300216674805;1673436037.990988;4.1648640632629395;-28.814401626586914;73.43433380126953
233;1673436038.0276434;47.130642099999996;7.24062;46.65400314331055;1673436038.1900022;4.081573486328125;-27.975610733032227;73.52022552490234
234;1673436038.222558;47.130642099999996;7.24062;47.04600143432617;1673436038.3721857;4.313477516174316;-27.376495361328125;73.54732513427734
235;1673436038.4097488;47.130642099999996;7.24062;47.43800354003906;1673436038.5824695;4.155455112457275;-28.96099090576172;73.50773620605469
236;1673436038.6248658;47.130642099999996;7.24062;47.832000732421875;1673436038.7848177;4.199625492095947;-28.175146102905273;73.56878662109375
237;1673436038.8259413;47.130641999999995;7.24062;48.2130012512207;1673436038.9919708;3.908684015274048;-28.512086868286133;73.434814453125
238;1673436039.0282826;47.1306419;7.24062;48.54600143432617;1673436039.1935146;3.941479444503784;-29.387632369995117;73.41690826416016
239;1673436039.229744;47.1306417;7.2406201999999995;48.82600402832031;1673436039.3868544;4.213464260101318;-28.48613929748535;73.4900131225586
240;1673436039.4242334;47.130641499999996;7.2406204;49.05900192260742;1673436039.5809338;4.577004909515381;-29.531635284423828;73.43714904785156
241;1673436039.6159525;47.1306413;7.2406206;49.24700164794922;1673436039.7708945;12.726683616638184;-25.8105525970459;73.19930267333984
242;1673436039.8153796;47.1306411;7.240620799999999;49.40500259399414;1673436039.958589;37.417022705078125;-6.018599510192871;81.8232192993164
243;1673436039.996159;47.130640199999995;7.24062;49.544002532958984;1673436040.1561239;45.629093170166016;11.368992805480957;92.517578125
244;1673436040.2013714;47.1306376;7.240616999999999;49.67500305175781;1673436040.3750143;46.86521911621094;31.297286987304688;102.96441650390625
245;1673436040.4093318;47.1306326;7.2406109999999995;49.790000915527344;1673436040.5688493;48.55278778076172;38.434383392333984;107.30718994140625
246;1673436040.6119397;47.130624499999996;7.240601799999999;49.86600112915039;1673436040.7857273;36.711647033691406;34.850406646728516;111.83101654052734
247;1673436040.8194685;47.1306137;7.2405900999999995;49.86600112915039;1673436040.983106;24.365585327148438;37.86482238769531;128.2126007080078
248;1673436041.0197659;47.130600799999996;7.2405772;49.86100387573242;1673436041.1774936;19.03711700439453;46.88809585571289;139.7792510986328
249;1673436041.215804;47.130586199999996;7.240563099999999;49.88600158691406;1673436041.3776512;10.793755531311035;51.66126251220703;151.62783813476562
250;1673436041.4144716;47.1305701;7.240547299999999;49.913002014160156;1673436041.5779638;-3.2565040588378906;45.79730224609375;162.48324584960938
251;1673436041.6152978;47.1305531;7.24053;49.919002532958984;1673436041.7820332;-12.731032371520996;40.18636703491211;171.4542694091797
252;1673436041.8197172;47.1305354;7.2405119;49.915000915527344;1673436042.0071118;-20.605854034423828;36.73858642578125;-179.7572021484375
253;1673436042.0393577;47.1305171;7.2404936;49.906002044677734;1673436042.183775;-28.900304794311523;36.727142333984375;-170.60150146484375
254;1673436042.2223809;47.1304989;7.2404749;49.897003173828125;1673436042.3813045;-37.62637710571289;35.07550048828125;-159.37245178222656
255;1673436042.4170573;47.13048;7.2404554;49.90200424194336;1673436042.5915565;-44.931278228759766;33.73115921020508;-146.906005859375
256;1673436042.6273396;47.130460299999996;7.2404344;49.92100143432617;1673436042.792495;-44.81183624267578;28.408897399902344;-138.17991638183594
257;1673436042.8267086;47.1304406;7.2404120999999995;49.922000885009766;1673436042.9796753;-40.631507873535156;25.047998428344727;-132.25668334960938
258;1673436043.0333173;47.1304211;7.2403887;49.90700149536133;1673436043.1952174;-38.3792610168457;26.941837310791016;-126.39634704589844
259;1673436043.23346;47.1304023;7.240364899999999;49.89600372314453;1673436043.3883379;-34.92731857299805;31.90785789489746;-119.09204864501953
260;1673436043.428444;47.1303853;7.240340799999999;49.87300109863281;1673436043.5904663;-27.079769134521484;30.542251586914062;-107.92928314208984
261;1673436043.636382;47.1303698;7.240317;49.858001708984375;1673436043.8470414;-16.5053768157959;37.426334381103516;-98.86930084228516
262;1673436043.8763213;47.1303562;7.2402945;49.86600112915039;1673436044.0492864;-3.4535748958587646;38.89446258544922;-89.39496612548828
263;1673436044.0816665;47.130345;7.2402748;49.884002685546875;1673436044.2338617;0.29695233702659607;31.942153930664062;-83.39574432373047
264;1673436044.270218;47.130336;7.240258799999999;49.89600372314453;1673436044.425242;-0.4975035488605499;30.96124839782715;-77.67285919189453
265;1673436044.4574387;47.1303288;7.2402469;49.922000885009766;1673436044.6114192;-8.41811466217041;32.8812255859375;-68.54659271240234
266;1673436044.6490908;47.1303233;7.2402386;49.96900177001953;1673436044.7979157;-26.939489364624023;35.39949035644531;-60.428592681884766
267;1673436044.840831;47.13032;7.2402337;50.018001556396484;1673436045.0016575;-47.586448669433594;16.08556365966797;-49.82546615600586
268;1673436045.0339062;47.1303189;7.2402304;50.10700225830078;1673436045.1809442;-55.521968841552734;-25.0865478515625;-36.70706558227539
269;1673436045.2197745;47.1303193;7.240225799999999;50.220001220703125;1673436045.3821282;-43.362239837646484;-34.27326583862305;-53.7249641418457
270;1673436045.4202194;47.1303194;7.2402177;50.29500198364258;1673436045.5864887;-33.26534652709961;-36.8658332824707;-64.96211242675781
271;1673436045.6206532;47.130317299999994;7.240207099999999;50.336002349853516;1673436045.7777507;-33.9432373046875;-30.362979888916016;-75.4326171875
272;1673436045.8184726;47.1303127;7.2401953;50.355003356933594;1673436045.9740994;-39.7613639831543;-25.566043853759766;-85.42449188232422
273;1673436046.0102282;47.1303056;7.2401827;50.36300277709961;1673436046.1705685;-47.54143524169922;-23.683382034301758;-92.77222442626953
274;1673436046.2057683;47.130296;7.240169099999999;50.375003814697266;1673436046.3689559;-46.380001068115234;-14.361186027526855;-105.47699737548828
275;1673436046.4022865;47.130283899999995;7.2401544;50.38600158691406;1673436046.5593693;-50.385101318359375;-6.068848133087158;-113.01496887207031
276;1673436046.5957778;47.1302697;7.2401389;50.41200256347656;1673436046.7684612;-51.39643096923828;1.4139443635940552;-121.51415252685547
277;1673436046.80664;47.1302538;7.2401224;50.43600082397461;1673436046.9702284;-52.44426727294922;11.859757423400879;-130.12863159179688
278;1673436047.009252;47.130236499999995;7.2401047;50.45900344848633;1673436047.1700249;-51.33781433105469;19.181137084960938;-137.6616973876953
279;1673436047.2052786;47.130218299999996;7.240085799999999;50.47100067138672;1673436047.3579652;-49.219520568847656;26.702428817749023;-139.1234588623047
280;1673436047.3911586;47.1301996;7.2400655;50.465003967285156;1673436047.55707;-49.11958694458008;28.2978458404541;-134.7275848388672
281;1673436047.5943255;47.1301808;7.240043699999999;50.4530029296875;1673436047.7703278;-46.551788330078125;25.046104431152344;-123.97315979003906
282;1673436047.8095205;47.1301622;7.240020599999999;50.42900085449219;1673436047.9775512;-44.66716384887695;16.593122482299805;-112.94547271728516
283;1673436048.0109737;47.1301443;7.2399967;50.39500427246094;1673436048.168721;-44.1217041015625;12.905817985534668;-104.63477325439453
284;1673436048.1999986;47.1301272;7.2399724;50.35600280761719;1673436048.3515708;-43.89370346069336;7.079275131225586;-95.33696746826172
285;1673436048.386094;47.130111;7.239948099999999;50.32100296020508;1673436048.5462017;-43.84783935546875;1.8260518312454224;-87.0277099609375
286;1673436048.586234;47.130095999999995;7.2399239;50.27900314331055;1673436048.7622354;-42.75584411621094;0.09065719693899155;-79.54619598388672
287;1673436048.798464;47.1300817;7.2398998;50.25600051879883;1673436048.9739745;-29.04611587524414;-6.661837100982666;-82.6578369140625
288;1673436049.0100856;47.130068099999995;7.239876;50.27800369262695;1673436049.1746821;-12.02638053894043;-6.537232398986816;-98.23202514648438
289;1673436049.2138183;47.1300545;7.239853999999999;50.303001403808594;1673436049.3853464;-13.07658863067627;-20.10017967224121;-108.35214233398438
290;1673436049.4221542;47.1300406;7.239834999999999;50.323001861572266;1673436049.5904846;-26.73162269592285;-21.918840408325195;-118.74650573730469
291;1673436049.622811;47.1300258;7.239819;50.342002868652344;1673436049.7723572;-43.395179748535156;-5.879510402679443;-129.5178985595703
292;1673436049.8067658;47.1300095;7.239805199999999;50.37300109863281;1673436049.9653673;-47.88908386230469;22.746353149414062;-138.49380493164062
293;1673436050.0021327;47.129992099999996;7.239791299999999;50.397003173828125;1673436050.1653004;-43.27520751953125;30.21819305419922;-123.7342529296875
294;1673436050.2065988;47.1299747;7.239776;50.41200256347656;1673436050.3826787;-43.626529693603516;35.38162612915039;-109.86918640136719
295;1673436050.4325604;47.129958699999996;7.239759299999999;50.42400360107422;1673436050.6000812;-42.06031799316406;44.361839294433594;-98.75713348388672
296;1673436050.6309435;47.1299451;7.2397417;50.406002044677734;1673436050.8084123;-34.44988250732422;40.79705810546875;-86.57604217529297
297;1673436050.8578808;47.1299348;7.2397244999999995;50.35100173950195;1673436051.026546;-30.135046005249023;34.6907844543457;-78.42607879638672
298;1673436051.0612357;47.1299274;7.239708599999999;50.294002532958984;1673436051.2099688;-33.14025115966797;31.367403030395508;-70.01459503173828
299;1673436051.2449434;47.129922699999995;7.2396948;50.24800109863281;1673436051.3970084;-40.50023651123047;27.87624168395996;-61.588993072509766
300;1673436051.433776;47.129920399999996;7.2396825;50.22900390625;1673436051.5865774;-49.436614990234375;21.175729751586914;-54.813392639160156
301;1673436051.621723;47.1299202;7.2396712999999995;50.22500228881836;1673436051.7865376;-50.52281951904297;20.161479949951172;-64.22467803955078
302;1673436051.8226428;47.1299219;7.2396603;50.217002868652344;1673436051.9810321;-43.259517669677734;26.564756393432617;-79.0248031616211
303;1673436052.0162241;47.129925;7.2396489;50.20100402832031;1673436052.1846378;-34.6379508972168;31.957624435424805;-90.78900146484375
304;1673436052.2307978;47.129928799999995;7.2396369;50.177001953125;1673436052.3989463;-24.958715438842773;34.21651077270508;-101.16085815429688
305;1673436052.4453962;47.129933;7.2396249;50.15200424194336;1673436052.6003551;-20.946910858154297;33.62105941772461;-112.26123809814453
306;1673436052.6360972;47.129937299999995;7.2396129;50.150001525878906;1673436052.7858942;-16.040725708007812;3.167909622192383;-123.09588623046875
307;1673436052.8190618;47.1299409;7.2396011;50.15400314331055;1673436052.986049;-24.407968521118164;-34.73250198364258;-132.17721557617188
308;1673436053.0231736;47.1299425;7.2395913;50.09400177001953;1673436053.1971982;-17.768550872802734;-22.458236694335938;-147.61354064941406
309;1673436053.2310407;47.129941599999995;7.2395841999999995;49.862003326416016;1673436053.4094796;-11.327230453491211;-18.196758270263672;-148.4556427001953
310;1673436053.4412591;47.129937999999996;7.2395808;49.612003326416016;1673436053.5982747;-11.432242393493652;-12.426705360412598;-155.48593139648438
311;1673436053.6388564;47.129932;7.239580699999999;49.458003997802734;1673436053.795825;-15.687997817993164;-16.090208053588867;-163.76510620117188
312;1673436053.8541791;47.129923899999994;7.2395834;49.44400405883789;1673436054.0278552;-17.882856369018555;-16.582279205322266;-169.11529541015625
313;1673436054.0623317;47.129914199999995;7.2395887;49.45900344848633;1673436054.2356775;-6.122893333435059;-18.07660484313965;-156.0000457763672
314;1673436054.2695112;47.1299032;7.2395961;49.4900016784668;1673436054.4150255;-0.6003111600875854;-11.438556671142578;-141.7186279296875
315;1673436054.4502277;47.1298915;7.2396053;49.53400421142578;1673436054.61338;-7.876309871673584;20.521575927734375;-132.99993896484375
316;1673436054.6505966;47.129879599999995;7.239615;49.592002868652344;1673436054.8125226;-13.84072494506836;34.2841796875;-131.78880310058594
317;1673436054.8510487;47.129868599999995;7.2396232;49.62900161743164;1673436055.0129068;-10.193726539611816;31.31471824645996;-125.50887298583984
318;1673436055.050138;47.1298587;7.2396294;49.6510009765625;1673436055.2125988;-10.89476490020752;35.16060256958008;-117.5618896484375
319;1673436055.2444797;47.1298501;7.2396337;49.68600082397461;1673436055.4103644;-18.083118438720703;37.76591491699219;-107.56680297851562
320;1673436055.4510565;47.1298429;7.2396366;49.73500061035156;1673436055.6099377;-26.425609588623047;32.67288589477539;-96.09395599365234
321;1673436055.6466377;47.1298372;7.2396381;49.79500198364258;1673436055.810556;-38.1190185546875;30.083744049072266;-85.0244140625
322;1673436055.845263;47.1298332;7.2396379;49.875003814697266;1673436056.001365;-50.791046142578125;27.926063537597656;-74.54277801513672
323;1673436056.037551;47.1298312;7.239635799999999;49.96000289916992;1673436056.2015095;-53.591861724853516;20.21356201171875;-64.49876403808594
324;1673436056.2397823;47.1298312;7.2396316;50.038002014160156;1673436056.4031577;-55.05625915527344;12.061527252197266;-55.938838958740234
325;1673436056.442937;47.1298332;7.2396251;50.117000579833984;1673436056.604181;-51.00444793701172;5.522907733917236;-48.7584114074707
326;1673436056.6423268;47.129836499999996;7.2396173;50.17500305175781;1673436056.7815;-45.618438720703125;-0.25016868114471436;-42.022029876708984
327;1673436056.8537776;47.1298406;7.2396085;50.224002838134766;1673436057.035518;-42.00296401977539;-3.380617380142212;-40.70857620239258
328;1673436057.0658145;47.1298451;7.2395993;50.259002685546875;1673436057.2166507;-42.05705642700195;-3.170288324356079;-43.649173736572266
329;1673436057.249493;47.1298496;7.2395898;50.28400421142578;1673436057.409635;-45.54923629760742;-6.565754413604736;-45.19001388549805
330;1673436057.4461133;47.129854099999996;7.2395796;50.302001953125;1673436057.6066384;-44.2811279296875;0.6164408922195435;-55.533992767333984
331;1673436057.6379876;47.129858399999996;7.2395685;50.310001373291016;1673436057.8037462;-42.32420349121094;8.508761405944824;-67.44894409179688
332;1673436057.8379738;47.1298624;7.2395567;50.30900192260742;1673436057.9996326;-35.23503875732422;11.879016876220703;-77.39881134033203
333;1673436058.034791;47.1298661;7.239544599999999;50.30000305175781;1673436058.181936;-29.369688034057617;1.3625948429107666;-85.37191772460938
334;1673436058.2172034;47.129869;7.2395323;50.28700256347656;1673436058.3904588;-22.433074951171875;-21.19405746459961;-95.5289535522461
335;1673436058.4317877;47.1298702;7.239520499999999;50.27100372314453;1673436058.6042526;-20.358346939086914;-38.11593246459961;-105.06856536865234
336;1673436058.641638;47.1298683;7.2395105;50.24100112915039;1673436058.8127713;-26.64031982421875;-33.06196594238281;-112.75923156738281
337;1673436058.8475702;47.129863;7.2395027;50.15700149536133;1673436059.0099356;-25.85521125793457;-20.25054168701172;-120.82286071777344
338;1673436059.048043;47.129854599999994;7.2394970999999995;50.06800079345703;1673436059.2100751;-37.0428466796875;-20.716962814331055;-129.68905639648438
339;1673436059.2551885;47.1298436;7.2394928;50.02000427246094;1673436059.4151516;-44.16706466674805;-9.3312349319458;-142.692626953125
340;1673436059.4522853;47.12983;7.2394893;49.99400329589844;1673436059.6149085;-39.05533981323242;0.08815818279981613;-146.78436279296875
341;1673436059.6535292;47.1298141;7.2394861;49.97300338745117;1673436059.801616;-49.54328536987305;5.224697113037109;-142.70709228515625
342;1673436059.8427355;47.129796299999995;7.2394823;50.01100158691406;1673436059.986805;-63.32569122314453;8.045527458190918;-138.0472869873047
343;1673436060.0219417;47.129776299999996;7.2394763;50.077003479003906;1673436060.1842217;-58.1688232421875;10.708395957946777;-134.25546264648438
344;1673436060.221323;47.1297545;7.2394669;50.12000274658203;1673436060.377937;-54.40229034423828;11.762762069702148;-129.57958984375
345;1673436060.4151192;47.129731799999995;7.2394547;50.13600158691406;1673436060.5847487;-48.867828369140625;6.287086009979248;-118.1364517211914
346;1673436060.6239064;47.129709;7.2394403;50.13500213623047;1673436060.7915437;-49.70348358154297;1.495949149131775;-110.04436492919922
347;1673436060.8309045;47.1296864;7.2394243;50.13600158691406;1673436060.9970922;-48.482112884521484;-1.557155966758728;-100.99607849121094
348;1673436061.0353084;47.129664299999995;7.239407;50.13300323486328;1673436061.188539;-47.67811965942383;-6.177619457244873;-92.23998260498047
349;1673436061.2217634;47.1296427;7.239388399999999;50.12600326538086;1673436061.3891828;-44.87753677368164;-7.636185169219971;-83.57057189941406
350;1673436061.42923;47.1296221;7.2393689;50.11100387573242;1673436061.589182;-43.69991683959961;-7.389471054077148;-73.70207977294922
351;1673436061.6243174;47.1296027;7.239348799999999;50.08500289916992;1673436061.788511;-42.94282913208008;-5.40646505355835;-63.13987731933594
352;1673436061.8314943;47.129584699999995;7.2393285;50.05500411987305;1673436062.013354;-43.40406036376953;-1.654742956161499;-53.21149444580078
353;1673436062.0466013;47.1295688;7.2393081;50.03600311279297;1673436062.2027676;-48.73462677001953;9.450545310974121;-48.82235336303711
354;1673436062.2430954;47.1295554;7.2392883999999995;50.02300262451172;1673436062.3978846;-43.41312026977539;8.835144996643066;-40.9716911315918
355;1673436062.4359558;47.129545;7.2392699;50.01100158691406;1673436062.5952792;-42.15789031982422;16.316436767578125;-44.94194030761719
356;1673436062.6304142;47.1295374;7.239253499999999;49.996002197265625;1673436062.8064628;-37.91218566894531;16.781906127929688;-43.31935119628906
357;1673436062.8397543;47.1295322;7.2392392999999995;49.98800277709961;1673436062.9951077;-39.87266540527344;17.274703979492188;-43.990882873535156
358;1673436063.0342853;47.1295292;7.2392273;49.99100112915039;1673436063.2108178;-41.624061584472656;19.849178314208984;-43.544193267822266
359;1673436063.2484727;47.129528099999995;7.2392173;50.00200271606445;1673436063.4124274;-45.04442596435547;15.637290000915527;-40.51343536376953
360;1673436063.4507892;47.1295289;7.2392088999999995;50.035003662109375;1673436063.598117;-50.99209976196289;13.288850784301758;-40.46013641357422
361;1673436063.6314526;47.1295316;7.2392017;50.092002868652344;1673436063.8141181;-52.4840202331543;10.720081329345703;-40.907798767089844
362;1673436063.8561914;47.1295362;7.239195;50.14800262451172;1673436064.0105972;-48.515647888183594;8.347737312316895;-43.2124137878418
363;1673436064.043782;47.129542;7.2391882999999995;50.18100357055664;1673436064.2031155;-46.8131217956543;-0.46565720438957214;-43.2972412109375
364;1673436064.2372665;47.1295484;7.2391812;50.2030029296875;1673436064.4061515;-47.7586784362793;-18.75990104675293;-42.329036712646484
365;1673436064.443323;47.129554899999995;7.2391730999999995;50.204002380371094;1673436064.603012;-48.7340202331543;-26.404043197631836;-51.561824798583984
366;1673436064.6402512;47.129560399999995;7.239163;50.15400314331055;1673436064.8173332;-38.03655242919922;-27.25641632080078;-66.33878326416016
367;1673436064.852211;47.1295639;7.2391505;50.0780029296875;1673436065.0182009;-26.219314575195312;-28.823728561401367;-78.02792358398438
368;1673436065.0547187;47.1295645;7.2391371;49.999000549316406;1673436065.2079387;-23.450183868408203;-34.12599182128906;-83.57107543945312
369;1673436065.241322;47.1295618;7.2391242;49.94400405883789;1673436065.391586;-27.340620040893555;-32.092952728271484;-94.33551025390625
370;1673436065.4248927;47.129556099999995;7.2391122999999995;49.90800094604492;1673436065.5926034;-32.76863098144531;-29.508047103881836;-102.67831420898438
371;1673436065.6306655;47.129547099999996;7.239101499999999;49.8900032043457;1673436065.8053305;-37.54136276245117;-24.551307678222656;-112.74295043945312
372;1673436065.8482962;47.129535499999996;7.2390913999999995;49.87600326538086;1673436066.0179935;-43.111812591552734;-16.097312927246094;-122.67550659179688
373;1673436066.053173;47.129521399999994;7.239082;49.87600326538086;1673436066.2021692;-49.76572036743164;-5.426069259643555;-131.9842529296875
374;1673436066.2350085;47.1295049;7.2390726999999995;49.897003173828125;1673436066.3900619;-54.41493606567383;7.112456321716309;-139.6654052734375
375;1673436066.4252229;47.1294861;7.239062499999999;49.932003021240234;1673436066.6003284;-55.988075256347656;18.67267417907715;-141.34437561035156
376;1673436066.6402423;47.1294654;7.239050199999999;49.97100067138672;1673436066.8103178;-52.966697692871094;22.400419235229492;-136.37063598632812
377;1673436066.8525047;47.1294441;7.239035299999999;49.99500274658203;1673436067.014182;-48.35329818725586;19.923498153686523;-128.355224609375
378;1673436067.0455604;47.1294228;7.2390184;50.00600051879883;1673436067.220226;-47.37957000732422;15.88210678100586;-117.58668518066406
379;1673436067.2519834;47.129402;7.238999799999999;50.01100158691406;1673436067.404184;-46.494693756103516;11.94927978515625;-107.72337341308594
380;1673436067.437456;47.129382199999995;7.2389801;50.00700378417969;1673436067.6093657;-46.1400260925293;7.062053680419922;-98.2811508178711
381;1673436067.6456733;47.129363399999995;7.2389595;50.00400161743164;1673436067.8106747;-45.42567825317383;4.972959041595459;-90.37641906738281
382;1673436067.8489034;47.129345799999996;7.2389382;49.99800109863281;1673436068.018686;-44.66761779785156;-0.22950248420238495;-80.52490234375
383;1673436068.0547993;47.1293295;7.2389166;49.98600387573242;1673436068.2161705;-44.50070571899414;-1.4545698165893555;-72.10802459716797
384;1673436068.2534575;47.129314699999995;7.2388946999999995;49.97200393676758;1673436068.41023;-43.84895706176758;-4.429523468017578;-62.12336730957031
385;1673436068.44997;47.1293012;7.2388729;49.96800231933594;1673436068.614271;-45.84610366821289;-5.783059597015381;-53.83526611328125
386;1673436068.6448512;47.129289299999996;7.2388512;49.96800231933594;1673436068.810354;-44.365047454833984;-11.533339500427246;-43.837825775146484
387;1673436068.846795;47.129279;7.2388297999999995;49.974002838134766;1673436069.0139885;-50.33668518066406;-17.42561912536621;-40.95832824707031
388;1673436069.0502417;47.129270399999996;7.238808199999999;49.996002197265625;1673436069.2075968;-52.383079528808594;-14.800445556640625;-45.194393157958984
389;1673436069.2468452;47.1292634;7.2387862;50.0160026550293;1673436069.4051788;-49.56581115722656;-8.975518226623535;-47.63897705078125
390;1673436069.4403124;47.1292577;7.2387635999999995;50.02100372314453;1673436069.602388;-41.919227600097656;-5.625434875488281;-52.624061584472656
391;1673436069.6375144;47.129253299999995;7.2387410999999995;50.03400421142578;1673436069.798637;-5.820323944091797;-0.5376394391059875;-63.826011657714844
392;1673436069.8368635;47.1292492;7.23872;50.05000305175781;1673436069.9938958;11.573176383972168;-8.442340850830078;-75.24667358398438
393;1673436070.0293221;47.1292444;7.2387023;50.047000885009766;1673436070.2017817;15.269335746765137;-30.789077758789062;-85.27242279052734
394;1673436070.241432;47.129238099999995;7.2386892;50.02300262451172;1673436070.4089952;1.6374499797821045;-32.88197708129883;-89.9081039428711
395;1673436070.443385;47.1292295;7.238680199999999;49.9640007019043;1673436070.601906;-26.266469955444336;-33.901004791259766;-96.41161346435547
396;1673436070.6360917;47.129218599999994;7.2386738;49.92400360107422;1673436070.8013997;-45.123382568359375;-6.227992534637451;-112.9002685546875
397;1673436070.8453252;47.129205299999995;7.238667599999999;49.923004150390625;1673436071.0100298;-40.28540802001953;28.062273025512695;-123.50788879394531
398;1673436071.0461442;47.1291909;7.2386596;49.967002868652344;1673436071.2022963;-26.192651748657227;44.6372184753418;-129.80665588378906
399;1673436071.2360313;47.1291775;7.238649499999999;50.01400375366211;1673436071.4074934;-16.949684143066406;45.8979377746582;-123.109619140625
400;1673436071.4468975;47.129166;7.2386379;50.052001953125;1673436071.6103184;-4.973952770233154;43.49579620361328;-113.5755844116211
401;1673436071.6493585;47.1291568;7.238626;50.08100128173828;1673436071.8136773;-4.078232765197754;43.126346588134766;-109.12250518798828
402;1673436071.86741;47.129149899999994;7.2386152;50.105003356933594;1673436072.0170836;-9.669891357421875;41.83507537841797;-103.77479553222656
403;1673436072.0533545;47.1291453;7.2386057;50.11900329589844;1673436072.2066295;-11.245320320129395;39.049442291259766;-98.92405700683594
404;1673436072.2393906;47.1291425;7.2385975;50.13500213623047;1673436072.4004238;-10.58939266204834;34.66798400878906;-95.89339447021484
405;1673436072.4473996;47.129141;7.2385905;50.14200210571289;1673436072.605718;-23.249404907226562;20.57731056213379;-102.04743194580078
406;1673436072.6429162;47.1291404;7.238584299999999;50.18000411987305;1673436072.8089423;-39.47797393798828;7.482422351837158;-114.94259643554688
407;1673436072.8450606;47.129139099999996;7.238577299999999;50.327003479003906;1673436073.011189;-44.4345817565918;6.920692443847656;-128.89845275878906
408;1673436073.0474153;47.1291355;7.2385684999999995;50.540000915527344;1673436073.2097895;-20.95227813720703;0.5718215107917786;-136.69085693359375
409;1673436073.2464595;47.1291296;7.2385592;50.80900192260742;1673436073.4071603;-27.358154296875;15.824503898620605;-140.86416625976562
410;1673436073.446428;47.1291219;7.2385505;51.147003173828125;1673436073.6052804;-32.270423889160156;35.48664855957031;-140.27467346191406
411;1673436073.6502795;47.1291131;7.2385404;51.531002044677734;1673436073.8565707;-29.953338623046875;30.895666122436523;-137.53428649902344
412;1673436073.8893597;47.1291041;7.2385283;51.923004150390625;1673436074.0522866;-29.270675659179688;29.942197799682617;-136.91543579101562
413;1673436074.0818293;47.129095;7.238514899999999;52.32100296020508;1673436074.2333906;-25.780832290649414;27.702486038208008;-136.19110107421875
414;1673436074.316251;47.1290858;7.2385003999999995;52.715003967285156;1673436074.4843981;-24.356733322143555;25.38821792602539;-136.4429473876953
415;1673436074.549939;47.1290765;7.2384854999999995;53.11000442504883;1673436074.6884358;-22.713672637939453;24.129234313964844;-136.77944946289062
416;1673436074.7168448;47.1290671;7.2384705;53.50100326538086;1673436074.8607202;-21.41135597229004;22.58241844177246;-136.82496643066406
417;1673436074.889109;47.1290577;7.238455699999999;53.89200210571289;1673436075.0410419;-20.7597599029541;22.218502044677734;-137.03045654296875
418;1673436075.070418;47.1290482;7.238441099999999;54.2920036315918;1673436075.2325566;-20.734861373901367;22.156171798706055;-137.06683349609375
419;1673436075.2677484;47.1290385;7.238426899999999;54.69000244140625;1673436075.4349725;-20.79927635192871;22.379623413085938;-137.06163024902344
420;1673436075.4776728;47.1290288;7.2384131;55.0880012512207;1673436075.6275735;-21.028799057006836;23.000648498535156;-137.05154418945312
421;1673436075.664487;47.1290191;7.2383995;55.48500442504883;1673436075.8208377;-21.41753387451172;23.490182876586914;-137.00125122070312
