;pos_time;latitude;longitude;altitude;alt_time;pitch;roll;yaw
0;1673433753.6014009;47.1306423;7.2406201999999995;0.003000000026077032;1673433753.5965207;-0.23845331370830536;-0.6667356491088867;90.70391082763672
1;1673433753.7930322;47.1306424;7.2406203;0.003000000026077032;1673433753.7891133;-0.19012896716594696;-0.48447275161743164;90.5619888305664
2;1673433754.0147536;47.1306424;7.2406203;0.0020000000949949026;1673433754.0098753;-0.10329687595367432;-0.2656554877758026;90.68763732910156
3;1673433754.2160141;47.1306424;7.2406203;0.003000000026077032;1673433754.21113;-0.12520422041416168;-0.23434877395629883;90.5552749633789
4;1673433754.4154687;47.1306424;7.2406201999999995;0.005000000353902578;1673433754.4096146;-0.0719757080078125;-0.3684436082839966;90.64676666259766
5;1673433754.6083813;47.1306425;7.2406201999999995;0.005000000353902578;1673433754.6028173;0.0033385949209332466;-0.16677474975585938;90.69320678710938
6;1673433754.798815;47.1306425;7.2406201;0.005000000353902578;1673433754.7939334;-0.221062570810318;-0.28920504450798035;90.62109375
7;1673433755.0117388;47.1306425;7.2406201;0.003000000026077032;1673433755.0078363;-0.32245734333992004;-0.2403581589460373;90.64024353027344
8;1673433755.2207425;47.1306425;7.2406201;0.003000000026077032;1673433755.2178144;-0.16583596169948578;-0.26465028524398804;90.6404037475586
9;1673433755.4187517;47.1306425;7.2406201;0.007000000216066837;1673433755.4119275;-0.17501001060009003;-0.20410677790641785;90.5560531616211
10;1673433755.5958264;47.1306425;7.24062;0.012000000104308128;1673433755.5919256;0.1218779981136322;-0.1585751473903656;90.4583511352539
11;1673433755.7954574;47.1306425;7.2406201;0.01600000075995922;1673433755.7896035;-0.26353365182876587;-0.1781689077615738;90.66802978515625
12;1673433756.0006452;47.1306425;7.2406201;0.01900000125169754;1673433755.9987004;-0.3540348410606384;-0.21327492594718933;90.703369140625
13;1673433756.1949112;47.1306424;7.2406201999999995;0.021000001579523087;1673433756.1900318;-0.4705059826374054;-0.1698625087738037;90.72657012939453
14;1673433756.3903499;47.1306424;7.2406201999999995;0.0;1673433756.3854795;-0.3191524147987366;-0.9301003217697144;90.62797546386719
15;1673433756.5946913;47.1306424;7.2406201999999995;0.0010000000474974513;1673433756.5888433;-0.38188832998275757;-1.0610496997833252;90.59839630126953
16;1673433756.7971144;47.1306424;7.2406201999999995;0.003000000026077032;1673433756.7941785;-0.46892881393432617;-0.9305855631828308;90.62303924560547
17;1673433757.0172374;47.1306424;7.2406201999999995;0.007000000216066837;1673433757.0123544;-0.3836177587509155;-0.8615399599075317;90.5409164428711
18;1673433757.221541;47.1306424;7.2406201;0.009000000543892384;1673433757.218611;-0.15125857293605804;-0.8617468476295471;90.46282958984375
19;1673433757.4265795;47.1306424;7.24062;0.00800000037997961;1673433757.4217188;0.046831194311380386;-1.160832166671753;90.50852966308594
20;1673433757.6223683;47.1306424;7.24062;0.004000000189989805;1673433757.6184719;0.12449736148118973;-1.7924069166183472;90.74497985839844
21;1673433757.8301015;47.1306423;7.2406201;0.0010000000474974513;1673433757.8281515;0.1326211541891098;-1.5705201625823975;90.43011474609375
22;1673433758.0108373;47.1306424;7.2406201;0.0;1673433758.0068126;0.054522257298231125;-1.4397836923599243;90.40663146972656
23;1673433758.2032564;47.1306424;7.2406201;-0.0010000000474974513;1673433758.1973925;-0.12215108424425125;-1.1565290689468384;90.41608428955078
24;1673433758.4063277;47.1306424;7.2406201;-0.005000000353902578;1673433758.4014597;-0.0015706232516095042;-0.6209738850593567;89.79203796386719
25;1673433758.6096737;47.1306424;7.2406201;-0.007000000216066837;1673433758.6057644;-0.05243348330259323;-0.31334927678108215;89.75603485107422
26;1673433758.867388;47.1306424;7.2406201;-0.012000000104308128;1673433758.8634846;0.13996583223342896;-0.511899471282959;90.04434204101562
27;1673433759.0588224;47.1306425;7.2406201;-0.020000001415610313;1673433759.0539422;0.08875150978565216;-0.70460045337677;89.89698791503906
28;1673433759.235009;47.130642599999995;7.2406201;-0.02500000037252903;1673433759.230111;0.6778085231781006;-0.7011129856109619;88.98760986328125
29;1673433759.4250836;47.1306428;7.24062;-0.024000000208616257;1673433759.4221432;0.600589394569397;-0.6680879592895508;87.32438659667969
30;1673433759.606843;47.1306431;7.2406198999999996;-0.023000001907348633;1673433759.6029382;-0.2045540064573288;-0.4371377229690552;81.5845947265625
31;1673433759.8063111;47.1306436;7.2406194;-0.023000001907348633;1673433759.8033848;-0.3276802897453308;1.1399002075195312;71.48651885986328
32;1673433760.0154083;47.1306444;7.2406188;-0.012000000104308128;1673433760.0115;-0.41890284419059753;5.460484027862549;63.67103958129883
33;1673433760.212697;47.1306455;7.2406179999999996;0.0020000000949949026;1673433760.2058837;-0.9842329621315002;10.46053409576416;62.80237579345703
34;1673433760.4197998;47.130646899999995;7.2406168;0.020000001415610313;1673433760.4158945;-1.4976471662521362;14.283616065979004;66.16036987304688
35;1673433760.6145422;47.1306484;7.240615399999999;0.05000000074505806;1673433760.6096632;-2.4283323287963867;15.99751091003418;69.1041488647461
36;1673433760.8048227;47.1306498;7.240614;0.08900000154972076;1673433760.8009205;-3.772684335708618;17.429954528808594;71.49413299560547
37;1673433761.0089476;47.130651099999994;7.2406124;0.1380000114440918;1673433761.0050557;-5.383815765380859;19.336870193481445;73.33535766601562
38;1673433761.2049706;47.1306521;7.2406109999999995;0.19600000977516174;1673433761.2014701;-6.921507358551025;21.005352020263672;74.85503387451172
39;1673433761.418882;47.1306528;7.2406099;0.26200002431869507;1673433761.414003;-8.587636947631836;22.325359344482422;76.1749267578125
40;1673433761.5993555;47.1306532;7.240609;0.3370000123977661;1673433761.594329;-10.34451675415039;23.857431411743164;77.21885681152344
41;1673433761.801265;47.1306532;7.240608699999999;0.4140000343322754;1673433761.7983494;-11.819609642028809;25.42277717590332;78.15205383300781
42;1673433762.0013654;47.1306528;7.2406089;0.5;1673433761.9982827;-13.385363578796387;27.121734619140625;78.89567565917969
43;1673433762.1978157;47.1306519;7.2406096;0.5990000367164612;1673433762.192898;-14.783074378967285;27.73295783996582;79.67367553710938
44;1673433762.3908017;47.130650599999996;7.2406109;0.6990000605583191;1673433762.3868988;-13.869782447814941;25.401229858398438;80.57553100585938
45;1673433762.5824287;47.130649;7.2406127;0.7990000247955322;1673433762.5775073;-12.358222961425781;22.799341201782227;81.19800567626953
46;1673433762.7955527;47.1306472;7.2406146;0.9030000567436218;1673433762.7916105;-10.25123405456543;19.851133346557617;81.66681671142578
47;1673433763.002805;47.1306456;7.2406165;1.0170000791549683;1673433762.9988856;-8.57894515991211;15.275422096252441;82.26323699951172
48;1673433763.2090764;47.1306442;7.2406182;1.1480000019073486;1673433763.2041967;-6.554727554321289;12.027641296386719;82.27404022216797
49;1673433763.4064631;47.130643;7.2406196;1.2930001020431519;1673433763.402561;-5.243288040161133;13.754719734191895;81.12965393066406
50;1673433763.605713;47.1306423;7.2406204;1.4480000734329224;1673433763.6018085;-4.7390336990356445;10.728401184082031;81.23133850097656
51;1673433763.8296359;47.130642099999996;7.2406209;1.6130000352859497;1673433763.8247516;-4.898423194885254;11.323158264160156;80.9859848022461
52;1673433764.0317636;47.130642099999996;7.2406209;1.7920000553131104;1673433764.0268946;-4.980452537536621;16.902889251708984;75.37139892578125
53;1673433764.2133148;47.130642099999996;7.2406206;1.9820001125335693;1673433764.2094111;-6.331533908843994;15.455899238586426;75.38863372802734
54;1673433764.3893263;47.1306423;7.2406201999999995;2.1710000038146973;1673433764.3844492;-7.591691493988037;14.992274284362793;75.37913513183594
55;1673433764.5838075;47.1306423;7.240619799999999;2.3600001335144043;1673433764.579898;-8.15120792388916;18.792457580566406;74.6929931640625
56;1673433764.7907248;47.1306424;7.2406193;2.555000066757202;1673433764.7858446;-8.345915794372559;18.517024993896484;74.4818344116211
57;1673433765.0263429;47.1306425;7.240619;2.755000114440918;1673433765.0234332;-9.110244750976562;16.015172958374023;74.48631286621094
58;1673433765.229551;47.130642699999996;7.240618899999999;2.954000234603882;1673433765.2256444;-9.210946083068848;19.031299591064453;74.08940124511719
59;1673433765.4283204;47.130642699999996;7.240619;3.1520001888275146;1673433765.4242861;-8.62476921081543;20.386486053466797;74.1035385131836
60;1673433765.6078331;47.130642699999996;7.2406191;3.3500001430511475;1673433765.6039286;-8.600146293640137;16.272687911987305;74.52804565429688
61;1673433765.7962694;47.130642599999995;7.2406194;3.5470001697540283;1673433765.7923656;-8.60102653503418;17.549951553344727;74.41403198242188
62;1673433766.0051155;47.1306424;7.2406196;3.742000102996826;1673433766.001213;-7.572132587432861;19.279380798339844;73.9124984741211
63;1673433766.2035205;47.1306424;7.2406198999999996;3.942000150680542;1673433766.1990757;-7.181538105010986;16.121829986572266;74.32544708251953
64;1673433766.4141543;47.1306424;7.2406201999999995;4.142000198364258;1673433766.411227;-7.052689075469971;15.672324180603027;74.44438934326172
65;1673433766.6271057;47.1306424;7.2406204;4.3420000076293945;1673433766.6222281;-6.670083522796631;19.915552139282227;73.99959564208984
66;1673433766.8246477;47.1306424;7.2406204999999995;4.5420002937316895;1673433766.820783;-6.619179725646973;16.842262268066406;74.34181213378906
67;1673433767.0327604;47.1306423;7.2406206;4.741000175476074;1673433767.0278986;-7.349879264831543;15.112751007080078;74.43511199951172
68;1673433767.233744;47.1306422;7.2406204999999995;4.937000274658203;1673433767.228857;-7.183477878570557;18.411840438842773;74.02493286132812
69;1673433767.438243;47.1306422;7.2406204;5.135000228881836;1673433767.4333634;-7.074547290802002;18.017927169799805;73.88883209228516
70;1673433767.6442447;47.1306423;7.2406203;5.336000442504883;1673433767.6393654;-7.523604869842529;15.163041114807129;74.54717254638672
71;1673433767.8376112;47.1306425;7.2406201999999995;5.539000034332275;1673433767.8346803;-7.850039482116699;18.349224090576172;74.0938491821289
72;1673433768.0140574;47.1306425;7.2406201;5.741000175476074;1673433768.0091767;-7.612906455993652;19.921627044677734;74.05915069580078
73;1673433768.2232385;47.130642599999995;7.2406201;5.944000244140625;1673433768.2203097;-7.69347620010376;16.149137496948242;74.42303466796875
74;1673433768.4314291;47.130642599999995;7.2406201;6.147000312805176;1673433768.4265645;-8.040711402893066;17.08206558227539;74.41565704345703
75;1673433768.6164193;47.1306425;7.2406201999999995;6.349000453948975;1673433768.6135159;-7.345970630645752;19.345956802368164;74.04052734375
76;1673433768.8274817;47.1306425;7.2406201999999995;6.556000232696533;1673433768.8235574;-7.396767616271973;16.19200897216797;74.31753540039062
77;1673433769.0342069;47.130642599999995;7.2406201999999995;6.761000156402588;1673433769.0303144;-7.835266590118408;16.153963088989258;74.46199798583984
78;1673433769.229175;47.130642599999995;7.2406203;6.963000297546387;1673433769.2252717;-7.224209785461426;20.051124572753906;74.00440216064453
79;1673433769.4305193;47.130642599999995;7.2406203;7.159000396728516;1673433769.424645;-7.287898540496826;16.75941276550293;74.21968078613281
80;1673433769.6200228;47.130642599999995;7.2406203;7.3550004959106445;1673433769.6151378;-7.618854522705078;15.734644889831543;74.4478530883789
81;1673433769.816263;47.1306425;7.2406203;7.554000377655029;1673433769.812347;-7.510857105255127;19.240886688232422;74.08250427246094
82;1673433770.011843;47.1306425;7.2406203;7.752000331878662;1673433770.0069804;-7.349612712860107;17.9741153717041;74.05329132080078
83;1673433770.2229917;47.130642599999995;7.2406203;7.950000286102295;1673433770.218134;-7.686877250671387;14.98132038116455;74.54151916503906
84;1673433770.423118;47.130642699999996;7.2406203;8.147000312805176;1673433770.418241;-7.528229713439941;18.436851501464844;74.1620864868164
85;1673433770.6081417;47.130642699999996;7.2406201999999995;8.3410005569458;1673433770.6046553;-7.159679412841797;19.4835205078125;74.11668395996094
86;1673433770.8180492;47.130642699999996;7.2406201999999995;8.53600025177002;1673433770.8141446;-7.342402458190918;15.905511856079102;74.39457702636719
87;1673433771.0402672;47.1306428;7.2406203;8.733000755310059;1673433771.0383146;-7.722402572631836;17.42561912536621;74.26243591308594
88;1673433771.2240622;47.130642699999996;7.2406203;8.930000305175781;1673433771.2214236;-7.173816680908203;19.53664779663086;73.84515380859375
89;1673433771.407495;47.1306428;7.2406203;9.12600040435791;1673433771.4016397;-7.52528190612793;16.996074676513672;74.36243438720703
90;1673433771.6230402;47.1306429;7.2406203;9.32300090789795;1673433771.6171913;-7.690492153167725;16.390790939331055;74.50922393798828
91;1673433771.827174;47.1306429;7.2406203;9.521000862121582;1673433771.8222861;-7.184481620788574;20.024080276489258;74.01578521728516
92;1673433772.024515;47.1306428;7.2406203;9.7160005569458;1673433772.0206084;-6.952237129211426;17.61724853515625;74.2625961303711
93;1673433772.2574017;47.130642699999996;7.2406203;9.91100025177002;1673433772.2544682;-7.492405414581299;15.824566841125488;74.39122772216797
94;1673433772.44303;47.130642599999995;7.2406203;10.105000495910645;1673433772.4391074;-7.4397053718566895;18.772367477416992;74.00518798828125
95;1673433772.623325;47.1306425;7.2406203;10.354000091552734;1673433772.6184554;-7.095163822174072;17.81670379638672;73.99500274658203
96;1673433772.820413;47.1306423;7.2406204999999995;10.719000816345215;1673433772.8165202;-8.546048164367676;17.837142944335938;74.41133117675781
97;1673433773.006668;47.130642099999996;7.2406207;11.109000205993652;1673433773.0037527;-7.682750225067139;17.743837356567383;74.63258361816406
98;1673433773.2112732;47.1306418;7.2406209;11.504000663757324;1673433773.2053802;-7.04909610748291;18.825702667236328;74.0524673461914
99;1673433773.417641;47.1306416;7.240621099999999;11.903000831604004;1673433773.412751;-6.558688163757324;14.86739444732666;74.27700805664062
100;1673433773.6062655;47.130641399999995;7.2406213;12.304000854492188;1673433773.6023564;-6.978490829467773;14.260797500610352;74.40029907226562
101;1673433773.8392243;47.1306413;7.240621399999999;12.708000183105469;1673433773.8343446;-6.66638708114624;17.087282180786133;73.91889190673828
102;1673433774.032654;47.1306413;7.240621399999999;13.111001014709473;1673433774.0295808;-6.6597185134887695;16.1014461517334;74.05488586425781
103;1673433774.2335858;47.130641399999995;7.2406212;13.509000778198242;1673433774.2306554;-7.035400867462158;14.033564567565918;74.55001831054688
104;1673433774.438675;47.1306416;7.240621099999999;13.898000717163086;1673433774.433794;-6.897653102874756;17.385805130004883;74.12400817871094
105;1673433774.6308613;47.1306417;7.240621;14.28600025177002;1673433774.6269596;-6.781177043914795;18.358078002929688;74.13398742675781
106;1673433774.8252113;47.1306419;7.2406209;14.67400074005127;1673433774.8203425;-7.255688190460205;15.098084449768066;74.46171569824219
107;1673433775.016071;47.130641999999995;7.240620799999999;15.062000274658203;1673433775.0101619;-7.4862470626831055;17.459487915039062;74.3478775024414
108;1673433775.2267382;47.130641999999995;7.2406207;15.453001022338867;1673433775.2218623;-7.0662102699279785;19.37005615234375;73.94789123535156
109;1673433775.4257255;47.130642099999996;7.2406207;15.848000526428223;1673433775.421841;-7.347527980804443;16.410741806030273;74.36788940429688
110;1673433775.6232774;47.130642099999996;7.2406206;16.243000030517578;1673433775.6193361;-7.555991172790527;16.008228302001953;74.51898956298828
111;1673433775.825702;47.1306422;7.2406204999999995;16.635000228881836;1673433775.8208075;-7.076809406280518;19.64509391784668;74.01032257080078
112;1673433776.0664127;47.1306423;7.2406204999999995;17.02400016784668;1673433776.0625086;-6.879724025726318;17.375762939453125;74.26983642578125
113;1673433776.2640858;47.1306423;7.2406206;17.418001174926758;1673433776.2581143;-7.572876930236816;15.294623374938965;74.51644134521484
114;1673433776.442542;47.1306422;7.2406206;17.81300163269043;1673433776.4396243;-7.25702428817749;18.56832504272461;74.0670166015625
115;1673433776.6261063;47.130642099999996;7.2406206;18.21000099182129;1673433776.6220312;-6.921041965484619;17.50835609436035;73.90882110595703
116;1673433776.8230028;47.130641999999995;7.2406204999999995;18.604000091552734;1673433776.817109;-7.324253082275391;14.983967781066895;74.36910247802734
117;1673433777.0234368;47.130642099999996;7.2406204;18.998001098632812;1673433777.019535;-7.478885173797607;16.47688102722168;74.34156036376953
118;1673433777.2154298;47.130642099999996;7.2406204;19.391000747680664;1673433777.2115269;-6.826201915740967;19.263513565063477;73.99917602539062
119;1673433777.4402206;47.1306422;7.2406204;19.77800178527832;1673433777.4363184;-7.069786071777344;15.84435749053955;74.34970092773438
120;1673433777.6418762;47.1306422;7.2406204;20.165000915527344;1673433777.6369855;-7.354037761688232;15.954938888549805;74.38159942626953
121;1673433777.819167;47.130642099999996;7.2406204;20.55500030517578;1673433777.8152626;-7.217368125915527;18.950754165649414;73.99251556396484
122;1673433778.0191882;47.130642099999996;7.2406203;20.950000762939453;1673433778.0152822;-7.1112542152404785;17.629117965698242;74.12786102294922
123;1673433778.214731;47.130642099999996;7.2406201999999995;21.34800148010254;1673433778.2108166;-7.542917251586914;15.07213306427002;74.68762969970703
124;1673433778.4114926;47.1306422;7.2406201999999995;21.748001098632812;1673433778.4075987;-7.516119956970215;17.388668060302734;74.12373352050781
125;1673433778.6347528;47.1306422;7.2406201999999995;22.14000129699707;1673433778.6308196;-6.892942428588867;19.086212158203125;74.00324249267578
126;1673433778.8294358;47.1306423;7.2406201999999995;22.533000946044922;1673433778.8265076;-6.994381427764893;15.54222297668457;74.4041976928711
127;1673433779.034554;47.1306424;7.2406201999999995;22.92500114440918;1673433779.0306633;-7.355157852172852;16.819194793701172;74.30699157714844
128;1673433779.2526112;47.1306423;7.2406201999999995;23.31800079345703;1673433779.2477279;-6.886713981628418;19.19850730895996;73.97787475585938
129;1673433779.4583704;47.1306422;7.2406201999999995;23.716001510620117;1673433779.453489;-6.936848163604736;16.576818466186523;74.23220825195312
130;1673433779.6626832;47.1306422;7.2406201999999995;24.115001678466797;1673433779.6597552;-7.435964107513428;15.389663696289062;74.57147979736328
131;1673433779.861034;47.1306423;7.2406201999999995;24.512001037597656;1673433779.8561583;-7.079217433929443;18.61604881286621;74.02684020996094
132;1673433780.039522;47.1306423;7.2406201999999995;24.906002044677734;1673433780.0356169;-6.57090950012207;18.139368057250977;74.09503936767578
133;1673433780.2242086;47.1306424;7.2406201999999995;25.306001663208008;1673433780.2192998;-7.220940589904785;15.45019245147705;74.36976623535156
134;1673433780.417271;47.1306423;7.2406201999999995;25.705001831054688;1673433780.4123914;-7.327498435974121;17.68242073059082;74.2003173828125
135;1673433780.6078238;47.1306422;7.2406201999999995;26.106000900268555;1673433780.6029446;-6.86402702331543;18.868192672729492;73.93626403808594
136;1673433780.7975068;47.130642099999996;7.2406201999999995;26.505001068115234;1673433780.7925448;-7.297565937042236;15.501708984375;74.3199691772461
137;1673433781.0151808;47.130642099999996;7.2406201999999995;26.9010009765625;1673433781.010284;-7.354537487030029;15.646336555480957;74.41204071044922
138;1673433781.2195182;47.130642099999996;7.2406201;27.293001174926758;1673433781.2165892;-7.050014019012451;19.034025192260742;74.01094818115234
139;1673433781.4290986;47.1306422;7.2406201;27.689001083374023;1673433781.425141;-7.02133846282959;17.602760314941406;74.22016906738281
140;1673433781.6202452;47.1306422;7.2406201;28.084001541137695;1673433781.6163552;-7.459540367126465;15.496223449707031;74.44503784179688
141;1673433781.8237798;47.1306422;7.24062;28.479001998901367;1673433781.8189068;-7.31418514251709;19.005874633789062;74.04435729980469
142;1673433782.0304513;47.130642099999996;7.2406201;28.876001358032227;1673433782.0250254;-6.794402122497559;17.819656372070312;73.97986602783203
143;1673433782.2329288;47.130642099999996;7.24062;29.272001266479492;1673433782.2290194;-7.576664447784424;15.541683197021484;74.48109436035156
144;1673433782.4313846;47.130642099999996;7.24062;29.663002014160156;1673433782.4279168;-7.458827495574951;17.426239013671875;74.26778411865234
145;1673433782.6206641;47.1306422;7.24062;30.053001403808594;1673433782.6167786;-6.993406295776367;19.338991165161133;73.96168518066406
146;1673433782.8130488;47.1306423;7.24062;30.446001052856445;1673433782.8091595;-7.167966365814209;15.398175239562988;74.42284393310547
147;1673433783.0186017;47.1306423;7.2406201;30.838001251220703;1673433783.0156739;-7.534489631652832;16.772985458374023;74.37590789794922
148;1673433783.2267745;47.1306423;7.2406201;31.231000900268555;1673433783.2238355;-6.970271587371826;19.507125854492188;74.02214050292969
149;1673433783.4415727;47.1306422;7.2406201;31.628002166748047;1673433783.4376729;-6.973249435424805;16.666217803955078;74.17047119140625
150;1673433783.6353207;47.1306422;7.2406201;32.025001525878906;1673433783.630368;-7.460323333740234;15.407296180725098;74.38367462158203
151;1673433783.829705;47.1306422;7.2406201999999995;32.42100143432617;1673433783.8258016;-7.099160671234131;18.51538848876953;74.00748443603516
152;1673433784.032065;47.1306422;7.2406201999999995;32.823001861572266;1673433784.02763;-6.7333245277404785;17.30702018737793;74.1319351196289
153;1673433784.2438786;47.1306423;7.2406201999999995;33.224002838134766;1673433784.239977;-7.362632751464844;15.343481063842773;74.3908462524414
154;1673433784.4372556;47.1306424;7.2406201999999995;33.621002197265625;1673433784.4321873;-7.4487528800964355;17.8609676361084;74.32749938964844
155;1673433784.644875;47.1306424;7.2406201999999995;34.0160026550293;1673433784.6409838;-6.722266674041748;18.55528450012207;74.00899505615234
156;1673433784.8541548;47.1306424;7.2406201999999995;34.41100311279297;1673433784.8502502;-7.105808258056641;15.56356143951416;74.3248062133789
157;1673433785.052189;47.1306425;7.2406201999999995;34.807003021240234;1673433785.0471692;-7.3297810554504395;16.97406005859375;74.34534454345703
158;1673433785.246335;47.1306425;7.2406201999999995;35.202003479003906;1673433785.2414682;-6.846456527709961;19.323760986328125;74.03245544433594
159;1673433785.4399402;47.130642599999995;7.2406201999999995;35.604000091552734;1673433785.4350598;-7.042671203613281;16.942827224731445;74.3443603515625
160;1673433785.6307416;47.130642699999996;7.2406201999999995;36.00800323486328;1673433785.6268542;-7.406318664550781;16.054576873779297;74.35010528564453
161;1673433785.8400064;47.130642599999995;7.2406201999999995;36.41100311279297;1673433785.8361027;-7.1642584800720215;19.469745635986328;74.09246063232422
162;1673433786.037983;47.1306425;7.2406201999999995;36.81300354003906;1673433786.0325623;-6.907939434051514;17.25619125366211;74.09783935546875
163;1673433786.2364118;47.1306425;7.2406201999999995;37.21500015258789;1673433786.2305524;-7.333144187927246;15.41211986541748;74.40923309326172
164;1673433786.4539275;47.1306425;7.2406201999999995;37.612003326416016;1673433786.4448798;-7.4065704345703125;17.769865036010742;74.21925354003906
165;1673433786.6724997;47.1306425;7.2406201999999995;38.012001037597656;1673433786.668598;-6.783961296081543;18.67026710510254;73.99229431152344
166;1673433786.8646317;47.1306425;7.2406201999999995;38.415000915527344;1673433786.8607314;-7.143860816955566;15.31544017791748;74.38893127441406
167;1673433787.0632088;47.130642599999995;7.2406201999999995;38.81700134277344;1673433787.059276;-7.256613731384277;17.21285629272461;74.2765121459961
168;1673433787.256822;47.130642599999995;7.2406201999999995;39.21900177001953;1673433787.2497873;-6.998658180236816;19.728374481201172;74.1357421875
169;1673433787.4530065;47.1306425;7.2406201;39.62200164794922;1673433787.4481292;-7.01328706741333;16.38243865966797;74.3215560913086
170;1673433787.6851976;47.130642599999995;7.2406201;40.025001525878906;1673433787.6822686;-7.408082485198975;15.845175743103027;74.38970947265625
171;1673433787.8925946;47.1306425;7.2406201;40.42300033569336;1673433787.889667;-7.008175849914551;19.076595306396484;73.97362518310547
172;1673433788.0639815;47.130642599999995;7.2406201;40.8280029296875;1673433788.06008;-6.8575520515441895;17.716007232666016;74.16160583496094
173;1673433788.2482173;47.130642599999995;7.24062;41.233001708984375;1673433788.2423778;-7.421115398406982;15.421398162841797;74.3957748413086
174;1673433788.4517198;47.130642599999995;7.24062;41.637001037597656;1673433788.445834;-7.151970863342285;18.507213592529297;74.18862915039062
175;1673433788.6402245;47.130642599999995;7.24062;42.03700256347656;1673433788.6357846;-6.912330627441406;18.628173828125;74.07398986816406
176;1673433788.8564692;47.1306425;7.24062;42.432003021240234;1673433788.852565;-7.189424991607666;15.583602905273438;74.37763977050781
177;1673433789.0509067;47.1306425;7.2406201;42.82400131225586;1673433789.0470035;-7.405262470245361;16.902172088623047;74.25167083740234
178;1673433789.2512844;47.1306424;7.2406201;43.22200393676758;1673433789.2473817;-7.084010601043701;19.16874885559082;74.02112579345703
179;1673433789.458303;47.1306424;7.2406201;43.621002197265625;1673433789.4543984;-7.079859256744385;16.22079086303711;74.39775848388672
180;1673433789.6600232;47.1306425;7.24062;44.01900100708008;1673433789.6551342;-7.471830368041992;16.066476821899414;74.29536437988281
181;1673433789.8597317;47.1306425;7.24062;44.41800308227539;1673433789.8548534;-7.158071517944336;19.594194412231445;74.02071380615234
182;1673433790.0637667;47.1306425;7.24062;44.819000244140625;1673433790.058881;-6.983741283416748;16.856962203979492;74.25607299804688
183;1673433790.2648935;47.1306425;7.24062;45.220001220703125;1673433790.260015;-7.496844291687012;15.701562881469727;74.4808120727539
184;1673433790.4416125;47.1306425;7.24062;45.6150016784668;1673433790.4381409;-7.179455757141113;17.833303451538086;74.10388946533203
185;1673433790.6399667;47.1306425;7.24062;46.01400375366211;1673433790.6350927;-6.8433427810668945;18.359905242919922;74.09886932373047
186;1673433790.8529558;47.1306425;7.24062;46.41600036621094;1673433790.8480885;-7.344313144683838;15.069424629211426;74.52076721191406
187;1673433791.051327;47.130642599999995;7.2406198999999996;46.81700134277344;1673433791.0474236;-7.253019332885742;17.6967716217041;74.12913513183594
188;1673433791.2518663;47.130642699999996;7.2406198999999996;47.21600341796875;1673433791.2469878;-6.899465084075928;19.79775619506836;74.10089874267578
189;1673433791.4551332;47.130642599999995;7.2406198999999996;47.6150016784668;1673433791.4512293;-7.178914546966553;15.87243366241455;74.41828155517578
190;1673433791.6513505;47.130642599999995;7.2406198999999996;48.01000213623047;1673433791.6455064;-7.568177700042725;16.284706115722656;74.37120056152344
191;1673433791.8565874;47.1306425;7.2406198999999996;48.371002197265625;1673433791.8517225;-7.025981426239014;20.03144645690918;74.17188262939453
192;1673433792.041573;47.130642599999995;7.2406197;48.68300247192383;1673433792.0376647;-7.351111888885498;16.777204513549805;74.47559356689453
193;1673433792.2511513;47.1306428;7.2406196;48.94700241088867;1673433792.2443724;-7.567210674285889;16.34446144104004;74.40360260009766
194;1673433792.4481716;47.1306429;7.2406194;49.1670036315918;1673433792.4432733;-7.465083122253418;20.13404655456543;73.95762634277344
195;1673433792.6315386;47.1306431;7.2406191;49.34800338745117;1673433792.627631;-3.9099602699279785;19.440505981445312;74.32512664794922
196;1673433792.8455946;47.130643;7.2406184;49.50300216674805;1673433792.842624;16.440561294555664;31.09625816345215;83.41956329345703
197;1673433793.0424743;47.1306417;7.2406156;49.63300323486328;1673433793.0385704;27.701875686645508;44.0431022644043;95.4313735961914
198;1673433793.2552042;47.1306387;7.2406093;49.737003326416016;1673433793.2379694;30.922883987426758;53.594329833984375;103.53076934814453
199;1673433793.4495792;47.1306337;7.240599;49.7920036315918;1673433793.4465318;18.153785705566406;54.17732620239258;110.22885131835938
200;1673433793.6406422;47.1306271;7.2405855;49.82100296020508;1673433793.6367378;2.856461524963379;50.72907638549805;121.17748260498047
201;1673433793.8454623;47.130619499999995;7.2405696;49.84400177001953;1673433793.8429723;-11.81173324584961;50.93703079223633;131.65582275390625
202;1673433794.053746;47.1306107;7.240551399999999;49.855003356933594;1673433794.0488791;-29.08537483215332;49.52696990966797;141.47499084472656
203;1673433794.2464354;47.1306004;7.2405314;49.85900115966797;1673433794.2418194;-42.120628356933594;43.815067291259766;155.0420684814453
204;1673433794.4506903;47.1305889;7.240509299999999;49.83400344848633;1673433794.4467833;-49.58175277709961;37.300418853759766;168.78944396972656
205;1673433794.6445723;47.1305763;7.240485499999999;49.7650032043457;1673433794.6416206;-45.11066436767578;25.244081497192383;177.5500946044922
206;1673433794.8523111;47.1305632;7.2404608999999995;49.68600082397461;1673433794.8474243;-43.27415466308594;19.177255630493164;-178.35606384277344
207;1673433795.0624273;47.130549699999996;7.240435799999999;49.62900161743164;1673433795.0575478;-46.409793853759766;13.6820707321167;-170.59051513671875
208;1673433795.2560325;47.130536;7.2404106;49.56800079345703;1673433795.2514045;-43.9856071472168;6.64777135848999;-168.4058380126953
209;1673433795.469248;47.130522299999996;7.240386;49.47300338745117;1673433795.4643707;-26.230045318603516;4.406372547149658;177.88153076171875
210;1673433795.6657112;47.130509499999995;7.240363299999999;49.3650016784668;1673433795.6602278;-17.0119571685791;3.793252944946289;163.5466766357422
211;1673433795.8609273;47.130497899999995;7.2403422;49.2920036315918;1673433795.85605;-20.493886947631836;10.629495620727539;149.6614227294922
212;1673433796.063533;47.130486999999995;7.2403229;49.316001892089844;1673433796.0586557;-33.46751022338867;20.548471450805664;138.19052124023438
213;1673433796.2579978;47.1304756;7.2403055;49.38900375366211;1673433796.2531152;-37.92380142211914;42.53086853027344;126.29032897949219
214;1673433796.4555826;47.1304629;7.2402893;49.47700119018555;1673433796.4487147;-32.810035705566406;46.60109329223633;124.63420867919922
215;1673433796.6387677;47.130448799999996;7.2402736999999995;49.564002990722656;1673433796.6348302;-34.14822769165039;42.89019775390625;127.69918060302734
216;1673433796.8614774;47.1304338;7.2402587;49.650001525878906;1673433796.856491;-37.90869140625;41.0378532409668;131.75579833984375
217;1673433797.0560448;47.1304178;7.2402441;49.73100280761719;1673433797.053117;-44.17921829223633;32.28838348388672;136.202880859375
218;1673433797.2513256;47.130401299999996;7.240230899999999;49.794002532958984;1673433797.2474246;-37.94873046875;-1.9210149049758911;137.04005432128906
219;1673433797.4502277;47.130386099999996;7.240221;49.86300277709961;1673433797.4436405;-32.37517547607422;-29.214298248291016;134.59335327148438
220;1673433797.6607819;47.130373899999995;7.240215;49.887001037597656;1673433797.6559012;-22.621301651000977;-41.733421325683594;136.74839782714844
221;1673433797.8749878;47.1303647;7.2402117;49.83000183105469;1673433797.8710842;-4.019305229187012;-16.283275604248047;141.94007873535156
222;1673433798.0856397;47.130358099999995;7.2402095;49.785003662109375;1673433798.0817287;6.7562255859375;-14.439239501953125;165.5000762939453
223;1673433798.288653;47.1303542;7.240208;49.78300094604492;1673433798.2847495;6.107991695404053;-19.449146270751953;177.0015411376953
224;1673433798.4869905;47.1303519;7.2402071999999995;49.82500076293945;1673433798.482001;-28.658287048339844;9.226835250854492;178.8214111328125
225;1673433798.687333;47.1303494;7.240204599999999;49.85700225830078;1673433798.6814864;-47.9393424987793;28.909067153930664;-174.59877014160156
226;1673433798.9303231;47.130345999999996;7.2401976999999995;49.87900161743164;1673433798.9254453;-46.67044448852539;23.219982147216797;-158.34909057617188
227;1673433799.1098154;47.130342;7.240186899999999;49.90700149536133;1673433799.106886;-43.31419372558594;14.387811660766602;-147.90017700195312
228;1673433799.2842202;47.130337399999995;7.240172599999999;49.94700241088867;1673433799.2803164;-48.55272674560547;3.532299757003784;-140.4141845703125
229;1673433799.4556494;47.1303318;7.240155199999999;50.012001037597656;1673433799.4507537;-53.315650939941406;-8.199698448181152;-132.9649658203125
230;1673433799.6394253;47.130324699999996;7.2401355;50.090003967285156;1673433799.6364536;-58.50103759765625;-19.351903915405273;-132.15403747558594
231;1673433799.8554478;47.1303153;7.2401143;50.13600158691406;1673433799.8515286;-58.56764602661133;-18.42123031616211;-137.11167907714844
232;1673433800.0600393;47.130303999999995;7.2400926;50.14900207519531;1673433800.0560985;-55.66597366333008;-17.18375015258789;-141.9951629638672
233;1673433800.2626302;47.1302911;7.2400708;50.1400032043457;1673433800.2572086;-50.97563934326172;-8.725064277648926;-154.1446075439453
234;1673433800.4554663;47.130277199999995;7.240049699999999;50.121002197265625;1673433800.4515631;-50.55853271484375;-2.474713087081909;-162.94439697265625
235;1673433800.650528;47.130262599999995;7.2400291;50.09400177001953;1673433800.6456635;-48.13951873779297;4.321035861968994;-172.2601318359375
236;1673433800.8549697;47.130247499999996;7.240009199999999;50.06200408935547;1673433800.8510628;-45.1744384765625;11.174736022949219;178.61688232421875
237;1673433801.053927;47.1302321;7.2399898;50.02300262451172;1673433801.0500233;-41.37648010253906;16.682594299316406;169.96099853515625
238;1673433801.2542346;47.1302167;7.2399708;49.98200225830078;1673433801.2503178;-35.24342727661133;20.576339721679688;160.93226623535156
239;1673433801.4565904;47.1302015;7.2399524;49.941001892089844;1673433801.4516964;-30.34906578063965;23.321910858154297;151.1994171142578
240;1673433801.6521251;47.130186699999996;7.2399347999999994;49.90400314331055;1673433801.6491935;-26.30370330810547;27.553993225097656;140.02622985839844
241;1673433801.8544269;47.130171999999995;7.2399179;49.90200424194336;1673433801.8495471;-25.795047760009766;35.511077880859375;128.84840393066406
242;1673433802.0703852;47.1301573;7.239901799999999;49.93300247192383;1673433802.0645213;-28.89395523071289;43.93558883666992;121.10501098632812
243;1673433802.271507;47.130142;7.2398864;49.93700408935547;1673433802.2666204;-26.624221801757812;38.30149841308594;132.71644592285156
244;1673433802.4640803;47.1301266;7.239871;49.94700241088867;1673433802.4596434;-35.218692779541016;29.396804809570312;149.68368530273438
245;1673433802.6643791;47.1301109;7.239855599999999;49.99400329589844;1673433802.660908;-46.9613151550293;20.82269859313965;167.11940002441406
246;1673433802.8713188;47.130094799999995;7.23984;50.0410041809082;1673433802.8674073;-48.35430145263672;14.909409523010254;176.63865661621094
247;1673433803.0491474;47.1300782;7.239824;50.08400344848633;1673433803.045226;-53.168209075927734;21.382532119750977;-179.67173767089844
248;1673433803.263242;47.1300613;7.239806499999999;50.082000732421875;1673433803.2585235;-53.816043853759766;21.95027732849121;-169.61593627929688
249;1673433803.4716933;47.130044399999996;7.2397871;50.0410041809082;1673433803.4676414;-42.526336669921875;19.182435989379883;-157.6595916748047
250;1673433803.677505;47.1300284;7.2397659999999995;49.980003356933594;1673433803.6736002;-36.37975311279297;13.139789581298828;-150.3125457763672
251;1673433803.8798182;47.1300135;7.2397439;49.93000411987305;1673433803.8648975;-36.8737907409668;6.269457817077637;-143.07199096679688
252;1673433804.1190226;47.1299997;7.2397208;49.90500259399414;1673433804.1141558;-40.220008850097656;-1.6499027013778687;-134.47573852539062
253;1673433804.3585677;47.1299864;7.2396968;49.91200256347656;1673433804.3449087;-48.460391998291016;-10.555628776550293;-131.7303466796875
254;1673433804.5506716;47.1299729;7.239672;49.939002990722656;1673433804.5467646;-51.740135192871094;-14.118435859680176;-136.16539001464844
255;1673433804.7185802;47.129958599999995;7.2396471;49.961002349853516;1673433804.712725;-51.5292854309082;-16.530147552490234;-138.5341339111328
256;1673433804.9089546;47.129943499999996;7.2396224;49.96900177001953;1673433804.9050364;-49.14038848876953;-14.980857849121094;-140.0247344970703
257;1673433805.111445;47.129928;7.239598;49.98100280761719;1673433805.1065643;-47.907005310058594;-11.348270416259766;-141.0928192138672
258;1673433805.301582;47.1299122;7.2395738;49.9900016784668;1673433805.2976367;-49.007965087890625;-10.844523429870605;-141.15792846679688
259;1673433805.4829137;47.129895999999995;7.239549599999999;49.99100112915039;1673433805.47901;-48.774253845214844;-10.726557731628418;-141.1808624267578
260;1673433805.6793349;47.1298797;7.2395255999999995;49.98800277709961;1673433805.6734803;-46.68211364746094;-10.345640182495117;-141.13516235351562
261;1673433805.9004517;47.1298634;7.239501799999999;49.98200225830078;1673433805.8975232;-45.99383544921875;-10.462271690368652;-140.832763671875
262;1673433806.1039898;47.129847;7.2394783;49.98100280761719;1673433806.0991144;-46.436546325683594;-10.64135456085205;-140.69139099121094
263;1673433806.2902656;47.1298306;7.2394547;49.983001708984375;1673433806.2853866;-46.685211181640625;-10.816388130187988;-140.68124389648438
264;1673433806.4744449;47.1298141;7.239431199999999;49.98400115966797;1673433806.468589;-46.8493766784668;-10.905847549438477;-140.6847381591797
265;1673433806.6677105;47.129797599999996;7.2394077999999995;49.98400115966797;1673433806.663766;-46.56919479370117;-10.87773323059082;-140.6621551513672
266;1673433806.874721;47.129781099999995;7.2393845;49.98400115966797;1673433806.8698466;-46.21347427368164;-10.841285705566406;-140.63710021972656
267;1673433807.092814;47.129764599999994;7.239361199999999;49.98500061035156;1673433807.0879333;-46.401153564453125;-10.900665283203125;-140.5973358154297
268;1673433807.2963235;47.129748;7.2393382;49.98200225830078;1673433807.2914443;-46.50861740112305;-10.800418853759766;-140.63278198242188
269;1673433807.509187;47.1297315;7.2393151;49.97500228881836;1673433807.5052836;-46.04815673828125;-10.705201148986816;-140.66331481933594
270;1673433807.6852534;47.129715;7.239292;49.96900177001953;1673433807.681337;-45.737213134765625;-10.967559814453125;-140.73117065429688
271;1673433807.8721468;47.129698399999995;7.2392691;49.97200393676758;1673433807.8686364;-47.19615936279297;-14.543831825256348;-144.9615020751953
272;1673433808.0532458;47.1296817;7.2392468999999995;49.967002868652344;1673433808.0492473;-46.21537399291992;-8.008109092712402;-157.27711486816406
273;1673433808.2604513;47.1296648;7.2392254;49.958003997802734;1673433808.256546;-45.28825759887695;2.8954551219940186;-160.95687866210938
274;1673433808.4689295;47.1296482;7.239204099999999;49.93000411987305;1673433808.4640517;-38.06332778930664;0.9935940504074097;-146.36627197265625
275;1673433808.6910002;47.1296324;7.2391825999999995;49.90700149536133;1673433808.6880708;-38.22683334350586;-4.530542850494385;-136.21800231933594
276;1673433808.915382;47.1296172;7.239160399999999;49.92100143432617;1673433808.910523;-49.02674865722656;-6.800773620605469;-138.32562255859375
277;1673433809.1568673;47.129602;7.2391375;49.94900131225586;1673433809.154916;-50.782413482666016;-8.892655372619629;-140.40158081054688
278;1673433809.336585;47.129586499999995;7.2391141;49.97300338745117;1673433809.332583;-49.67832565307617;-13.55975341796875;-141.40676879882812
279;1673433809.5514138;47.1295705;7.2390909;49.97700119018555;1673433809.5465224;-47.56595230102539;-13.694101333618164;-149.8199920654297
280;1673433809.7232344;47.129554299999995;7.2390687;49.965003967285156;1673433809.7193308;-43.48066711425781;-5.79643440246582;-161.26126098632812
281;1673433809.90816;47.129537899999995;7.2390476999999995;49.95600128173828;1673433809.9042473;-43.28390884399414;0.6701133251190186;-169.78387451171875
282;1673433810.1041253;47.1295217;7.2390276;49.954002380371094;1673433810.1002355;-42.48821258544922;6.943150997161865;-178.69766235351562
283;1673433810.297743;47.1295054;7.2390080999999995;49.9640007019043;1673433810.2938375;-44.896995544433594;18.125591278076172;177.239990234375
284;1673433810.4764078;47.1294891;7.238988399999999;49.96800231933594;1673433810.470754;-47.86624526977539;17.173622131347656;-168.18807983398438
285;1673433810.6886077;47.129472899999996;7.2389676;49.967002868652344;1673433810.6847095;-45.97740173339844;9.200859069824219;-154.54359436035156
286;1673433810.884991;47.129457099999996;7.2389456999999995;49.95900344848633;1673433810.878082;-44.372222900390625;3.29071307182312;-145.6299591064453
287;1673433811.0742533;47.129441899999996;7.2389228999999995;49.95000076293945;1673433811.0703487;-42.11609649658203;-3.1201319694519043;-137.22073364257812
288;1673433811.2766006;47.1294271;7.2388995;49.9630012512207;1673433811.2706861;-45.81544876098633;-11.282160758972168;-135.88075256347656
289;1673433811.4872267;47.129412099999996;7.2388756999999995;49.98500061035156;1673433811.483329;-52.120018005371094;-13.906121253967285;-140.3805389404297
290;1673433811.6827922;47.1293965;7.238851899999999;50.00400161743164;1673433811.6779132;-50.63066864013672;-17.382591247558594;-145.8539276123047
291;1673433811.8830788;47.1293802;7.2388292;50.000003814697266;1673433811.8782003;-44.81816864013672;-10.564784049987793;-158.64227294921875
292;1673433812.07932;47.1293639;7.2388078;49.98100280761719;1673433812.0743027;-41.12480926513672;-5.648216724395752;-167.63792419433594
293;1673433812.27479;47.129347599999996;7.238788;49.96200180053711;1673433812.2708864;-39.488922119140625;0.42085716128349304;-176.80950927734375
294;1673433812.477096;47.1293316;7.2387695999999995;49.957000732421875;1673433812.4736204;-42.81297302246094;9.842975616455078;175.70596313476562
295;1673433812.6762595;47.1293155;7.238751799999999;49.97800064086914;1673433812.6713774;-48.858253479003906;14.924882888793945;-175.6808624267578
296;1673433812.887158;47.1292991;7.2387334;49.99800109863281;1673433812.8832364;-50.611061096191406;3.286552906036377;-159.2395477294922
297;1673433813.10996;47.129282499999995;7.2387144;50.01100158691406;1673433813.105099;-49.5111198425293;-7.845088958740234;-149.3780517578125
298;1673433813.315592;47.1292657;7.2386953;50.018001556396484;1673433813.312703;-44.46003341674805;-19.251876831054688;-141.72119140625
299;1673433813.5359306;47.1292486;7.2386767999999995;50.040000915527344;1673433813.5290978;-37.3041877746582;-25.295425415039062;-142.97869873046875
300;1673433813.7060738;47.1292317;7.2386598;50.07600402832031;1673433813.7021706;-23.2937068939209;-21.275596618652344;-145.23744201660156
301;1673433813.893607;47.129215699999996;7.2386444999999995;50.10600280761719;1673433813.889696;-7.809462070465088;-18.844558715820312;-142.7722625732422
302;1673433814.0962167;47.1292014;7.238631;50.121002197265625;1673433814.0922997;5.260632038116455;-14.15573501586914;-139.49105834960938
303;1673433814.3182006;47.129189499999995;7.238619399999999;50.124000549316406;1673433814.315184;12.582201957702637;-10.586882591247559;-137.66452026367188
304;1673433814.511704;47.1291801;7.238609599999999;50.125003814697266;1673433814.5068417;15.8637056350708;-5.623917102813721;-137.77410888671875
305;1673433814.6957302;47.1291732;7.2386015;50.125003814697266;1673433814.689876;12.634851455688477;-8.517592430114746;-136.797607421875
306;1673433814.8844275;47.1291684;7.2385947999999996;50.125003814697266;1673433814.8785472;8.831347465515137;-15.47750473022461;-134.88829040527344
307;1673433815.0867784;47.129165099999994;7.2385896999999995;50.12700271606445;1673433815.0828726;3.119845151901245;-16.72565269470215;-134.7854766845703
308;1673433815.2787507;47.1291629;7.238585499999999;50.134002685546875;1673433815.274831;-2.9768335819244385;-18.39987564086914;-136.50088500976562
309;1673433815.5020056;47.1291612;7.2385817999999995;50.14400100708008;1673433815.4971278;-6.736473083496094;-21.83518409729004;-139.282470703125
310;1673433815.6897733;47.1291598;7.238578599999999;50.15400314331055;1673433815.6868606;-10.647717475891113;-22.12437629699707;-142.2525177001953
311;1673433815.8793044;47.129158399999994;7.2385756;50.16400146484375;1673433815.8764043;-16.58600425720215;-20.35668182373047;-143.39048767089844
312;1673433816.082591;47.1291563;7.2385722999999995;50.22700119018555;1673433816.0776982;-37.31977462768555;-15.40361213684082;-136.1492462158203
313;1673433816.283991;47.1291527;7.2385671;50.36000061035156;1673433816.279093;-43.749446868896484;-16.425437927246094;-135.01112365722656
314;1673433816.4996696;47.1291472;7.238559599999999;50.5410041809082;1673433816.4957645;-36.228904724121094;-12.222786903381348;-138.96371459960938
315;1673433816.6914437;47.129140799999995;7.2385509;50.768001556396484;1673433816.6875277;-27.88165283203125;-5.279387950897217;-140.01181030273438
316;1673433816.8942657;47.1291344;7.238541199999999;51.066001892089844;1673433816.890342;-19.209136962890625;-7.223752021789551;-138.94960021972656
317;1673433817.098755;47.1291279;7.2385307999999995;51.426002502441406;1673433817.0948503;-38.446346282958984;-22.058719635009766;-136.84280395507812
318;1673433817.342739;47.129120199999996;7.2385198;51.82100296020508;1673433817.3378704;-44.240787506103516;-21.955890655517578;-138.85133361816406
319;1673433817.564814;47.129110999999995;7.2385082999999995;52.20100402832031;1673433817.56091;-39.26009750366211;-18.28904914855957;-139.59814453125
320;1673433817.7710636;47.129101;7.2384962999999996;52.570003509521484;1673433817.7651148;-37.567569732666016;-17.46839714050293;-138.27926635742188
321;1673433818.0040884;47.1290905;7.238484;52.941001892089844;1673433818.001178;-35.2723503112793;-15.012582778930664;-138.1440887451172
322;1673433818.1899025;47.1290797;7.238471199999999;53.316001892089844;1673433818.1859627;-32.72869873046875;-14.254922866821289;-137.4282989501953
323;1673433818.374572;47.1290688;7.2384581;53.69000244140625;1673433818.3696876;-31.142215728759766;-13.278677940368652;-137.0885467529297
324;1673433818.5874827;47.129058099999995;7.2384447;54.06500244140625;1673433818.5835788;-29.680328369140625;-13.11847972869873;-136.8678436279297
325;1673433818.761563;47.1290476;7.238430999999999;54.44600296020508;1673433818.7586517;-28.538021087646484;-13.274404525756836;-136.78944396972656
326;1673433818.919607;47.1290373;7.2384173;54.83100128173828;1673433818.9157047;-28.138885498046875;-13.791068077087402;-136.7289581298828
327;1673433819.0968006;47.1290274;7.2384036;55.21400451660156;1673433819.0919206;-28.261978149414062;-14.650903701782227;-136.67535400390625
328;1673433819.2931666;47.1290176;7.238389799999999;55.603004455566406;1673433819.2877543;-28.55653190612793;-15.243528366088867;-136.69398498535156
329;1673433819.4905999;47.1290079;7.238376199999999;55.993003845214844;1673433819.4861622;-29.078397750854492;-15.69742488861084;-136.7629852294922
330;1673433819.694529;47.1289983;7.238362599999999;56.38600158691406;1673433819.6896179;-29.628610610961914;-15.939558982849121;-136.80831909179688
331;1673433819.9627724;47.1289887;7.2383491;56.781002044677734;1673433819.9578948;-30.169097900390625;-15.963539123535156;-136.88148498535156
332;1673433820.1519785;47.128979;7.2383356999999995;57.17500305175781;1673433820.1480787;-30.480201721191406;-15.881988525390625;-136.91136169433594
333;1673433820.3410823;47.1289693;7.2383223;57.570003509521484;1673433820.3361104;-30.948165893554688;-15.915459632873535;-136.8944854736328
334;1673433820.5156837;47.1289595;7.2383087999999995;57.96900177001953;1673433820.5117936;-30.930387496948242;-15.791354179382324;-136.91082763671875
335;1673433820.710143;47.1289497;7.2382953;58.36900329589844;1673433820.7062404;-30.928665161132812;-15.828300476074219;-136.90199279785156
336;1673433820.902688;47.1289398;7.238281799999999;58.76700210571289;1673433820.89781;-30.891414642333984;-15.76279354095459;-136.9019012451172
337;1673433821.1121778;47.128929899999996;7.2382681;59.1660041809082;1673433821.1082363;-30.719423294067383;-15.55044937133789;-136.970703125
338;1673433821.3180876;47.1289199;7.2382544;59.564002990722656;1673433821.313177;-30.440959930419922;-15.626396179199219;-136.97605895996094
339;1673433821.5109377;47.1289099;7.2382408;59.961002349853516;1673433821.507042;-30.336225509643555;-15.483915328979492;-137.00819396972656
340;1673433821.7153487;47.128899999999994;7.2382272;60.35600280761719;1673433821.7095091;-30.383678436279297;-15.440568923950195;-136.9497528076172
341;1673433821.9217587;47.1288901;7.2382135;60.75400161743164;1673433821.9178405;-30.215627670288086;-15.60610580444336;-136.9202117919922
342;1673433822.1102877;47.1288802;7.2381999;61.15700149536133;1673433822.1063528;-30.38511848449707;-15.75366497039795;-136.869873046875
343;1673433822.3172994;47.128870199999994;7.2381861999999995;61.55900192260742;1673433822.3133645;-30.20785140991211;-15.759296417236328;-136.86497497558594
344;1673433822.5320554;47.1288603;7.2381725999999995;61.96000289916992;1673433822.5271711;-30.21494483947754;-15.656476020812988;-136.88885498046875
345;1673433822.7375984;47.1288504;7.238159;62.358001708984375;1673433822.7327201;-30.257408142089844;-15.637304306030273;-136.9020538330078
346;1673433822.933816;47.128840499999995;7.2381455;62.75300216674805;1673433822.9299135;-30.4539737701416;-15.434529304504395;-136.97377014160156
347;1673433823.138975;47.1288306;7.2381319;63.151004791259766;1673433823.1350832;-30.429031372070312;-15.313681602478027;-136.97772216796875
348;1673433823.326596;47.1288207;7.2381182;63.54900360107422;1673433823.321602;-30.456111907958984;-15.384051322937012;-136.9600372314453
349;1673433823.5200403;47.1288108;7.2381046;63.94900131225586;1673433823.5160418;-30.587778091430664;-15.474666595458984;-136.92881774902344
350;1673433823.7469153;47.128800899999995;7.238091;64.34500122070312;1673433823.7420335;-30.44135284423828;-15.742210388183594;-136.8541717529297
351;1673433823.9331574;47.128791;7.2380774;64.73900604248047;1673433823.927301;-30.609682083129883;-15.74848747253418;-136.8665771484375
352;1673433824.1397452;47.1287811;7.238063899999999;65.13300323486328;1673433824.1347113;-30.57833480834961;-15.729225158691406;-136.85891723632812
353;1673433824.3642607;47.1287713;7.238050299999999;65.5270004272461;1673433824.3603556;-30.77470588684082;-15.388760566711426;-136.93008422851562
354;1673433824.5712209;47.128761399999995;7.238036699999999;65.92200469970703;1673433824.567317;-30.617795944213867;-15.350617408752441;-136.9832000732422
355;1673433824.7520974;47.1287515;7.238023;66.31800079345703;1673433824.7491698;-30.61302947998047;-15.23875904083252;-137.021728515625
356;1673433824.923033;47.1287415;7.2380093;66.71700286865234;1673433824.9191298;-30.55805206298828;-15.359917640686035;-136.94009399414062
357;1673433825.1226528;47.128731599999995;7.2379956;67.11400604248047;1673433825.1177757;-30.571712493896484;-15.500242233276367;-136.939208984375
358;1673433825.3194933;47.1287218;7.237981899999999;67.51000213623047;1673433825.3155854;-30.50457191467285;-15.842734336853027;-136.87078857421875
359;1673433825.5186415;47.1287119;7.2379682999999995;67.9070053100586;1673433825.5147514;-30.578411102294922;-15.752015113830566;-136.8677520751953
360;1673433825.713351;47.128702;7.237954599999999;68.30900573730469;1673433825.7094436;-30.643352508544922;-15.74092960357666;-136.92015075683594
361;1673433825.9229043;47.128692099999995;7.237940999999999;68.70899963378906;1673433825.9190018;-30.562307357788086;-15.489059448242188;-136.9617919921875
362;1673433826.1054912;47.1286822;7.2379273;69.10600280761719;1673433826.1015844;-30.746095657348633;-15.563802719116211;-136.9663848876953
363;1673433826.2955105;47.1286723;7.2379136;69.4990005493164;1673433826.2902963;-30.570415496826172;-15.506067276000977;-137.02615356445312
364;1673433826.4858124;47.128662299999995;7.2378998999999995;69.88899993896484;1673433826.4819028;-30.529754638671875;-15.629268646240234;-136.94508361816406
365;1673433826.6853573;47.1286524;7.237886199999999;70.2800064086914;1673433826.6814547;-30.591779708862305;-15.686559677124023;-136.94261169433594
366;1673433826.8904998;47.1286425;7.237872599999999;70.66900634765625;1673433826.8866084;-30.552936553955078;-15.5921630859375;-136.90501403808594
367;1673433827.0977867;47.128632599999996;7.2378589;71.06000518798828;1673433827.092907;-30.64077377319336;-15.827374458312988;-136.86993408203125
368;1673433827.3010094;47.1286226;7.2378453;71.4520034790039;1673433827.2961304;-30.49476432800293;-15.722883224487305;-136.90066528320312
369;1673433827.5120757;47.1286127;7.2378316;71.84500122070312;1673433827.5062516;-30.525287628173828;-15.620952606201172;-136.9520721435547
370;1673433827.7195363;47.128602699999995;7.237818;72.23800659179688;1673433827.7127047;-30.422698974609375;-15.463774681091309;-136.97947692871094
371;1673433827.9378495;47.1285928;7.2378043;72.63500213623047;1673433827.9329703;-30.38620948791504;-15.453827857971191;-136.9817657470703
372;1673433828.1047568;47.1285828;7.2377908;73.03300476074219;1673433828.101281;-30.55318260192871;-15.231609344482422;-136.98936462402344
373;1673433828.3130271;47.128572899999995;7.2377771;73.4330062866211;1673433828.307167;-30.615495681762695;-15.49641227722168;-136.9112091064453
374;1673433828.5188851;47.128563;7.2377635;73.83200073242188;1673433828.5140054;-30.295663833618164;-15.602168083190918;-136.91607666015625
375;1673433828.7203124;47.128553;7.2377498;74.22900390625;1673433828.714441;-30.531776428222656;-15.71435546875;-136.8744354248047
376;1673433828.9260416;47.128543099999995;7.2377362;74.62600708007812;1673433828.9201694;-30.558509826660156;-15.778770446777344;-136.89395141601562
377;1673433829.118607;47.1285332;7.237722499999999;75.0260009765625;1673433829.1137152;-30.409893035888672;-15.597222328186035;-136.95492553710938
378;1673433829.3166852;47.1285233;7.2377088;75.42400360107422;1673433829.31028;-30.613868713378906;-15.534929275512695;-136.95510864257812
379;1673433829.5184906;47.128513399999996;7.2376952;75.82000732421875;1673433829.5136247;-30.40313148498535;-15.312277793884277;-137.0044708251953
380;1673433829.7612119;47.1285034;7.237681599999999;76.21800231933594;1673433829.7573116;-30.55236053466797;-15.35986042022705;-136.95616149902344
381;1673433829.9542365;47.1284935;7.237667999999999;76.61500549316406;1673433829.9483826;-30.572816848754883;-15.51940631866455;-136.97042846679688
382;1673433830.1631026;47.128483499999994;7.237654399999999;77.01399993896484;1673433830.1591973;-30.523160934448242;-15.658313751220703;-136.90614318847656
383;1673433830.4067287;47.1284736;7.2376407;77.41500091552734;1673433830.4028108;-30.454513549804688;-15.828190803527832;-136.85462951660156
384;1673433830.5807521;47.128463599999996;7.2376271;77.81600189208984;1673433830.5778232;-30.39830780029297;-15.740144729614258;-136.90509033203125
385;1673433830.7849202;47.128453699999994;7.237613499999999;78.21300506591797;1673433830.7819908;-30.5483341217041;-15.740937232971191;-136.89590454101562
386;1673433830.987878;47.1284438;7.237599899999999;78.60800170898438;1673433830.9839647;-30.525157928466797;-15.579134941101074;-136.93951416015625
387;1673433831.2172601;47.128433799999996;7.237586299999999;79.00200653076172;1673433831.2143335;-30.56591033935547;-15.470399856567383;-136.96011352539062
388;1673433831.3975034;47.1284239;7.2375726;79.4000015258789;1673433831.393561;-30.385833740234375;-15.56220817565918;-136.94229125976562
389;1673433831.5722294;47.1284139;7.237559;79.8010025024414;1673433831.569127;-30.557645797729492;-15.34952449798584;-137.01406860351562
390;1673433831.751196;47.128403899999995;7.237545399999999;80.19900512695312;1673433831.7472901;-30.374441146850586;-15.4717435836792;-136.9781036376953
391;1673433831.9473546;47.1283939;7.237531799999999;80.59400177001953;1673433831.9434512;-30.37837791442871;-15.617984771728516;-136.94447326660156
392;1673433832.1379733;47.128384;7.237518199999999;80.99100494384766;1673433832.1340687;-30.481220245361328;-15.693197250366211;-136.89222717285156
393;1673433832.3352442;47.128374;7.237504599999999;81.38800048828125;1673433832.3313403;-30.485816955566406;-15.934111595153809;-136.8415985107422
394;1673433832.545693;47.128364;7.2374911;81.78400421142578;1673433832.5398629;-30.530193328857422;-15.697543144226074;-136.86416625976562
395;1673433832.7560945;47.128354099999996;7.2374776;82.1780014038086;1673433832.7520635;-30.40102767944336;-15.666060447692871;-136.88986206054688
396;1673433832.961833;47.128344;7.2374640999999995;82.57200622558594;1673433832.9589148;-30.413700103759766;-15.403928756713867;-136.88633728027344
397;1673433833.151488;47.128333999999995;7.2374506;82.96800231933594;1673433833.147584;-30.491506576538086;-15.27708625793457;-136.88693237304688
398;1673433833.3452127;47.1283241;7.237437;83.36600494384766;1673433833.3422852;-30.489246368408203;-15.333527565002441;-136.87779235839844
399;1673433833.5226943;47.1283141;7.2374234;83.76700592041016;1673433833.5178142;-30.47611427307129;-15.308457374572754;-136.91616821289062
400;1673433833.7399912;47.1283041;7.2374098;84.16700744628906;1673433833.7359385;-30.386051177978516;-15.273956298828125;-136.89454650878906
401;1673433833.9154212;47.1282941;7.2373961;84.56700134277344;1673433833.9105008;-30.3469181060791;-15.319069862365723;-136.88075256347656
402;1673433834.1217768;47.128284099999995;7.2373825;84.97000122070312;1673433834.1188488;-30.294811248779297;-15.321636199951172;-136.8857421875
403;1673433834.3124878;47.1282741;7.2373688;85.37100219726562;1673433834.3056557;-30.275074005126953;-15.522903442382812;-136.8662567138672
404;1673433834.5349615;47.1282642;7.237355099999999;85.77200317382812;1673433834.531056;-30.17534637451172;-15.523880004882812;-136.88063049316406
405;1673433834.7412388;47.128254299999995;7.237341499999999;86.17100524902344;1673433834.734269;-30.2632999420166;-15.738144874572754;-136.83193969726562
406;1673433834.9549634;47.1282445;7.2373278999999995;86.56800079345703;1673433834.9491134;-30.35736846923828;-15.815059661865234;-136.85194396972656
407;1673433835.1632745;47.1282345;7.2373142999999995;86.96600341796875;1673433835.160317;-30.35149383544922;-15.575443267822266;-136.88783264160156
408;1673433835.347121;47.128224599999996;7.2373007;87.36500549316406;1673433835.343102;-30.433183670043945;-15.51644515991211;-136.88058471679688
409;1673433835.519539;47.1282147;7.2372871;87.76300048828125;1673433835.5155814;-30.53407859802246;-15.4373779296875;-136.90423583984375
410;1673433835.7247877;47.1282048;7.2372735;88.16000366210938;1673433835.7189298;-30.377086639404297;-15.474298477172852;-136.90243530273438
411;1673433835.9178104;47.1281949;7.2372599;88.5580062866211;1673433835.9158595;-30.499839782714844;-15.509074211120605;-136.87559509277344
412;1673433836.1267664;47.1281849;7.2372461999999995;88.95600128173828;1673433836.1214638;-30.416330337524414;-15.655561447143555;-136.8627166748047
413;1673433836.3345437;47.128175;7.2372326;89.35400390625;1673433836.33064;-30.324214935302734;-15.448797225952148;-136.88185119628906
414;1673433836.550194;47.128164999999996;7.237219;89.75300598144531;1673433836.5462954;-30.44647216796875;-15.51209831237793;-136.8461151123047
415;1673433836.758787;47.128155;7.2372054;90.15400695800781;1673433836.754873;-30.275562286376953;-15.479854583740234;-136.85911560058594
416;1673433836.9744473;47.1281451;7.2371916999999995;90.55400085449219;1673433836.9705412;-30.286922454833984;-15.576394081115723;-136.83932495117188
417;1673433837.1589801;47.128135199999996;7.237178;90.9530029296875;1673433837.154102;-30.39925193786621;-15.462003707885742;-136.83560180664062
