;pos_time;latitude;longitude;altitude;alt_time;pitch;roll;yaw
0;1673434078.1398916;47.1306423;7.240619799999999;-0.05000000074505806;1673434078.2205799;-0.5265689492225647;-0.07297243922948837;90.84477996826172
1;1673434078.3460517;47.1306423;7.240619799999999;-0.05000000074505806;1673434078.4430764;-0.38466498255729675;-0.5514068603515625;90.80692291259766
2;1673434078.550813;47.1306423;7.2406198999999996;-0.05000000074505806;1673434078.641466;-0.19326139986515045;-0.5432819724082947;90.82769012451172
3;1673434078.7482257;47.1306423;7.24062;-0.05000000074505806;1673434078.829593;-0.4108358323574066;-0.6501922607421875;90.71174621582031
4;1673434078.92956;47.1306423;7.2406198999999996;-0.046000003814697266;1673434079.0314786;-0.5660109519958496;-0.4069637656211853;90.93248748779297
5;1673434079.1675758;47.1306424;7.2406198999999996;-0.04400000348687172;1673434079.232498;-0.3818434774875641;-0.5774853229522705;90.93833923339844
6;1673434079.3527608;47.1306424;7.24062;-0.04100000113248825;1673434079.4241483;-0.5037757158279419;-0.3991222083568573;90.84829711914062
7;1673434079.5466793;47.1306425;7.24062;-0.04100000113248825;1673434079.6311867;-0.4711701273918152;-0.510159969329834;90.8288345336914
8;1673434079.747693;47.1306425;7.24062;-0.04200000315904617;1673434079.833911;-0.5821746587753296;-0.49555841088294983;90.95686340332031
9;1673434079.9497674;47.1306425;7.24062;-0.039000000804662704;1673434080.0255888;-0.55837482213974;-0.44499942660331726;90.94120025634766
10;1673434080.1595325;47.1306425;7.24062;-0.036000002175569534;1673434080.2400355;-0.6377188563346863;-0.5725747346878052;90.99541473388672
11;1673434080.3557587;47.1306425;7.2406201;-0.030000001192092896;1673434080.4254932;-0.6421133279800415;-0.34593281149864197;90.83404541015625
12;1673434080.5498724;47.1306424;7.2406203;-0.027000000700354576;1673434080.6175313;-0.5065504908561707;-0.5340359210968018;90.82947540283203
13;1673434080.7313082;47.1306424;7.2406203;-0.021000001579523087;1673434080.8117788;-0.36122435331344604;-0.5267356038093567;91.04794311523438
14;1673434080.9521422;47.1306424;7.2406204;-0.01900000125169754;1673434081.0268676;-0.6124971508979797;-0.4217590093612671;90.91362762451172
15;1673434081.1377032;47.1306424;7.2406203;0.0;1673434081.2138767;-0.477011114358902;-1.5809001922607422;91.05413055419922
16;1673434081.351086;47.1306424;7.2406203;-0.0020000000949949026;1673434081.426698;-0.4505540430545807;-0.9756426215171814;90.84215545654297
17;1673434081.5517151;47.1306425;7.2406203;-0.0020000000949949026;1673434081.637941;-0.3681609034538269;-1.217254638671875;91.01799774169922
18;1673434081.7576723;47.1306425;7.2406203;-0.0020000000949949026;1673434081.8370376;-0.5393965244293213;-1.1796040534973145;90.99019622802734
19;1673434081.9528844;47.1306425;7.2406203;0.0020000000949949026;1673434082.0342643;-0.2768276631832123;-1.1037359237670898;90.87052917480469
20;1673434082.170436;47.1306424;7.2406204;0.0020000000949949026;1673434082.2350564;-0.2808351218700409;-1.5472357273101807;90.83191680908203
21;1673434082.3469138;47.1306424;7.2406204;0.0;1673434082.4363768;-0.5282383561134338;-1.3159029483795166;90.82437896728516
22;1673434082.5621614;47.1306424;7.2406204;-0.0020000000949949026;1673434082.671829;-0.44489410519599915;-1.0883502960205078;90.85511016845703
23;1673434082.7797925;47.1306424;7.2406204;0.0;1673434082.8458908;-0.12171901762485504;-1.8061354160308838;90.86605072021484
24;1673434082.9659488;47.1306424;7.2406204999999995;-0.0010000000474974513;1673434083.0433147;-0.28214946389198303;-1.1438534259796143;90.81777954101562
25;1673434083.1511557;47.1306425;7.2406204;-0.004000000189989805;1673434083.2290096;-0.29632633924484253;-1.0525484085083008;90.56922912597656
26;1673434083.3459215;47.1306425;7.2406204999999995;-0.003000000026077032;1673434083.4341366;-0.31130310893058777;-0.5892512202262878;90.41889190673828
27;1673434083.5549388;47.1306425;7.2406204999999995;-0.0020000000949949026;1673434083.6527567;0.026990506798028946;-1.1110705137252808;90.01337432861328
28;1673434083.7824507;47.130642599999995;7.2406206;-0.006000000052154064;1673434083.8599708;-0.08125347644090652;-0.9478923082351685;88.40699768066406
29;1673434083.9905841;47.130642699999996;7.2406204999999995;-0.013000000268220901;1673434084.0578163;0.47068876028060913;-0.9028245806694031;87.21881866455078
30;1673434084.1749842;47.1306429;7.2406204999999995;-0.013000000268220901;1673434084.260153;0.9010211229324341;-0.49668851494789124;84.38114929199219
31;1673434084.387573;47.130643199999994;7.2406204;-0.007000000216066837;1673434084.4624481;-0.5643289089202881;0.17565733194351196;71.9253158569336
32;1673434084.574397;47.1306438;7.2406197;-0.009000000543892384;1673434084.6498678;-0.10183755308389664;0.3913584053516388;54.19424057006836
33;1673434084.7577372;47.1306447;7.2406188;-0.004000000189989805;1673434084.8304882;1.6377843618392944;1.7348761558532715;38.334930419921875
34;1673434084.9504752;47.1306459;7.2406177;0.005000000353902578;1673434085.030837;3.8074491024017334;7.008115768432617;32.5904426574707
35;1673434085.1537178;47.1306473;7.2406162;0.020000001415610313;1673434085.2294505;5.903057098388672;12.729438781738281;35.23754119873047
36;1673434085.3421109;47.1306489;7.2406144999999995;0.04500000178813934;1673434085.4224224;5.694698333740234;16.488479614257812;39.07856750488281
37;1673434085.5866108;47.1306504;7.2406127;0.07900000363588333;1673434085.6558766;5.227721214294434;18.206209182739258;42.184242248535156
38;1673434085.7660182;47.130651799999995;7.2406109999999995;0.11800000816583633;1673434085.850587;4.540798664093018;20.295310974121094;44.51934814453125
39;1673434085.9605527;47.130652999999995;7.240609399999999;0.16700001060962677;1673434086.0617142;3.77530837059021;22.401287078857422;46.462589263916016
40;1673434086.1921642;47.1306539;7.2406082;0.2200000137090683;1673434086.2582633;3.2778563499450684;24.265865325927734;48.112186431884766
41;1673434086.3634496;47.1306545;7.2406073;0.28700000047683716;1673434086.4500668;2.7507855892181396;26.25910758972168;49.29830551147461
42;1673434086.5586739;47.1306547;7.2406068999999995;0.3620000183582306;1673434086.6421142;2.364558458328247;28.449811935424805;50.324527740478516
43;1673434086.769919;47.1306545;7.2406068999999995;0.4390000104904175;1673434086.85205;1.9945156574249268;30.227827072143555;51.11879348754883
44;1673434086.9600263;47.1306539;7.240607499999999;0.5210000276565552;1673434087.0335324;1.6997402906417847;32.23078155517578;51.775306701660156
45;1673434087.14667;47.1306528;7.2406087999999995;0.6060000061988831;1673434087.2359104;1.6963006258010864;30.398677825927734;52.28901672363281
46;1673434087.3459456;47.130651199999996;7.240610599999999;0.6930000185966492;1673434087.4351466;1.4742121696472168;25.760650634765625;52.69573974609375
47;1673434087.547275;47.130649399999996;7.2406127;0.7830000519752502;1673434087.6170096;1.498807430267334;22.631959915161133;52.90718460083008
48;1673434087.709463;47.130647599999996;7.2406149;0.8850000500679016;1673434087.7846441;2.082504987716675;19.739561080932617;52.70918655395508
49;1673434087.894792;47.130645799999996;7.2406169;0.9920000433921814;1673434087.9734404;2.1583521366119385;13.5607328414917;52.47367858886719
50;1673434088.0846379;47.1306443;7.2406185999999995;1.1100000143051147;1673434088.1669493;1.19721257686615;11.997343063354492;52.00974655151367
51;1673434088.2824023;47.130643199999994;7.2406197;1.2370001077651978;1673434088.3633647;1.0571328401565552;14.084062576293945;51.280250549316406
52;1673434088.4778707;47.1306425;7.2406203;1.3820000886917114;1673434088.5615344;2.4862277507781982;12.996866226196289;50.43388366699219
53;1673434088.6800382;47.1306423;7.2406204;1.5380001068115234;1673434088.7609231;2.835217237472534;12.70973014831543;44.4661865234375
54;1673434088.874885;47.1306423;7.2406201999999995;1.7130000591278076;1673434088.9590645;2.8180243968963623;18.11983299255371;44.41354751586914
55;1673434089.0944881;47.1306424;7.2406197;1.9010001420974731;1673434089.2144818;2.1506400108337402;19.142295837402344;44.23919677734375
56;1673434089.387003;47.1306425;7.240619199999999;2.0950000286102295;1673434089.4691072;1.2451542615890503;18.19270896911621;44.19269561767578
57;1673434089.6059499;47.130642599999995;7.240619;2.2890000343322754;1673434089.674942;1.3359488248825073;20.670909881591797;44.22745132446289
58;1673434089.8081746;47.130642599999995;7.240618899999999;2.4850001335144043;1673434089.8998733;2.3829097747802734;22.604097366333008;44.42704391479492
59;1673434090.012592;47.130642699999996;7.240619;2.682000160217285;1673434090.155244;2.997403860092163;19.733304977416992;44.35684585571289
60;1673434090.2266529;47.130642699999996;7.2406191;2.876000165939331;1673434090.2801542;2.231595277786255;18.889732360839844;44.330169677734375
61;1673434090.3739781;47.130642599999995;7.2406193;3.074000120162964;1673434090.4723508;1.7789015769958496;21.192886352539062;44.4291877746582
62;1673434090.6082308;47.130642599999995;7.240619499999999;3.2700002193450928;1673434090.698613;2.3010687828063965;19.809003829956055;44.37040328979492
63;1673434090.8143697;47.1306425;7.240619799999999;3.4580001831054688;1673434090.877614;2.749021053314209;17.8125057220459;44.46025085449219
64;1673434090.9754999;47.1306424;7.2406201999999995;3.644000291824341;1673434091.0831535;2.933870792388916;19.316503524780273;44.47867965698242
65;1673434091.2516665;47.1306423;7.2406206;3.8340001106262207;1673434091.3015196;3.3720738887786865;19.351709365844727;44.43117141723633
66;1673434091.386145;47.1306422;7.240620799999999;4.025000095367432;1673434091.5035837;3.2432663440704346;16.436357498168945;44.374027252197266
67;1673434091.604788;47.1306422;7.2406209;4.225000381469727;1673434091.7088392;2.1443679332733154;18.009033203125;44.31401062011719
68;1673434091.8025782;47.130642099999996;7.2406209;4.430000305175781;1673434091.869984;2.817126512527466;19.493877410888672;44.09700012207031
69;1673434091.994668;47.130642099999996;7.2406209;4.636000156402588;1673434092.0662403;3.485020160675049;17.132476806640625;44.1961784362793
70;1673434092.1839716;47.1306422;7.240620799999999;4.835000038146973;1673434092.2699351;2.9231209754943848;17.246755599975586;44.31488800048828
71;1673434092.3799803;47.1306422;7.240620799999999;5.025000095367432;1673434092.457057;2.530914545059204;20.17445182800293;44.19439697265625
72;1673434092.586459;47.1306422;7.2406206;5.2210001945495605;1673434092.6820617;2.4584262371063232;19.080965042114258;44.55139923095703
73;1673434092.7988284;47.1306422;7.2406204999999995;5.4150004386901855;1673434092.8749185;1.965622067451477;17.318147659301758;44.503562927246094
74;1673434092.9982255;47.1306423;7.2406204;5.613000392913818;1673434093.0952873;2.2977569103240967;21.365739822387695;44.46549606323242
75;1673434093.1999452;47.1306424;7.2406203;5.811000347137451;1673434093.280761;3.4836409091949463;19.794466018676758;44.372562408447266
76;1673434093.395151;47.1306424;7.2406204;6.009000301361084;1673434093.4701788;3.2512524127960205;17.327877044677734;44.475975036621094
77;1673434093.5818942;47.1306423;7.2406204;6.206000328063965;1673434093.6626596;2.1726701259613037;18.579301834106445;44.218910217285156
78;1673434093.7977867;47.1306423;7.2406204999999995;6.40500020980835;1673434093.881779;2.1183362007141113;20.27402114868164;44.208953857421875
79;1673434094.010102;47.1306423;7.2406204999999995;6.6010003089904785;1673434094.1058943;2.789335250854492;17.573211669921875;44.33627700805664
80;1673434094.2102892;47.1306423;7.2406204999999995;6.798000335693359;1673434094.2854445;2.67990779876709;17.936452865600586;44.34328079223633
81;1673434094.392149;47.1306423;7.2406204;6.994000434875488;1673434094.471251;2.893425226211548;20.831321716308594;44.44483184814453
82;1673434094.5976205;47.1306424;7.2406203;7.193000316619873;1673434094.6863613;3.0473392009735107;18.694440841674805;44.43003845214844
83;1673434094.7954502;47.1306424;7.2406203;7.39300012588501;1673434094.8879135;2.1295065879821777;17.33423614501953;44.4956169128418
84;1673434095.0113418;47.1306424;7.2406203;7.590000152587891;1673434095.094312;2.1664116382598877;19.730579376220703;44.15318298339844
85;1673434095.2006152;47.1306424;7.2406203;7.7900004386901855;1673434095.2830155;3.012889862060547;19.713136672973633;44.39087677001953
86;1673434095.4107404;47.1306424;7.2406203;7.988000392913818;1673434095.4902267;3.07364559173584;17.271955490112305;44.478614807128906
87;1673434095.605967;47.1306424;7.2406201999999995;8.1850004196167;1673434095.6883667;2.4688680171966553;19.16754722595215;44.39007568359375
88;1673434095.8145556;47.1306425;7.2406201999999995;8.379000663757324;1673434095.8994014;2.451958417892456;20.900033950805664;44.29538345336914
89;1673434096.0078428;47.130642599999995;7.2406201999999995;8.572000503540039;1673434096.1173465;2.759613037109375;17.985366821289062;44.33003234863281
90;1673434096.2091339;47.130642599999995;7.2406201999999995;8.758000373840332;1673434096.2911263;2.496976375579834;18.590669631958008;44.471343994140625
91;1673434096.3977435;47.130642699999996;7.2406203;8.947000503540039;1673434096.4807663;3.0653934478759766;21.1520938873291;44.518768310546875
92;1673434096.5946758;47.130642599999995;7.2406203;9.13900089263916;1673434096.6733375;3.6072800159454346;18.30890655517578;44.41228485107422
93;1673434096.7892394;47.130642599999995;7.2406204;9.333000183105469;1673434096.8949087;2.867828607559204;16.957597732543945;44.24934387207031
94;1673434097.0193777;47.130642599999995;7.2406204;9.530000686645508;1673434097.093156;2.21968936920166;20.080928802490234;44.227500915527344
95;1673434097.2152388;47.130642699999996;7.2406203;9.729000091552734;1673434097.3093839;3.0563442707061768;19.55190658569336;44.35285949707031
96;1673434097.4173498;47.130642699999996;7.2406203;9.926000595092773;1673434097.4915953;3.389622926712036;18.047748565673828;44.43476486206055
97;1673434097.614267;47.130642699999996;7.2406203;10.125000953674316;1673434097.7008266;3.147648334503174;19.042736053466797;44.408084869384766
98;1673434097.819452;47.130642599999995;7.2406204;10.396000862121582;1673434097.8829212;2.5015769004821777;19.732139587402344;44.28591537475586
99;1673434097.9885929;47.1306424;7.2406206;10.777000427246094;1673434098.081613;2.8069090843200684;19.44045639038086;44.50273895263672
100;1673434098.1869335;47.130642099999996;7.2406209;11.172000885009766;1673434098.2858107;2.0190515518188477;17.228763580322266;44.45056915283203
101;1673434098.426316;47.1306418;7.240621099999999;11.570000648498535;1673434098.505277;2.6657092571258545;19.50179100036621;44.52645492553711
102;1673434098.626239;47.1306417;7.2406213;11.976000785827637;1673434098.7033381;3.169187068939209;16.888179779052734;44.41710662841797
103;1673434098.80991;47.130641499999996;7.240621399999999;12.381000518798828;1673434098.8890867;2.417557954788208;15.671810150146484;44.461219787597656
104;1673434099.0057223;47.130641399999995;7.2406215;12.777000427246094;1673434099.0952032;1.9532346725463867;18.070446014404297;44.439754486083984
105;1673434099.2208602;47.130641399999995;7.2406215;13.16200065612793;1673434099.3009217;2.7215590476989746;17.77058982849121;44.46831130981445
106;1673434099.399776;47.130641399999995;7.2406215;13.546000480651855;1673434099.4883044;2.6228721141815186;15.79076099395752;44.55583572387695
107;1673434099.580307;47.130641499999996;7.240621399999999;13.930000305175781;1673434099.651136;2.506744623184204;18.721296310424805;44.52842330932617
108;1673434099.759304;47.1306416;7.2406212;14.318000793457031;1673434099.8436027;2.667205572128296;19.295528411865234;44.39378356933594
109;1673434099.9585257;47.1306417;7.240621;14.702000617980957;1673434100.0380661;2.540113925933838;17.112573623657227;44.40385818481445
110;1673434100.15749;47.1306418;7.240620799999999;15.090001106262207;1673434100.2416255;2.0708670616149902;17.797414779663086;44.38312530517578
111;1673434100.3549707;47.1306418;7.240620799999999;15.47800064086914;1673434100.4380918;2.774522542953491;19.897701263427734;44.329463958740234
112;1673434100.549671;47.1306418;7.240620799999999;15.862000465393066;1673434100.6575701;3.1529273986816406;17.473127365112305;44.382633209228516
113;1673434100.777552;47.1306418;7.240620799999999;16.246000289916992;1673434100.850045;2.645761728286743;17.369691848754883;44.46549987792969
114;1673434100.9703784;47.1306419;7.2406207;16.63300132751465;1673434101.0577512;2.2581682205200195;20.00347900390625;44.40007781982422
115;1673434101.1686766;47.130641999999995;7.2406206;17.022001266479492;1673434101.2460294;2.775169849395752;18.8254337310791;44.520267486572266
116;1673434101.3580034;47.130641999999995;7.2406204999999995;17.41400146484375;1673434101.4456394;2.5430259704589844;17.617080688476562;44.43071746826172
117;1673434101.589651;47.130641999999995;7.2406204999999995;17.79800033569336;1673434101.6707969;2.6817781925201416;19.465343475341797;44.30937194824219
118;1673434101.786872;47.130641999999995;7.2406206;18.18000030517578;1673434101.8659205;3.2817916870117188;18.766948699951172;44.41988754272461
119;1673434101.9806528;47.130641999999995;7.2406206;18.56800079345703;1673434102.0583773;2.782193660736084;16.424531936645508;44.38787841796875
120;1673434102.188923;47.130641999999995;7.2406206;18.96000099182129;1673434102.2685292;2.08384108543396;18.860366821289062;44.38568878173828
121;1673434102.4232073;47.130641999999995;7.2406204999999995;19.354000091552734;1673434102.4942331;2.7455408573150635;19.414777755737305;44.37333679199219
122;1673434102.6177003;47.130642099999996;7.2406204;19.75200080871582;1673434102.695104;2.9098048210144043;17.37098503112793;44.40326690673828
123;1673434102.8083556;47.130642099999996;7.2406203;20.145000457763672;1673434102.881405;2.327535629272461;18.180330276489258;44.451499938964844
124;1673434103.0120294;47.130642099999996;7.2406201999999995;20.538000106811523;1673434103.1032596;2.4914376735687256;20.022994995117188;44.504154205322266
125;1673434103.2272203;47.130642099999996;7.2406203;20.927000045776367;1673434103.300972;2.803950309753418;17.694669723510742;44.5259895324707
126;1673434103.4197824;47.130642099999996;7.2406203;21.319000244140625;1673434103.4894729;2.346365451812744;17.092126846313477;44.41352462768555
127;1673434103.607004;47.130642099999996;7.2406203;21.716001510620117;1673434103.6818583;2.5700273513793945;20.194316864013672;44.34299087524414
128;1673434103.8106105;47.130642099999996;7.2406203;22.115001678466797;1673434103.8889458;3.266019821166992;18.166704177856445;44.308441162109375
129;1673434104.002823;47.1306422;7.2406203;22.51500129699707;1673434104.0862262;2.5769970417022705;17.35404396057129;44.46522521972656
130;1673434104.1937003;47.1306422;7.2406203;22.91900062561035;1673434104.2738972;2.5389225482940674;19.213634490966797;44.52423858642578
131;1673434104.3847275;47.1306422;7.2406203;23.315000534057617;1673434104.4663126;3.066258668899536;19.32378578186035;44.49956512451172
132;1673434104.5949073;47.1306422;7.2406203;23.716001510620117;1673434104.6776078;2.656104803085327;16.694435119628906;44.443294525146484
133;1673434104.7971892;47.130642099999996;7.2406203;24.119001388549805;1673434104.8717225;2.3437912464141846;18.58538818359375;44.34539031982422
134;1673434105.008232;47.1306422;7.2406203;24.5260009765625;1673434105.088598;2.8247785568237305;20.064653396606445;44.357852935791016
135;1673434105.2212324;47.1306422;7.2406201999999995;24.931001663208008;1673434105.3016825;3.006673812866211;17.72768211364746;44.50825119018555
136;1673434105.418246;47.1306422;7.2406201;25.338001251220703;1673434105.4881282;2.2769711017608643;17.778907775878906;44.465702056884766
137;1673434105.610545;47.1306422;7.2406201;25.740001678466797;1673434105.71795;2.450441598892212;19.656770706176758;44.40715026855469
138;1673434105.8629174;47.1306422;7.2406201999999995;26.134000778198242;1673434105.9256778;3.089782476425171;18.209768295288086;44.411376953125
139;1673434106.0273147;47.1306422;7.2406201999999995;26.529001235961914;1673434106.1265142;2.549053907394409;17.063365936279297;44.38478088378906
140;1673434106.2221026;47.1306422;7.2406201999999995;26.927001953125;1673434106.2977283;2.3897528648376465;20.07898712158203;44.48371887207031
141;1673434106.4147072;47.1306422;7.2406201999999995;27.327001571655273;1673434106.4881377;2.873462677001953;18.78777313232422;44.449302673339844
142;1673434106.5981226;47.1306423;7.2406201;27.727001190185547;1673434106.6766026;2.5341556072235107;17.2289981842041;44.51487350463867
143;1673434106.78702;47.1306423;7.2406201;28.126001358032227;1673434106.8685806;2.332761526107788;19.082233428955078;44.42212677001953
144;1673434106.987071;47.1306422;7.2406201999999995;28.520000457763672;1673434107.0625715;2.934152603149414;19.501070022583008;44.42826461791992
145;1673434107.19807;47.1306422;7.2406203;28.91900062561035;1673434107.2734709;2.889108180999756;16.830419540405273;44.44437789916992
146;1673434107.3895068;47.1306422;7.2406203;29.32000160217285;1673434107.468911;2.3855397701263428;17.93185043334961;44.41851043701172
147;1673434107.5749185;47.1306422;7.2406203;29.724000930786133;1673434107.6491063;2.5688588619232178;20.22957992553711;44.49075698852539
148;1673434107.7694285;47.1306423;7.2406203;30.126001358032227;1673434107.8457224;2.8035967350006104;17.766448974609375;44.42428970336914
149;1673434107.9680407;47.1306423;7.2406203;30.5260009765625;1673434108.0484421;2.442042112350464;17.90302085876465;44.412574768066406
150;1673434108.1748383;47.1306423;7.2406203;30.928001403808594;1673434108.2511747;2.5663580894470215;19.636735916137695;44.49441909790039
151;1673434108.3699079;47.1306422;7.2406204;31.32400131225586;1673434108.4537554;3.2154946327209473;17.881359100341797;44.53585433959961
152;1673434108.5828614;47.1306422;7.2406204999999995;31.72300148010254;1673434108.6573884;2.697439670562744;16.36684799194336;44.311988830566406
153;1673434108.7701962;47.1306422;7.2406204999999995;32.12900161743164;1673434108.8469026;2.307765245437622;19.497695922851562;44.32138442993164
154;1673434108.9568238;47.1306423;7.2406204999999995;32.53600311279297;1673434109.0358036;2.990271806716919;18.725780487060547;44.41050720214844
155;1673434109.1727173;47.1306424;7.2406204;32.94000244140625;1673434109.2482479;2.836897611618042;17.441890716552734;44.490047454833984
156;1673434109.3652618;47.1306425;7.2406204;33.33700180053711;1673434109.4467049;2.656452178955078;19.064876556396484;44.397945404052734
157;1673434109.5772018;47.1306425;7.2406204;33.72800064086914;1673434109.665714;3.0597243309020996;19.972705841064453;44.40594482421875
158;1673434109.779589;47.1306425;7.2406204;34.12200164794922;1673434109.8621888;2.97293758392334;17.131608963012695;44.36672592163086
159;1673434109.9862506;47.1306425;7.2406204;34.518001556396484;1673434110.0703924;2.590243101119995;17.779130935668945;44.459232330322266
160;1673434110.194878;47.1306425;7.2406203;34.91800308227539;1673434110.2666535;2.7090682983398438;20.33327293395996;44.46565246582031
161;1673434110.3901162;47.130642599999995;7.2406201999999995;35.31700134277344;1673434110.4775643;3.0429890155792236;17.89168357849121;44.46491622924805
162;1673434110.586203;47.130642599999995;7.2406201;35.71800231933594;1673434110.6881113;2.4252264499664307;17.826948165893555;44.349578857421875
163;1673434110.8044696;47.130642599999995;7.2406201;36.11600112915039;1673434110.8711572;2.4722845554351807;19.588102340698242;44.33916473388672
164;1673434110.9935844;47.1306425;7.2406201999999995;36.509002685546875;1673434111.0818486;2.9501516819000244;18.92621612548828;44.47423553466797
165;1673434111.1879277;47.1306425;7.2406201999999995;36.909000396728516;1673434111.265382;2.606921672821045;17.018712997436523;44.49320983886719
166;1673434111.3872476;47.1306425;7.2406201999999995;37.3120002746582;1673434111.4734535;2.4067249298095703;19.61644172668457;44.42376708984375
167;1673434111.6385422;47.1306425;7.2406201;37.71600341796875;1673434111.7142198;2.7257626056671143;19.22562026977539;44.42640686035156
168;1673434111.821043;47.1306425;7.2406201;38.11900329589844;1673434111.9176104;2.7757744789123535;17.140830993652344;44.47054672241211
169;1673434112.022603;47.1306425;7.2406201;38.51900100708008;1673434112.1061478;2.329840660095215;18.986616134643555;44.43622970581055
170;1673434112.2713058;47.1306425;7.2406201999999995;38.91400146484375;1673434112.3308947;3.059807777404785;19.611007690429688;44.42689514160156
171;1673434112.4703794;47.1306425;7.2406201999999995;39.316001892089844;1673434112.532011;3.155940055847168;17.012380599975586;44.47115707397461
172;1673434112.63484;47.1306425;7.2406201999999995;39.720001220703125;1673434112.7294002;2.5417299270629883;17.94016456604004;44.48646926879883
173;1673434112.848108;47.1306425;7.2406201;40.12600326538086;1673434112.915781;2.559567928314209;20.35358238220215;44.37738037109375
174;1673434113.0315936;47.1306425;7.24062;40.52800369262695;1673434113.1099389;2.81266188621521;17.97393798828125;44.47453689575195
175;1673434113.255159;47.1306425;7.24062;40.927001953125;1673434113.3190203;2.4495229721069336;17.992399215698242;44.43672180175781
176;1673434113.4405239;47.1306425;7.24062;41.32500076293945;1673434113.5139148;2.614302635192871;19.740888595581055;44.38974380493164
177;1673434113.6406476;47.1306424;7.2406201;41.71600341796875;1673434113.7182388;3.101952075958252;18.403474807739258;44.50560760498047
178;1673434113.8211062;47.1306424;7.2406201;42.11000061035156;1673434113.8940346;2.5210654735565186;16.591609954833984;44.408016204833984
179;1673434114.0028582;47.1306423;7.2406201;42.50800323486328;1673434114.0946321;2.1562740802764893;19.213104248046875;44.34742736816406
180;1673434114.2016287;47.1306424;7.2406201;42.909000396728516;1673434114.2967525;2.825528860092163;19.206350326538086;44.41615295410156
181;1673434114.40831;47.1306424;7.24062;43.310001373291016;1673434114.4890318;2.8503220081329346;17.51728630065918;44.516021728515625
182;1673434114.6023803;47.1306424;7.24062;43.71000289916992;1673434114.6868336;2.2950942516326904;18.663209915161133;44.406742095947266
183;1673434114.8182728;47.1306424;7.2406201;44.10600280761719;1673434114.9009156;2.6861932277679443;19.7138671875;44.429603576660156
184;1673434115.0187845;47.1306424;7.2406201999999995;44.50600051879883;1673434115.1015396;2.8033831119537354;17.477907180786133;44.49244689941406
185;1673434115.2240489;47.1306424;7.2406201999999995;44.909000396728516;1673434115.3077157;2.5316481590270996;17.422536849975586;44.359683990478516
186;1673434115.422366;47.1306424;7.2406201999999995;45.31100082397461;1673434115.5108757;2.793355941772461;20.082233428955078;44.5204963684082
187;1673434115.6271553;47.1306425;7.2406201;45.71000289916992;1673434115.7194464;3.1077001094818115;18.165433883666992;44.43962478637695
188;1673434115.8183594;47.1306425;7.24062;46.10700225830078;1673434115.894122;2.4486896991729736;17.647777557373047;44.4119873046875
189;1673434116.0103946;47.1306425;7.2406201;46.50600051879883;1673434116.0981655;2.3647336959838867;19.33549690246582;44.330604553222656
190;1673434116.2195852;47.1306425;7.2406201;46.90300369262695;1673434116.3030946;3.1184263229370117;18.634117126464844;44.43204116821289
191;1673434116.4104886;47.1306424;7.2406201999999995;47.30500411987305;1673434116.4898157;2.865727663040161;16.96790313720703;44.474822998046875
192;1673434116.608731;47.1306424;7.2406201;47.71000289916992;1673434116.6901162;2.4506003856658936;19.278581619262695;44.467952728271484
193;1673434116.8106475;47.1306424;7.2406201;48.10200119018555;1673434116.8905933;2.6300289630889893;20.006080627441406;44.76099395751953
194;1673434117.0081851;47.1306425;7.2406198999999996;48.448001861572266;1673434117.0900123;2.5041117668151855;17.67469024658203;44.66611099243164
195;1673434117.2147107;47.130642599999995;7.240619799999999;48.74100112915039;1673434117.3001325;2.3728559017181396;19.499645233154297;44.522560119628906
196;1673434117.4186716;47.130642699999996;7.2406197;48.97700119018555;1673434117.4966946;2.934086322784424;20.22158432006836;44.3573112487793
197;1673434117.618805;47.1306428;7.240619499999999;49.17400360107422;1673434117.6950004;2.66494083404541;17.21013641357422;44.304107666015625
198;1673434117.818558;47.130643;7.2406193;49.34400177001953;1673434117.9020717;19.011951446533203;18.67662239074707;48.883270263671875
199;1673434118.0103507;47.1306428;7.2406184;49.493003845214844;1673434118.0836287;39.03992462158203;24.489028930664062;61.038917541503906
200;1673434118.182944;47.130641499999996;7.2406153;49.62600326538086;1673434118.257132;49.1771125793457;31.71529769897461;71.31365966796875
201;1673434118.3635056;47.1306382;7.2406085;49.73400115966797;1673434118.454189;52.389801025390625;37.06007766723633;77.54811096191406
202;1673434118.5820649;47.1306328;7.2405976999999995;49.78900146484375;1673434118.6595938;40.36875534057617;39.23760223388672;85.1683120727539
203;1673434118.7861786;47.1306255;7.240583399999999;49.814002990722656;1673434118.8663058;33.60134506225586;45.57718276977539;95.49082946777344
204;1673434118.9827337;47.130617;7.240566599999999;49.829002380371094;1673434119.0612462;21.985185623168945;49.318580627441406;106.43775177001953
205;1673434119.1867561;47.1306073;7.240547599999999;49.81500244140625;1673434119.2725446;6.932064533233643;46.42485427856445;116.7618179321289
206;1673434119.4113472;47.130597099999996;7.2405270999999995;49.7910041809082;1673434119.4930081;-3.8816757202148438;45.47505569458008;127.35807800292969
207;1673434119.6215377;47.1305864;7.2405056;49.75100326538086;1673434119.708415;-16.20574188232422;43.22761917114258;137.26646423339844
208;1673434119.8211064;47.1305753;7.2404831;49.71900177001953;1673434119.8948767;-28.269163131713867;41.80723190307617;146.08248901367188
209;1673434120.0088034;47.130563699999996;7.240460199999999;49.70600128173828;1673434120.1149304;-38.74724197387695;36.073204040527344;158.4749298095703
210;1673434120.2520223;47.1305513;7.2404364;49.69700241088867;1673434120.3538637;-47.89450454711914;29.623188018798828;170.27593994140625
211;1673434120.4704733;47.130538099999995;7.2404119;49.6660041809082;1673434120.5381036;-36.7526741027832;17.554338455200195;170.29466247558594
212;1673434120.6555314;47.1305246;7.240387699999999;49.586002349853516;1673434120.7462776;-19.738378524780273;10.503612518310547;159.43983459472656
213;1673434120.8494837;47.1305117;7.2403645999999995;49.47300338745117;1673434120.917482;-12.085822105407715;10.164188385009766;144.4499969482422
214;1673434121.028718;47.1305001;7.2403431;49.387001037597656;1673434121.106301;-19.917770385742188;18.97220230102539;131.66009521484375
215;1673434121.2273548;47.1304892;7.240323399999999;49.3910026550293;1673434121.3018003;-29.333293914794922;38.18353271484375;126.66456604003906
216;1673434121.4103556;47.1304782;7.240305599999999;49.44400405883789;1673434121.48997;-32.71987533569336;43.15472412109375;129.0129852294922
217;1673434121.6110022;47.1304659;7.2402883;49.51000213623047;1673434121.690729;-38.009525299072266;41.724979400634766;132.55126953125
218;1673434121.7965853;47.1304522;7.240271399999999;49.58100128173828;1673434121.883129;-42.313560485839844;39.913448333740234;135.8318634033203
219;1673434121.9844437;47.1304373;7.240254999999999;49.647003173828125;1673434122.0635486;-43.67990493774414;31.783870697021484;138.59278869628906
220;1673434122.180442;47.1304215;7.2402394;49.68300247192383;1673434122.263506;-44.88811111450195;15.498034477233887;138.19607543945312
221;1673434122.3794847;47.1304054;7.240225799999999;49.698001861572266;1673434122.477586;-43.59157943725586;-15.709324836730957;137.540283203125
222;1673434122.5829835;47.130390399999996;7.2402166;49.715003967285156;1673434122.6628873;-35.63819885253906;-28.48935317993164;131.052490234375
223;1673434122.7840383;47.130377599999996;7.2402117;49.71800231933594;1673434122.8616068;-21.05581283569336;-29.825927734375;132.8531951904297
224;1673434122.975978;47.130367799999995;7.2402099;49.708003997802734;1673434123.0577512;-3.7595856189727783;-27.094253540039062;146.14573669433594
225;1673434123.1751065;47.130361;7.2402102;49.742000579833984;1673434123.278719;4.561752796173096;-32.25643539428711;160.8832244873047
226;1673434123.4061668;47.1303572;7.2402121;49.81700134277344;1673434123.482194;-7.168182373046875;3.7630996704101562;167.45675659179688
227;1673434123.6020231;47.130354999999994;7.240213799999999;49.884002685546875;1673434123.6793473;-36.5638427734375;39.38383483886719;174.4636688232422
228;1673434123.7909703;47.130352699999996;7.2402123;49.94400405883789;1673434123.871371;-52.937801361083984;29.552785873413086;-167.86016845703125
229;1673434123.9891915;47.1303493;7.2402058;49.93700408935547;1673434124.0732627;-39.91836929321289;20.765682220458984;-159.23858642578125
230;1673434124.190186;47.130345399999996;7.2401956;49.93600082397461;1673434124.2744243;-42.055389404296875;15.830636024475098;-154.7854461669922
231;1673434124.3873274;47.130341;7.240182399999999;49.961002349853516;1673434124.4690607;-51.53357696533203;3.5005717277526855;-144.39381408691406
232;1673434124.6022427;47.1303355;7.2401661;50.012001037597656;1673434124.6808727;-58.48136901855469;-9.329336166381836;-136.44549560546875
233;1673434124.801447;47.1303282;7.2401469999999994;50.07600402832031;1673434124.8771236;-58.61100387573242;-17.90320587158203;-133.69007873535156
234;1673434125.002762;47.1303189;7.2401262;50.125003814697266;1673434125.080937;-55.09685134887695;-17.521562576293945;-137.19581604003906
235;1673434125.1903222;47.1303075;7.2401046;50.14900207519531;1673434125.2704308;-54.1036262512207;-14.883484840393066;-139.42361450195312
236;1673434125.3867607;47.1302946;7.2400826;50.15700149536133;1673434125.4702876;-53.94773483276367;-15.505849838256836;-144.31996154785156
237;1673434125.609394;47.1302807;7.2400604;50.1410026550293;1673434125.6939766;-50.39377212524414;-7.148514747619629;-156.37648010253906
238;1673434125.8210895;47.1302658;7.2400388;50.105003356933594;1673434125.9000444;-47.81772232055664;-0.9124844074249268;-165.11012268066406
239;1673434126.0382183;47.1302504;7.2400177999999995;50.06700134277344;1673434126.1179008;-44.137081146240234;5.876258373260498;-174.43421936035156
240;1673434126.2286725;47.1302348;7.2399974;50.02400207519531;1673434126.3263345;-42.140220642089844;12.407983779907227;176.69143676757812
241;1673434126.4374983;47.1302191;7.2399777;49.97900390625;1673434126.5061302;-38.472023010253906;17.441486358642578;168.04074096679688
242;1673434126.6163552;47.1302035;7.239958799999999;49.94000244140625;1673434126.6898088;-33.79309844970703;20.884614944458008;158.80516052246094
243;1673434126.8269377;47.1301881;7.2399403;49.89400100708008;1673434126.953682;-28.623258590698242;22.879812240600586;148.59078979492188
244;1673434127.071356;47.130173199999994;7.2399225;49.85900115966797;1673434127.14124;-29.27313995361328;30.549030303955078;138.63839721679688
245;1673434127.238471;47.1301584;7.2399055;49.85700225830078;1673434127.3150702;-28.21530532836914;35.87518310546875;142.6532745361328
246;1673434127.4265888;47.1301436;7.239888499999999;49.85700225830078;1673434127.5008519;-34.85334777832031;31.990869522094727;161.63365173339844
247;1673434127.6122093;47.1301287;7.239870799999999;49.86600112915039;1673434127.6938298;-46.41794204711914;27.099411010742188;-178.17642211914062
248;1673434127.806667;47.1301138;7.2398517;49.8900032043457;1673434127.8822439;-50.25712203979492;17.71546745300293;-166.0316925048828
249;1673434127.998982;47.1300987;7.2398307;49.90900421142578;1673434128.0767357;-49.409759521484375;13.286900520324707;-159.6117706298828
250;1673434128.2162387;47.1300835;7.2398083;49.910003662109375;1673434128.2835364;-46.06708526611328;7.751862049102783;-150.98483276367188
251;1673434128.4157574;47.1300686;7.2397848;49.90400314331055;1673434128.4886918;-43.68683624267578;-0.8430954813957214;-142.08273315429688
252;1673434128.6373916;47.130054;7.2397605;49.900001525878906;1673434128.7343204;-44.95517349243164;-6.730080604553223;-135.1195526123047
253;1673434128.8522809;47.130039599999996;7.2397357;49.90400314331055;1673434128.955872;-48.00616455078125;-14.444035530090332;-133.3960418701172
254;1673434129.0761952;47.130024999999996;7.239710499999999;49.926002502441406;1673434129.145849;-49.79316329956055;-14.867302894592285;-144.88418579101562
255;1673434129.2309349;47.1300099;7.239686;49.92900085449219;1673434129.3019283;-46.05753707885742;-7.982323169708252;-158.63674926757812
256;1673434129.3964374;47.1299944;7.2396625;49.91400146484375;1673434129.4668484;-41.982486724853516;-1.6403456926345825;-168.42420959472656
257;1673434129.5776715;47.129978699999995;7.239640199999999;49.8910026550293;1673434129.6564236;-40.7157096862793;4.466646194458008;-176.74380493164062
258;1673434129.8006196;47.1299632;7.2396192;49.875003814697266;1673434129.877776;-39.246864318847656;10.700876235961914;174.0819854736328
259;1673434129.9947374;47.1299478;7.2395992;49.8650016784668;1673434130.0771537;-38.47043228149414;17.08197784423828;164.4434814453125
260;1673434130.2069097;47.129932499999995;7.2395800999999995;49.858001708984375;1673434130.282249;-37.662986755371094;22.230478286743164;154.92161560058594
261;1673434130.4113984;47.129917299999995;7.2395621;49.85600280761719;1673434130.4840279;-34.39884948730469;25.152149200439453;145.30755615234375
262;1673434130.6176443;47.129902;7.239545;49.85700225830078;1673434130.7091932;-34.27479553222656;27.930782318115234;135.2392120361328
263;1673434130.8142412;47.1298867;7.2395290999999995;49.87200164794922;1673434130.8942852;-37.143775939941406;34.5549430847168;124.54332733154297
264;1673434131.0116625;47.1298712;7.2395149;49.893001556396484;1673434131.0868387;-33.69795227050781;31.233692169189453;128.67831420898438
265;1673434131.1981978;47.1298554;7.2395019;49.89400100708008;1673434131.2787256;-35.978660583496094;20.59027099609375;144.45950317382812
266;1673434131.3993804;47.1298396;7.23949;49.910003662109375;1673434131.4746034;-49.2221794128418;13.516357421875;163.7257843017578
267;1673434131.6263883;47.1298235;7.2394789;49.94900131225586;1673434131.7163455;-53.985450744628906;7.697376728057861;176.6307373046875
268;1673434131.827425;47.129806599999995;7.239468;49.98500061035156;1673434131.9139931;-53.727359771728516;14.466527938842773;-179.10427856445312
269;1673434132.0309863;47.129789099999996;7.239456499999999;49.99400329589844;1673434132.1086605;-45.56371307373047;22.05077362060547;-169.94625854492188
270;1673434132.2269008;47.1297718;7.2394431;49.958003997802734;1673434132.2977402;-34.55271530151367;19.15226173400879;-157.69580078125
271;1673434132.430929;47.129755499999995;7.239427699999999;49.90500259399414;1673434132.4980705;-31.516437530517578;15.454625129699707;-151.30697631835938
272;1673434132.6263852;47.1297408;7.2394104;49.86300277709961;1673434132.7020726;-34.33353805541992;12.30949878692627;-143.908203125
273;1673434132.823083;47.1297275;7.239391599999999;49.84700393676758;1673434132.9073465;-41.03788375854492;4.5845746994018555;-135.3553009033203
274;1673434133.0112584;47.1297153;7.2393709;49.85700225830078;1673434133.1045713;-48.29792785644531;-3.146801710128784;-130.63294982910156
275;1673434133.228267;47.1297035;7.2393484;49.8900032043457;1673434133.304778;-51.2972412109375;-9.760040283203125;-132.43490600585938
276;1673434133.4270318;47.1296913;7.2393243;49.932003021240234;1673434133.5028446;-53.83307647705078;-13.651202201843262;-135.90020751953125
277;1673434133.6667538;47.1296782;7.2392993;49.974002838134766;1673434133.7378414;-52.23715591430664;-15.032939910888672;-137.754150390625
278;1673434133.8354046;47.1296642;7.239274099999999;49.99500274658203;1673434133.924215;-50.458717346191406;-13.862611770629883;-139.23641967773438
279;1673434134.083339;47.1296494;7.239249099999999;50.00200271606445;1673434134.1655357;-49.4396858215332;-11.563055992126465;-140.18411254882812
280;1673434134.2637148;47.1296341;7.2392242;50.009002685546875;1673434134.327533;-48.3990364074707;-9.90114974975586;-140.53868103027344
281;1673434134.4506516;47.1296184;7.2391996;50.01400375366211;1673434134.5386999;-47.88054275512695;-9.576460838317871;-140.43165588378906
282;1673434134.6734297;47.1296026;7.2391749999999995;50.01700210571289;1673434134.7767937;-47.73066329956055;-9.66348934173584;-140.29550170898438
283;1673434134.8851607;47.129586599999996;7.2391504;50.0160026550293;1673434134.9577143;-46.7921257019043;-9.637630462646484;-140.2932891845703
284;1673434135.0694926;47.1295705;7.2391258;50.009002685546875;1673434135.149684;-46.41179275512695;-9.698432922363281;-140.30792236328125
285;1673434135.2589235;47.129554299999995;7.2391011999999995;50.00300216674805;1673434135.3296196;-46.383460998535156;-9.808055877685547;-140.28793334960938
286;1673434135.437994;47.1295381;7.239076799999999;50.00200271606445;1673434135.5104423;-46.39740753173828;-9.864269256591797;-140.34136962890625
287;1673434135.6203752;47.1295219;7.2390526;50.00200271606445;1673434135.7016141;-46.825923919677734;-9.925324440002441;-140.43536376953125
288;1673434135.8151135;47.129505699999996;7.2390284;50.00300216674805;1673434135.8870578;-47.038211822509766;-9.856717109680176;-140.59991455078125
289;1673434136.0020134;47.1294895;7.2390042;50.00400161743164;1673434136.0891528;-46.65604782104492;-9.753118515014648;-140.7342071533203
290;1673434136.2094855;47.1294731;7.2389801;49.99800109863281;1673434136.3015866;-46.2552490234375;-9.614095687866211;-140.89508056640625
291;1673434136.4184449;47.1294568;7.238956;49.99100112915039;1673434136.4964628;-45.988216400146484;-9.817878723144531;-140.92327880859375
292;1673434136.6090531;47.1294405;7.2389320999999995;49.9900016784668;1673434136.694872;-46.612796783447266;-10.871174812316895;-141.0802001953125
293;1673434136.8065097;47.1294241;7.238908299999999;49.9900016784668;1673434136.8868299;-47.3220329284668;-11.959364891052246;-141.49899291992188
294;1673434137.0019786;47.129407699999994;7.238884799999999;49.993003845214844;1673434137.0820193;-47.24772262573242;-12.086459159851074;-142.1356964111328
295;1673434137.1896603;47.129391;7.2388615;49.99700164794922;1673434137.2822876;-46.662837982177734;-12.27985954284668;-142.4377899169922
296;1673434137.4047112;47.1293742;7.238838599999999;50.00300216674805;1673434137.4831557;-46.56589126586914;-12.532448768615723;-142.6312713623047
297;1673434137.6069736;47.129357299999995;7.238816;50.00800323486328;1673434137.6943903;-46.70377731323242;-13.279949188232422;-142.92105102539062
298;1673434137.8012276;47.129340199999994;7.2387938;50.0150032043457;1673434137.8756096;-46.499351501464844;-13.941559791564941;-143.33389282226562
299;1673434138.0092282;47.129323;7.238772;50.01900100708008;1673434138.0864847;-46.35791015625;-14.791824340820312;-143.70179748535156
300;1673434138.2061634;47.129305699999996;7.2387507;50.02100372314453;1673434138.288476;-45.915802001953125;-15.704334259033203;-143.97764587402344
301;1673434138.403195;47.1292881;7.238729999999999;50.02300262451172;1673434138.4781113;-45.49028778076172;-17.053190231323242;-144.15000915527344
302;1673434138.6012902;47.129270399999996;7.238709999999999;50.0260009765625;1673434138.690022;-42.54143524169922;-17.2912540435791;-144.8068389892578
303;1673434138.804571;47.1292526;7.2386908;50.03900146484375;1673434138.8907967;-31.179941177368164;-16.65231704711914;-144.3192596435547
304;1673434139.0117195;47.1292353;7.238672599999999;50.066001892089844;1673434139.092968;-16.01008415222168;-15.554449081420898;-141.78623962402344
305;1673434139.2111108;47.129219199999994;7.2386557;50.0890007019043;1673434139.2937536;-1.620388388633728;-12.563708305358887;-138.76463317871094
306;1673434139.4093843;47.129205;7.2386405;50.10400390625;1673434139.4943883;7.704598903656006;-10.221165657043457;-136.53829956054688
307;1673434139.6219227;47.129193199999996;7.2386273999999995;50.10600280761719;1673434139.7124605;12.165380477905273;-9.684617042541504;-135.9822235107422
308;1673434139.8212202;47.1291838;7.2386161;50.105003356933594;1673434139.9000611;12.539994239807129;-9.548943519592285;-136.959716796875
309;1673434140.0167632;47.129176799999996;7.2386064999999995;50.10700225830078;1673434140.0883107;10.585485458374023;-12.498635292053223;-137.0308380126953
310;1673434140.217658;47.129171799999995;7.2385985999999995;50.11600112915039;1673434140.30208;7.293473720550537;-14.795952796936035;-136.84129333496094
311;1673434140.4166331;47.129168199999995;7.2385921;50.12800216674805;1673434140.496825;2.3561182022094727;-19.247692108154297;-138.6001739501953
312;1673434140.619076;47.1291655;7.2385869;50.13800048828125;1673434140.705549;-4.08192253112793;-20.029428482055664;-141.13052368164062
313;1673434140.8344195;47.129163299999995;7.2385829;50.14400100708008;1673434140.9097352;-9.851119995117188;-23.29161262512207;-142.9093475341797
314;1673434141.0274715;47.1291613;7.2385796;50.14800262451172;1673434141.1059759;-13.397933006286621;-19.57030487060547;-145.0985565185547
315;1673434141.2337751;47.1291593;7.2385768;50.15700149536133;1673434141.3100436;-15.707895278930664;-16.60207748413086;-146.29653930664062
316;1673434141.418337;47.129157299999996;7.2385743;50.18100357055664;1673434141.5092707;-34.63350296020508;-11.454044342041016;-138.9157257080078
317;1673434141.6307693;47.1291544;7.2385706;50.27000427246094;1673434141.7142298;-42.495384216308594;-13.951082229614258;-134.0907745361328
318;1673434141.8243086;47.1291501;7.2385646999999995;50.41200256347656;1673434141.9056578;-34.98536682128906;-11.63979434967041;-136.87850952148438
319;1673434142.0548897;47.129144499999995;7.2385568;50.608001708984375;1673434142.1257224;-23.508895874023438;-3.1232120990753174;-139.0047149658203
320;1673434142.2463026;47.129138499999996;7.2385474;50.867000579833984;1673434142.3181176;-16.581680297851562;-7.5106730461120605;-138.49041748046875
321;1673434142.4446087;47.129132899999995;7.238537399999999;51.19400405883789;1673434142.523389;-35.701263427734375;-19.459041595458984;-137.1180419921875
322;1673434142.6430395;47.129126799999995;7.2385268;51.5780029296875;1673434142.722706;-45.21009063720703;-23.263689041137695;-138.38880920410156
323;1673434142.8543668;47.1291191;7.2385158999999994;51.952003479003906;1673434142.9332063;-40.037391662597656;-19.262487411499023;-139.73756408691406
324;1673434143.0509863;47.12911;7.2385046;52.32100296020508;1673434143.1315851;-38.46229934692383;-18.182971954345703;-138.46694946289062
325;1673434143.2366898;47.129100099999995;7.2384929;52.678001403808594;1673434143.3158884;-35.91416931152344;-16.74074935913086;-138.22393798828125
326;1673434143.437191;47.1290896;7.2384808;53.03300094604492;1673434143.5217454;-33.52767562866211;-14.923940658569336;-137.60667419433594
327;1673434143.639659;47.1290787;7.2384682;53.39600372314453;1673434143.7093525;-31.803131103515625;-14.070125579833984;-137.19920349121094
328;1673434143.8406553;47.1290678;7.2384553;53.76100158691406;1673434143.9180217;-30.083450317382812;-13.116508483886719;-137.01190185546875
329;1673434144.0319407;47.1290571;7.238442099999999;54.130001068115234;1673434144.1083145;-28.918415069580078;-12.960357666015625;-136.8721466064453
330;1673434144.2173786;47.1290465;7.2384286;54.505001068115234;1673434144.332435;-28.275497436523438;-13.001663208007812;-136.8153533935547
331;1673434144.4522166;47.129036199999994;7.2384151;54.88500213623047;1673434144.53092;-27.992572784423828;-13.526199340820312;-136.7605438232422
332;1673434144.6449692;47.1290261;7.238401499999999;55.27000427246094;1673434144.7235055;-28.291532516479492;-14.035351753234863;-136.7471923828125
333;1673434144.8316324;47.1290164;7.238388;55.65300369262695;1673434144.9107287;-28.765790939331055;-14.597538948059082;-136.78904724121094
334;1673434145.0150259;47.1290067;7.2383744;56.044002532958984;1673434145.0983214;-29.260501861572266;-15.013755798339844;-136.81173706054688
335;1673434145.2359686;47.128997;7.2383609;56.44000244140625;1673434145.3214574;-29.77756690979004;-15.429616928100586;-136.84454345703125
336;1673434145.438415;47.1289874;7.238347399999999;56.83900451660156;1673434145.5295372;-30.14780044555664;-15.751347541809082;-136.85549926757812
337;1673434145.6513739;47.1289777;7.2383337999999995;57.23500442504883;1673434145.7321756;-30.348892211914062;-15.7726411819458;-136.89700317382812
338;1673434145.8598115;47.128968;7.2383203;57.63600158691406;1673434145.94251;-30.61199188232422;-15.675443649291992;-136.9231414794922
339;1673434146.0632513;47.1289582;7.238306799999999;58.03000259399414;1673434146.1373305;-30.595338821411133;-15.720032691955566;-136.94741821289062
340;1673434146.2492783;47.1289484;7.2382933;58.42900466918945;1673434146.3295202;-30.652481079101562;-15.552541732788086;-136.97439575195312
341;1673434146.4480278;47.1289385;7.2382797;58.829002380371094;1673434146.5316432;-30.51972198486328;-15.283326148986816;-137.00083923339844
342;1673434146.6427739;47.128928599999995;7.2382661;59.22600173950195;1673434146.7270365;-30.342477798461914;-15.20185375213623;-137.00491333007812
343;1673434146.8397462;47.1289187;7.2382525;59.625003814697266;1673434146.9219854;-30.31184196472168;-15.131941795349121;-136.97784423828125
344;1673434147.033903;47.1289087;7.2382389;60.02400207519531;1673434147.1102436;-30.123369216918945;-15.148458480834961;-136.92520141601562
345;1673434147.2368674;47.128898799999995;7.238225399999999;60.427001953125;1673434147.3181248;-30.196575164794922;-15.28155517578125;-136.87945556640625
346;1673434147.4274237;47.1288889;7.238211799999999;60.82100296020508;1673434147.5071592;-30.298532485961914;-15.345474243164062;-136.87229919433594
347;1673434147.6272926;47.128879;7.238198199999999;61.21600341796875;1673434147.7163408;-30.25509262084961;-15.314105987548828;-136.92178344726562
348;1673434147.8344707;47.128869099999996;7.238184599999999;61.61300277709961;1673434147.914899;-30.232881546020508;-15.17313289642334;-136.949462890625
349;1673434148.034751;47.1288592;7.2381709999999995;62.009002685546875;1673434148.1143782;-30.23543930053711;-15.048108100891113;-136.97186279296875
350;1673434148.232439;47.1288493;7.2381573999999995;62.40300369262695;1673434148.318645;-30.177194595336914;-15.007111549377441;-136.98045349121094
351;1673434148.4376311;47.1288394;7.238143699999999;62.802001953125;1673434148.5174422;-30.29762077331543;-15.263938903808594;-136.90261840820312
352;1673434148.6408482;47.128829499999995;7.238130099999999;63.195003509521484;1673434148.7351754;-30.390432357788086;-15.479532241821289;-136.8671875
353;1673434148.8420942;47.1288196;7.2381166;63.58900451660156;1673434148.9222543;-30.3409423828125;-15.386941909790039;-136.8827667236328
354;1673434149.0375671;47.1288097;7.238103;63.987003326416016;1673434149.1170633;-30.365947723388672;-15.357611656188965;-136.8767852783203
355;1673434149.225874;47.128799799999996;7.2380892999999995;64.38600158691406;1673434149.3095186;-30.32771110534668;-15.243945121765137;-136.920654296875
356;1673434149.419226;47.1287899;7.2380757;64.78300476074219;1673434149.501844;-30.23123550415039;-15.056331634521484;-136.96914672851562
357;1673434149.6182597;47.12878;7.238061999999999;65.18000030517578;1673434149.6974194;-30.313289642333984;-15.088027000427246;-136.94070434570312
358;1673434149.8081915;47.1287701;7.2380483;65.57500457763672;1673434149.8907304;-30.25316047668457;-15.055623054504395;-136.97775268554688
359;1673434150.0030212;47.128760199999995;7.2380347;65.96700286865234;1673434150.086809;-30.24176025390625;-15.267216682434082;-136.95143127441406
360;1673434150.2155137;47.1287503;7.2380211;66.36400604248047;1673434150.2983294;-30.298799514770508;-15.528082847595215;-136.86572265625
361;1673434150.4155612;47.1287404;7.2380074;66.76300048828125;1673434150.4950519;-30.25042152404785;-15.590445518493652;-136.89410400390625
362;1673434150.6112852;47.128730499999996;7.2379937;67.16200256347656;1673434150.698819;-30.25347137451172;-15.511138916015625;-136.89321899414062
363;1673434150.828168;47.128720699999995;7.2379801;67.56200408935547;1673434150.9047325;-30.33810043334961;-15.426543235778809;-136.92481994628906
364;1673434151.0266278;47.1287108;7.2379663999999995;67.95899963378906;1673434151.1115696;-30.26374053955078;-15.080551147460938;-137.03379821777344
365;1673434151.2315671;47.1287009;7.2379529;68.35200500488281;1673434151.3113477;-30.33918571472168;-15.084914207458496;-136.97068786621094
366;1673434151.4241018;47.128690999999996;7.2379393;68.74700164794922;1673434151.510867;-30.340627670288086;-15.109808921813965;-136.9706573486328
367;1673434151.631106;47.128681099999994;7.2379257;69.14100646972656;1673434151.7143233;-30.346126556396484;-15.412813186645508;-136.89842224121094
368;1673434151.8318763;47.1286712;7.237912;69.53700256347656;1673434151.9173234;-30.43271827697754;-15.500844955444336;-136.8779296875
369;1673434152.0312517;47.1286614;7.2378984;69.9320068359375;1673434152.1138344;-30.301841735839844;-15.523055076599121;-136.90960693359375
370;1673434152.2355924;47.1286515;7.2378848;70.32600402832031;1673434152.311527;-30.392858505249023;-15.387622833251953;-136.924560546875
371;1673434152.4364066;47.1286415;7.2378711;70.72100067138672;1673434152.517131;-30.317161560058594;-15.126289367675781;-136.98362731933594
372;1673434152.6359255;47.1286316;7.2378576;71.11300659179688;1673434152.7139795;-30.376628875732422;-15.03369140625;-136.98533630371094
373;1673434152.8294203;47.1286217;7.237844;71.50700378417969;1673434152.9100413;-30.390724182128906;-14.99026870727539;-136.99688720703125
374;1673434153.0310423;47.128611799999995;7.2378303;71.90299987792969;1673434153.111308;-30.41263198852539;-15.222638130187988;-136.97161865234375
375;1673434153.2311492;47.1286019;7.2378165999999995;72.29600524902344;1673434153.3137844;-30.367694854736328;-15.336331367492676;-136.9287872314453
376;1673434153.4299688;47.128591899999996;7.2378029999999995;72.69200134277344;1673434153.5190601;-30.3188533782959;-15.457154273986816;-136.90957641601562
377;1673434153.6456752;47.128581999999994;7.237789299999999;73.08700561523438;1673434153.733219;-30.327421188354492;-15.479219436645508;-136.9392852783203
378;1673434153.85611;47.128572;7.237775699999999;73.48300170898438;1673434153.930545;-30.356979370117188;-15.255182266235352;-136.95306396484375
379;1673434154.0869596;47.128562099999996;7.237762;73.8800048828125;1673434154.180029;-30.23031997680664;-15.143528938293457;-136.98358154296875
380;1673434154.2819514;47.1285521;7.2377484;74.2760009765625;1673434154.3523774;-30.185056686401367;-15.078326225280762;-136.99505615234375
381;1673434154.4574316;47.1285421;7.2377347;74.66800689697266;1673434154.5390995;-30.11374282836914;-15.07275104522705;-136.95419311523438
382;1673434154.6586373;47.1285321;7.2377211;75.06200408935547;1673434154.7359266;-30.22068214416504;-15.105133056640625;-136.95724487304688
383;1673434154.8542576;47.1285222;7.2377075;75.45500183105469;1673434154.9384086;-30.261049270629883;-15.182661056518555;-136.92657470703125
384;1673434155.0582886;47.128512199999996;7.2376938;75.85200500488281;1673434155.1387236;-30.098907470703125;-15.363061904907227;-136.8787384033203
385;1673434155.2425783;47.1285023;7.2376803;76.2490005493164;1673434155.317103;-30.270065307617188;-15.384181022644043;-136.88572692871094
386;1673434155.4411085;47.1284924;7.2376666;76.64400482177734;1673434155.5231416;-30.206298828125;-15.487678527832031;-136.8822021484375
387;1673434155.637357;47.128482399999996;7.237653;77.04000091552734;1673434155.7188442;-30.280323028564453;-15.339599609375;-136.94448852539062
388;1673434155.8501406;47.1284725;7.2376394;77.43600463867188;1673434155.9351523;-30.3613224029541;-15.251851081848145;-136.94520568847656
389;1673434156.0429783;47.1284625;7.2376258;77.83500671386719;1673434156.1481974;-30.261329650878906;-15.291744232177734;-136.94000244140625
390;1673434156.2612777;47.128452599999996;7.2376122;78.23900604248047;1673434156.3368773;-30.162803649902344;-15.278895378112793;-136.9586944580078
391;1673434156.4700968;47.1284426;7.2375986;78.64100646972656;1673434156.5533292;-30.327186584472656;-15.305212020874023;-136.9287872314453
392;1673434156.6862378;47.1284326;7.237584999999999;79.03800201416016;1673434156.7569277;-30.13169288635254;-15.464365005493164;-136.91531372070312
393;1673434156.8667583;47.1284226;7.237571399999999;79.43400573730469;1673434156.9455638;-30.094566345214844;-15.332112312316895;-136.87596130371094
394;1673434157.0574849;47.1284126;7.2375579;79.83300018310547;1673434157.1306179;-30.122228622436523;-15.515542030334473;-136.8383026123047
395;1673434157.2437742;47.128402699999995;7.2375443;80.23400115966797;1673434157.3183024;-30.11985206604004;-15.243432998657227;-136.83921813964844
396;1673434157.4319608;47.1283927;7.2375308;80.6300048828125;1673434157.5147223;-30.03339195251465;-15.298311233520508;-136.864013671875
397;1673434157.6452403;47.128382699999996;7.2375172;81.02300262451172;1673434157.72598;-30.15278434753418;-15.05807113647461;-136.8794708251953
398;1673434157.8395407;47.1283728;7.237503599999999;81.42100524902344;1673434157.919787;-30.256261825561523;-15.095846176147461;-136.91770935058594
399;1673434158.0335095;47.1283629;7.2374901;81.82000732421875;1673434158.1055574;-30.236446380615234;-15.138577461242676;-136.91770935058594
400;1673434158.2329814;47.128353;7.237476399999999;82.21900177001953;1673434158.3159573;-30.303516387939453;-15.202879905700684;-136.93484497070312
401;1673434158.448021;47.128343099999995;7.237462799999999;82.61800384521484;1673434158.5268323;-30.3095645904541;-15.27122974395752;-136.9025115966797
402;1673434158.642876;47.1283331;7.2374493;83.01800537109375;1673434158.7228146;-30.320785522460938;-15.338278770446777;-136.8866729736328
403;1673434158.8396997;47.128323099999996;7.2374357;83.41800689697266;1673434158.9257085;-30.2291316986084;-15.279108047485352;-136.857666015625
404;1673434159.0450556;47.1283132;7.2374221;83.81800079345703;1673434159.1387718;-30.39456558227539;-15.434493064880371;-136.86585998535156
405;1673434159.271196;47.1283032;7.2374084;84.21700286865234;1673434159.3488827;-29.995258331298828;-15.29045295715332;-136.90859985351562
406;1673434159.4655542;47.128293199999995;7.2373948;84.61400604248047;1673434159.5409548;-30.0451602935791;-15.244315147399902;-136.85914611816406
407;1673434159.6626308;47.1282832;7.2373812;85.01100158691406;1673434159.7362227;-29.985559463500977;-15.153451919555664;-136.8736572265625
408;1673434159.855312;47.128273199999995;7.2373676;85.40900421142578;1673434159.9293306;-29.83115005493164;-15.156152725219727;-136.85443115234375
409;1673434160.0418687;47.1282632;7.237354;85.81000518798828;1673434160.126564;-30.05451011657715;-15.16195011138916;-136.83255004882812
410;1673434160.2420857;47.1282533;7.2373404;86.20500183105469;1673434160.3178813;-30.013317108154297;-15.165043830871582;-136.85031127929688
411;1673434160.4390435;47.128243399999995;7.2373267;86.60200500488281;1673434160.5197499;-30.178264617919922;-15.296028137207031;-136.86114501953125
412;1673434160.6359632;47.1282335;7.2373131;87.00100708007812;1673434160.7144828;-30.160146713256836;-15.220702171325684;-136.84927368164062
413;1673434160.8288107;47.1282236;7.2372996;87.39900207519531;1673434160.9149873;-30.34243392944336;-15.258979797363281;-136.8408203125
414;1673434161.0407393;47.128213699999996;7.237286;87.79100036621094;1673434161.1227987;-30.433408737182617;-15.1814603805542;-136.85791015625
415;1673434161.2353249;47.128203799999994;7.237272399999999;88.18500518798828;1673434161.322106;-30.394073486328125;-15.147356033325195;-136.87405395507812
416;1673434161.4224093;47.1281938;7.237258799999999;88.5840072631836;1673434161.5146282;-30.255537033081055;-15.155106544494629;-136.86279296875
417;1673434161.6302989;47.128184;7.2372451;88.98400115966797;1673434161.7177663;-30.220478057861328;-15.262167930603027;-136.89019775390625
418;1673434161.8306725;47.128174099999995;7.2372314;89.38600158691406;1673434161.9101598;-30.327056884765625;-15.26629638671875;-136.86585998535156
419;1673434162.0487905;47.1281641;7.2372176999999995;89.78300476074219;1673434162.1336908;-30.19493293762207;-15.34619140625;-136.88226318359375
