;pos_time;latitude;longitude;altitude;alt_time;pitch;roll;yaw
0;1673435092.9785624;47.1306424;7.2406198999999996;-0.01900000125169754;1673435093.1299434;-0.3473213016986847;-0.33968618512153625;90.6146240234375
1;1673435093.196858;47.1306424;7.2406198999999996;-0.01900000125169754;1673435093.3356504;-0.34397628903388977;0.020273232832551003;90.74259948730469
2;1673435093.3843098;47.1306424;7.2406198999999996;-0.018000001087784767;1673435093.526018;-0.237630695104599;-0.002806351287290454;90.83543395996094
3;1673435093.5814903;47.1306424;7.2406198999999996;-0.018000001087784767;1673435093.7341983;-0.33997806906700134;-0.06303145736455917;90.65110778808594
4;1673435093.7875383;47.1306425;7.240619799999999;-0.01900000125169754;1673435093.9533622;-0.0787062719464302;-0.03527091071009636;90.60826110839844
5;1673435093.9968767;47.1306425;7.240619799999999;-0.021000001579523087;1673435094.1364238;-0.21143576502799988;0.02385713905096054;90.593994140625
6;1673435094.1837375;47.1306424;7.240619799999999;-0.02200000174343586;1673435094.3199732;-0.23619137704372406;-0.007622182369232178;90.822265625
7;1673435094.3749032;47.1306424;7.2406197;-0.027000000700354576;1673435094.5162077;-0.14598122239112854;0.1848773956298828;90.58859252929688
8;1673435094.5704012;47.1306424;7.2406197;-0.03200000151991844;1673435094.7305076;-0.16798652708530426;0.07522057741880417;90.83453369140625
9;1673435094.783912;47.1306424;7.240619799999999;-0.003000000026077032;1673435094.96591;-0.31519150733947754;0.7184053063392639;90.65959167480469
10;1673435095.0144165;47.1306424;7.240619799999999;-0.004000000189989805;1673435095.1525776;-0.4855416715145111;0.2682487666606903;90.71839141845703
11;1673435095.1941378;47.1306424;7.2406198999999996;-0.005000000353902578;1673435095.3361268;-0.36333978176116943;0.41436654329299927;90.93689727783203
12;1673435095.391321;47.1306424;7.2406198999999996;-0.005000000353902578;1673435095.555649;-0.45334139466285706;0.4709961712360382;90.77064514160156
13;1673435095.617199;47.1306424;7.2406198999999996;-0.004000000189989805;1673435095.7733917;-0.45819056034088135;0.3329772651195526;90.85108947753906
14;1673435095.8225126;47.1306424;7.240619799999999;-0.004000000189989805;1673435095.9554083;-0.34592485427856445;0.6367141008377075;90.88674926757812
15;1673435096.0018525;47.1306424;7.240619799999999;-0.004000000189989805;1673435096.1335032;-0.2305397391319275;0.8217023015022278;90.53160858154297
16;1673435096.1843364;47.1306424;7.2406197;0.0;1673435096.3293815;-0.43177396059036255;0.7299332022666931;90.7298812866211
17;1673435096.3875577;47.1306425;7.240619799999999;0.003000000026077032;1673435096.5386357;-0.34759804606437683;0.4555234909057617;90.55418395996094
18;1673435096.591537;47.1306425;7.240619799999999;0.007000000216066837;1673435096.7418048;-0.36960896849632263;0.8231496810913086;90.6921615600586
19;1673435096.7931027;47.1306425;7.2406197;0.009000000543892384;1673435096.9425673;-0.4851107895374298;0.7754189372062683;90.67643737792969
20;1673435097.003759;47.1306425;7.2406197;0.012000000104308128;1673435097.1323018;-0.3869679868221283;0.8819353580474854;90.72974395751953
21;1673435097.1821454;47.1306425;7.2406197;0.014000000432133675;1673435097.3415356;-0.30834153294563293;0.17262022197246552;90.66539764404297
22;1673435097.3953698;47.1306424;7.240619799999999;0.015000000596046448;1673435097.5314524;-0.43497979640960693;0.16255779564380646;90.53460693359375
23;1673435097.5854974;47.1306424;7.2406198999999996;0.018000001087784767;1673435097.7438498;-0.4578961730003357;0.024881452322006226;90.79732513427734
24;1673435097.7919827;47.1306424;7.24062;0.01900000125169754;1673435097.9283054;-0.5027866363525391;0.3954211473464966;90.86541748046875
25;1673435097.978093;47.1306424;7.24062;0.02500000037252903;1673435098.1168175;-0.3907569646835327;0.26470470428466797;90.78226470947266
26;1673435098.1695104;47.1306423;7.2406201;0.02800000086426735;1673435098.3613527;0.8464345932006836;-0.21296647191047668;91.10174560546875
27;1673435098.4382;47.130642099999996;7.2406201999999995;0.030000001192092896;1673435098.583389;3.024183511734009;-2.1453018188476562;92.44630432128906
28;1673435098.637438;47.1306418;7.2406204;0.0430000014603138;1673435098.7820625;5.82506799697876;-9.227458953857422;93.0229721069336
29;1673435098.8316154;47.130641499999996;7.2406204999999995;0.06800000369548798;1673435098.9564788;6.414565086364746;-11.469836235046387;92.47086334228516
30;1673435099.0005865;47.1306413;7.2406206;0.10400000214576721;1673435099.1585042;4.6468939781188965;-5.954952239990234;92.27643585205078
31;1673435099.2099848;47.1306412;7.2406206;0.1600000113248825;1673435099.3591223;6.546640396118164;-8.11075210571289;91.84795379638672
32;1673435099.4130907;47.1306412;7.2406206;0.2330000102519989;1673435099.5647757;6.986506462097168;-11.87009334564209;91.63309478759766
33;1673435099.6154466;47.1306412;7.2406206;0.3190000057220459;1673435099.7556546;7.013774394989014;-7.7045817375183105;91.62369537353516
34;1673435099.8041646;47.1306413;7.2406204999999995;0.41700002551078796;1673435099.9540038;6.2612385749816895;-7.577453136444092;91.97166442871094
35;1673435100.0152678;47.1306416;7.2406204;0.5290000438690186;1673435100.1701076;5.492465019226074;-10.461015701293945;92.65975189208984
36;1673435100.229458;47.1306419;7.2406201;0.6530000567436218;1673435100.3777437;4.973260402679443;-6.801943302154541;93.06365203857422
37;1673435100.4289417;47.1306422;7.2406198999999996;0.800000011920929;1673435100.5811162;4.88966703414917;-4.754583835601807;93.16304016113281
38;1673435100.6320667;47.1306425;7.240619799999999;0.9590000510215759;1673435100.7686052;5.704344749450684;-9.808276176452637;92.91361999511719
39;1673435100.8184328;47.130642599999995;7.2406197;1.1260000467300415;1673435100.9489806;6.3654093742370605;-7.4447221755981445;92.84687042236328
40;1673435100.9965384;47.130642699999996;7.2406197;1.308000087738037;1673435101.1399632;6.153308868408203;-5.014562606811523;93.37019348144531
41;1673435101.1938164;47.1306428;7.2406197;1.4930000305175781;1673435101.3338223;5.706462860107422;-8.641884803771973;93.47566986083984
42;1673435101.3835573;47.1306429;7.2406197;1.6810001134872437;1673435101.5418882;5.5220947265625;-7.220950603485107;94.04863739013672
43;1673435101.5965097;47.1306429;7.2406197;1.8750001192092896;1673435101.737152;5.175596714019775;-4.35604190826416;94.17660522460938
44;1673435101.7978752;47.1306428;7.2406197;2.074000120162964;1673435101.9649565;5.554254531860352;-9.338541984558105;94.16898345947266
45;1673435102.014934;47.130642599999995;7.2406197;2.261000156402588;1673435102.150726;6.180663585662842;-10.171751976013184;94.49577331542969
46;1673435102.1960676;47.1306425;7.2406197;2.453000068664551;1673435102.3452532;6.850484848022461;-5.749185085296631;94.9268798828125
47;1673435102.4111977;47.1306425;7.2406197;2.6470000743865967;1673435102.570826;6.813187599182129;-6.8909125328063965;95.27759552001953
48;1673435102.6245224;47.130642699999996;7.2406197;2.826000213623047;1673435102.7722676;6.2308125495910645;-8.875950813293457;95.0286865234375
49;1673435102.8229263;47.1306428;7.2406196;3.0200002193450928;1673435102.9634957;5.423703670501709;-5.016268730163574;94.74435424804688
50;1673435103.0630016;47.1306428;7.2406196;3.2120001316070557;1673435103.2300675;5.10167932510376;-5.859618186950684;94.5500259399414
51;1673435103.28192;47.1306428;7.240619499999999;3.4070000648498535;1673435103.4025192;5.243221282958984;-10.293133735656738;94.90787506103516
52;1673435103.4508467;47.130642599999995;7.240619499999999;3.6040000915527344;1673435103.6011164;5.923699855804443;-7.21652889251709;95.1824951171875
53;1673435103.6584127;47.1306425;7.240619499999999;3.80400013923645;1673435103.7893565;6.56046724319458;-5.230288982391357;95.05017852783203
54;1673435103.833136;47.1306425;7.240619499999999;4.005000114440918;1673435103.9638066;6.4655022621154785;-9.23015022277832;94.82460021972656
55;1673435104.014877;47.1306424;7.2406196;4.213000297546387;1673435104.1557448;5.364201545715332;-7.2063307762146;94.55941009521484
56;1673435104.2091775;47.1306423;7.2406196;4.404000282287598;1673435104.353574;5.5129008293151855;-6.443665504455566;94.35350799560547
57;1673435104.4153626;47.130642099999996;7.2406197;4.6010003089904785;1673435104.5657368;5.981095314025879;-10.911245346069336;94.73194885253906
58;1673435104.623504;47.130641999999995;7.2406197;4.798000335693359;1673435104.7696254;6.217659950256348;-9.254446029663086;95.006591796875
59;1673435104.8294218;47.1306419;7.2406197;4.99500036239624;1673435104.9789932;6.68016242980957;-5.580122947692871;95.04837799072266
60;1673435105.0285556;47.130641999999995;7.2406197;5.195000171661377;1673435105.169784;6.632209777832031;-8.666414260864258;95.0694580078125
61;1673435105.2318668;47.130642099999996;7.240619799999999;5.386000156402588;1673435105.3787816;6.334755897521973;-9.114212989807129;94.98003387451172
62;1673435105.4354773;47.1306422;7.2406197;5.590000152587891;1673435105.5865002;5.385895252227783;-5.251153469085693;94.70198059082031
63;1673435105.634129;47.1306422;7.2406197;5.799000263214111;1673435105.763877;5.526627063751221;-8.852317810058594;94.80572509765625
64;1673435105.8163178;47.130642099999996;7.2406197;5.999000072479248;1673435105.9693878;5.745914936065674;-9.41922378540039;95.2230453491211
65;1673435106.023609;47.130642099999996;7.2406197;6.206000328063965;1673435106.1721618;6.288434028625488;-5.124743461608887;95.36864471435547
66;1673435106.2242815;47.1306422;7.2406197;6.410000324249268;1673435106.3786554;6.509655952453613;-7.174891471862793;94.87346649169922
67;1673435106.4296124;47.1306422;7.2406197;6.61400032043457;1673435106.5794976;6.166155815124512;-9.975812911987305;94.57466125488281
68;1673435106.6298203;47.1306422;7.2406196;6.818000316619873;1673435106.7890177;5.7122697830200195;-6.156792640686035;94.48321533203125
69;1673435106.8420317;47.130642099999996;7.2406196;7.03000020980835;1673435106.9807549;5.597329616546631;-7.61784553527832;94.589111328125
70;1673435107.0407062;47.130641999999995;7.2406196;7.2210001945495605;1673435107.1760135;5.339505672454834;-10.53569221496582;95.02306365966797
71;1673435107.2237234;47.1306419;7.2406196;7.418000221252441;1673435107.3855898;5.846148490905762;-6.863888740539551;95.12372589111328
72;1673435107.4406972;47.130641999999995;7.2406197;7.61400032043457;1673435107.5782864;5.898535251617432;-5.630644798278809;94.91399383544922
73;1673435107.6326551;47.130642099999996;7.2406197;7.812000274658203;1673435107.781612;6.330246925354004;-9.889464378356934;94.64088439941406
74;1673435107.8348775;47.1306422;7.2406197;8.01300048828125;1673435107.9821749;6.651944637298584;-7.4601969718933105;94.68487548828125
75;1673435108.037382;47.130642099999996;7.240619799999999;8.217000007629395;1673435108.1713092;6.044530391693115;-5.616550922393799;94.92440795898438
76;1673435108.224186;47.130642099999996;7.240619799999999;8.418000221252441;1673435108.3668604;5.4635539054870605;-9.706811904907227;95.31356811523438
77;1673435108.4228358;47.130641999999995;7.240619799999999;8.618000030517578;1673435108.5722337;5.704566478729248;-8.26164436340332;95.73443603515625
78;1673435108.6162875;47.130641999999995;7.240619799999999;8.818000793457031;1673435108.7664351;6.184064865112305;-4.63566255569458;95.31700134277344
79;1673435108.8305624;47.130642099999996;7.240619799999999;9.019000053405762;1673435108.978243;6.372435092926025;-8.978475570678711;94.74169921875
80;1673435109.040271;47.1306422;7.240619799999999;9.223000526428223;1673435109.186646;6.465972423553467;-9.429830551147461;94.538330078125
81;1673435109.2407112;47.130642099999996;7.240619799999999;9.427000045776367;1673435109.377996;6.321155071258545;-5.592904090881348;94.57213592529297
82;1673435109.4291961;47.130642099999996;7.240619799999999;9.632000923156738;1673435109.5743773;5.649014949798584;-8.872689247131348;94.96302795410156
83;1673435109.6206021;47.130641999999995;7.240619799999999;9.833000183105469;1673435109.7610168;5.30745267868042;-10.04700756072998;95.29696655273438
84;1673435109.8116977;47.130641999999995;7.240619799999999;10.032000541687012;1673435109.9817367;5.00929594039917;-5.578999996185303;94.81590270996094
85;1673435110.0337567;47.130641999999995;7.240619799999999;10.25200080871582;1673435110.1895208;6.021688938140869;-8.92013931274414;94.20957946777344
86;1673435110.2368984;47.1306422;7.2406197;10.575000762939453;1673435110.3702068;6.944705009460449;-12.7568941116333;94.36528778076172
87;1673435110.4227586;47.1306425;7.2406196;10.952000617980957;1673435110.5713925;6.443416118621826;-8.166522026062012;94.63349914550781
88;1673435110.622308;47.1306429;7.2406196;11.347000122070312;1673435110.7756367;5.646667957305908;-4.9980244636535645;94.9896240234375
89;1673435110.8266065;47.130643299999996;7.240619499999999;11.747000694274902;1673435110.9756224;4.839648246765137;-8.087979316711426;95.18694305419922
90;1673435111.0254273;47.1306435;7.2406194;12.148000717163086;1673435111.1606371;4.914994239807129;-5.714468955993652;95.12174224853516
91;1673435111.2180953;47.1306437;7.2406193;12.54800033569336;1673435111.3626504;5.174155235290527;-3.0289039611816406;94.68352508544922
92;1673435111.4187236;47.1306438;7.2406194;12.947000503540039;1673435111.57783;5.3530378341674805;-7.484255313873291;94.43744659423828
93;1673435111.6291554;47.1306437;7.240619499999999;13.347001075744629;1673435111.770677;5.99009370803833;-7.845895767211914;94.64408111572266
94;1673435111.8158407;47.1306435;7.240619499999999;13.75100040435791;1673435111.9601386;6.026535511016846;-4.483654975891113;94.84571075439453
95;1673435112.0132787;47.130643299999996;7.2406196;14.156001091003418;1673435112.1596084;5.591769695281982;-8.572651863098145;94.78071594238281
96;1673435112.2152972;47.1306431;7.2406196;14.557001113891602;1673435112.3673923;5.488992691040039;-9.137482643127441;94.72193908691406
97;1673435112.4256232;47.1306429;7.2406196;14.960000991821289;1673435112.5785248;5.564581871032715;-5.508609771728516;94.78621673583984
98;1673435112.6271727;47.1306429;7.2406196;15.36600112915039;1673435112.7767627;5.717250823974609;-7.516349792480469;94.63196563720703
99;1673435112.840175;47.1306428;7.2406197;15.791000366210938;1673435112.9807978;5.846118450164795;-10.199139595031738;94.64986419677734
100;1673435113.0330806;47.1306428;7.2406197;16.187000274658203;1673435113.184903;6.243349552154541;-6.2626142501831055;94.84857940673828
101;1673435113.2366478;47.130642699999996;7.2406197;16.600000381469727;1673435113.3867934;6.019035339355469;-6.261332035064697;94.88834381103516
102;1673435113.4380486;47.130642699999996;7.2406196;17.00800132751465;1673435113.5779808;5.823399543762207;-9.843382835388184;94.89616394042969
103;1673435113.6398442;47.130642599999995;7.2406196;17.418001174926758;1673435113.7981079;5.6625657081604;-6.819416522979736;94.85103607177734
104;1673435113.8463514;47.130642699999996;7.2406196;17.82400131225586;1673435113.9897132;5.482741355895996;-5.528227806091309;94.71154022216797
105;1673435114.0352638;47.130642699999996;7.2406196;18.233001708984375;1673435114.1765022;5.650747299194336;-9.249503135681152;94.7367935180664
106;1673435114.2272885;47.1306428;7.240619499999999;18.643001556396484;1673435114.381856;5.5832109451293945;-7.387024879455566;94.96306610107422
107;1673435114.4446988;47.130642699999996;7.240619499999999;19.053001403808594;1673435114.5904753;5.854122161865234;-5.028379917144775;94.87825012207031
108;1673435114.6378582;47.130642699999996;7.240619499999999;19.477001190185547;1673435114.7853875;5.656258583068848;-8.85845947265625;94.71408081054688
109;1673435114.8373241;47.130642599999995;7.240619499999999;19.86600112915039;1673435114.985425;5.786629676818848;-8.721988677978516;94.7563705444336
110;1673435115.033801;47.130642599999995;7.240619499999999;20.275001525878906;1673435115.19781;5.54740571975708;-5.331315994262695;94.6882095336914
111;1673435115.2502618;47.130642699999996;7.2406196;20.685001373291016;1673435115.398178;5.533726215362549;-7.44663143157959;94.68650817871094
112;1673435115.453465;47.130642699999996;7.2406196;21.09600067138672;1673435115.5981991;5.73617696762085;-9.780484199523926;94.68408203125
113;1673435115.6464927;47.130642699999996;7.2406197;21.510000228881836;1673435115.8209894;5.900397300720215;-5.983729839324951;94.7237777709961
114;1673435115.8694787;47.130642599999995;7.2406197;21.918001174926758;1673435116.0249696;5.804224967956543;-6.157790184020996;94.74261474609375
115;1673435116.0728545;47.130642599999995;7.2406197;22.319000244140625;1673435116.210346;6.083414554595947;-9.839179992675781;94.69660186767578
116;1673435116.2659678;47.1306425;7.2406197;22.725000381469727;1673435116.408744;6.150064945220947;-7.318900108337402;94.833740234375
117;1673435116.4588597;47.130642599999995;7.240619799999999;23.131000518798828;1673435116.6076357;6.069780349731445;-5.219449996948242;94.84834289550781
118;1673435116.6576743;47.130642699999996;7.240619799999999;23.535001754760742;1673435116.813682;5.853765487670898;-9.3562650680542;94.73236846923828
119;1673435116.8681455;47.130642699999996;7.240619799999999;23.937000274658203;1673435117.0066793;5.958361625671387;-7.62418270111084;94.81741333007812
120;1673435117.048358;47.130642599999995;7.2406197;24.341001510620117;1673435117.1861362;5.721908092498779;-5.284739971160889;94.89110565185547
121;1673435117.2428517;47.130642599999995;7.2406197;24.74100112915039;1673435117.395175;5.811881065368652;-9.159639358520508;94.75772094726562
122;1673435117.4520996;47.130642599999995;7.2406197;25.13500213623047;1673435117.590256;5.7216877937316895;-8.664705276489258;94.6346664428711
123;1673435117.6385202;47.130642599999995;7.2406197;25.533000946044922;1673435117.7862384;5.850348472595215;-5.1168904304504395;94.66167449951172
124;1673435117.8416576;47.130642699999996;7.2406197;25.9320011138916;1673435117.994912;5.900177001953125;-7.546421051025391;94.86909484863281
125;1673435118.0459235;47.1306428;7.2406197;26.3330020904541;1673435118.1901283;5.738807201385498;-9.09345531463623;94.88374328613281
126;1673435118.2462146;47.1306428;7.2406197;26.737001419067383;1673435118.3860986;5.674564361572266;-5.363865852355957;94.78907775878906
127;1673435118.4385226;47.130642699999996;7.2406196;27.14200210571289;1673435118.5854712;5.662601947784424;-7.206600666046143;94.5998306274414
128;1673435118.6380486;47.130642599999995;7.2406196;27.540000915527344;1673435118.7863245;5.794325351715088;-9.754918098449707;94.64681243896484
129;1673435118.835183;47.130642599999995;7.2406196;27.939001083374023;1673435118.9913502;5.869261264801025;-6.5804057121276855;94.7705078125
130;1673435119.0442152;47.130642599999995;7.2406196;28.339000701904297;1673435119.1855934;5.870002269744873;-5.821349143981934;94.88015747070312
131;1673435119.2389667;47.130642699999996;7.2406196;28.742000579833984;1673435119.3825786;5.73028039932251;-9.81692123413086;94.77748107910156
132;1673435119.4294794;47.130642699999996;7.2406196;29.1460018157959;1673435119.5730333;5.719425201416016;-6.7842183113098145;94.7752456665039
133;1673435119.6226318;47.130642699999996;7.2406196;29.543001174926758;1673435119.7666624;5.665801048278809;-5.3346848487854;94.86131286621094
134;1673435119.817946;47.130642699999996;7.2406196;29.939001083374023;1673435120.014006;5.723080158233643;-9.27854061126709;94.83190155029297
135;1673435120.0661113;47.1306428;7.2406196;30.332000732421875;1673435120.217452;5.906459808349609;-7.683841228485107;94.70648956298828
136;1673435120.2702327;47.1306428;7.2406197;30.73000144958496;1673435120.4094222;6.046313285827637;-4.793761253356934;94.64401245117188
137;1673435120.4634228;47.1306429;7.2406197;31.138002395629883;1673435120.595584;5.901684761047363;-8.015799522399902;94.7882308959961
138;1673435120.6494179;47.1306429;7.240619799999999;31.545001983642578;1673435120.8208058;6.260626792907715;-8.226117134094238;94.89300537109375
139;1673435120.8825796;47.1306429;7.240619799999999;31.944002151489258;1673435121.033698;5.864638805389404;-4.990142822265625;94.79647827148438
140;1673435121.0826893;47.1306428;7.240619799999999;32.336002349853516;1673435121.2256775;5.661595821380615;-7.661386013031006;94.72874450683594
141;1673435121.2830591;47.130642599999995;7.240619799999999;32.72700119018555;1673435121.421127;5.7609052658081055;-9.593966484069824;94.65499877929688
142;1673435121.4712691;47.130642599999995;7.240619799999999;33.124000549316406;1673435121.612028;5.741804122924805;-5.784028053283691;94.67245483398438
143;1673435121.6649933;47.130642599999995;7.240619799999999;33.520999908447266;1673435121.8015234;5.924300193786621;-6.430785179138184;94.71060943603516
144;1673435121.8505466;47.130642599999995;7.240619799999999;33.93600082397461;1673435121.9913273;5.664441108703613;-9.947622299194336;94.70259857177734
145;1673435122.0428777;47.130642599999995;7.240619799999999;34.320003509521484;1673435122.1892;5.865956783294678;-6.445422172546387;94.71566009521484
146;1673435122.241396;47.130642599999995;7.240619799999999;34.72300338745117;1673435122.3925292;5.745054721832275;-5.775546073913574;94.80986785888672
147;1673435122.4424906;47.130642599999995;7.240619799999999;35.12000274658203;1673435122.577264;5.9218220710754395;-9.389517784118652;94.87969970703125
148;1673435122.6449966;47.130642599999995;7.240619799999999;35.51100158691406;1673435122.793636;6.010615348815918;-6.9231038093566895;94.880615234375
149;1673435122.8499112;47.130642699999996;7.240619799999999;35.90500259399414;1673435122.9944408;5.999485969543457;-4.6807451248168945;94.77249908447266
150;1673435123.051557;47.1306428;7.240619799999999;36.301002502441406;1673435123.221426;5.811689376831055;-8.744793891906738;94.623046875
151;1673435123.2704146;47.1306428;7.240619799999999;36.698001861572266;1673435123.4053025;5.963589191436768;-8.117450714111328;94.71943664550781
152;1673435123.4550538;47.130642699999996;7.240619799999999;37.09600067138672;1673435123.5917766;5.86354398727417;-5.063446521759033;94.87635803222656
153;1673435123.6457455;47.130642699999996;7.240619799999999;37.492000579833984;1673435123.801056;5.72037935256958;-8.234095573425293;94.78211975097656
154;1673435123.8629766;47.130642599999995;7.240619799999999;37.884002685546875;1673435124.0036316;5.537485122680664;-9.72351360321045;94.63851165771484
155;1673435124.0507667;47.130642599999995;7.2406197;38.27800369262695;1673435124.19083;5.5337300300598145;-5.391684055328369;94.615966796875
156;1673435124.2413485;47.130642699999996;7.2406197;38.67400360107422;1673435124.3894436;5.6355061531066895;-6.805246353149414;94.85212707519531
157;1673435124.4487298;47.130642699999996;7.2406197;39.07500076293945;1673435124.5993636;5.840176582336426;-9.81135082244873;94.97227478027344
158;1673435124.6509185;47.130642699999996;7.2406197;39.47500228881836;1673435124.7952063;5.832059383392334;-5.566845893859863;94.89139556884766
159;1673435124.85346;47.130642699999996;7.2406197;39.87000274658203;1673435125.001754;5.843109607696533;-5.99334716796875;94.8936996459961
160;1673435125.07638;47.1306428;7.240619799999999;40.25700378417969;1673435125.2162986;5.804851531982422;-9.18871784210205;94.81906127929688
161;1673435125.2637823;47.1306428;7.240619799999999;40.64200210571289;1673435125.4111123;6.001476764678955;-6.908814907073975;94.74651336669922
162;1673435125.4580314;47.1306428;7.240619799999999;41.05000305175781;1673435125.602497;5.821907997131348;-5.038511753082275;94.79602813720703
163;1673435125.6534932;47.1306429;7.240619799999999;41.432003021240234;1673435125.7992904;5.762879371643066;-8.196781158447266;94.63508605957031
164;1673435125.847855;47.1306428;7.240619799999999;41.83100128173828;1673435125.9881413;5.965758800506592;-8.772356986999512;94.71199035644531
165;1673435126.037184;47.1306428;7.240619799999999;42.22900390625;1673435126.1901455;5.746758460998535;-4.870634078979492;94.72952270507812
166;1673435126.2435262;47.130642699999996;7.240619799999999;42.62200164794922;1673435126.3891842;5.792349338531494;-8.353919982910156;94.84940338134766
167;1673435126.454539;47.130642599999995;7.240619799999999;43.009002685546875;1673435126.6117558;5.670719623565674;-9.217052459716797;94.83712005615234
168;1673435126.671882;47.1306425;7.240619799999999;43.39800262451172;1673435126.8471687;5.8522562980651855;-5.4421281814575195;94.77059173583984
169;1673435126.891096;47.130642599999995;7.2406197;43.78900146484375;1673435127.0290759;5.581898212432861;-6.9188947677612305;94.66806030273438
170;1673435127.0751915;47.130642599999995;7.2406197;44.185001373291016;1673435127.229376;5.8091535568237305;-9.59417724609375;94.73849487304688
171;1673435127.2863245;47.130642599999995;7.2406197;44.582000732421875;1673435127.420565;5.945836544036865;-6.035531997680664;94.71763610839844
172;1673435127.4743037;47.130642599999995;7.2406197;44.98100280761719;1673435127.6108205;5.798961162567139;-6.109715938568115;94.81682586669922
173;1673435127.6552896;47.130642599999995;7.2406197;45.38100051879883;1673435127.8003743;5.702986240386963;-9.4832181930542;94.68247985839844
174;1673435127.8538296;47.130642699999996;7.240619799999999;45.77400207519531;1673435128.0018444;5.723762035369873;-6.818899154663086;94.83387756347656
175;1673435128.0591612;47.130642699999996;7.240619799999999;46.17000198364258;1673435128.1998491;5.622564315795898;-4.840550899505615;94.83673858642578
176;1673435128.2501702;47.1306428;7.2406197;46.56800079345703;1673435128.440899;5.6550140380859375;-8.965601921081543;94.82836151123047
177;1673435128.4925175;47.1306428;7.2406197;46.96900177001953;1673435128.616912;5.8261308670043945;-7.22310209274292;94.73026275634766
178;1673435128.6658666;47.1306428;7.2406196;47.36600112915039;1673435128.810162;5.784576892852783;-5.15748929977417;94.61616516113281
179;1673435128.8733978;47.130642699999996;7.2406196;47.76100158691406;1673435129.013942;5.5286478996276855;-8.942131042480469;94.7970199584961
180;1673435129.067669;47.130642599999995;7.2406196;48.1410026550293;1673435129.2054048;5.716382026672363;-8.63508129119873;95.190673828125
181;1673435129.262695;47.1306425;7.2406196;48.47700119018555;1673435129.3925662;5.509390830993652;-4.681052207946777;95.02587127685547
182;1673435129.4389944;47.1306425;7.2406196;48.7650032043457;1673435129.5997427;5.461584091186523;-7.505547523498535;94.95099639892578
183;1673435129.658562;47.1306424;7.2406197;49.01300048828125;1673435129.789983;5.825499534606934;-8.693641662597656;94.86605072021484
184;1673435129.8449528;47.1306422;7.2406197;49.22300338745117;1673435130.0147378;10.968974113464355;-0.7103977203369141;95.393798828125
185;1673435130.0787697;47.1306419;7.2406197;49.39500045776367;1673435130.2310133;26.956106185913086;23.694231033325195;104.55770111083984
186;1673435130.2805417;47.1306411;7.2406187;49.5420036315918;1673435130.4209862;32.59328079223633;44.1175537109375;115.37347412109375
187;1673435130.4743977;47.1306386;7.240615099999999;49.663002014160156;1673435130.615201;29.8676815032959;55.089111328125;123.43170166015625
188;1673435130.6661909;47.130633499999995;7.240607799999999;49.75400161743164;1673435130.8125653;14.706151008605957;59.59528732299805;132.2000274658203
189;1673435130.88413;47.1306255;7.2405966;49.81800079345703;1673435131.0141177;-3.9368913173675537;56.81925964355469;144.54580688476562
190;1673435131.0688856;47.1306152;7.2405823;49.858001708984375;1673435131.2543855;-19.794788360595703;49.451725006103516;155.2211456298828
191;1673435131.3097496;47.130602599999996;7.2405652;49.87600326538086;1673435131.4309025;-32.709373474121094;44.612125396728516;165.90391540527344
192;1673435131.4842627;47.1305888;7.2405469;49.87700271606445;1673435131.6220295;-42.101566314697266;39.75452423095703;178.59068298339844
193;1673435131.6689184;47.1305743;7.240527999999999;49.862003326416016;1673435131.810469;-48.19906234741211;32.95631790161133;-168.68551635742188
194;1673435131.854065;47.1305578;7.2405066;49.83000183105469;1673435132.0580661;-48.04840850830078;25.27375030517578;-159.56114196777344
195;1673435132.1077318;47.1305404;7.240483599999999;49.77800369262695;1673435132.2326;-46.01882553100586;20.71785545349121;-154.33901977539062
196;1673435132.2802005;47.1305224;7.240459599999999;49.717002868652344;1673435132.465371;-45.7628288269043;15.633868217468262;-147.4679412841797
197;1673435132.512359;47.130503999999995;7.2404351;49.663002014160156;1673435132.6420128;-46.21084213256836;11.230764389038086;-139.9322509765625
198;1673435132.6888885;47.1304854;7.2404098999999995;49.624000549316406;1673435132.813401;-46.015167236328125;8.480645179748535;-133.4060516357422
199;1673435132.8637998;47.1304668;7.2403843;49.60200119018555;1673435133.004216;-46.63397216796875;1.2017183303833008;-128.39537048339844
200;1673435133.0535595;47.1304484;7.240358499999999;49.59400177001953;1673435133.196768;-47.181644439697266;-0.19595684111118317;-131.1457061767578
201;1673435133.2498093;47.1304297;7.2403325;49.592002868652344;1673435133.4016147;-47.212039947509766;0.8282740712165833;-133.83924865722656
202;1673435133.4530861;47.1304106;7.240306599999999;49.59300231933594;1673435133.5983005;-47.8843879699707;2.002962112426758;-134.8528594970703
203;1673435133.6491458;47.1303912;7.240280899999999;49.59800338745117;1673435133.793826;-47.94269561767578;3.410745620727539;-135.45042419433594
204;1673435133.846015;47.1303714;7.2402551;49.60700225830078;1673435133.996942;-47.51028823852539;4.799144744873047;-135.84092712402344
205;1673435134.0470753;47.1303516;7.2402294;49.624000549316406;1673435134.193519;-47.826271057128906;5.764411926269531;-136.02122497558594
206;1673435134.2428386;47.1303316;7.2402036999999995;49.64400100708008;1673435134.390158;-48.06480026245117;6.068577289581299;-135.9215087890625
207;1673435134.4450176;47.130310699999995;7.2401767999999995;49.672000885009766;1673435134.600731;-48.5208854675293;6.3949875831604;-135.89627075195312
208;1673435134.6517246;47.1302914;7.2401518;49.702003479003906;1673435134.79377;-49.062076568603516;6.497912883758545;-135.7593231201172
209;1673435134.8462143;47.130271199999996;7.240125399999999;49.73600387573242;1673435134.9978628;-49.13824462890625;6.37423038482666;-135.58616638183594
210;1673435135.0532136;47.130251;7.2400989;49.768001556396484;1673435135.1991591;-48.98612594604492;6.108155250549316;-135.3703155517578
211;1673435135.2524416;47.1302308;7.2400721;49.7910041809082;1673435135.4105375;-48.41099166870117;5.994050979614258;-135.27517700195312
212;1673435135.4627469;47.1302106;7.2400452;49.807003021240234;1673435135.6063492;-47.84869384765625;5.774136066436768;-135.11767578125
213;1673435135.6576114;47.1301904;7.2400182;49.81100082397461;1673435135.8018534;-47.45301055908203;5.833928108215332;-135.1961212158203
214;1673435135.8587217;47.130170299999996;7.2399911999999995;49.81800079345703;1673435136.0086284;-47.68426513671875;6.024803161621094;-135.24697875976562
215;1673435136.0583344;47.130150199999996;7.2399641;49.82600402832031;1673435136.1995487;-48.12092590332031;5.985041618347168;-135.22080993652344
216;1673435136.2564344;47.130130099999995;7.239936999999999;49.832000732421875;1673435136.4139695;-48.059837341308594;5.853678226470947;-135.17788696289062
217;1673435136.4744205;47.1301093;7.2399087;49.8390007019043;1673435136.613526;-47.98236846923828;5.749423503875732;-135.13787841796875
218;1673435136.6617835;47.1300901;7.2398826;49.8380012512207;1673435136.8312085;-47.579586029052734;5.684169292449951;-135.10513305664062
219;1673435136.898571;47.130069999999996;7.239855299999999;49.833003997802734;1673435137.067048;-47.351924896240234;5.7358293533325195;-135.1938934326172
220;1673435137.1297278;47.13005;7.2398280999999995;49.833003997802734;1673435137.3180473;-47.65113067626953;5.845922470092773;-135.2620391845703
221;1673435137.3604116;47.1300301;7.239800799999999;49.83400344848633;1673435137.487204;-47.94255447387695;5.758918285369873;-135.20179748535156
222;1673435137.5400553;47.1300101;7.2397735;49.83400344848633;1673435137.6568792;-47.98147964477539;5.6729302406311035;-135.21160888671875
223;1673435137.7020001;47.1299894;7.2397450999999995;49.836002349853516;1673435137.8820596;-47.99273681640625;5.687236785888672;-135.2385711669922
224;1673435137.93111;47.1299703;7.2397189;49.84100341796875;1673435138.0752413;-48.04238510131836;5.71405029296875;-135.2259979248047
225;1673435138.1162322;47.1299503;7.239691499999999;49.84100341796875;1673435138.2320077;-47.80753707885742;5.6381378173828125;-135.1729736328125
226;1673435138.27663;47.1299304;7.239664299999999;49.8390007019043;1673435138.4064677;-47.72920608520508;5.655412673950195;-135.20567321777344
227;1673435138.459512;47.1299104;7.239637;49.84600067138672;1673435138.6179917;-48.139015197753906;5.8246750831604;-135.25479125976562
228;1673435138.6705863;47.1298904;7.2396097;49.85200119018555;1673435138.821663;-48.346229553222656;5.8179497718811035;-135.19960021972656
229;1673435138.871906;47.129870399999994;7.2395824;49.85300064086914;1673435139.013231;-48.02239227294922;5.609013557434082;-135.11892700195312
230;1673435139.0705426;47.129850499999996;7.2395549;49.85100173950195;1673435139.211995;-47.74995422363281;5.587831974029541;-135.13919067382812
231;1673435139.2645013;47.1298305;7.2395274999999994;49.84600067138672;1673435139.410648;-47.61936950683594;5.613525867462158;-135.11892700195312
232;1673435139.459996;47.1298105;7.239500199999999;49.842002868652344;1673435139.6046078;-47.77368927001953;5.668554782867432;-135.1320343017578
233;1673435139.6585133;47.1297906;7.2394729;49.84300231933594;1673435139.8005836;-48.01108932495117;5.737689018249512;-135.1425018310547
234;1673435139.8589804;47.129770699999995;7.2394457;49.845001220703125;1673435140.0073419;-48.083412170410156;5.660617351531982;-135.0865936279297
235;1673435140.0581515;47.129750699999995;7.2394184;49.84400177001953;1673435140.2091575;-47.901058197021484;5.546445846557617;-135.02362060546875
236;1673435140.2649577;47.1297308;7.2393911;49.842002868652344;1673435140.4109774;-47.78119659423828;5.55133056640625;-135.03611755371094
237;1673435140.4691174;47.1297109;7.2393638;49.845001220703125;1673435140.6094248;-47.89913558959961;5.543019771575928;-135.00794982910156
238;1673435140.6618192;47.129691;7.2393366;49.849002838134766;1673435140.8075097;-48.041419982910156;5.540489196777344;-134.9840087890625
239;1673435140.8631048;47.129671099999996;7.2393092999999995;49.85300064086914;1673435141.01923;-48.00819396972656;5.541996955871582;-134.9590606689453
240;1673435141.0661702;47.129650299999994;7.2392807999999995;49.855003356933594;1673435141.2062223;-47.828941345214844;5.5085673332214355;-134.91563415527344
241;1673435141.2615771;47.1296311;7.2392546;49.85700225830078;1673435141.4088;-47.70729064941406;5.5208282470703125;-134.88052368164062
242;1673435141.453845;47.1296111;7.239227199999999;49.85900115966797;1673435141.5941806;-47.716026306152344;5.464592933654785;-134.8399200439453
243;1673435141.6451225;47.1295912;7.2391999;49.862003326416016;1673435141.8015935;-47.66770935058594;5.4228129386901855;-134.78431701660156
244;1673435141.8575761;47.1295712;7.2391726;49.867000579833984;1673435142.012583;-47.85214614868164;5.483587265014648;-134.81326293945312
245;1673435142.0586903;47.129551299999996;7.239145199999999;49.87600326538086;1673435142.205473;-48.116455078125;5.455477237701416;-134.7325439453125
246;1673435142.262352;47.1295314;7.2391179;49.88600158691406;1673435142.4100685;-48.269065856933594;5.310768127441406;-134.62168884277344
247;1673435142.460688;47.1295114;7.2390905;49.893001556396484;1673435142.6178296;-48.03281784057617;5.263628005981445;-134.59356689453125
248;1673435142.6717792;47.1294915;7.2390631;49.90200424194336;1673435142.8175542;-48.002803802490234;5.281956195831299;-134.55126953125
249;1673435142.8738892;47.1294715;7.2390357;49.913002014160156;1673435143.0183446;-48.15671920776367;5.196351051330566;-134.43817138671875
250;1673435143.0694418;47.129451499999995;7.2390083;49.92400360107422;1673435143.2264848;-48.22678756713867;5.25874137878418;-134.40725708007812
251;1673435143.2805068;47.129431499999995;7.238980799999999;49.932003021240234;1673435143.4217656;-48.14733123779297;5.5518107414245605;-134.3953094482422
252;1673435143.4706242;47.1294107;7.2389522;49.93700408935547;1673435143.6189303;-47.57060241699219;7.809878826141357;-134.7965850830078
253;1673435143.67005;47.1293916;7.2389258;49.94200134277344;1673435143.807507;-47.491249084472656;7.705353736877441;-134.04830932617188
254;1673435143.866418;47.1293718;7.238898;49.94700241088867;1673435144.0094552;-48.08837127685547;6.445113658905029;-133.53855895996094
255;1673435144.06135;47.1293522;7.2388701;49.948001861572266;1673435144.2217958;-47.655113220214844;7.811076641082764;-133.7402801513672
256;1673435144.2997653;47.1293326;7.2388422;49.94600296020508;1673435144.451134;-47.161415100097656;8.542573928833008;-133.4766082763672
257;1673435144.4999852;47.1293133;7.238814;49.94900131225586;1673435144.6394799;-46.845645904541016;9.105010032653809;-133.15184020996094
258;1673435144.6825323;47.129294099999996;7.2387856;49.95500183105469;1673435144.854643;-39.43607711791992;7.045745849609375;-132.03028869628906
259;1673435144.9223166;47.129275299999996;7.238757199999999;49.980003356933594;1673435145.0639224;-24.338897705078125;9.955223083496094;-134.07858276367188
260;1673435145.1069238;47.1292571;7.2387296999999995;50.00600051879883;1673435145.2293885;-7.2411580085754395;8.888204574584961;-134.8695526123047
261;1673435145.2773368;47.1292401;7.238703999999999;50.018001556396484;1673435145.4223974;5.506347179412842;7.990255355834961;-136.04913330078125
262;1673435145.4843204;47.129224799999996;7.238681;50.01900100708008;1673435145.6276498;13.391149520874023;7.457211017608643;-136.16615295410156
263;1673435145.679651;47.1292116;7.2386615;50.009002685546875;1673435145.8581562;18.153770446777344;9.26406192779541;-137.37489318847656
264;1673435145.9090343;47.129200499999996;7.2386453;49.98500061035156;1673435146.0350184;21.958751678466797;7.310534477233887;-139.91790771484375
265;1673435146.0823264;47.1291917;7.2386325;49.93600082397461;1673435146.2252831;21.86574363708496;14.423805236816406;-139.49981689453125
266;1673435146.2686703;47.129184599999995;7.238622599999999;49.87000274658203;1673435146.406992;17.99757194519043;15.073997497558594;-137.72979736328125
267;1673435146.4588425;47.1291794;7.2386148;49.814002990722656;1673435146.6032608;10.854597091674805;17.012699127197266;-136.87339782714844
268;1673435146.6516783;47.129175599999996;7.2386086;49.78400421142578;1673435146.7933872;0.6169008612632751;12.479867935180664;-137.44287109375
269;1673435146.8472426;47.1291729;7.2386031;49.7920036315918;1673435146.989761;-7.450228214263916;7.068281173706055;-137.1913299560547
270;1673435147.0425966;47.129170599999995;7.238598;49.8280029296875;1673435147.2058935;-11.11228084564209;5.964256286621094;-137.0084686279297
271;1673435147.2815762;47.1291681;7.2385931;49.87800216674805;1673435147.422294;-11.39344310760498;4.133790969848633;-138.046630859375
272;1673435147.471509;47.1291653;7.2385885;49.92000198364258;1673435147.6160617;-9.237159729003906;4.519968032836914;-139.68600463867188
273;1673435147.682884;47.129162199999996;7.2385842;49.957000732421875;1673435147.8076365;-5.135364532470703;7.309353828430176;-141.41590881347656
274;1673435147.8588107;47.1291589;7.2385804;49.9900016784668;1673435148.0156918;-0.6159493327140808;9.438871383666992;-141.47393798828125
275;1673435148.0687027;47.1291556;7.2385769;50.01700210571289;1673435148.2214093;-21.13358497619629;12.477072715759277;-140.35360717773438
276;1673435148.2808216;47.1291522;7.2385733;50.07500076293945;1673435148.4202385;-19.56882667541504;4.447783946990967;-136.56277465820312
277;1673435148.4699264;47.129148099999995;7.2385687999999995;50.17100143432617;1673435148.6139195;-15.942630767822266;2.02189040184021;-136.59852600097656
278;1673435148.6635892;47.1291431;7.238563699999999;50.340003967285156;1673435148.8193817;-18.939538955688477;3.1950697898864746;-137.12176513671875
279;1673435148.8741136;47.1291377;7.2385584;50.61100387573242;1673435149.0250852;-25.82978630065918;6.42019510269165;-137.68357849121094
280;1673435149.0737236;47.129131799999996;7.2385525;50.95000076293945;1673435149.22507;-42.465545654296875;12.537115097045898;-138.5988006591797
281;1673435149.2764468;47.129125099999996;7.2385451;51.30800247192383;1673435149.4141588;-43.87718200683594;14.047739028930664;-136.1857147216797
282;1673435149.4714437;47.1291173;7.2385351;51.65800094604492;1673435149.6464064;-39.026119232177734;13.576674461364746;-135.35467529296875
283;1673435149.6945257;47.1291085;7.2385226;52.02300262451172;1673435149.8289943;-33.157493591308594;13.796719551086426;-136.02511596679688
284;1673435149.878258;47.129099;7.2385082999999995;52.38200378417969;1673435150.0097053;-28.267200469970703;11.330753326416016;-136.29501342773438
285;1673435150.062394;47.1290893;7.2384933;52.73800277709961;1673435150.2032564;-25.3979549407959;8.213804244995117;-136.37318420410156
286;1673435150.3084402;47.129079499999996;7.238478;53.09800338745117;1673435150.4573717;-22.521652221679688;5.518552303314209;-136.32504272460938
287;1673435150.5106037;47.1290693;7.2384622;53.480003356933594;1673435150.6413796;-21.007219314575195;3.8605570793151855;-136.6234130859375
288;1673435150.686581;47.129059899999994;7.238448099999999;53.83400344848633;1673435150.8299127;-20.284381866455078;4.8978705406188965;-137.19677734375
289;1673435150.8870237;47.1290501;7.2384338999999995;54.207000732421875;1673435151.0953288;-20.47533416748047;7.033970832824707;-137.56671142578125
290;1673435151.1344852;47.1290403;7.2384203;54.58500289916992;1673435151.2482913;-21.341331481933594;9.425539016723633;-138.0883026123047
291;1673435151.2993717;47.1290306;7.238407199999999;54.96400451660156;1673435151.4308746;-22.59524917602539;10.461774826049805;-138.24087524414062
292;1673435151.4818373;47.129020999999995;7.2383941;55.34800338745117;1673435151.6336198;-23.746238708496094;10.38658618927002;-137.89488220214844
293;1673435151.6813755;47.129011399999996;7.2383812;55.73600387573242;1673435151.8404465;-24.62372589111328;8.828699111938477;-137.40704345703125
294;1673435151.8906178;47.1290018;7.2383682;56.12700271606445;1673435152.022297;-25.195093154907227;7.596704006195068;-137.05667114257812
295;1673435152.0821686;47.1289921;7.2383551;56.52100372314453;1673435152.2320912;-25.460798263549805;7.026849269866943;-136.9801483154297
296;1673435152.3154454;47.1289823;7.2383419;56.9160041809082;1673435152.4946287;-25.53488540649414;6.701368808746338;-136.96417236328125
297;1673435152.5485535;47.128972499999996;7.2383286;57.30900192260742;1673435152.6782408;-25.037870407104492;8.23830509185791;-137.10397338867188
298;1673435152.731474;47.1289626;7.238315399999999;57.70100402832031;1673435152.8555644;-24.589574813842773;9.831883430480957;-137.24607849121094
299;1673435152.9002728;47.1289526;7.238302099999999;58.09300231933594;1673435153.0693069;-24.128908157348633;11.110891342163086;-137.5201416015625
300;1673435153.1174357;47.128942599999995;7.2382887;58.483001708984375;1673435153.2589;-24.010988235473633;11.447428703308105;-137.76119995117188
301;1673435153.3156586;47.1289327;7.2382751999999995;58.87800216674805;1673435153.4574232;-24.126760482788086;11.56749439239502;-137.70201110839844
302;1673435153.51042;47.1289229;7.2382617;59.2760009765625;1673435153.6589663;-24.27893829345703;10.97136116027832;-137.50697326660156
303;1673435153.7151673;47.1289131;7.238248199999999;59.67400360107422;1673435153.8454602;-24.505229949951172;9.39887809753418;-137.3000030517578
304;1673435153.8910995;47.1289033;7.238234599999999;60.0680046081543;1673435154.0293756;-24.569398880004883;7.855963706970215;-137.0213623046875
305;1673435154.0809202;47.1288936;7.2382209;60.461002349853516;1673435154.2142518;-24.64360237121582;6.8997483253479;-136.82952880859375
306;1673435154.2659647;47.1288839;7.2382070999999994;60.85400390625;1673435154.4147065;-24.63026237487793;6.330872058868408;-136.8657684326172
307;1673435154.4788938;47.1288742;7.2381934;61.24800109863281;1673435154.6421473;-24.70676612854004;6.284415245056152;-136.84498596191406
308;1673435154.6980124;47.1288644;7.238179799999999;61.643001556396484;1673435154.8373418;-24.585205078125;6.160501003265381;-136.7294921875
309;1673435154.9098644;47.1288547;7.238166199999999;62.03900146484375;1673435155.0461202;-24.769756317138672;7.655261039733887;-137.0332794189453
310;1673435155.0986607;47.128844799999996;7.2381527;62.43400192260742;1673435155.238581;-24.4786376953125;8.62396240234375;-137.00502014160156
311;1673435155.294791;47.1288349;7.2381392;62.83100128173828;1673435155.4409654;-24.545745849609375;9.766805648803711;-137.23638916015625
312;1673435155.4993224;47.128825;7.2381258;63.22900390625;1673435155.6388323;-24.460277557373047;10.410120010375977;-137.4444580078125
313;1673435155.6860852;47.1288151;7.2381123;63.62700271606445;1673435155.8338103;-24.371126174926758;10.959896087646484;-137.2958221435547
314;1673435155.8913362;47.1288051;7.2380987999999995;64.02799987792969;1673435156.0309734;-24.551725387573242;10.93414306640625;-137.25125122070312
315;1673435156.081736;47.1287952;7.2380853;64.4280014038086;1673435156.2325523;-24.578413009643555;10.81270694732666;-137.3032989501953
316;1673435156.2846487;47.1287854;7.2380717;64.82300567626953;1673435156.4564812;-24.59929847717285;10.482769966125488;-137.14906311035156
317;1673435156.501834;47.128775499999996;7.2380581;65.21800231933594;1673435156.6388001;-24.814685821533203;9.127474784851074;-136.91360473632812
318;1673435156.6912625;47.128765699999995;7.2380444;65.61300659179688;1673435156.8502848;-24.843904495239258;8.166284561157227;-136.79969787597656
319;1673435156.899336;47.128755999999996;7.2380306999999995;66.00800323486328;1673435157.0617828;-25.07248878479004;7.489144802093506;-136.59255981445312
320;1673435157.139362;47.128746199999995;7.238016999999999;66.40299987792969;1673435157.2738013;-25.142915725708008;7.12014102935791;-136.5607452392578
321;1673435157.320058;47.1287361;7.238002799999999;66.81500244140625;1673435157.4482453;-25.211994171142578;6.92965030670166;-136.68028259277344
322;1673435157.4973402;47.1287267;7.237989799999999;67.19700622558594;1673435157.6285987;-25.179622650146484;6.883185863494873;-136.4305877685547
323;1673435157.6774056;47.1287169;7.237976199999999;67.59300231933594;1673435157.8200114;-25.224119186401367;7.061491012573242;-136.5340576171875
324;1673435157.8857164;47.1287069;7.2379628;67.98900604248047;1673435158.0334074;-25.136764526367188;7.330991744995117;-136.47999572753906
325;1673435158.0864727;47.1286969;7.2379492999999995;68.38500213623047;1673435158.2471979;-24.99827766418457;7.495637893676758;-136.45164489746094
326;1673435158.3034248;47.1286869;7.2379358;68.7820053100586;1673435158.4515114;-25.07406997680664;7.464345455169678;-136.38201904296875
327;1673435158.5035465;47.128676999999996;7.237922299999999;69.18099975585938;1673435158.6460884;-25.19191551208496;7.555647850036621;-136.61065673828125
328;1673435158.6985075;47.1286671;7.2379086;69.58100128173828;1673435158.845443;-25.139888763427734;7.634166717529297;-136.66839599609375
329;1673435158.893864;47.1286572;7.237895;69.97700500488281;1673435159.0501149;-25.321657180786133;7.690832614898682;-136.6984100341797
330;1673435159.099123;47.1286469;7.2378808;70.38800048828125;1673435159.2461693;-25.297597885131836;8.173605918884277;-136.86895751953125
331;1673435159.2945454;47.128637399999995;7.2378677;70.76700592041016;1673435159.4424193;-25.225229263305664;8.45866584777832;-136.88900756835938
332;1673435159.4991226;47.1286274;7.237854;71.16300201416016;1673435159.6587014;-25.219799041748047;8.664497375488281;-136.8135223388672
333;1673435159.7074032;47.1286175;7.2378404;71.56000518798828;1673435159.8474267;-25.01560401916504;8.674781799316406;-136.7909698486328
334;1673435159.8982818;47.1286075;7.2378266;71.95800018310547;1673435160.0497277;-25.039785385131836;8.4254732131958;-136.7957000732422
335;1673435160.1026237;47.1285976;7.2378129;72.35900115966797;1673435160.2547054;-25.084840774536133;8.360879898071289;-136.79196166992188
336;1673435160.3071675;47.1285877;7.237799099999999;72.75700378417969;1673435160.458624;-25.185657501220703;8.551813125610352;-136.79869079589844
337;1673435160.5176466;47.1285774;7.2377848;73.17100524902344;1673435160.6629105;-25.11290168762207;8.49399471282959;-136.8456268310547
338;1673435160.7143526;47.1285678;7.2377717;73.5570068359375;1673435160.867645;-25.04803466796875;8.979935646057129;-137.0253448486328
339;1673435160.9147825;47.1285579;7.2377579999999995;73.9590072631836;1673435161.06229;-25.000354766845703;8.935332298278809;-137.01080322265625
340;1673435161.114267;47.1285476;7.2377438;74.37300109863281;1673435161.2450566;-25.051420211791992;8.926237106323242;-136.9623260498047
341;1673435161.293694;47.128538;7.2377306;74.75700378417969;1673435161.4420946;-25.218795776367188;9.158367156982422;-136.98211669921875
342;1673435161.4948993;47.1285281;7.2377169;75.156005859375;1673435161.6418912;-25.499267578125;9.141555786132812;-136.96051025390625
343;1673435161.6947782;47.128518199999995;7.2377033;75.5510025024414;1673435161.8380332;-25.750106811523438;9.069375991821289;-136.95687866210938
344;1673435161.8861275;47.1285083;7.2376895;75.94700622558594;1673435162.0385225;-25.82267189025879;8.957749366760254;-136.94020080566406
345;1673435162.0925777;47.1284984;7.2376758;76.34700012207031;1673435162.2464736;-25.70587730407715;8.781466484069824;-136.88331604003906
346;1673435162.2954102;47.128488399999995;7.237661999999999;76.74500274658203;1673435162.4488616;-25.661823272705078;8.737610816955566;-136.91493225097656
347;1673435162.497678;47.128478099999995;7.2376476;77.156005859375;1673435162.6415582;-25.40804672241211;8.716231346130371;-136.9202117919922
348;1673435162.6952438;47.1284685;7.237634399999999;77.53800201416016;1673435162.8383458;-25.16916275024414;8.745515823364258;-136.91311645507812
349;1673435162.8916461;47.128458599999995;7.2376207;77.93700408935547;1673435163.0481226;-25.120248794555664;8.695483207702637;-136.9080810546875
350;1673435163.0962353;47.1284486;7.237606899999999;78.33500671386719;1673435163.2461884;-25.177900314331055;8.701651573181152;-136.9073486328125
351;1673435163.3031685;47.128438599999996;7.2375932;78.73100280761719;1673435163.4502943;-25.265277862548828;8.750858306884766;-136.92466735839844
352;1673435163.502067;47.1284287;7.2375795;79.1290054321289;1673435163.6513948;-25.209983825683594;8.763107299804688;-136.9310302734375
353;1673435163.6925614;47.1284188;7.2375658;79.5270004272461;1673435163.834142;-25.152530670166016;8.724063873291016;-136.90391540527344
354;1673435163.913441;47.1284084;7.2375516;79.94400024414062;1673435164.0456965;-25.20880699157715;8.83385944366455;-136.92254638671875
355;1673435164.0947123;47.1283989;7.237538499999999;80.3290023803711;1673435164.2334168;-25.279895782470703;8.6451416015625;-136.9213104248047
356;1673435164.2834797;47.128389;7.2375248999999995;80.72700500488281;1673435164.4290118;-25.26057243347168;8.726057052612305;-136.94052124023438
357;1673435164.4898326;47.1283792;7.237511199999999;81.1240005493164;1673435164.6420364;-25.321805953979492;8.760762214660645;-136.8931884765625
358;1673435164.7020006;47.128369299999996;7.237497599999999;81.52200317382812;1673435164.851257;-25.348644256591797;8.868982315063477;-136.94017028808594
359;1673435164.8973503;47.1283593;7.237483999999999;81.91900634765625;1673435165.0350513;-25.202425003051758;8.719011306762695;-136.918701171875
360;1673435165.0844915;47.1283494;7.237470399999999;82.31900024414062;1673435165.2362068;-25.33953857421875;8.772439002990723;-136.94091796875
361;1673435165.29438;47.128339499999996;7.2374567;82.72200012207031;1673435165.4490452;-25.317285537719727;8.85515308380127;-136.95643615722656
362;1673435165.505428;47.1283296;7.237443099999999;83.12300109863281;1673435165.6626852;-25.20167350769043;8.805253982543945;-136.887451171875
363;1673435165.7108068;47.1283197;7.237429499999999;83.5270004272461;1673435165.8441315;-25.454463958740234;8.69934368133545;-136.92018127441406
364;1673435165.8925302;47.1283098;7.2374158;83.9280014038086;1673435166.0299108;-25.27303123474121;8.746624946594238;-136.94287109375
365;1673435166.0881248;47.128299899999995;7.2374022;84.3270034790039;1673435166.262784;-25.399173736572266;8.663429260253906;-136.93154907226562
366;1673435166.3225844;47.1282901;7.2373885;84.7300033569336;1673435166.458071;-25.321199417114258;8.780741691589355;-136.96994018554688
367;1673435166.5178013;47.1282802;7.2373749;85.1300048828125;1673435166.6578372;-25.431421279907227;8.725303649902344;-136.93821716308594
368;1673435166.7037508;47.1282703;7.2373613;85.52800750732422;1673435166.8499684;-25.537761688232422;8.7522611618042;-136.944580078125
369;1673435166.9078083;47.128260399999995;7.2373477;85.92300415039062;1673435167.0598783;-25.381580352783203;8.786251068115234;-136.93019104003906
370;1673435167.1128716;47.1282505;7.2373341;86.31500244140625;1673435167.2837563;-25.348129272460938;8.838780403137207;-136.9469451904297
371;1673435167.3361206;47.1282406;7.2373205;86.70500183105469;1673435167.478031;-25.25297737121582;8.7998685836792;-136.93191528320312
372;1673435167.5302005;47.1282303;7.237306299999999;87.11100769042969;1673435167.657546;-25.32390022277832;8.703545570373535;-136.91864013671875
373;1673435167.7117088;47.1282208;7.2372931;87.48800659179688;1673435167.8706682;-25.25588035583496;8.81790828704834;-136.94651794433594
374;1673435167.9179766;47.1282108;7.2372795;87.88200378417969;1673435168.0700889;-25.29670524597168;8.744967460632324;-136.93466186523438
375;1673435168.144069;47.128200899999996;7.237265799999999;88.27800750732422;1673435168.313387;-25.1727294921875;8.750787734985352;-136.94815063476562
376;1673435168.3625333;47.128191;7.2372521;88.6760025024414;1673435168.498438;-25.23579978942871;8.627117156982422;-136.95631408691406
377;1673435168.5468397;47.1281811;7.237238499999999;89.07400512695312;1673435168.6923845;-25.255084991455078;8.57953929901123;-136.9423370361328
378;1673435168.7481873;47.1281712;7.237224899999999;89.47000122070312;1673435168.960181;-25.311912536621094;8.620776176452637;-136.95126342773438
379;1673435169.001331;47.128161299999995;7.2372112;89.86600494384766;1673435169.1404257;-25.341028213500977;8.70114517211914;-136.96107482910156
380;1673435169.1999853;47.1281514;7.2371976;90.26300048828125;1673435169.3166282;-25.24979591369629;8.766706466674805;-136.9507598876953
381;1673435169.3756711;47.128141;7.2371834999999995;90.67500305175781;1673435169.5130193;-25.254302978515625;8.68008804321289;-136.89915466308594
382;1673435169.5629463;47.128131499999995;7.2371704999999995;91.05400085449219;1673435169.7367086;-25.38279151916504;8.788501739501953;-136.9679412841797
383;1673435169.7998981;47.1281215;7.2371569;91.44500732421875;1673435169.9612994;-25.208097457885742;8.899518013000488;-136.95266723632812
384;1673435170.0024884;47.1281112;7.2371427;91.85200500488281;1673435170.1230347;-25.199541091918945;8.904519081115723;-136.9219512939453
385;1673435170.1640258;47.1281016;7.2371297;92.22700500488281;1673435170.301292;-25.16718864440918;8.823043823242188;-136.9295654296875
386;1673435170.3509748;47.1280917;7.237115999999999;92.61700439453125;1673435170.4832206;-25.311288833618164;8.804614067077637;-136.94859313964844
387;1673435170.529446;47.128081699999996;7.2371023999999995;93.0060043334961;1673435170.699578;-25.34727668762207;8.698491096496582;-136.92701721191406
388;1673435170.7635622;47.1280718;7.2370889;93.4000015258789;1673435170.9199133;-25.38332748413086;8.694437026977539;-136.9272918701172
389;1673435170.9670436;47.1280619;7.2370753;93.79500579833984;1673435171.0971653;-25.350492477416992;8.731318473815918;-136.90281677246094
390;1673435171.1581695;47.128052;7.2370617;94.18800354003906;1673435171.286459;-25.274417877197266;8.686121940612793;-136.9303741455078
391;1673435171.3464718;47.128042099999995;7.237048199999999;94.58200073242188;1673435171.494007;-25.477508544921875;8.648552894592285;-136.9385986328125
392;1673435171.5448935;47.1280321;7.237034599999999;94.97900390625;1673435171.6660025;-25.328310012817383;8.617647171020508;-136.92750549316406
393;1673435171.7213802;47.1280222;7.2370209;95.37400817871094;1673435171.8694205;-25.31220054626465;8.78597354888916;-136.94525146484375
394;1673435171.920187;47.1280122;7.237007299999999;95.76900482177734;1673435172.0624218;-25.224258422851562;8.554779052734375;-136.90846252441406
395;1673435172.1167932;47.1280023;7.236993699999999;96.16600799560547;1673435172.2848554;-25.190893173217773;8.683431625366211;-136.9210205078125
396;1673435172.3290591;47.127992299999995;7.2369802;96.56500244140625;1673435172.465156;-25.124937057495117;8.663920402526855;-136.89804077148438
397;1673435172.5207028;47.1279823;7.2369666;96.96400451660156;1673435172.6864243;-25.110990524291992;8.804058074951172;-136.88128662109375
398;1673435172.736428;47.127972299999996;7.236953;97.36200714111328;1673435172.882588;-25.131675720214844;8.89183521270752;-136.9017333984375
399;1673435172.9400864;47.1279623;7.2369394;97.76100158691406;1673435173.0950317;-25.09134864807129;9.01269817352295;-136.90158081054688
400;1673435173.1489923;47.1279524;7.236925899999999;98.1570053100586;1673435173.2846696;-25.175708770751953;8.837743759155273;-136.88186645507812
401;1673435173.330529;47.1279421;7.2369118;98.56900787353516;1673435173.4660072;-25.235458374023438;8.80329704284668;-136.86854553222656
402;1673435173.518171;47.1279325;7.2368988;98.94600677490234;1673435173.6647158;-25.28926658630371;8.800963401794434;-136.86428833007812
403;1673435173.7190654;47.1279226;7.2368852;99.34100341796875;1673435173.8729892;-25.22147560119629;8.998884201049805;-136.87815856933594
404;1673435173.9211562;47.127912599999995;7.2368716;99.73800659179688;1673435174.0577772;-25.20337677001953;8.945164680480957;-136.87655639648438
405;1673435174.1072197;47.1279027;7.2368581;100.13900756835938;1673435174.2502851;-25.177108764648438;8.914259910583496;-136.85096740722656
406;1673435174.309907;47.1278928;7.236844499999999;100.54000854492188;1673435174.4816535;-25.298751831054688;8.808443069458008;-136.82801818847656
407;1673435174.5588753;47.127882899999996;7.236830899999999;100.93900299072266;1673435174.6985517;-25.33076286315918;8.64707088470459;-136.8437042236328
408;1673435174.74616;47.127873;7.236817299999999;101.33800506591797;1673435174.8924804;-25.156909942626953;8.675004959106445;-136.8599853515625
409;1673435174.9502046;47.1278631;7.2368036;101.73600769042969;1673435175.10154;-25.191585540771484;8.643372535705566;-136.84579467773438
410;1673435175.1586676;47.1278532;7.23679;102.13400268554688;1673435175.289024;-25.200265884399414;8.599403381347656;-136.84339904785156
411;1673435175.33252;47.1278432;7.2367764;102.531005859375;1673435175.4638803;-25.176982879638672;8.700304985046387;-136.86378479003906
412;1673435175.5320807;47.1278333;7.236762799999999;102.9280014038086;1673435175.6831608;-25.093399047851562;8.944779396057129;-136.8605499267578
413;1673435175.726984;47.1278234;7.236749199999999;103.32600402832031;1673435175.861401;-25.23490333557129;8.566790580749512;-136.81796264648438
414;1673435175.9131367;47.127813499999995;7.236735599999999;103.72300720214844;1673435176.053869;-25.29320526123047;8.722926139831543;-136.84706115722656
415;1673435176.1121848;47.1278036;7.236721999999999;104.11700439453125;1673435176.2697132;-25.398794174194336;8.764365196228027;-136.8539276123047
416;1673435176.3493848;47.1277937;7.2367085;104.51200866699219;1673435176.4929268;-25.335905075073242;8.828190803527832;-136.83419799804688
417;1673435176.5399165;47.127783799999996;7.2366949;104.91200256347656;1673435176.6777933;-25.305583953857422;8.801810264587402;-136.82046508789062
418;1673435176.7319658;47.1277739;7.2366812;105.31400299072266;1673435176.871467;-25.351696014404297;8.882511138916016;-136.80996704101562
419;1673435176.9209354;47.1277639;7.2366676;105.71400451660156;1673435177.0605004;-25.284141540527344;8.83328628540039;-136.811279296875
