;pos_time;latitude;longitude;altitude;alt_time;pitch;roll;yaw
0;1673434587.030001;47.1306425;7.240619799999999;-0.01900000125169754;1673434587.04368;-0.27259597182273865;-0.5042030811309814;90.61273956298828
1;1673434587.2425156;47.1306425;7.240619799999999;-0.01600000075995922;1673434587.2581766;-0.2855747938156128;0.057915713638067245;90.61271667480469
2;1673434587.41882;47.1306425;7.240619799999999;-0.01600000075995922;1673434587.431613;-0.28693047165870667;0.25273576378822327;90.61583709716797
3;1673434587.6174605;47.1306424;7.2406198999999996;-0.01600000075995922;1673434587.6346123;-0.10005638003349304;0.1909768283367157;90.6689453125
4;1673434587.827889;47.1306424;7.2406198999999996;-0.01600000075995922;1673434587.8426442;-0.32501083612442017;0.16362535953521729;90.64960479736328
5;1673434588.0390384;47.1306424;7.24062;-0.013000000268220901;1673434588.0542347;-0.25689318776130676;0.32269108295440674;90.51436614990234
6;1673434588.2319493;47.1306424;7.24062;-0.010000000707805157;1673434588.24367;0.0762438029050827;0.18230469524860382;90.54275512695312
7;1673434588.4199772;47.1306423;7.24062;-0.01100000087171793;1673434588.4336398;-0.1775915026664734;0.10298331081867218;90.7089614868164
8;1673434588.6241498;47.1306423;7.24062;-0.01100000087171793;1673434588.6397748;-0.2424086630344391;0.24906262755393982;90.68025970458984
9;1673434588.820788;47.1306423;7.2406198999999996;-0.010000000707805157;1673434588.8364034;-0.22441749274730682;0.1443364918231964;90.6912841796875
10;1673434589.0190487;47.1306423;7.2406198999999996;-0.01100000087171793;1673434589.033797;-0.07324828207492828;0.1879604607820511;90.73033142089844
11;1673434589.2175791;47.1306423;7.2406198999999996;-0.01100000087171793;1673434589.2342865;-0.33593472838401794;0.09708494693040848;90.72018432617188
12;1673434589.4424691;47.1306424;7.240619799999999;-0.01100000087171793;1673434589.4571588;-0.4276040494441986;0.2438906729221344;90.56803131103516
13;1673434589.6352956;47.1306424;7.240619799999999;-0.00800000037997961;1673434589.6499393;-0.4595489799976349;0.051363930106163025;90.69733428955078
14;1673434589.8220766;47.1306424;7.240619799999999;0.007000000216066837;1673434589.8367262;-0.3245915174484253;-1.3519597053527832;90.6706314086914
15;1673434590.0187974;47.1306424;7.2406198999999996;0.01100000087171793;1673434590.0314553;-0.31252238154411316;-0.8136163353919983;90.5223388671875
16;1673434590.202569;47.1306424;7.24062;0.01600000075995922;1673434590.21721;0.016523079946637154;-0.9127556681632996;90.36494445800781
17;1673434590.4039614;47.1306424;7.2406201;0.021000001579523087;1673434590.4176188;0.02882286347448826;-0.7704265713691711;90.34466552734375
18;1673434590.6300926;47.1306424;7.24062;0.023000001907348633;1673434590.641799;-0.1506006270647049;-0.8825570344924927;90.60755920410156
19;1673434590.8228445;47.1306424;7.24062;0.023000001907348633;1673434590.8374953;-0.3064340353012085;-1.1897144317626953;90.51007080078125
20;1673434591.0304637;47.1306424;7.2406198999999996;0.020000001415610313;1673434591.0480304;-0.12266446650028229;-1.367974877357483;90.43720245361328
21;1673434591.238595;47.1306424;7.2406198999999996;0.017000000923871994;1673434591.2545044;-0.18262514472007751;-1.8156330585479736;90.32599639892578
22;1673434591.4353738;47.1306424;7.2406198999999996;-0.0010000000474974513;1673434591.4500976;-0.10158702731132507;-0.7969672083854675;90.15975189208984
23;1673434591.637518;47.1306424;7.24062;0.0;1673434591.6531472;0.15833616256713867;-1.0158709287643433;89.64946746826172
24;1673434591.8172665;47.1306425;7.24062;0.0;1673434591.8338563;0.34119680523872375;-0.3733501136302948;89.59310913085938
25;1673434592.0222635;47.1306425;7.24062;-0.0010000000474974513;1673434592.0408223;0.3428259789943695;-0.8729560971260071;89.51910400390625
26;1673434592.265734;47.130642599999995;7.24062;0.0010000000474974513;1673434592.2784367;0.6912721395492554;-0.7902957797050476;87.1768798828125
27;1673434592.4476225;47.1306428;7.24062;0.0;1673434592.4627957;0.21164198219776154;-0.5862881541252136;84.71593475341797
28;1673434592.6686156;47.130643199999994;7.24062;-0.005000000353902578;1673434592.6813037;-0.23875026404857635;-0.24163410067558289;79.6485824584961
29;1673434592.8679373;47.1306438;7.2406196;-0.007000000216066837;1673434592.8845642;0.6715299487113953;0.35778865218162537;70.00129699707031
30;1673434593.0941193;47.1306449;7.240619;-0.0010000000474974513;1673434593.110712;-0.007234757300466299;-0.5226209163665771;53.08332443237305
31;1673434593.2913055;47.1306467;7.2406177;0.010000000707805157;1673434593.3040226;0.32894065976142883;-1.0981913805007935;34.8516845703125
32;1673434593.4789083;47.1306492;7.2406156;0.018000001087784767;1673434593.495666;3.2175521850585938;3.71950101852417;27.413644790649414
33;1673434593.666728;47.130652399999995;7.2406128;0.026000000536441803;1673434593.6803913;4.30712366104126;4.657302379608154;26.30474853515625
34;1673434593.8699229;47.130655999999995;7.240609399999999;0.04200000315904617;1673434593.8989751;7.053391456604004;11.136358261108398;29.113662719726562
35;1673434594.1332908;47.1306599;7.2406054;0.06000000238418579;1673434594.1587346;7.488122940063477;15.012157440185547;33.69362258911133
36;1673434594.3488998;47.130663999999996;7.240601099999999;0.07800000160932541;1673434594.3615837;7.076039791107178;16.797821044921875;37.47512435913086
37;1673434594.5091503;47.130668;7.2405965;0.09800000488758087;1673434594.5218482;6.23933744430542;19.59285545349121;40.532325744628906
38;1673434594.690366;47.130672;7.2405919999999995;0.11700000613927841;1673434594.7010884;5.695135593414307;21.609880447387695;43.03954315185547
39;1673434594.8790116;47.1306759;7.240587499999999;0.13100001215934753;1673434594.8916986;5.084131717681885;23.810014724731445;45.03390884399414
40;1673434595.094343;47.1306796;7.2405832;0.14000000059604645;1673434595.1071079;4.579592704772949;25.888765335083008;46.64093780517578
41;1673434595.2796147;47.1306831;7.240579299999999;0.15000000596046448;1673434595.2923186;4.187199115753174;28.099245071411133;47.859397888183594
42;1673434595.4857354;47.1306861;7.2405759;0.16100001335144043;1673434595.4857354;3.852264404296875;30.178564071655273;48.84634780883789
43;1673434595.6466675;47.130688799999994;7.2405729;0.1730000078678131;1673434595.6632686;3.599442481994629;32.302188873291016;49.6480598449707
44;1673434595.850854;47.130691;7.2405705;0.18400001525878906;1673434595.8655314;3.386829137802124;34.2226676940918;50.30685806274414
45;1673434596.0364885;47.130692599999996;7.2405687;0.19200000166893005;1673434596.047226;3.2419986724853516;36.42912673950195;50.80497741699219
46;1673434596.2302854;47.1306936;7.2405677;0.20500001311302185;1673434596.245887;3.2970850467681885;38.573143005371094;51.17230224609375
47;1673434596.4371707;47.1306939;7.2405674;0.22200001776218414;1673434596.450832;3.3544414043426514;40.67961120605469;51.447166442871094
48;1673434596.637225;47.1306936;7.2405681;0.23900000751018524;1673434596.652856;3.688981056213379;42.72187042236328;51.632362365722656
49;1673434596.834223;47.130692499999995;7.240569499999999;0.25600001215934753;1673434596.8508995;4.039137363433838;44.84090042114258;51.808082580566406
50;1673434597.0379734;47.1306906;7.2405719;0.27400001883506775;1673434597.051658;4.5116705894470215;46.96127700805664;51.8605842590332
51;1673434597.2378967;47.1306878;7.2405751;0.2930000126361847;1673434597.2515614;5.310274124145508;49.04703140258789;51.793548583984375
52;1673434597.4339776;47.130683999999995;7.240579299999999;0.3110000193119049;1673434597.4476764;6.222389221191406;49.76008987426758;51.525691986083984
53;1673434597.6277258;47.1306793;7.2405843;0.32100000977516174;1673434597.642385;6.273230075836182;45.41738510131836;51.14362716674805
54;1673434597.843794;47.1306741;7.2405896;0.3230000138282776;1673434597.8584435;5.734961032867432;40.20641326904297;50.61055374145508
55;1673434598.050857;47.130668799999995;7.240595099999999;0.320000022649765;1673434598.0655081;5.42591667175293;34.05010223388672;50.124977111816406
56;1673434598.2470517;47.1306636;7.2406004;0.30800002813339233;1673434598.2584808;4.711505889892578;28.200586318969727;49.7245979309082
57;1673434598.4573617;47.1306589;7.2406049999999995;0.3150000274181366;1673434598.4736645;4.099350929260254;23.529430389404297;49.12232971191406
58;1673434598.6631582;47.130654799999995;7.2406087999999995;0.328000009059906;1673434598.68439;3.472979784011841;20.703248977661133;49.15452575683594
59;1673434598.8895533;47.1306516;7.2406118;0.34200000762939453;1673434598.9012318;3.14917254447937;19.0938777923584;49.3422966003418
60;1673434599.0792856;47.1306492;7.2406137;0.3660000264644623;1673434599.1008863;2.7884249687194824;19.398075103759766;49.523773193359375
61;1673434599.254682;47.130647499999995;7.240615;0.3970000147819519;1673434599.2675054;2.114013195037842;20.66080093383789;49.71082305908203
62;1673434599.447399;47.130646399999996;7.2406156;0.4390000104904175;1673434599.4597712;2.164790153503418;23.78911018371582;49.824989318847656
63;1673434599.6510806;47.130645799999996;7.2406159;0.49500003457069397;1673434599.6657188;2.4694113731384277;25.03855323791504;49.67890930175781
64;1673434599.8484478;47.1306454;7.2406159;0.5610000491142273;1673434599.86408;1.9812785387039185;26.18885612487793;49.556461334228516
65;1673434600.0524893;47.1306452;7.2406158;0.6360000371932983;1673434600.0672896;2.389472723007202;29.259897232055664;49.46207046508789
66;1673434600.2391033;47.130645099999995;7.2406159;0.7220000624656677;1673434600.2508588;2.6721725463867188;29.78571319580078;49.586448669433594
67;1673434600.4310005;47.130645;7.240615999999999;0.8190000653266907;1673434600.4456391;2.7417800426483154;29.323055267333984;49.57134246826172
68;1673434600.6259382;47.1306448;7.2406162;0.9270000457763672;1673434600.6509004;2.8851332664489746;30.926651000976562;49.70068359375
69;1673434600.8426144;47.1306446;7.2406165;1.0460000038146973;1673434600.8554623;3.2657461166381836;29.77522087097168;49.81135177612305
70;1673434601.0423725;47.1306442;7.240616999999999;1.1740000247955322;1673434601.0580223;3.003023386001587;28.529895782470703;49.71269989013672
71;1673434601.2427726;47.1306438;7.2406175;1.315000057220459;1673434601.2565417;3.0382025241851807;29.202810287475586;49.79705047607422
72;1673434601.455252;47.1306435;7.2406179999999996;1.4690001010894775;1673434601.469894;3.1978631019592285;28.101011276245117;49.808746337890625
73;1673434601.693906;47.1306431;7.2406185;1.6370000839233398;1673434601.7085445;3.0545828342437744;26.700382232666016;51.202457427978516
74;1673434601.8684835;47.1306428;7.240618899999999;1.815000057220459;1673434601.8813639;2.794473171234131;27.784587860107422;51.322364807128906
75;1673434602.0672965;47.130642599999995;7.240619199999999;1.996000051498413;1673434602.081526;3.2272236347198486;27.265247344970703;51.17703628540039
76;1673434602.2550225;47.1306424;7.2406194;2.177000045776367;1673434602.268856;2.9755687713623047;25.583126068115234;51.080650329589844
77;1673434602.430284;47.1306423;7.2406196;2.3580000400543213;1673434602.4435492;2.9680709838867188;27.238935470581055;51.04988479614258
78;1673434602.6680202;47.1306423;7.2406196;2.5430002212524414;1673434602.6827054;3.23457670211792;27.504253387451172;51.02287292480469
79;1673434602.873819;47.1306424;7.2406196;2.7310001850128174;1673434602.8886187;2.98241925239563;26.641437530517578;50.985755920410156
80;1673434603.0591717;47.1306425;7.240619499999999;2.9180002212524414;1673434603.073827;2.977095603942871;28.193174362182617;51.104122161865234
81;1673434603.2587612;47.1306425;7.240619499999999;3.1070001125335693;1673434603.2743814;3.2499840259552;28.591859817504883;51.156795501708984
82;1673434603.478532;47.130642599999995;7.240619499999999;3.2970001697540283;1673434603.4902434;3.0265953540802;27.30491065979004;51.044654846191406
83;1673434603.6789138;47.130642599999995;7.240619499999999;3.4870002269744873;1673434603.6925776;2.844728946685791;28.451162338256836;51.05051040649414
84;1673434603.866031;47.130642599999995;7.240619499999999;3.6770002841949463;1673434603.8821864;2.9393067359924316;28.668344497680664;51.03926467895508
85;1673434604.0742724;47.130642599999995;7.240619499999999;3.869000196456909;1673434604.0870457;2.844348669052124;27.408720016479492;50.9017448425293
86;1673434604.2794483;47.130642599999995;7.2406196;4.062000274658203;1673434604.2926831;2.7743380069732666;28.469938278198242;50.96844482421875
87;1673434604.5034463;47.130642599999995;7.2406197;4.25600004196167;1673434604.5181324;3.251147985458374;28.57047462463379;51.0368766784668
88;1673434604.670624;47.130642599999995;7.240619799999999;4.448000431060791;1673434604.683359;3.2025578022003174;27.04230308532715;51.023258209228516
89;1673434604.851019;47.130642599999995;7.24062;4.63700008392334;1673434604.8647118;3.1373677253723145;28.058208465576172;51.02252197265625
90;1673434605.05389;47.130642599999995;7.2406201;4.827000141143799;1673434605.0716183;3.492558002471924;28.454505920410156;51.08218765258789
91;1673434605.2538967;47.130642599999995;7.2406201999999995;5.01800012588501;1673434605.2754083;3.2487215995788574;26.924650192260742;50.99101638793945
92;1673434605.4559815;47.130642599999995;7.2406203;5.212000370025635;1673434605.470626;3.3517706394195557;27.89252281188965;50.98179244995117
93;1673434605.6439085;47.1306425;7.2406203;5.40500020980835;1673434605.6595252;3.546403646469116;28.29861068725586;51.10090255737305
94;1673434605.8655398;47.1306425;7.2406203;5.6020002365112305;1673434605.878227;3.2559802532196045;26.79463768005371;50.9647102355957
95;1673434606.0650923;47.1306425;7.2406203;5.7960004806518555;1673434606.0822346;2.997915744781494;27.804859161376953;50.942543029785156
96;1673434606.259;47.1306425;7.2406201999999995;5.991000175476074;1673434606.2737682;3.3273284435272217;28.626264572143555;51.023826599121094
97;1673434606.4638977;47.1306425;7.2406201;6.185000419616699;1673434606.475687;3.116717576980591;27.205366134643555;50.88961410522461
98;1673434606.6462233;47.1306425;7.2406201;6.377000331878662;1673434606.661806;2.8065505027770996;28.003271102905273;50.92626953125
99;1673434606.8568172;47.1306425;7.2406201;6.570000171661377;1673434606.8704991;3.0573017597198486;28.66609001159668;51.07814407348633
100;1673434607.054364;47.1306425;7.2406201;6.767000198364258;1673434607.070102;3.135561227798462;27.206823348999023;51.126853942871094
101;1673434607.2634585;47.1306425;7.2406201999999995;6.965000152587891;1673434607.2781954;2.9279606342315674;27.804481506347656;51.09899139404297
102;1673434607.4592412;47.1306425;7.2406201999999995;7.163000106811523;1673434607.4730926;3.254432439804077;28.707307815551758;51.05558395385742
103;1673434607.6473522;47.1306425;7.2406201999999995;7.360000133514404;1673434607.6609862;3.33453106880188;27.361967086791992;51.046016693115234
104;1673434607.84503;47.1306425;7.2406201999999995;7.557000160217285;1673434607.8587098;3.1477816104888916;27.567550659179688;50.96123123168945
105;1673434608.0514789;47.1306425;7.2406201999999995;7.753000259399414;1673434608.0622299;3.3363354206085205;28.8082332611084;51.07181930541992
106;1673434608.2596328;47.1306425;7.2406201999999995;7.951000213623047;1673434608.2778568;3.109476327896118;27.33462905883789;51.0520133972168
107;1673434608.4592888;47.1306425;7.2406201999999995;8.15000057220459;1673434608.474049;3.060396909713745;27.45682144165039;50.97978973388672
108;1673434608.665713;47.1306425;7.2406201999999995;8.350000381469727;1673434608.6813412;3.3147053718566895;28.758468627929688;51.05049514770508
109;1673434608.8705454;47.130642599999995;7.2406201999999995;8.552000045776367;1673434608.8867166;3.298940658569336;27.526287078857422;50.999935150146484
110;1673434609.0705907;47.130642599999995;7.2406201999999995;8.754000663757324;1673434609.0862467;3.1244490146636963;27.580123901367188;51.09651565551758
111;1673434609.2706406;47.130642599999995;7.2406201999999995;8.958000183105469;1673434609.2852836;3.3613996505737305;28.732067108154297;51.08482360839844
112;1673434609.458861;47.130642599999995;7.2406201999999995;9.157000541687012;1673434609.473511;3.3560733795166016;27.470321655273438;50.971580505371094
113;1673434609.6523895;47.130642599999995;7.2406201999999995;9.357000350952148;1673434609.6699498;3.0836734771728516;27.295589447021484;50.95050048828125
114;1673434609.8827581;47.130642599999995;7.2406201;9.56100082397461;1673434609.8989847;3.2328100204467773;28.686464309692383;51.02207565307617
115;1673434610.071857;47.130642599999995;7.2406201;9.770000457763672;1673434610.085536;3.6021852493286133;27.618600845336914;51.052249908447266
116;1673434610.2780023;47.130642599999995;7.2406201;9.982000350952148;1673434610.2932007;3.2006936073303223;27.340368270874023;51.04176330566406
117;1673434610.481551;47.130642599999995;7.2406201;10.20300006866455;1673434610.4942925;3.399827718734741;27.785585403442383;50.74954605102539
118;1673434610.67874;47.1306425;7.2406201999999995;10.532000541687012;1673434610.6934214;3.676785469055176;27.19370460510254;50.74422073364258
119;1673434610.8667233;47.1306422;7.2406203;10.931000709533691;1673434610.8823733;3.53187894821167;28.74144172668457;51.13079833984375
120;1673434611.0911145;47.1306419;7.2406204999999995;11.34000015258789;1673434611.1077173;2.861534357070923;26.79791831970215;51.017452239990234
121;1673434611.3386142;47.1306417;7.2406207;11.748000144958496;1673434611.349352;3.1000471115112305;26.99095916748047;51.2182731628418
122;1673434611.5070467;47.130641399999995;7.240620799999999;12.155000686645508;1673434611.5207102;2.732419490814209;25.696489334106445;51.091819763183594
123;1673434611.7342145;47.1306413;7.2406209;12.558000564575195;1673434611.7460973;2.651893138885498;25.369647979736328;51.12986755371094
124;1673434611.911879;47.1306412;7.2406209;12.950000762939453;1673434611.9226222;2.779926300048828;26.554582595825195;51.13828659057617
125;1673434612.0717719;47.1306413;7.240620799999999;13.337000846862793;1673434612.0844717;2.8242766857147217;25.589509963989258;51.089508056640625
126;1673434612.252831;47.130641399999995;7.2406207;13.726000785827637;1673434612.2657006;2.713351249694824;26.158390045166016;51.122802734375
127;1673434612.4639437;47.130641499999996;7.2406204999999995;14.113000869750977;1673434612.4766505;3.201963186264038;27.583744049072266;51.08979415893555
128;1673434612.6608603;47.1306416;7.2406203;14.498001098632812;1673434612.6774323;3.0764846801757812;26.544658660888672;50.951778411865234
129;1673434612.866673;47.1306417;7.2406201999999995;14.882000923156738;1673434612.8825338;2.8193366527557373;26.975706100463867;51.03423309326172
130;1673434613.0795124;47.1306418;7.24062;15.267001152038574;1673434613.0941894;3.017667770385742;28.144824981689453;51.06828308105469
131;1673434613.2852697;47.1306419;7.2406198999999996;15.653000831604004;1673434613.2979941;3.1181771755218506;27.2976131439209;51.059112548828125
132;1673434613.485467;47.130641999999995;7.240619799999999;16.03900146484375;1673434613.5021226;2.8814213275909424;27.035165786743164;50.98534393310547
133;1673434613.6817656;47.130641999999995;7.240619799999999;16.4320011138916;1673434613.6964443;3.0692059993743896;28.277820587158203;51.04060363769531
134;1673434613.8704095;47.130641999999995;7.240619799999999;16.82900047302246;1673434613.8821318;3.158222198486328;27.346323013305664;51.04254913330078
135;1673434614.0688894;47.130641999999995;7.240619799999999;17.22800064086914;1673434614.0825758;2.8985536098480225;26.96897315979004;51.02081298828125
136;1673434614.287199;47.130641999999995;7.2406198999999996;17.62700080871582;1673434614.2995086;2.986306667327881;27.7457332611084;51.03058624267578
137;1673434614.474748;47.1306419;7.24062;18.022001266479492;1673434614.4884324;3.2212607860565186;26.860958099365234;51.05430603027344
138;1673434614.6626618;47.1306419;7.2406201;18.415000915527344;1673434614.6763277;3.068699836730957;26.527297973632812;51.07706832885742
139;1673434614.8665707;47.1306419;7.2406201;18.80900001525879;1673434614.8838258;3.1598398685455322;27.47608184814453;50.98112106323242
140;1673434615.0686216;47.130641999999995;7.2406201;19.20400047302246;1673434615.0825193;3.345231533050537;27.148996353149414;51.087913513183594
141;1673434615.2612798;47.130641999999995;7.2406201999999995;19.600000381469727;1673434615.273963;2.9730312824249268;26.402055740356445;50.99598693847656
142;1673434615.4836743;47.130641999999995;7.2406201999999995;19.996000289916992;1673434615.4954195;3.2194137573242188;27.517980575561523;51.02553176879883
143;1673434615.6626897;47.130641999999995;7.2406201999999995;20.391000747680664;1673434615.6754115;3.269556760787964;27.382343292236328;51.01411819458008
144;1673434615.8629918;47.130641999999995;7.2406201999999995;20.784000396728516;1673434615.876691;2.91827130317688;26.475528717041016;51.071537017822266
145;1673434616.0743678;47.130641999999995;7.2406201999999995;21.18000030517578;1673434616.0906804;3.0420925617218018;27.65774154663086;51.051570892333984
146;1673434616.2987397;47.130641999999995;7.2406201999999995;21.578001022338867;1673434616.3094764;3.3132832050323486;27.189607620239258;51.00316619873047
147;1673434616.4663117;47.130641999999995;7.2406201999999995;21.975000381469727;1673434616.4799757;3.050623655319214;26.440095901489258;50.98966598510742
148;1673434616.65353;47.130641999999995;7.2406201999999995;22.3700008392334;1673434616.6681728;3.1141698360443115;27.517333984375;51.07755661010742
149;1673434616.8493435;47.130642099999996;7.2406201999999995;22.764001846313477;1673434616.8669102;3.237334728240967;27.31338119506836;51.02421188354492
150;1673434617.0668588;47.130642099999996;7.2406201999999995;23.154001235961914;1673434617.0805278;3.0161869525909424;26.26835060119629;51.00309753417969
151;1673434617.2740345;47.130642099999996;7.2406203;23.546001434326172;1673434617.2888496;3.2239670753479004;27.382482528686523;51.042869567871094
152;1673434617.4573305;47.130642099999996;7.2406203;23.941001892089844;1673434617.4710019;3.3661670684814453;27.319107055664062;51.04134750366211
153;1673434617.6538017;47.130642099999996;7.2406203;24.33700180053711;1673434617.666489;3.177238941192627;26.154094696044922;50.950775146484375
154;1673434617.871022;47.130642099999996;7.2406203;24.73200035095215;1673434617.8856814;3.122901201248169;27.194564819335938;50.998844146728516
155;1673434618.070979;47.1306422;7.2406203;25.128000259399414;1673434618.0856586;3.2603235244750977;27.38930892944336;51.01115417480469
156;1673434618.2942421;47.1306422;7.2406201999999995;25.524002075195312;1673434618.3079355;3.207005023956299;26.555509567260742;50.98998260498047
157;1673434618.486817;47.1306422;7.2406201999999995;25.915000915527344;1673434618.501495;3.145061492919922;27.457170486450195;51.03422546386719
158;1673434618.6969316;47.1306423;7.2406201;26.302001953125;1673434618.7116086;3.31386137008667;27.477222442626953;51.01494598388672
159;1673434618.8950078;47.1306423;7.2406201;26.696001052856445;1673434618.9063334;3.156339168548584;26.55635643005371;51.03181457519531
160;1673434619.0847127;47.1306423;7.2406201;27.093000411987305;1673434619.1006167;3.0103561878204346;27.464637756347656;51.0823860168457
161;1673434619.2907927;47.1306423;7.24062;27.49100112915039;1673434619.313791;3.1544365882873535;27.624277114868164;51.054054260253906
162;1673434619.4993489;47.1306423;7.24062;27.889001846313477;1673434619.5152;3.096181631088257;26.600378036499023;51.02357482910156
163;1673434619.6906598;47.1306423;7.24062;28.280000686645508;1673434619.7033958;3.1891119480133057;27.242752075195312;51.09433364868164
164;1673434619.8869226;47.1306423;7.24062;28.674001693725586;1673434619.9025815;3.2547574043273926;27.567338943481445;51.020843505859375
165;1673434620.0869532;47.1306422;7.2406201;29.07000160217285;1673434620.0986762;3.082123279571533;26.26857566833496;50.914588928222656
166;1673434620.2918103;47.1306423;7.2406201;29.468002319335938;1673434620.306484;3.141341209411621;27.19147300720215;51.02301788330078
167;1673434620.5036144;47.1306423;7.24062;29.86600112915039;1673434620.5164857;3.3630573749542236;27.528179168701172;51.0009651184082
168;1673434620.7019906;47.1306423;7.24062;30.266000747680664;1673434620.7156568;3.2354986667633057;26.591123580932617;50.99403381347656
169;1673434620.8839693;47.1306423;7.2406198999999996;30.66400146484375;1673434620.8968096;3.107814311981201;27.32709312438965;51.04178237915039
170;1673434621.0705633;47.1306423;7.2406198999999996;31.058000564575195;1673434621.0852473;3.295421600341797;27.707767486572266;51.024166107177734
171;1673434621.2644525;47.1306423;7.2406198999999996;31.453001022338867;1673434621.2820134;3.2121963500976562;26.49091339111328;51.122650146484375
172;1673434621.482326;47.1306423;7.2406198999999996;31.852001190185547;1673434621.497961;3.0809450149536133;27.120742797851562;51.03794860839844
173;1673434621.699259;47.1306423;7.240619799999999;32.255001068115234;1673434621.7134588;3.158687114715576;27.661888122558594;51.07563018798828
174;1673434621.9144895;47.1306423;7.240619799999999;32.65800094604492;1673434621.92913;3.244202136993408;26.464506149291992;51.057491302490234
175;1673434622.1040363;47.1306423;7.240619799999999;33.05900192260742;1673434622.118678;3.0301613807678223;27.1265926361084;50.9024772644043
176;1673434622.3502507;47.1306423;7.240619799999999;33.454002380371094;1673434622.3785431;3.3101770877838135;27.626773834228516;51.022769927978516
177;1673434622.5289836;47.1306423;7.240619799999999;33.849002838134766;1673434622.5397186;3.087074041366577;26.383983612060547;50.99851608276367
178;1673434622.6957178;47.1306423;7.240619799999999;34.249000549316406;1673434622.7100396;2.9974029064178467;27.043418884277344;51.00769805908203
179;1673434622.8959222;47.1306423;7.2406197;34.6510009765625;1673434622.9086301;3.2295939922332764;27.644365310668945;51.06064987182617
180;1673434623.075568;47.1306423;7.2406197;35.04899978637695;1673434623.0902412;3.206864833831787;26.557601928710938;50.998111724853516
181;1673434623.2600312;47.1306423;7.2406197;35.448001861572266;1673434623.2747848;2.965848445892334;27.047536849975586;51.01535415649414
182;1673434623.4514775;47.1306423;7.2406197;35.849002838134766;1673434623.466135;3.1941561698913574;27.67793846130371;51.121463775634766
183;1673434623.666476;47.1306423;7.2406196;36.24800109863281;1673434623.687239;2.9271979331970215;26.825828552246094;51.01182556152344
184;1673434623.878104;47.1306423;7.2406196;36.647003173828125;1673434623.8929536;2.9767117500305176;27.16255760192871;51.01393127441406
185;1673434624.0847485;47.1306423;7.2406196;37.04800033569336;1673434624.100352;3.207270860671997;27.657655715942383;51.095672607421875
186;1673434624.274903;47.1306423;7.2406196;37.44700241088867;1673434624.2908583;3.015933036804199;26.584915161132812;50.96685028076172
187;1673434624.4750404;47.1306422;7.2406196;37.84800338745117;1673434624.4887054;2.9537580013275146;26.962966918945312;50.944522857666016
188;1673434624.6707594;47.1306422;7.2406196;38.25;1673434624.6865284;3.1830084323883057;27.549522399902344;51.042240142822266
189;1673434624.8754847;47.1306422;7.2406196;38.64900207519531;1673434624.889177;3.0435776710510254;26.627439498901367;50.96421432495117
190;1673434625.156656;47.130642099999996;7.2406196;39.04900360107422;1673434625.1684098;2.90907621383667;26.928260803222656;50.9951057434082
191;1673434625.365616;47.130642099999996;7.2406197;39.452003479003906;1673434625.3783038;3.1969993114471436;27.557443618774414;51.12004470825195
192;1673434625.5605361;47.1306422;7.2406197;39.854000091552734;1673434625.5742064;3.1692233085632324;26.448827743530273;50.98622512817383
193;1673434625.7997692;47.1306422;7.240619799999999;40.25600051879883;1673434625.808556;3.1174745559692383;26.79474639892578;51.041961669921875
194;1673434625.9561155;47.1306422;7.240619799999999;40.65700149536133;1673434625.968803;3.430215358734131;27.538326263427734;51.04746627807617
195;1673434626.1370847;47.1306422;7.240619799999999;41.057003021240234;1673434626.1536772;3.2799863815307617;26.514936447143555;50.90567398071289
196;1673434626.329713;47.1306422;7.240619799999999;41.45500183105469;1673434626.3454754;3.1759033203125;26.89872932434082;50.98276138305664
197;1673434626.5432658;47.1306422;7.240619799999999;41.85000228881836;1673434626.5549765;3.432342290878296;27.576393127441406;51.053470611572266
198;1673434626.72039;47.1306422;7.240619799999999;42.246002197265625;1673434626.7321007;3.316523790359497;26.326547622680664;51.053184509277344
199;1673434626.9142416;47.1306422;7.240619799999999;42.64500045776367;1673434626.9299002;3.120838165283203;26.966344833374023;51.095542907714844
200;1673434627.1115165;47.1306422;7.2406197;43.047000885009766;1673434627.1232638;3.2332704067230225;27.680768966674805;51.04558563232422
201;1673434627.2855372;47.1306422;7.2406196;43.45000076293945;1673434627.3021407;3.1336073875427246;26.63133430480957;50.96841812133789
202;1673434627.4898221;47.1306422;7.2406196;43.84800338745117;1673434627.50745;2.9151511192321777;26.92782974243164;51.048912048339844
203;1673434627.6913552;47.1306422;7.2406196;44.24500274658203;1673434627.7060485;3.165008783340454;27.6887264251709;51.10834884643555
204;1673434627.8780034;47.1306422;7.2406196;44.64500045776367;1673434627.8955655;3.043999195098877;26.78003692626953;51.024871826171875
205;1673434628.0838988;47.130642099999996;7.2406196;45.04300308227539;1673434628.0987468;2.8475894927978516;26.61716079711914;51.04908752441406
206;1673434628.3031993;47.130642099999996;7.2406196;45.44200134277344;1673434628.3190026;3.1548659801483154;27.890525817871094;51.041831970214844
207;1673434628.5058174;47.130642099999996;7.2406196;45.84100341796875;1673434628.5240915;3.1941707134246826;26.688703536987305;50.9434928894043
208;1673434628.7052224;47.130642099999996;7.2406196;46.242000579833984;1673434628.7213848;3.0245485305786133;26.609601974487305;51.025352478027344
209;1673434628.8870087;47.1306422;7.2406197;46.6400032043457;1673434628.900688;3.2170348167419434;27.759363174438477;51.08781433105469
210;1673434629.0761213;47.1306422;7.2406197;47.035003662109375;1673434629.0907497;3.45286226272583;26.80292510986328;50.966163635253906
211;1673434629.2774186;47.130642099999996;7.240619799999999;47.43400192260742;1673434629.2959433;3.120807409286499;26.55934715270996;50.95296859741211
212;1673434629.4908473;47.130642099999996;7.240619799999999;47.83500289916992;1673434629.5299442;3.3496248722076416;27.836931228637695;51.03898239135742
213;1673434629.7268522;47.1306422;7.240619799999999;48.20900344848633;1673434629.7395837;3.350945234298706;27.0645809173584;51.06217956542969
214;1673434629.8932061;47.1306423;7.2406197;48.52900314331055;1673434629.9068737;3.2373082637786865;27.59629249572754;51.091949462890625
215;1673434630.0768285;47.1306424;7.2406196;48.794002532958984;1673434630.0904925;3.419529914855957;28.03803825378418;51.039947509765625
216;1673434630.3240125;47.130642599999995;7.2406194;49.01100158691406;1673434630.3386633;3.5073628425598145;28.1287841796875;51.04081726074219
217;1673434630.5333812;47.1306429;7.240619199999999;49.19400405883789;1673434630.5491462;3.4717798233032227;28.975637435913086;51.039058685302734
218;1673434630.7317472;47.130643;7.240619;49.35100173950195;1673434630.743446;13.643573760986328;29.57118034362793;53.08499526977539
219;1673434630.925764;47.130642699999996;7.2406179999999996;49.493003845214844;1673434630.9385037;34.76350402832031;32.906131744384766;64.68275451660156
220;1673434631.098391;47.130641;7.2406146;49.618003845214844;1673434631.1169434;45.284122467041016;38.307533264160156;74.71084594726562
221;1673434631.3155282;47.1306374;7.240607499999999;49.704002380371094;1673434631.3346171;47.94379806518555;40.552276611328125;81.03909301757812
222;1673434631.512022;47.130632399999996;7.240596699999999;49.71800231933594;1673434631.5253875;31.486658096313477;37.80461502075195;89.39481353759766
223;1673434631.714849;47.1306265;7.2405832;49.71600341796875;1673434631.727718;23.64438819885254;45.67729187011719;100.7398681640625
224;1673434631.9149039;47.130619599999996;7.2405675;49.704002380371094;1673434631.9295795;12.061760902404785;48.6668815612793;110.74917602539062
225;1673434632.1220279;47.1306119;7.24055;49.68600082397461;1673434632.1366675;-1.9457858800888062;45.39191818237305;120.03529357910156
226;1673434632.3292952;47.130603699999995;7.240531;49.677001953125;1673434632.3420086;-14.05943775177002;46.64925003051758;129.42388916015625
227;1673434632.514171;47.1305949;7.2405107;49.678001403808594;1673434632.5269163;-26.62689781188965;46.8779411315918;140.33041381835938
228;1673434632.7791533;47.1305854;7.2404891;49.68600082397461;1673434632.790874;-38.16678237915039;40.50577926635742;154.365966796875
229;1673434632.9719818;47.130575099999994;7.240466;49.68800354003906;1673434632.9827325;-47.822998046875;33.70391082763672;165.9128875732422
230;1673434633.1292548;47.1305641;7.240441799999999;49.6410026550293;1673434633.142078;-37.534976959228516;20.24521827697754;166.71632385253906
231;1673434633.3190029;47.1305531;7.2404179;49.551002502441406;1673434633.3322392;-21.281774520874023;12.758688926696777;157.08245849609375
232;1673434633.528369;47.1305431;7.2403949999999995;49.44300079345703;1673434633.5430222;-12.911789894104004;10.593194961547852;142.91307067871094
233;1673434633.7282317;47.1305343;7.240373399999999;49.39800262451172;1673434633.74487;-25.025144577026367;19.017593383789062;132.2678680419922
234;1673434633.9364312;47.130525999999996;7.2403533;49.42000198364258;1673434633.9492688;-32.69781494140625;37.59498977661133;127.74430084228516
235;1673434634.1445353;47.130516799999995;7.2403344999999995;49.48200225830078;1673434634.1574574;-38.172813415527344;42.900333404541016;130.4798126220703
236;1673434634.3384407;47.130506399999994;7.2403162;49.54900360107422;1673434634.3540602;-38.113380432128906;43.25829315185547;136.21946716308594
237;1673434634.5416245;47.130494999999996;7.240297699999999;49.60000228881836;1673434634.5592885;-38.19356918334961;40.405601501464844;138.5688934326172
238;1673434634.7694595;47.1304829;7.240278999999999;49.62200164794922;1673434634.7822378;-34.52947998046875;33.54479217529297;137.45912170410156
239;1673434634.9692173;47.1304705;7.240260699999999;49.63200378417969;1673434634.980958;-36.028141021728516;30.393451690673828;134.90296936035156
240;1673434635.1714234;47.130457899999996;7.2402434;49.65200424194336;1673434635.1850731;-41.64533615112305;29.458436965942383;133.32533264160156
241;1673434635.358126;47.1304449;7.240227699999999;49.67900085449219;1673434635.372886;-44.5194091796875;25.588558197021484;133.810546875
242;1673434635.572038;47.130431599999994;7.240213799999999;49.69900131225586;1673434635.5867074;-43.97431182861328;15.441357612609863;134.85702514648438
243;1673434635.7389653;47.1304186;7.240202099999999;49.711002349853516;1673434635.7506802;-43.09312438964844;-1.7907400131225586;134.84962463378906
244;1673434635.913957;47.130406699999995;7.240193499999999;49.72500228881836;1673434635.9306157;-41.55974197387695;-13.553549766540527;132.7233428955078
245;1673434636.1191318;47.1303967;7.2401887;49.74500274658203;1673434636.133805;-40.598472595214844;-20.89424705505371;133.25599670410156
246;1673434636.326829;47.1303888;7.240187199999999;49.76100158691406;1673434636.3425074;-35.03281021118164;-21.020633697509766;130.2887420654297
247;1673434636.5298624;47.130383099999996;7.2401886;49.77900314331055;1673434636.55427;-33.6748046875;-22.048524856567383;130.85035705566406
248;1673434636.7377326;47.1303797;7.2401927;49.827003479003906;1673434636.7523768;-36.06181335449219;-26.254152297973633;131.68255615234375
249;1673434636.9394236;47.130378199999996;7.2401993;49.89200210571289;1673434636.9540393;-41.09823226928711;-18.925899505615234;127.87529754638672
250;1673434637.139737;47.130378199999996;7.2402079;49.96800231933594;1673434637.1536973;-37.39141082763672;-8.298812866210938;129.42276000976562
251;1673434637.3249216;47.1303787;7.2402174;50.02100372314453;1673434637.3415692;-29.295284271240234;-2.6741838455200195;142.34164428710938
252;1673434637.532977;47.1303795;7.2402263;50.05500411987305;1673434637.5495784;-26.648151397705078;2.7203352451324463;154.97402954101562
253;1673434637.7255797;47.1303802;7.2402339;50.079002380371094;1673434637.7373655;-26.755199432373047;5.909128665924072;165.16749572753906
254;1673434637.9297347;47.130380599999995;7.2402394999999995;50.09600067138672;1673434637.9455106;-29.465219497680664;6.213194847106934;174.34095764160156
255;1673434638.1287084;47.130380599999995;7.2402428;50.1140022277832;1673434638.1421916;-33.48468017578125;2.5321075916290283;-175.88038635253906
256;1673434638.3192904;47.130379999999995;7.240244;50.13200378417969;1673434638.332505;-38.30044937133789;-2.198477029800415;-166.03790283203125
257;1673434638.5250368;47.1303786;7.240242899999999;50.14900207519531;1673434638.5427618;-43.21339797973633;-7.37832498550415;-156.6930389404297
258;1673434638.7388535;47.1303761;7.2402393;50.165000915527344;1673434638.756571;-48.436893463134766;-11.899823188781738;-147.7102508544922
259;1673434638.9507623;47.130372099999995;7.240233;50.177001953125;1673434638.9683206;-57.375587463378906;-12.560396194458008;-139.2413787841797
260;1673434639.1287596;47.1303664;7.2402232;50.172000885009766;1673434639.147556;-55.24970626831055;-15.231266021728516;-131.83441162109375
261;1673434639.3370094;47.130359299999995;7.2402101;50.14800262451172;1673434639.3496864;-50.4638786315918;-16.62350845336914;-132.9368133544922
262;1673434639.5411425;47.130351;7.240194499999999;50.12900161743164;1673434639.5578642;-49.7857780456543;-13.727615356445312;-138.9054412841797
263;1673434639.754935;47.130341699999995;7.2401773;50.11600112915039;1673434639.764698;-50.60685729980469;-14.201774597167969;-141.56512451171875
264;1673434639.9536085;47.1303315;7.240158699999999;50.11300277709961;1673434639.9695494;-49.51219177246094;-12.208784103393555;-142.2006072998047
265;1673434640.1382027;47.1303206;7.2401390999999995;50.10700225830078;1673434640.1538165;-50.03744888305664;-13.856842041015625;-140.9017791748047
266;1673434640.3310199;47.1303092;7.2401187;50.105003356933594;1673434640.3442433;-50.525001525878906;-14.415224075317383;-140.29698181152344
267;1673434640.5177233;47.1302972;7.2400975999999995;50.09100341796875;1673434640.5323656;-48.318790435791016;-14.305642127990723;-140.0242919921875
268;1673434640.7223287;47.1302848;7.240075999999999;50.066001892089844;1673434640.737527;-46.26372528076172;-14.121278762817383;-140.0416717529297
269;1673434640.9345334;47.130272299999994;7.2400541;50.038002014160156;1673434640.9501545;-44.29313278198242;-15.367453575134277;-139.96267700195312
270;1673434641.1365404;47.130259599999995;7.2400321;50.02900314331055;1673434641.1491935;-46.08665466308594;-17.80630111694336;-146.0646514892578
271;1673434641.347418;47.1302466;7.2400104999999995;50.03300094604492;1673434641.3620584;-49.2308464050293;-12.840622901916504;-157.35768127441406
272;1673434641.5398028;47.1302331;7.239989899999999;50.040000915527344;1673434641.56224;-48.050804138183594;-5.723163604736328;-166.94029235839844
273;1673434641.7468033;47.1302193;7.2399701;50.03600311279297;1673434641.7605803;-46.86075973510742;1.1027476787567139;-175.46234130859375
274;1673434641.9549553;47.1302054;7.239951;50.02100372314453;1673434641.9686306;-44.27206039428711;7.21821928024292;175.9541473388672
275;1673434642.1514077;47.130191599999996;7.2399327;49.99800109863281;1673434642.1650884;-40.21369934082031;10.845680236816406;167.23562622070312
276;1673434642.343081;47.130178099999995;7.239915;49.96900177001953;1673434642.3557546;-36.236026763916016;12.555622100830078;158.15386962890625
277;1673434642.5317714;47.1301651;7.239898299999999;49.93300247192383;1673434642.545546;-33.03256607055664;12.487619400024414;148.22415161132812
278;1673434642.7354326;47.1301528;7.239882799999999;49.90200424194336;1673434642.7476811;-33.4768180847168;13.008349418640137;137.8867645263672
279;1673434642.912103;47.130141099999996;7.239869199999999;49.89500427246094;1673434642.9277248;-41.66563415527344;13.036466598510742;129.35345458984375
280;1673434643.1512105;47.13013;7.2398586;49.922000885009766;1673434643.1651146;-50.81669616699219;6.674260139465332;126.91691589355469
281;1673434643.331424;47.1301193;7.2398517;49.94600296020508;1673434643.3436775;-51.609012603759766;0.6071015000343323;126.81979370117188
282;1673434643.519054;47.130109399999995;7.2398484;49.94700241088867;1673434643.533692;-46.36625671386719;-9.62100887298584;136.168212890625
283;1673434643.7257922;47.1301005;7.2398482;49.95100402832031;1673434643.7410026;-42.56252670288086;-12.095547676086426;150.80076599121094
284;1673434643.9246435;47.1300921;7.2398501;49.98500061035156;1673434643.943446;-43.49171829223633;0.3199041187763214;161.99786376953125
285;1673434644.1355453;47.1300836;7.2398519;50.01700210571289;1673434644.1508133;-43.45408630371094;17.989233016967773;172.07456970214844
286;1673434644.3221376;47.130074699999994;7.2398511999999995;50.01300048828125;1673434644.3348346;-46.17997360229492;31.823328018188477;-177.1374969482422
287;1673434644.51672;47.130066;7.2398457;49.967002868652344;1673434644.5313637;-41.66173553466797;26.970500946044922;-164.89134216308594
288;1673434644.7211242;47.130057799999996;7.2398358;49.91100311279297;1673434644.7357776;-32.49678039550781;23.35902976989746;-158.3140869140625
289;1673434644.924855;47.1300506;7.2398226;49.867000579833984;1673434644.9385226;-33.606746673583984;13.683603286743164;-151.82322692871094
290;1673434645.1139152;47.1300442;7.2398066;49.86900329589844;1673434645.1295435;-43.260887145996094;9.781373977661133;-144.85995483398438
291;1673434645.321394;47.1300381;7.239788;49.89600372314453;1673434645.3360445;-48.49729919433594;-7.488926410675049;-133.22210693359375
292;1673434645.5278127;47.1300314;7.239767;49.94600296020508;1673434645.5395246;-53.84074020385742;-20.128952026367188;-131.45645141601562
293;1673434645.718613;47.1300233;7.2397445;50.00800323486328;1673434645.7342336;-54.673805236816406;-22.412500381469727;-137.23358154296875
294;1673434645.9315095;47.1300135;7.2397217;50.04900360107422;1673434645.94618;-53.222190856933594;-18.93384552001953;-141.21461486816406
295;1673434646.1254663;47.1300026;7.239699;50.07100296020508;1673434646.141088;-52.77580261230469;-18.578767776489258;-140.38009643554688
296;1673434646.3220735;47.1299907;7.2396762;50.07400131225586;1673434646.3377237;-49.94784164428711;-17.797473907470703;-140.6332244873047
297;1673434646.5333762;47.1299782;7.2396536;50.060001373291016;1673434646.5487714;-45.818782806396484;-17.100969314575195;-141.2667694091797
298;1673434646.7350543;47.129965299999995;7.2396310999999995;50.048004150390625;1673434646.749504;-44.819366455078125;-20.17668342590332;-142.0104522705078
299;1673434646.9287322;47.129951999999996;7.239609199999999;50.044002532958984;1673434646.9423988;-45.606468200683594;-17.820833206176758;-152.4224853515625
300;1673434647.1311202;47.1299384;7.2395885;50.03700256347656;1673434647.1454;-46.323822021484375;-11.396587371826172;-162.72218322753906
301;1673434647.3341174;47.129924599999995;7.2395689999999995;50.02900314331055;1673434647.3487957;-46.45768737792969;-5.915473937988281;-171.21315002441406
302;1673434647.5301917;47.129910699999996;7.239550599999999;50.022003173828125;1673434647.5497587;-44.652469635009766;1.6412732601165771;179.7864532470703
303;1673434647.7430859;47.1298969;7.2395331;50.01700210571289;1673434647.756942;-44.326236724853516;8.074493408203125;171.67184448242188
304;1673434647.9362092;47.1298831;7.239516399999999;50.00800323486328;1673434647.953929;-41.124691009521484;14.340421676635742;162.69284057617188
305;1673434648.1313899;47.1298695;7.239500199999999;49.99100112915039;1673434648.1480215;-37.46353530883789;18.320859909057617;153.95481872558594
306;1673434648.3321989;47.1298563;7.2394846;49.9630012512207;1673434648.3466084;-34.91238784790039;17.53775405883789;145.33372497558594
307;1673434648.522445;47.1298436;7.2394701999999995;49.92500305175781;1673434648.5381346;-36.72103500366211;-7.193997859954834;139.88372802734375
308;1673434648.7303824;47.1298324;7.2394589;49.89400100708008;1673434648.744705;-33.735435485839844;-26.666627883911133;136.66021728515625
309;1673434648.9374917;47.129823599999995;7.2394511999999995;49.85400390625;1673434648.9508796;-20.57359504699707;-25.43339729309082;138.7521514892578
310;1673434649.1351876;47.129817499999994;7.239446;49.814002990722656;1673434649.1498692;-7.345151901245117;-24.20795440673828;150.64793395996094
311;1673434649.3344014;47.1298141;7.2394425;49.827003479003906;1673434649.3501117;-5.3267316818237305;-32.55524826049805;173.97703552246094
312;1673434649.5451567;47.129812699999995;7.239441299999999;49.89200210571289;1673434649.5623076;-21.716108322143555;-28.18610382080078;-173.07882690429688
313;1673434649.7539291;47.1298116;7.2394412;49.95900344848633;1673434649.7675922;-41.650634765625;-18.183820724487305;-164.0886993408203
314;1673434649.9588637;47.1298094;7.239440699999999;50.031002044677734;1673434649.973504;-59.75672149658203;-8.622358322143555;-155.04837036132812
315;1673434650.1579146;47.129804899999996;7.239437199999999;50.05400085449219;1673434650.1727085;-57.037681579589844;-10.447766304016113;-142.3234405517578
316;1673434650.369203;47.129799;7.2394302999999995;50.03700256347656;1673434650.3859375;-44.36146926879883;-8.724570274353027;-136.90109252929688
317;1673434650.5699968;47.1297923;7.2394203;50.03400421142578;1673434650.5867622;-48.77587127685547;-15.056384086608887;-135.20950317382812
318;1673434650.7694788;47.1297846;7.2394077;50.05500411987305;1673434650.7831528;-51.00990295410156;-18.508033752441406;-138.12411499023438
319;1673434650.9540062;47.129775599999995;7.2393933;50.070003509521484;1673434650.968712;-53.57709884643555;-19.258949279785156;-142.01312255859375
320;1673434651.1341577;47.1297652;7.2393776;50.073001861572266;1673434651.1498165;-49.51737976074219;-15.54673957824707;-142.55709838867188
321;1673434651.3389716;47.1297541;7.239361;50.06800079345703;1673434651.3561413;-48.283042907714844;-15.298747062683105;-141.0016326904297
322;1673434651.5461166;47.1297424;7.2393434;50.06800079345703;1673434651.5662622;-48.70984649658203;-13.974822044372559;-141.14126586914062
323;1673434651.749007;47.1297303;7.239325;50.06100082397461;1673434651.7636914;-46.33310317993164;-13.897573471069336;-140.66600036621094
324;1673434651.952508;47.129717899999996;7.2393057999999995;50.05400085449219;1673434651.967149;-45.53434371948242;-13.017032623291016;-140.898193359375
325;1673434652.1562762;47.1297053;7.2392859;50.04300308227539;1673434652.1729455;-45.18992614746094;-14.373189926147461;-140.2978515625
326;1673434652.3510237;47.1296927;7.239265499999999;50.03300094604492;1673434652.373504;-45.97718048095703;-14.828386306762695;-140.36439514160156
327;1673434652.5892086;47.1296799;7.2392448;50.02900314331055;1673434652.6009252;-44.86683654785156;-15.725011825561523;-140.58778381347656
328;1673434652.7640972;47.1296669;7.2392237999999995;50.03300094604492;1673434652.7767854;-45.89724349975586;-18.638015747070312;-141.68467712402344
329;1673434652.9583955;47.1296536;7.2392028999999996;50.05400085449219;1673434652.974988;-48.75666046142578;-18.03911781311035;-150.6097412109375
330;1673434653.1512873;47.1296399;7.2391827;50.06900405883789;1673434653.1645179;-48.509986877441406;-9.960989952087402;-162.32177734375
331;1673434653.3468037;47.1296258;7.2391634;50.0780029296875;1673434653.362969;-48.18958282470703;-4.4689836502075195;-170.55934143066406
332;1673434653.5552175;47.129611499999996;7.239145;50.07600402832031;1673434653.5688815;-45.1534423828125;3.014716386795044;-179.69525146484375
333;1673434653.7665389;47.1295973;7.2391273;50.06900405883789;1673434653.7861304;-43.036048889160156;9.80293083190918;171.93081665039062
334;1673434653.9762156;47.1295831;7.239109999999999;50.06100082397461;1673434653.9947584;-40.389686584472656;15.736693382263184;163.3302001953125
335;1673434654.1657798;47.1295693;7.2390931;50.0420036315918;1673434654.1823823;-35.109527587890625;18.92719841003418;154.3985137939453
336;1673434654.3688576;47.1295557;7.2390766;50.03400421142578;1673434654.386578;-35.5294303894043;29.362472534179688;150.6297149658203
337;1673434654.5542872;47.1295423;7.2390596;50.0410041809082;1673434654.5699072;-37.053253173828125;38.25051498413086;167.88221740722656
338;1673434654.75423;47.129529399999996;7.2390403999999995;50.03600311279297;1673434654.7688842;-38.442447662353516;31.663837432861328;-175.50306701660156
339;1673434654.9475346;47.129517299999996;7.239018799999999;50.01700210571289;1673434654.9622262;-38.99302291870117;22.705434799194336;-167.813720703125
340;1673434655.142268;47.1295061;7.238995399999999;50.00700378417969;1673434655.1554987;-41.1141242980957;11.674650192260742;-169.6343536376953
341;1673434655.3505373;47.1294951;7.2389718;49.98800277709961;1673434655.3647444;-34.08412551879883;-2.2878761291503906;176.8296661376953
342;1673434655.5401335;47.1294847;7.238949799999999;49.95000076293945;1673434655.5528247;-32.502689361572266;-20.43731117248535;162.78224182128906
343;1673434655.7365;47.1294755;7.238931699999999;49.913002014160156;1673434655.751302;-31.248350143432617;-22.49911117553711;148.1966552734375
344;1673434655.9421175;47.1294682;7.2389177;49.874000549316406;1673434655.956327;-26.30256462097168;-21.93904685974121;139.94580078125
345;1673434656.1465795;47.129463099999995;7.2389071;49.84700393676758;1673434656.160288;-23.276451110839844;-21.229434967041016;133.47598266601562
346;1673434656.3579755;47.129459999999995;7.2388996;49.836002349853516;1673434656.3776343;-33.23308181762695;-16.883502960205078;132.34620666503906
347;1673434656.5649998;47.1294584;7.2388949;49.840003967285156;1673434656.5767128;-36.047523498535156;-17.069459915161133;130.76983642578125
348;1673434656.7475173;47.1294579;7.238893099999999;49.86000061035156;1673434656.7617018;-39.50592041015625;-7.9396257400512695;129.6946258544922
349;1673434656.9294126;47.1294578;7.2388942;49.90800094604492;1673434656.9450305;-49.79216766357422;-3.209813117980957;130.7270965576172
350;1673434657.1471517;47.1294574;7.238898;49.980003356933594;1673434657.1629634;-54.469696044921875;3.451262950897217;128.98793029785156
351;1673434657.3661492;47.129456;7.2389041;50.031002044677734;1673434657.3799841;-51.50957107543945;6.054692268371582;130.46633911132812
352;1673434657.5574117;47.1294535;7.2389117;50.07200241088867;1673434657.5735884;-47.97062301635742;9.047965049743652;131.94180297851562
353;1673434657.7513707;47.1294501;7.238919999999999;50.105003356933594;1673434657.7650747;-46.99372863769531;12.863370895385742;131.83970642089844
354;1673434657.9418344;47.1294458;7.2389285999999995;50.12800216674805;1673434657.9575794;-48.20265579223633;18.84315299987793;131.677734375
355;1673434658.1460114;47.1294402;7.2389369;50.13900375366211;1673434658.1597092;-49.05255126953125;16.911354064941406;140.5811309814453
356;1673434658.3486872;47.1294335;7.238944399999999;50.137001037597656;1673434658.364842;-47.29258728027344;8.333210945129395;152.57339477539062
357;1673434658.5586393;47.1294258;7.2389508;50.134002685546875;1673434658.572846;-42.74435043334961;5.789238929748535;162.3708953857422
358;1673434658.750279;47.1294177;7.2389556;50.12600326538086;1673434658.7644906;-35.28117370605469;14.867640495300293;170.59536743164062
359;1673434658.950597;47.129409599999995;7.238957399999999;50.11300277709961;1673434658.9659035;-31.654844284057617;34.02369689941406;178.5833740234375
360;1673434659.1466963;47.129402;7.2389548999999995;50.06700134277344;1673434659.1636221;-33.57704544067383;39.119239807128906;-170.9097442626953
361;1673434659.3396676;47.1293955;7.238947199999999;49.992000579833984;1673434659.3533754;-30.65622329711914;25.364234924316406;-158.08192443847656
362;1673434659.5565789;47.129390199999996;7.2389356;49.93700408935547;1673434659.56833;-31.800567626953125;23.997783660888672;-153.87911987304688
363;1673434659.7423398;47.129386;7.2389204;49.89900207519531;1673434659.757115;-40.313377380371094;15.23765754699707;-141.6389617919922
364;1673434659.9384305;47.1293826;7.2389014;49.89500427246094;1673434659.9530997;-48.75109100341797;9.152727127075195;-133.5745391845703
365;1673434660.1313808;47.1293794;7.238879;49.9160041809082;1673434660.1471517;-47.87855911254883;-0.09444789588451385;-128.69161987304688
366;1673434660.346598;47.129376;7.2388537;49.954002380371094;1673434660.362217;-53.58363723754883;-7.239635467529297;-132.72000122070312
367;1673434660.5546288;47.1293714;7.2388262999999995;50.005001068115234;1673434660.571403;-60.17252731323242;-14.341239929199219;-135.86175537109375
368;1673434660.741415;47.1293651;7.2387977999999995;50.031002044677734;1673434660.755241;-54.93360900878906;-12.95731258392334;-142.7843780517578
369;1673434660.9508777;47.129357299999995;7.2387692999999995;50.025001525878906;1673434660.9645853;-47.2669792175293;-7.202171802520752;-153.12939453125
370;1673434661.1598563;47.1293487;7.238741399999999;50.01400375366211;1673434661.1746292;-46.308536529541016;-3.2989048957824707;-162.2942352294922
371;1673434661.361744;47.1293394;7.2387146;50.00700378417969;1673434661.3774388;-46.91203308105469;4.0341691970825195;-172.14588928222656
372;1673434661.5606463;47.129329399999996;7.238688799999999;50.00400161743164;1673434661.574347;-47.93584060668945;9.208789825439453;179.4156951904297
373;1673434661.7527654;47.1293188;7.238663799999999;49.99500274658203;1673434661.7659938;-44.312870025634766;11.984662055969238;170.05238342285156
374;1673434661.954584;47.1293079;7.2386401;49.97600173950195;1673434661.970303;-42.782711029052734;11.024262428283691;160.72802734375
375;1673434662.1556056;47.1292968;7.2386181;49.95000076293945;1673434662.1699405;-40.886966705322266;7.25233793258667;151.1419677734375
376;1673434662.3586035;47.1292859;7.2385988;49.92000198364258;1673434662.3732793;-40.21892166137695;5.461825847625732;141.087646484375
377;1673434662.5550556;47.129275299999996;7.238582699999999;49.90400314331055;1673434662.569734;-46.479515075683594;2.374164342880249;133.82290649414062
378;1673434662.7548923;47.1292654;7.2385706;49.900001525878906;1673434662.7681243;-47.50550842285156;-0.09945707023143768;125.97105407714844
379;1673434662.9480965;47.129256399999996;7.2385627999999995;49.89200210571289;1673434662.9627454;-47.86857223510742;-8.790261268615723;130.14352416992188
380;1673434663.1531644;47.1292483;7.238558599999999;49.88900375366211;1673434663.1658723;-42.2861442565918;-7.680358409881592;130.8021240234375
381;1673434663.343451;47.129241199999996;7.238557699999999;49.9010009765625;1673434663.3600948;-48.125301361083984;-7.655925273895264;134.2298583984375
382;1673434663.5395432;47.1292348;7.2385598;49.92100143432617;1673434663.554346;-49.31759262084961;-4.834545135498047;131.70907592773438
383;1673434663.7316556;47.1292288;7.2385645;49.94600296020508;1673434663.7484202;-48.52073287963867;-0.5981959104537964;130.377685546875
384;1673434663.9626374;47.129222999999996;7.2385712;49.97300338745117;1673434663.9792752;-44.315486907958984;0.9158353805541992;130.80447387695312
385;1673434664.165856;47.129217399999995;7.2385791;49.99500274658203;1673434664.1817636;-41.79549789428711;5.329780578613281;130.81089782714844
386;1673434664.3827353;47.129211999999995;7.2385876;50.00600051879883;1673434664.3971171;-39.11421203613281;8.240419387817383;132.06480407714844
387;1673434664.5809612;47.129206499999995;7.2385961;50.01100158691406;1673434664.596576;-35.5678596496582;15.705592155456543;131.6728973388672
388;1673434664.7761707;47.1292008;7.238603599999999;50.01300048828125;1673434664.7908137;-34.303497314453125;23.709531784057617;135.99050903320312
389;1673434664.988441;47.1291948;7.238609299999999;50.009002685546875;1673434665.001707;-24.441144943237305;33.43825149536133;150.0582275390625
390;1673434665.18055;47.1291887;7.2386114;49.987003326416016;1673434665.19633;-27.62262725830078;40.04597091674805;158.16183471679688
391;1673434665.3736057;47.1291826;7.2386091;49.948001861572266;1673434665.3872802;-35.55978012084961;29.896703720092773;168.26644897460938
392;1673434665.567474;47.129176099999995;7.2386029;49.93800354003906;1673434665.5817814;-33.97218322753906;8.333673477172852;179.3610076904297
393;1673434665.7699332;47.1291696;7.2385953;49.94600296020508;1673434665.7857168;-23.38571548461914;-13.011565208435059;-170.7749481201172
394;1673434665.9646645;47.1291637;7.2385877;49.96000289916992;1673434665.979111;-15.719271659851074;-16.71234130859375;-163.14476013183594
395;1673434666.2168233;47.1291587;7.238580499999999;49.97500228881836;1673434666.2296154;-9.337021827697754;-21.406814575195312;-152.73423767089844
396;1673434666.3969755;47.1291546;7.238574099999999;50.00600051879883;1673434666.4086866;-11.528721809387207;-21.66692352294922;-143.6993408203125
397;1673434666.5822895;47.1291509;7.2385679;50.13100051879883;1673434666.5959637;-32.44432830810547;-20.232973098754883;-135.09991455078125
398;1673434666.7686615;47.1291466;7.238560499999999;50.345001220703125;1673434666.7809036;-42.75227355957031;-25.067888259887695;-128.54818725585938
399;1673434666.942951;47.1291413;7.238550999999999;50.61300277709961;1673434666.958577;-25.380558013916016;-8.087566375732422;-134.06568908691406
400;1673434667.1571097;47.129135999999995;7.2385401;50.935001373291016;1673434667.1734226;-22.753944396972656;-14.23556900024414;-135.6236572265625
401;1673434667.35756;47.1291307;7.2385285999999995;51.32400131225586;1673434667.3714097;-37.231441497802734;-34.71048355102539;-136.13636779785156
402;1673434667.569025;47.1291242;7.2385173;51.717002868652344;1673434667.5882578;-42.43925476074219;-28.941043853759766;-139.0066680908203
403;1673434667.762687;47.1291162;7.238506;52.10200119018555;1673434667.7773736;-39.14376449584961;-27.789840698242188;-139.46884155273438
404;1673434667.9453146;47.1291073;7.2384946;52.480003356933594;1673434667.9600375;-37.75914001464844;-25.999277114868164;-138.82008361816406
405;1673434668.1749334;47.129097599999994;7.238483199999999;52.84800338745117;1673434668.1895723;-34.872711181640625;-23.73438835144043;-138.6809844970703
406;1673434668.3759255;47.1290876;7.2384716;53.220001220703125;1673434668.3915718;-33.67536926269531;-22.20047950744629;-138.2117919921875
407;1673434668.5743668;47.1290775;7.2384597;53.59300231933594;1673434668.5997467;-32.29447937011719;-21.327861785888672;-137.49134826660156
408;1673434668.7927413;47.1290674;7.2384474999999995;53.96600341796875;1673434668.8064775;-31.051427841186523;-20.77971649169922;-137.05377197265625
409;1673434668.9754043;47.1290574;7.238435099999999;54.34100341796875;1673434668.9897785;-30.51401138305664;-20.82369613647461;-136.72940063476562
410;1673434669.1736445;47.1290476;7.238422399999999;54.71200180053711;1673434669.1903627;-30.19586181640625;-20.998638153076172;-136.66122436523438
411;1673434669.3736875;47.129038;7.2384096;55.083003997802734;1673434669.386931;-30.13189697265625;-21.277603149414062;-136.70321655273438
412;1673434669.566191;47.1290285;7.2383967;55.45900344848633;1673434669.582043;-30.39830207824707;-21.820363998413086;-136.71031188964844
413;1673434669.762396;47.1290191;7.2383837;55.83900451660156;1673434669.777577;-30.443586349487305;-22.16103172302246;-136.8551788330078
414;1673434669.97714;47.1290098;7.238370799999999;56.220001220703125;1673434670.000572;-30.69816780090332;-22.575092315673828;-136.81710815429688
415;1673434670.1859467;47.1290006;7.238357799999999;56.60100173950195;1673434670.2022727;-30.84703826904297;-22.89948272705078;-136.94625854492188
416;1673434670.3931131;47.128991299999996;7.2383448999999995;56.98100280761719;1673434670.4107099;-31.025634765625;-22.942180633544922;-136.97222900390625
417;1673434670.5838284;47.128982;7.238332;57.35700225830078;1673434670.5965173;-31.28530502319336;-22.97083282470703;-136.9715118408203
418;1673434670.7590456;47.1289727;7.238319199999999;57.72900390625;1673434670.7727323;-31.25020408630371;-22.980316162109375;-136.97752380371094
