;pos_time;latitude;longitude;altitude;alt_time;pitch;roll;yaw
0;1673433438.7764392;47.1306425;7.240619499999999;0.010000000707805157;1673433438.8462827;-0.06283202767372131;-0.05765130743384361;90.36465454101562
1;1673433438.967844;47.1306425;7.2406196;0.007000000216066837;1673433439.0456657;0.21201978623867035;-0.18836912512779236;90.42910766601562
2;1673433439.1663058;47.1306425;7.2406197;0.004000000189989805;1673433439.2511609;0.12652292847633362;-0.0673258975148201;90.35411071777344
3;1673433439.3544643;47.130642599999995;7.2406197;0.0;1673433439.4382246;0.16013534367084503;-0.025745684280991554;90.36180114746094
4;1673433439.568498;47.130642599999995;7.240619799999999;-0.0020000000949949026;1673433439.6463645;-0.09162312000989914;-0.21848562359809875;90.565185546875
5;1673433439.7506351;47.1306425;7.240619799999999;-0.004000000189989805;1673433439.8348513;-0.046784546226263046;-0.015150917693972588;90.30207824707031
6;1673433439.967263;47.1306425;7.240619799999999;-0.004000000189989805;1673433440.058889;0.18797747790813446;-0.22984202206134796;90.48892211914062
7;1673433440.1733856;47.130642599999995;7.240619799999999;-0.005000000353902578;1673433440.2632837;-0.1437579244375229;-0.08529892563819885;90.42984008789062
8;1673433440.3829997;47.1306425;7.2406198999999996;-0.006000000052154064;1673433440.4713106;-0.09377888590097427;-0.06171974167227745;90.3378677368164
9;1673433440.6016738;47.1306425;7.2406198999999996;-0.005000000353902578;1673433440.6744468;-0.3645603358745575;-0.17425121366977692;90.57532501220703
10;1673433440.805274;47.1306425;7.24062;0.0;1673433440.8878164;0.013284477405250072;-0.6448923945426941;90.58137512207031
11;1673433441.0062015;47.1306425;7.2406201;0.0;1673433441.089749;0.08742129057645798;-0.48109784722328186;90.5394287109375
12;1673433441.2002714;47.1306425;7.2406201;-0.006000000052154064;1673433441.2762542;-0.27585840225219727;-0.5007054805755615;90.5521011352539
13;1673433441.3909092;47.130642599999995;7.2406201;-0.01100000087171793;1673433441.4749982;-0.2529083788394928;-0.4828283488750458;90.47195434570312
14;1673433441.5985618;47.1306425;7.24062;-0.012000000104308128;1673433441.6821475;-0.102471724152565;-0.47667375206947327;90.44569396972656
15;1673433441.8021386;47.1306425;7.2406198999999996;-0.015000000596046448;1673433441.8854926;-0.22802430391311646;-0.692130982875824;90.64921569824219
16;1673433441.9952047;47.1306425;7.2406198999999996;-0.017000000923871994;1673433442.0648198;-0.12653039395809174;-0.5574091672897339;90.41934204101562
17;1673433442.1801205;47.1306425;7.2406198999999996;0.0;1673433442.2561688;0.014660947024822235;-0.9576942920684814;90.74878692626953
18;1673433442.3632786;47.1306425;7.24062;0.0010000000474974513;1673433442.4411952;-0.14284542202949524;-0.4089524447917938;90.54241180419922
19;1673433442.5677185;47.1306425;7.24062;0.003000000026077032;1673433442.6451478;-0.0033330521546304226;-0.8590192794799805;90.5907974243164
20;1673433442.764764;47.1306425;7.2406201;0.005000000353902578;1673433442.8512356;0.19032879173755646;-0.6633599996566772;90.63611602783203
21;1673433442.9571974;47.1306425;7.2406201;0.007000000216066837;1673433443.037477;0.3054225444793701;-0.9552990198135376;90.6285629272461
22;1673433443.1532366;47.1306425;7.2406201;0.00800000037997961;1673433443.245898;0.10298927128314972;-0.4523402452468872;90.81925201416016
23;1673433443.3652384;47.1306425;7.2406201;0.01100000087171793;1673433443.4454606;0.1606225222349167;-0.3345354497432709;90.71527099609375
24;1673433443.5568392;47.1306425;7.2406201;0.01100000087171793;1673433443.6550348;0.16369804739952087;-0.5832664370536804;90.51991271972656
25;1673433443.7880847;47.130642599999995;7.24062;0.005000000353902578;1673433443.8699481;0.27059701085090637;-0.5007171630859375;90.3552474975586
26;1673433443.9875093;47.130642699999996;7.2406198999999996;0.004000000189989805;1673433444.0622542;0.555941641330719;-0.4175539016723633;89.70811462402344
27;1673433444.1705482;47.1306428;7.240619799999999;0.0;1673433444.2499726;-0.03900523856282234;1.1719788312911987;85.02271270751953
28;1673433444.388331;47.1306429;7.2406196;0.005000000353902578;1673433444.5392377;-0.47520825266838074;4.0136566162109375;81.8642807006836
29;1673433444.674191;47.1306431;7.2406194;0.017000000923871994;1673433444.746645;-3.137296199798584;8.145604133605957;83.8466796875
30;1673433444.884386;47.130643199999994;7.2406191;0.0430000014603138;1673433444.9868605;-5.9790778160095215;11.705657005310059;85.07915496826172
31;1673433445.074022;47.1306431;7.240619;0.08900000154972076;1673433445.1376157;-5.016689300537109;10.895257949829102;85.73509216308594
32;1673433445.2522593;47.130643;7.240618899999999;0.1510000079870224;1673433445.3232121;-5.7340803146362305;5.692955017089844;86.44881439208984
33;1673433445.435411;47.130643;7.240619;0.22700001299381256;1673433445.514045;-5.787642002105713;7.91778039932251;86.65879821777344
34;1673433445.6480172;47.1306428;7.2406191;0.31800001859664917;1673433445.7190595;-5.701085567474365;11.145987510681152;86.504150390625
35;1673433445.8345962;47.1306425;7.2406193;0.42500001192092896;1673433445.9128933;-5.300174713134766;5.038959503173828;87.41368103027344
36;1673433446.0207193;47.1306423;7.240619499999999;0.5440000295639038;1673433446.0976052;-4.869822025299072;5.583366870880127;87.61063385009766
37;1673433446.2026298;47.130641999999995;7.2406197;0.6780000329017639;1673433446.2732406;-4.101279258728027;9.08959674835205;87.43437194824219
38;1673433446.3927066;47.1306418;7.2406198999999996;0.8270000219345093;1673433446.4740853;-4.4794464111328125;4.923916816711426;88.01145935058594
39;1673433446.6001189;47.130641999999995;7.24062;0.9900000691413879;1673433446.682377;-4.572114944458008;5.3685808181762695;88.47517395019531
40;1673433446.800235;47.1306422;7.2406201;1.1680001020431519;1673433446.8781197;-4.570984840393066;10.22785472869873;88.20133972167969
41;1673433446.9936128;47.1306423;7.2406201999999995;1.3590000867843628;1673433447.0807111;-4.772589683532715;7.209963321685791;88.56698608398438
42;1673433447.2022853;47.1306423;7.2406201999999995;1.5490000247955322;1673433447.278048;-4.733868598937988;4.917020320892334;88.39059448242188
43;1673433447.4015434;47.1306423;7.2406201999999995;1.7430000305175781;1673433447.4860823;-4.884467601776123;9.393165588378906;87.95326232910156
44;1673433447.6310587;47.1306424;7.2406201;1.946000099182129;1673433447.7072291;-4.236373424530029;8.169495582580566;87.95099639892578
45;1673433447.817285;47.130642599999995;7.24062;2.1510000228881836;1673433447.9064867;-4.799710273742676;5.615671634674072;88.11196899414062
46;1673433448.0232549;47.1306428;7.24062;2.3519999980926514;1673433448.1061096;-5.000484943389893;9.99771499633789;87.55349731445312
47;1673433448.2242448;47.1306429;7.2406198999999996;2.5510001182556152;1673433448.3024664;-5.065509796142578;10.011513710021973;87.41194152832031
48;1673433448.4271379;47.130643;7.2406198999999996;2.757000207901001;1673433448.5060976;-5.0895562171936035;5.785614490509033;87.51957702636719
49;1673433448.6344264;47.130643;7.2406198999999996;2.9560000896453857;1673433448.7068906;-5.244688510894775;9.268033027648926;87.16969299316406
50;1673433448.8231277;47.1306429;7.2406198999999996;3.1590001583099365;1673433448.9080951;-4.971415042877197;10.223180770874023;87.09952545166016
51;1673433449.0234997;47.1306429;7.2406198999999996;3.3650002479553223;1673433449.1048844;-5.071506500244141;5.543633937835693;87.54402923583984
52;1673433449.2165546;47.130643;7.2406198999999996;3.570000171661377;1673433449.2927291;-4.911762237548828;8.849150657653809;87.32683563232422
53;1673433449.3987405;47.1306429;7.2406198999999996;3.7740001678466797;1673433449.4833398;-4.771993160247803;10.534930229187012;87.16813659667969
54;1673433449.6097593;47.1306428;7.24062;3.9770002365112305;1673433449.6922898;-4.882091999053955;5.307894229888916;87.59662628173828
55;1673433449.803169;47.130642699999996;7.24062;4.175000190734863;1673433449.8751156;-4.932483673095703;7.525213241577148;87.40198516845703
56;1673433449.9992468;47.1306425;7.24062;4.380000114440918;1673433450.0911698;-4.966745853424072;9.871671676635742;87.01851654052734
57;1673433450.2079542;47.1306425;7.24062;4.588000297546387;1673433450.296257;-5.024461269378662;5.490925312042236;87.5427017211914
58;1673433450.4142692;47.130642599999995;7.24062;4.797000408172607;1673433450.4965553;-5.051381587982178;7.575716495513916;87.50497436523438
59;1673433450.627058;47.130642599999995;7.24062;5.003000259399414;1673433450.7225692;-4.85468864440918;10.650416374206543;87.06863403320312
60;1673433450.9020915;47.130642599999995;7.24062;5.209000110626221;1673433450.9702382;-4.868875980377197;6.196105003356934;87.49730682373047
61;1673433451.0901186;47.130642599999995;7.24062;5.4170002937316895;1673433451.1516154;-5.193977355957031;6.881424427032471;87.46926879882812
62;1673433451.240544;47.130642599999995;7.24062;5.621000289916992;1673433451.3253155;-5.075298309326172;10.671998977661133;86.9985122680664
63;1673433451.4590127;47.130642699999996;7.2406198999999996;5.829000473022461;1673433451.5299957;-5.233349323272705;8.013906478881836;87.45597839355469
64;1673433451.639616;47.1306428;7.2406198999999996;6.0420002937316895;1673433451.713576;-5.415502548217773;6.5664381980896;87.79925537109375
65;1673433451.8167546;47.1306428;7.2406198999999996;6.25100040435791;1673433451.890799;-5.247836112976074;10.984212875366211;86.98934173583984
66;1673433452.0099077;47.130642699999996;7.2406198999999996;6.459000110626221;1673433452.0923874;-5.168037414550781;8.029617309570312;87.2564926147461
67;1673433452.2070842;47.130642599999995;7.24062;6.669000148773193;1673433452.289904;-5.1153035163879395;5.590159893035889;87.61331176757812
68;1673433452.3989482;47.1306425;7.24062;6.871000289916992;1673433452.4841847;-4.851469993591309;10.094730377197266;87.24312591552734
69;1673433452.6110547;47.1306425;7.24062;7.079000473022461;1673433452.694248;-4.784085273742676;8.770339965820312;87.2914047241211
70;1673433452.8122497;47.1306425;7.2406201999999995;7.283000469207764;1673433452.898471;-5.041074752807617;5.386569976806641;87.52830505371094
71;1673433453.0064087;47.130642599999995;7.2406203;7.488000392913818;1673433453.0818403;-5.050709247589111;9.630813598632812;87.04373168945312
72;1673433453.1986444;47.1306425;7.2406203;7.690000534057617;1673433453.310981;-4.896758079528809;9.200512886047363;86.95912170410156
73;1673433453.4270787;47.1306424;7.2406203;7.896000385284424;1673433453.5113053;-4.975713729858398;5.020438194274902;87.45731353759766
74;1673433453.624809;47.1306425;7.2406203;8.098999977111816;1673433453.7258923;-4.905459403991699;9.07170581817627;87.3720474243164
75;1673433453.8585663;47.1306425;7.2406201999999995;8.29900074005127;1673433453.9828467;-4.680715560913086;10.365386962890625;87.132080078125
76;1673433454.0978594;47.130642599999995;7.2406201999999995;8.499000549316406;1673433454.1661086;-5.0272345542907715;5.845040798187256;87.57793426513672
77;1673433454.2916105;47.130642699999996;7.2406201999999995;8.700000762939453;1673433454.3924553;-5.396237850189209;8.415411949157715;87.32334899902344
78;1673433454.4789143;47.130642599999995;7.2406201999999995;8.89900016784668;1673433454.5454779;-5.271912574768066;10.707321166992188;86.89482879638672
79;1673433454.6461973;47.1306425;7.2406201999999995;9.101000785827637;1673433454.718838;-5.361762046813965;5.840446472167969;87.39358520507812
80;1673433454.8391721;47.1306425;7.2406201999999995;9.302000045776367;1673433454.9106543;-5.138120651245117;7.6319966316223145;87.48272705078125
81;1673433455.0205371;47.1306425;7.2406201;9.50200080871582;1673433455.11057;-4.9358811378479;10.88464069366455;86.99417114257812
82;1673433455.2123754;47.1306425;7.2406201;9.702000617980957;1673433455.2940257;-4.8742451667785645;6.924306869506836;87.3545913696289
83;1673433455.4120855;47.130642699999996;7.2406201;9.903000831604004;1673433455.493232;-4.967365264892578;6.5251784324646;87.45906829833984
84;1673433455.606119;47.130642599999995;7.2406201999999995;10.101000785827637;1673433455.6898265;-4.913991928100586;10.729321479797363;87.21114349365234
85;1673433455.813438;47.1306425;7.2406203;10.345000267028809;1673433455.8940327;-5.124507904052734;8.876792907714844;87.2907485961914
86;1673433456.0105846;47.1306424;7.2406204;10.691000938415527;1673433456.085358;-6.045370578765869;6.5091729164123535;87.6640396118164
87;1673433456.1934087;47.1306422;7.2406206;11.072000503540039;1673433456.2701;-5.064783573150635;8.811471939086914;87.2820053100586
88;1673433456.3878212;47.130642099999996;7.240620799999999;11.463000297546387;1673433456.4732149;-4.393036365509033;9.236348152160645;87.13310241699219
89;1673433456.5900033;47.130641999999995;7.2406209;11.868000984191895;1673433456.6772182;-4.206124305725098;5.088446140289307;87.61293029785156
90;1673433456.790217;47.130641999999995;7.240621;12.271000862121582;1673433456.8859625;-3.984107494354248;7.1674628257751465;87.45063781738281
91;1673433457.000334;47.1306419;7.240621099999999;12.67400074005127;1673433457.0848823;-3.679276704788208;9.056099891662598;87.18098449707031
92;1673433457.2181158;47.1306418;7.240621;13.077000617980957;1673433457.303787;-4.168603420257568;5.486722469329834;87.26372528076172
93;1673433457.427578;47.1306419;7.2406209;13.482000350952148;1673433457.5064201;-4.674533843994141;5.909337043762207;87.37251281738281
94;1673433457.621133;47.130641999999995;7.240620799999999;13.884000778198242;1673433457.6981864;-4.853969573974609;9.886295318603516;86.9216079711914
95;1673433457.8117428;47.130642099999996;7.2406206;14.282000541687012;1673433457.887362;-4.934772491455078;7.126194000244141;87.36271667480469
96;1673433458.0149195;47.1306423;7.2406204999999995;14.6850004196167;1673433458.0922441;-5.159120082855225;6.1104302406311035;87.55806732177734
97;1673433458.240552;47.1306423;7.2406204;15.087000846862793;1673433458.3189914;-4.794763565063477;10.945024490356445;87.22315216064453
98;1673433458.4275672;47.1306422;7.2406204;15.485000610351562;1673433458.5143209;-4.832211971282959;8.395918846130371;87.36126708984375
99;1673433458.6227171;47.1306422;7.2406203;15.890000343322754;1673433458.7022011;-5.046305179595947;5.2207112312316895;87.4754867553711
100;1673433458.8164089;47.1306423;7.2406203;16.297000885009766;1673433458.8947499;-4.941925525665283;9.325424194335938;86.9548110961914
101;1673433459.003772;47.1306424;7.2406204;16.700000762939453;1673433459.0907214;-4.839627742767334;9.606720924377441;87.14617919921875
102;1673433459.2154896;47.1306425;7.2406204;17.110000610351562;1673433459.3025837;-4.959754943847656;5.705696105957031;87.61031341552734
103;1673433459.4192376;47.1306425;7.2406204;17.518001556396484;1673433459.494014;-4.810088634490967;9.04981803894043;87.26071166992188
104;1673433459.6188781;47.1306424;7.2406204;17.921001434326172;1673433459.715916;-4.569049835205078;9.772528648376465;87.22137451171875
105;1673433459.8333566;47.1306423;7.2406204;18.32400131225586;1673433459.9130964;-4.847322463989258;5.453160285949707;87.63908386230469
106;1673433460.0130394;47.1306423;7.2406204;18.72800064086914;1673433460.10295;-4.953553676605225;7.677794933319092;87.3194351196289
107;1673433460.2302873;47.1306423;7.2406204;19.124000549316406;1673433460.3041017;-4.858145236968994;10.247154235839844;86.96682739257812
108;1673433460.406325;47.1306424;7.2406203;19.52400016784668;1673433460.4859197;-4.8689751625061035;5.907746315002441;87.45952606201172
109;1673433460.6213653;47.1306424;7.2406203;19.928001403808594;1673433460.7075229;-5.184146881103516;7.183190822601318;87.45005798339844
110;1673433460.827315;47.1306424;7.2406203;20.327001571655273;1673433460.9235718;-4.753166198730469;10.133662223815918;87.12901306152344
111;1673433461.0691583;47.1306423;7.2406203;20.727001190185547;1673433461.1406877;-4.773001670837402;6.83389139175415;87.3947525024414
112;1673433461.2438045;47.1306424;7.2406203;21.128000259399414;1673433461.324424;-4.92976188659668;6.089156150817871;87.60747528076172
113;1673433461.4481592;47.1306425;7.2406203;21.527000427246094;1673433461.5210843;-4.7832159996032715;10.651601791381836;87.03792572021484
114;1673433461.6387997;47.1306425;7.2406203;21.920001983642578;1673433461.717702;-4.505543231964111;8.40172290802002;87.22245788574219
115;1673433461.8324273;47.130642599999995;7.2406203;22.31800079345703;1673433461.9130619;-4.843771457672119;5.793286323547363;87.38734436035156
116;1673433462.0293968;47.130642599999995;7.2406203;22.71500015258789;1673433462.1054568;-4.918885707855225;10.170682907104492;87.01221466064453
117;1673433462.2268624;47.1306425;7.2406201999999995;23.112001419067383;1673433462.3085315;-4.907219409942627;8.822330474853516;87.22283172607422
118;1673433462.4185932;47.1306424;7.2406201999999995;23.512001037597656;1673433462.5088239;-5.035688877105713;5.159770488739014;87.69454956054688
119;1673433462.6298306;47.1306424;7.2406201999999995;23.91200065612793;1673433462.7112193;-5.142208576202393;8.659636497497559;87.31763458251953
120;1673433462.8335176;47.1306424;7.2406201;24.30500030517578;1673433462.9179883;-4.590691566467285;10.005695343017578;87.05766296386719
121;1673433463.0368912;47.1306425;7.2406201;24.702001571655273;1673433463.1224642;-4.77481746673584;5.541772842407227;87.36824035644531
122;1673433463.2421622;47.130642599999995;7.2406201;25.10300064086914;1673433463.3183837;-5.065115451812744;8.258316993713379;87.24866485595703
123;1673433463.4264965;47.130642599999995;7.24062;25.498001098632812;1673433463.505148;-5.069410800933838;10.22173023223877;87.08513641357422
124;1673433463.6297455;47.1306425;7.24062;25.895000457763672;1673433463.7074497;-5.261785984039307;6.400280952453613;87.606201171875
125;1673433463.8281846;47.1306425;7.24062;26.293001174926758;1673433463.9085898;-5.2093939781188965;6.844615936279297;87.60485076904297
126;1673433464.0314631;47.1306425;7.24062;26.69300079345703;1673433464.112055;-4.668964862823486;10.46076488494873;86.97037506103516
127;1673433464.2247841;47.1306425;7.24062;27.089000701904297;1673433464.3088174;-4.461302280426025;6.689582824707031;87.22712707519531
128;1673433464.4291358;47.130642599999995;7.24062;27.49100112915039;1673433464.5199127;-4.913605690002441;6.247340679168701;87.2701416015625
129;1673433464.6401997;47.1306425;7.24062;27.894001007080078;1673433464.7191453;-4.970902442932129;10.24574089050293;87.01192474365234
130;1673433464.835611;47.1306425;7.24062;28.298002243041992;1673433464.921709;-4.943790435791016;7.908538341522217;87.25045776367188
131;1673433465.0417068;47.1306425;7.2406198999999996;28.702001571655273;1673433465.122917;-5.206605911254883;5.676516056060791;87.69158172607422
132;1673433465.2408054;47.130642599999995;7.2406198999999996;29.10300064086914;1673433465.325996;-5.030292510986328;9.91075611114502;87.11687469482422
133;1673433465.441494;47.130642599999995;7.2406198999999996;29.49700164794922;1673433465.5204964;-4.689882278442383;9.389266014099121;87.15937805175781
134;1673433465.6391566;47.130642699999996;7.240619799999999;29.894001007080078;1673433465.7223873;-4.887597560882568;5.992556095123291;87.48983764648438
135;1673433465.8373744;47.1306428;7.240619799999999;30.288002014160156;1673433465.916921;-5.036270618438721;9.413278579711914;87.24505615234375
136;1673433466.0372126;47.130642599999995;7.240619799999999;30.68800163269043;1673433466.1174252;-4.975545883178711;9.5042724609375;87.0236587524414
137;1673433466.218204;47.130642599999995;7.240619799999999;31.089000701904297;1673433466.3017962;-4.996455192565918;5.635220527648926;87.64669799804688
138;1673433466.4284902;47.130642599999995;7.240619799999999;31.488000869750977;1673433466.5174158;-5.1557722091674805;7.497236251831055;87.46221923828125
139;1673433466.6562936;47.130642599999995;7.240619799999999;31.886001586914062;1673433466.7424765;-4.812461853027344;10.534246444702148;87.02442932128906
140;1673433466.8624063;47.1306425;7.240619799999999;32.28000259399414;1673433466.9406784;-4.74138069152832;6.244330883026123;87.40403747558594
141;1673433467.0635886;47.1306425;7.240619799999999;32.67900085449219;1673433467.1449542;-5.077621936798096;7.534008979797363;87.40138244628906
142;1673433467.2639878;47.1306425;7.240619799999999;33.07400131225586;1673433467.349742;-4.821781635284424;10.197789192199707;87.06857299804688
143;1673433467.474425;47.1306424;7.240619799999999;33.47500228881836;1673433467.554499;-5.0137715339660645;6.449282169342041;87.39239501953125
144;1673433467.6691747;47.1306425;7.240619799999999;33.87700271606445;1673433467.7453396;-5.1679887771606445;6.819825172424316;87.61577606201172
145;1673433467.8562708;47.130642599999995;7.240619799999999;34.2760009765625;1673433467.938096;-5.013643264770508;10.959553718566895;87.10733795166016
146;1673433468.04904;47.130642599999995;7.240619799999999;34.67000198364258;1673433468.130785;-4.870642185211182;7.618045330047607;87.34722137451172
147;1673433468.2460585;47.130642699999996;7.240619799999999;35.06500244140625;1673433468.3274815;-5.142693042755127;6.472733497619629;87.5334701538086
148;1673433468.441988;47.130642699999996;7.2406198999999996;35.46000289916992;1673433468.525504;-4.897739887237549;10.286945343017578;87.06951904296875
149;1673433468.6394086;47.130642599999995;7.2406198999999996;35.854000091552734;1673433468.716079;-4.58104133605957;8.389423370361328;87.03691864013672
150;1673433468.8311112;47.130642599999995;7.24062;36.25300216674805;1673433468.9087985;-4.674418926239014;5.4405951499938965;87.48831939697266
151;1673433469.026498;47.130642599999995;7.24062;36.65400314331055;1673433469.1105719;-4.735697269439697;9.116982460021973;87.14812469482422
152;1673433469.2325697;47.130642599999995;7.2406201;37.05800247192383;1673433469.3100233;-4.690020561218262;9.76639175415039;87.25851440429688
153;1673433469.4296467;47.130642599999995;7.2406201;37.45600128173828;1673433469.5178323;-4.95120906829834;5.28031587600708;87.67997741699219
154;1673433469.6310492;47.130642599999995;7.2406201;37.85600280761719;1673433469.7215407;-5.223227024078369;7.829148292541504;87.37422943115234
155;1673433469.8293693;47.1306425;7.2406201;38.25800323486328;1673433469.909717;-4.7985076904296875;10.039417266845703;86.92906951904297
156;1673433470.0225668;47.130642599999995;7.2406201;38.66400146484375;1673433470.104164;-4.6852264404296875;5.997901916503906;87.35096740722656
157;1673433470.2154224;47.130642699999996;7.24062;39.06700134277344;1673433470.2979465;-4.878395080566406;7.070148468017578;87.40449523925781
158;1673433470.419524;47.1306428;7.24062;39.46500015258789;1673433470.5030432;-4.8877668380737305;11.117112159729004;87.11306762695312
159;1673433470.6198351;47.1306429;7.24062;39.85600280761719;1673433470.7014034;-5.057833194732666;6.947694778442383;87.55386352539062
160;1673433470.8221228;47.130643;7.24062;40.25200271606445;1673433470.9047222;-5.3679680824279785;6.9828267097473145;87.5803451538086
161;1673433471.021737;47.1306429;7.2406198999999996;40.64800262451172;1673433471.1072083;-5.023829936981201;10.499078750610352;86.98068237304688
162;1673433471.222227;47.1306428;7.2406198999999996;41.044002532958984;1673433471.3096778;-4.645259380340576;7.7831315994262695;87.0743637084961
163;1673433471.4315126;47.1306429;7.24062;41.441001892089844;1673433471.5217633;-4.870755195617676;6.034876823425293;87.3448715209961
164;1673433471.6440082;47.130643;7.24062;41.836002349853516;1673433471.727993;-4.908196926116943;10.574283599853516;87.08576202392578
165;1673433471.8538153;47.1306429;7.24062;42.22900390625;1673433471.9360225;-4.645815849304199;8.527676582336426;87.38999938964844
166;1673433472.0469193;47.1306428;7.24062;42.6150016784668;1673433472.120729;-5.091960906982422;5.494991779327393;87.65095520019531
167;1673433472.2280304;47.1306428;7.24062;43.00300216674805;1673433472.308634;-5.065009117126465;9.450058937072754;87.19021606445312
168;1673433472.4264007;47.130642699999996;7.24062;43.39800262451172;1673433472.5106754;-4.7225661277771;9.054306030273438;87.05579376220703
169;1673433472.6188474;47.1306428;7.24062;43.79600143432617;1673433472.7017217;-4.751951217651367;5.8752641677856445;87.43663024902344
170;1673433472.855019;47.1306429;7.24062;44.195003509521484;1673433472.9263232;-4.785458564758301;8.437752723693848;87.30072021484375
171;1673433473.035365;47.130643;7.24062;44.59100341796875;1673433473.1118407;-4.695891857147217;10.811050415039062;87.15827941894531
172;1673433473.2343185;47.130643;7.24062;44.97900390625;1673433473.321862;-4.882818698883057;5.824992656707764;87.51368713378906
173;1673433473.447247;47.130643;7.24062;45.37000274658203;1673433473.5269284;-5.198678970336914;7.8558125495910645;87.38630676269531
174;1673433473.6428385;47.1306429;7.24062;45.76000213623047;1673433473.7156882;-4.865973472595215;10.511323928833008;87.15641021728516
175;1673433473.8545678;47.1306428;7.2406198999999996;46.152000427246094;1673433473.9394252;-4.894712448120117;6.912765979766846;87.47550964355469
176;1673433474.0618837;47.1306429;7.2406198999999996;46.54600143432617;1673433474.1523855;-4.9925312995910645;6.007373332977295;87.5367202758789
177;1673433474.2698164;47.1306429;7.2406198999999996;46.93800354003906;1673433474.352011;-4.942050457000732;10.915006637573242;86.97376251220703
178;1673433474.4660347;47.1306429;7.2406198999999996;47.32600402832031;1673433474.548977;-4.800510883331299;7.618710994720459;87.32637786865234
179;1673433474.6712756;47.1306429;7.2406198999999996;47.70900344848633;1673433474.750659;-5.0845417976379395;5.908863067626953;87.52049255371094
180;1673433474.877512;47.1306428;7.2406198999999996;48.0880012512207;1673433474.963165;-5.060324192047119;11.14651870727539;87.016357421875
181;1673433475.098774;47.1306428;7.240619799999999;48.432003021240234;1673433475.1731727;-5.073520660400391;8.148072242736816;87.36726379394531
182;1673433475.3111324;47.1306428;7.2406197;48.73100280761719;1673433475.4063437;-5.380417823791504;6.206121444702148;87.58216857910156
183;1673433475.5209072;47.130643;7.2406197;48.98100280761719;1673433475.611311;-5.249998092651367;10.399271965026855;87.09685516357422
184;1673433475.7003467;47.130643;7.2406196;49.18800354003906;1673433475.7706938;-5.017232418060303;8.633464813232422;87.09742736816406
185;1673433475.876892;47.1306431;7.240619499999999;49.35200119018555;1673433475.962645;5.206050872802734;16.479541778564453;89.10549926757812
186;1673433476.06301;47.1306429;7.240618899999999;49.49700164794922;1673433476.129426;20.151973724365234;35.05418014526367;101.14696502685547
187;1673433476.2454145;47.130641499999996;7.2406163999999995;49.625003814697266;1673433476.323294;23.96195411682129;49.95043182373047;111.4840316772461
188;1673433476.4394577;47.1306382;7.2406105;49.72700119018555;1673433476.5256684;16.802989959716797;58.93037033081055;119.32013702392578
189;1673433476.6495194;47.130632399999996;7.240600799999999;49.790000915527344;1673433476.7268243;-0.2706609070301056;58.37104797363281;128.9334259033203
190;1673433476.845829;47.130624499999996;7.240587799999999;49.82500076293945;1673433476.9246094;-13.482871055603027;52.21974563598633;139.62159729003906
191;1673433477.044176;47.1306148;7.2405722;49.85300064086914;1673433477.1181135;-27.003942489624023;48.90067672729492;149.4052734375
192;1673433477.2536886;47.1306036;7.240554299999999;49.86600112915039;1673433477.3624818;-41.30369567871094;44.87491226196289;161.14085388183594
193;1673433477.4802928;47.1305908;7.240534599999999;49.87300109863281;1673433477.5726852;-49.60860061645508;39.54478454589844;175.59896850585938
194;1673433477.6902604;47.1305768;7.2405126;49.85000228881836;1673433477.7657743;-47.90024948120117;26.81600570678711;-173.7969207763672
195;1673433477.8762515;47.1305619;7.2404892;49.788002014160156;1673433477.9568481;-45.839542388916016;21.09999656677246;-169.5079345703125
196;1673433478.0559282;47.130546599999995;7.2404648;49.71600341796875;1673433478.1260772;-47.66276168823242;14.959935188293457;-161.88037109375
197;1673433478.2438781;47.130530799999995;7.2404398;49.66400146484375;1673433478.3267603;-47.173675537109375;9.445077896118164;-154.0684356689453
198;1673433478.4462562;47.1305148;7.2404144;49.62800216674805;1673433478.5287;-47.120361328125;4.207482814788818;-147.05787658691406
199;1673433478.64551;47.1304987;7.2403885;49.61000061035156;1673433478.7310112;-46.99348831176758;-1.1168986558914185;-140.67884826660156
200;1673433478.8570857;47.1304824;7.2403622;49.59700393676758;1673433478.9481776;-47.86154556274414;-5.742579460144043;-134.2703094482422
201;1673433479.0721955;47.1304659;7.2403357999999995;49.58000183105469;1673433479.1427402;-46.62824249267578;-12.50550651550293;-133.1222381591797
202;1673433479.2508984;47.1304491;7.2403094999999995;49.570003509521484;1673433479.3469737;-45.67190170288086;-10.894969940185547;-137.11776733398438
203;1673433479.4485598;47.130432;7.2402837;49.566001892089844;1673433479.5269582;-46.343360900878906;-9.871500968933105;-138.93885803222656
204;1673433479.6463583;47.1304145;7.2402584999999995;49.56900405883789;1673433479.738195;-46.93336486816406;-8.651535034179688;-139.88710021972656
205;1673433479.851207;47.1303968;7.2402340999999995;49.582000732421875;1673433479.934434;-48.4755859375;-7.264066219329834;-140.44227600097656
206;1673433480.0848234;47.130378799999995;7.240209699999999;49.59600067138672;1673433480.1583142;-49.17352294921875;-5.880262851715088;-140.86898803710938
207;1673433480.2794967;47.130360499999995;7.2401854;49.61300277709961;1673433480.3608806;-48.47108459472656;-5.106257915496826;-140.88497924804688
208;1673433480.47511;47.1303421;7.2401611;49.630001068115234;1673433480.5837493;-47.89542007446289;-5.0358476638793945;-140.55856323242188
209;1673433480.686;47.1303236;7.2401367;49.64400100708008;1673433480.770866;-47.461158752441406;-5.252969264984131;-140.20147705078125
210;1673433480.8793225;47.1303051;7.2401124;49.65700149536133;1673433480.9676208;-47.31432342529297;-5.3980865478515625;-139.93435668945312
211;1673433481.0816467;47.1302865;7.2400882;49.66800308227539;1673433481.1611478;-47.41099548339844;-5.503585338592529;-139.69113159179688
212;1673433481.2754555;47.1302679;7.2400639;49.67900085449219;1673433481.3754025;-47.32344055175781;-5.631326675415039;-139.51974487304688
213;1673433481.485116;47.1302494;7.2400395;49.68800354003906;1673433481.5655935;-47.20798873901367;-5.680127143859863;-139.34800720214844
214;1673433481.6773777;47.1302309;7.2400151;49.69900131225586;1673433481.7541027;-47.1806640625;-5.773887634277344;-139.21241760253906
215;1673433481.8764164;47.1302124;7.2399907;49.7130012512207;1673433481.9658477;-47.191219329833984;-5.792296409606934;-139.10780334472656
216;1673433482.0820143;47.130193899999995;7.2399663;49.72500228881836;1673433482.154346;-47.35354232788086;-5.845373630523682;-139.01589965820312
217;1673433482.2798872;47.1301754;7.2399419;49.7390022277832;1673433482.3653445;-47.46735763549805;-5.8756632804870605;-138.9336700439453
218;1673433482.4706378;47.130156899999996;7.2399175;49.746002197265625;1673433482.5473354;-47.42572784423828;-5.793481826782227;-138.88894653320312
219;1673433482.6715045;47.1301384;7.2398929999999995;49.759002685546875;1673433482.7503204;-47.35163116455078;-5.755712032318115;-138.84071350097656
220;1673433482.876029;47.1301199;7.2398685;49.76300048828125;1673433482.9529023;-47.17885208129883;-5.7810564041137695;-138.77549743652344
221;1673433483.0759847;47.130101499999995;7.2398438;49.77100372314453;1673433483.1619325;-47.26417541503906;-5.791737079620361;-138.7579345703125
222;1673433483.2797782;47.130083;7.2398191;49.781002044677734;1673433483.3582556;-47.56266403198242;-5.892392635345459;-138.7051544189453
223;1673433483.4724638;47.1300646;7.2397943;49.78900146484375;1673433483.5652876;-47.79783248901367;-5.8861284255981445;-138.71189880371094
224;1673433483.6659276;47.1300461;7.2397696;49.790000915527344;1673433483.7500648;-47.39938735961914;-5.772299766540527;-138.71583557128906
225;1673433483.8748183;47.1300277;7.2397449;49.79300308227539;1673433483.9632618;-47.02414321899414;-5.723500728607178;-138.69229125976562
226;1673433484.0714667;47.1300093;7.2397200999999995;49.79500198364258;1673433484.1462107;-47.31012725830078;-5.770208835601807;-138.65805053710938
227;1673433484.2694185;47.129990899999996;7.239695299999999;49.80000305175781;1673433484.3450193;-47.605323791503906;-5.806212425231934;-138.65675354003906
228;1673433484.4551816;47.129972599999995;7.2396705;49.80500411987305;1673433484.55012;-47.715110778808594;-5.828644275665283;-138.66522216796875
229;1673433484.6718066;47.1299543;7.239645599999999;49.810001373291016;1673433484.7464955;-47.67118835449219;-5.810314655303955;-138.67185974121094
230;1673433484.8740094;47.1299359;7.2396207;49.814002990722656;1673433484.959072;-47.673831939697266;-5.771921157836914;-138.6903076171875
231;1673433485.0755336;47.1299175;7.2395958;49.81300354003906;1673433485.1568117;-47.484798431396484;-5.709222793579102;-138.70346069335938
232;1673433485.2617624;47.1298992;7.2395708999999995;49.81100082397461;1673433485.3409061;-47.248172760009766;-5.664103031158447;-138.69114685058594
233;1673433485.459776;47.129880799999995;7.239546;49.81800079345703;1673433485.5465925;-47.50212478637695;-5.713543891906738;-138.65916442871094
234;1673433485.6554468;47.1298624;7.239521099999999;49.82200241088867;1673433485.7421484;-47.91730880737305;-5.7436299324035645;-138.6818084716797
235;1673433485.8597481;47.1298441;7.239496;49.82600402832031;1673433485.947025;-47.892738342285156;-5.743359088897705;-138.70938110351562
236;1673433486.1009858;47.1298257;7.239471;49.83100128173828;1673433486.2015026;-47.678810119628906;-5.721548080444336;-138.71681213378906
237;1673433486.345763;47.129807299999996;7.239446;49.83400344848633;1673433486.4440825;-47.56442642211914;-5.67852258682251;-138.73397827148438
238;1673433486.5445702;47.129788999999995;7.2394209;49.836002349853516;1673433486.6168385;-47.55352020263672;-5.653318405151367;-138.75892639160156
239;1673433486.7223413;47.1297706;7.2393958;49.83700180053711;1673433486.794968;-47.49324417114258;-5.662843704223633;-138.75108337402344
240;1673433486.9065773;47.1297522;7.2393708;49.84300231933594;1673433486.9860046;-47.66015625;-5.599818706512451;-138.79238891601562
241;1673433487.0968637;47.1297338;7.239345699999999;49.84700393676758;1673433487.1741376;-47.59465408325195;-5.617819309234619;-138.81166076660156
242;1673433487.2931037;47.129715399999995;7.2393206;49.84600067138672;1673433487.3606346;-47.30527114868164;-5.554801940917969;-138.84576416015625
243;1673433487.4518178;47.1296971;7.2392954;49.845001220703125;1673433487.528716;-47.10546875;-5.532307147979736;-138.86598205566406
244;1673433487.6482387;47.1296787;7.239270299999999;49.849002838134766;1673433487.7357934;-47.364036560058594;-5.5477070808410645;-138.86734008789062
245;1673433487.8489954;47.1296603;7.2392452;49.85600280761719;1673433487.9295585;-47.91030502319336;-5.57990837097168;-138.88514709472656
246;1673433488.0487921;47.129641899999996;7.2392201;49.862003326416016;1673433488.130362;-47.929832458496094;-5.475473880767822;-138.9630126953125
247;1673433488.2588687;47.1296235;7.239195;49.8650016784668;1673433488.346011;-47.57050704956055;-5.410079479217529;-138.9772186279297
248;1673433488.4723008;47.1296051;7.2391698;49.87200164794922;1673433488.5696971;-47.55912399291992;-5.407317161560059;-138.9929962158203
249;1673433488.678403;47.1295867;7.2391447;49.87600326538086;1673433488.757501;-47.6973991394043;-5.3433332443237305;-139.0745391845703
250;1673433488.8915367;47.129568299999995;7.239119499999999;49.88100051879883;1673433488.9749055;-47.78134536743164;-5.367621421813965;-139.09791564941406
251;1673433489.083243;47.1295499;7.2390943;49.88600158691406;1673433489.1542435;-47.77570343017578;-5.305411338806152;-139.1853790283203
252;1673433489.2713292;47.1295315;7.239069;49.89200210571289;1673433489.3516424;-47.55454635620117;-5.268089294433594;-139.2005615234375
253;1673433489.4679794;47.1295131;7.239043799999999;49.89600372314453;1673433489.5531883;-47.65706253051758;-5.230860710144043;-139.2782745361328
254;1673433489.671247;47.129494699999995;7.2390186;49.897003173828125;1673433489.758194;-47.53019714355469;-5.185543060302734;-139.34938049316406
255;1673433489.8900487;47.1294762;7.2389934;49.89800262451172;1673433489.9695344;-47.37256622314453;-5.043801784515381;-139.430419921875
256;1673433490.0825946;47.1294578;7.2389681999999995;49.89900207519531;1673433490.1584613;-47.291748046875;-4.996679782867432;-139.473876953125
257;1673433490.2817395;47.1294393;7.2389429;49.90300369262695;1673433490.3533704;-47.331878662109375;-5.980907917022705;-139.3285675048828
258;1673433490.4709368;47.1294209;7.2389177;49.913002014160156;1673433490.5428753;-47.79037857055664;-5.973763465881348;-139.70372009277344
259;1673433490.654834;47.129402299999995;7.2388927;49.923004150390625;1673433490.7393322;-47.88627624511719;-7.184332370758057;-139.4875030517578
260;1673433490.8599951;47.1293837;7.238867699999999;49.93100357055664;1673433490.9405653;-47.63033676147461;-7.199039459228516;-140.03814697265625
261;1673433491.0581543;47.129365;7.2388429;49.939002990722656;1673433491.1431136;-47.77553939819336;-7.013797760009766;-140.2622528076172
262;1673433491.2720518;47.1293461;7.238818299999999;49.948001861572266;1673433491.3446758;-47.500064849853516;-8.057415962219238;-140.21775817871094
263;1673433491.4665797;47.1293272;7.2387938;49.957000732421875;1673433491.573058;-47.49116516113281;-8.384339332580566;-140.54794311523438
264;1673433491.682507;47.129308099999996;7.2387697;49.96800231933594;1673433491.7661314;-47.68156051635742;-8.515097618103027;-140.8548583984375
265;1673433491.8704028;47.1292888;7.2387459;49.98100280761719;1673433491.9438586;-44.48357391357422;-9.053067207336426;-141.10948181152344
266;1673433492.0570345;47.1292696;7.2387225;50.00400161743164;1673433492.1386323;-31.837635040283203;-8.974154472351074;-140.4994659423828
267;1673433492.282853;47.1292507;7.2387;50.03200149536133;1673433492.377479;-14.424535751342773;-7.974841117858887;-139.29107666015625
268;1673433492.502892;47.129233199999994;7.238678999999999;50.05000305175781;1673433492.5781622;0.6339510083198547;-6.783754348754883;-137.30474853515625
269;1673433492.700335;47.129217499999996;7.2386602;50.05500411987305;1673433492.770039;11.140581130981445;-5.701637268066406;-136.35794067382812
270;1673433492.9114947;47.1292045;7.238644099999999;50.04500198364258;1673433492.985289;18.316490173339844;-3.7225728034973145;-136.2046661376953
271;1673433493.1268165;47.1291939;7.2386306;50.00100326538086;1673433493.194591;21.522369384765625;-5.293420314788818;-135.11065673828125
272;1673433493.32014;47.129185799999995;7.23862;49.94300079345703;1673433493.3883717;13.177645683288574;-11.635527610778809;-135.06568908691406
273;1673433493.4962518;47.129179699999995;7.238612;49.922000885009766;1673433493.5750108;7.446147918701172;-11.165766716003418;-135.6688995361328
274;1673433493.676399;47.1291751;7.2386061999999995;49.93300247192383;1673433493.7571013;1.0455800294876099;-10.636951446533203;-135.44886779785156
275;1673433493.8835018;47.1291714;7.238601699999999;49.95900344848633;1673433493.9719245;-4.33608865737915;-10.637908935546875;-135.3104705810547
276;1673433494.092005;47.129168199999995;7.2385978;49.9900016784668;1673433494.1742458;-8.18912410736084;-6.532293319702148;-135.495849609375
277;1673433494.292018;47.1291653;7.2385939;50.02400207519531;1673433494.3786104;-10.189277648925781;-5.584509372711182;-135.74102783203125
278;1673433494.5054283;47.1291625;7.2385898;50.05400085449219;1673433494.5987053;-9.91936206817627;-5.970997333526611;-135.9287109375
279;1673433494.7069016;47.1291598;7.238585499999999;50.07400131225586;1673433494.7897513;-9.552066802978516;-6.111082077026367;-136.1835479736328
280;1673433494.902372;47.1291571;7.2385813;50.0890007019043;1673433494.984718;-7.857251167297363;-8.738123893737793;-136.22344970703125
281;1673433495.1161582;47.1291546;7.238577299999999;50.11000061035156;1673433495.1983452;-23.117494583129883;-8.233251571655273;-135.9553680419922
282;1673433495.3110626;47.129151799999995;7.238573;50.17400360107422;1673433495.3958764;-33.43165969848633;-6.473043918609619;-137.08717346191406
283;1673433495.5040815;47.129148;7.2385671;50.27800369262695;1673433495.5705216;-21.298871994018555;-3.147883176803589;-138.07899475097656
284;1673433495.6913364;47.1291438;7.238560199999999;50.47700119018555;1673433495.779079;-26.094091415405273;-3.693389654159546;-138.03900146484375
285;1673433495.8854854;47.1291393;7.2385524;50.790000915527344;1673433495.9647;-38.792972564697266;-7.599788188934326;-138.27850341796875
286;1673433496.073039;47.129133499999995;7.238543;51.17900085449219;1673433496.154825;-44.51322937011719;-11.578585624694824;-138.44619750976562
287;1673433496.3021977;47.1291261;7.238532299999999;51.55400085449219;1673433496.3845265;-42.490352630615234;-9.468177795410156;-138.64614868164062
288;1673433496.4924297;47.1291173;7.238520299999999;51.922000885009766;1673433496.5698788;-37.560482025146484;-10.401564598083496;-137.7649688720703
289;1673433496.6885464;47.129107399999995;7.2385075;52.27700424194336;1673433496.777923;-33.95747375488281;-9.646276473999023;-137.71849060058594
290;1673433496.9088783;47.129096999999994;7.2384941;52.6140022277832;1673433496.9988751;-30.792240142822266;-9.117009162902832;-137.12535095214844
291;1673433497.1156416;47.1290863;7.2384806;52.965003967285156;1673433497.183274;-28.87126350402832;-7.940096378326416;-137.13746643066406
292;1673433497.286738;47.1290756;7.2384669;53.32200241088867;1673433497.3683503;-26.856985092163086;-7.5912322998046875;-136.87088012695312
293;1673433497.4850426;47.129065;7.2384531999999995;53.685001373291016;1673433497.57748;-25.869857788085938;-6.3130974769592285;-137.12298583984375
294;1673433497.6873825;47.129054499999995;7.238439499999999;54.05400085449219;1673433497.7782364;-24.974912643432617;-5.568304061889648;-137.2583465576172
295;1673433497.9149039;47.1290443;7.238425899999999;54.43000411987305;1673433497.9945154;-24.97873878479004;-5.390669822692871;-137.39862060546875
296;1673433498.115808;47.129034399999995;7.2384125;54.810001373291016;1673433498.188342;-25.081405639648438;-7.183645725250244;-137.10740661621094
297;1673433498.2831364;47.129024699999995;7.2383992;55.195003509521484;1673433498.3638349;-25.918554306030273;-8.473274230957031;-136.77621459960938
298;1673433498.4953492;47.129014999999995;7.2383859;55.58500289916992;1673433498.5836115;-26.523448944091797;-9.307409286499023;-136.5745849609375
299;1673433498.704619;47.1290055;7.238372699999999;55.97700119018555;1673433498.7820952;-27.383970260620117;-9.392955780029297;-136.6482391357422
300;1673433498.912447;47.128996;7.238359399999999;56.37200164794922;1673433498.994917;-28.020034790039062;-8.61003303527832;-136.87591552734375
301;1673433499.1165566;47.128986399999995;7.238346099999999;56.76700210571289;1673433499.195875;-28.552610397338867;-7.461512565612793;-137.1936492919922
302;1673433499.3225646;47.1289768;7.238332799999999;57.16100311279297;1673433499.3985043;-28.917301177978516;-6.928208351135254;-137.14027404785156
303;1673433499.5060148;47.1289671;7.2383194;57.55400085449219;1673433499.5864844;-29.114030838012695;-6.527007102966309;-137.275146484375
304;1673433499.695495;47.128957199999995;7.238306;57.95000457763672;1673433499.7756367;-28.5875244140625;-7.537435054779053;-136.93634033203125
305;1673433499.904095;47.1289474;7.238292599999999;58.34800338745117;1673433499.994234;-28.41803741455078;-8.3495512008667;-136.74276733398438
306;1673433500.1112664;47.1289374;7.2382789999999995;58.74700164794922;1673433500.1998522;-27.75347137451172;-9.281787872314453;-136.6050262451172
307;1673433500.3181548;47.128927499999996;7.2382653999999995;59.143001556396484;1673433500.4013045;-27.725589752197266;-9.318246841430664;-136.6221466064453
308;1673433500.5061367;47.1289176;7.2382518;59.5420036315918;1673433500.5809672;-27.765331268310547;-8.661749839782715;-136.7667694091797
309;1673433500.6902256;47.1289078;7.238238099999999;59.936004638671875;1673433500.766135;-27.71220588684082;-8.200319290161133;-136.8925018310547
310;1673433500.87778;47.1288979;7.2382244;60.33100128173828;1673433500.9584038;-27.829116821289062;-7.131730556488037;-137.093017578125
311;1673433501.0778213;47.1288881;7.2382107;60.730003356933594;1673433501.172448;-27.812511444091797;-6.872808933258057;-137.30970764160156
312;1673433501.295269;47.128878199999996;7.2381969999999995;61.12900161743164;1673433501.3821762;-28.14358901977539;-6.573452472686768;-137.28759765625
313;1673433501.4972482;47.128868399999995;7.238183299999999;61.52700424194336;1673433501.5747497;-28.188488006591797;-6.723935604095459;-137.1798553466797
314;1673433501.692112;47.1288585;7.2381696;61.928001403808594;1673433501.7655516;-28.048688888549805;-6.983743190765381;-137.20199584960938
315;1673433501.8854702;47.1288487;7.238156099999999;62.32500457763672;1673433501.9785457;-28.04790496826172;-7.443826675415039;-137.04544067382812
316;1673433502.101149;47.1288388;7.2381426;62.717002868652344;1673433502.1868856;-27.926965713500977;-8.01689624786377;-136.86752319335938
317;1673433502.3011057;47.128828899999995;7.2381291;63.11100387573242;1673433502.3933601;-27.897062301635742;-8.779905319213867;-136.66351318359375
318;1673433502.516748;47.128819;7.238115499999999;63.509002685546875;1673433502.6058402;-27.914167404174805;-9.122261047363281;-136.5742645263672
319;1673433502.722744;47.1288091;7.238102;63.90700149536133;1673433502.7965653;-27.9530086517334;-9.262266159057617;-136.55043029785156
320;1673433502.9042368;47.128799199999996;7.2380884;64.30400085449219;1673433502.9783046;-27.98439598083496;-9.605449676513672;-136.48667907714844
321;1673433503.088345;47.1287893;7.2380749;64.70000457763672;1673433503.1715908;-28.131498336791992;-9.308804512023926;-136.61070251464844
322;1673433503.2866547;47.1287794;7.238061399999999;65.09300231933594;1673433503.3671422;-28.1674861907959;-8.813126564025879;-136.755615234375
323;1673433503.4984496;47.1287696;7.2380477999999995;65.49100494384766;1673433503.5840216;-28.24874496459961;-8.483125686645508;-136.85289001464844
324;1673433503.694722;47.128759699999996;7.238034099999999;65.88999938964844;1673433503.784138;-28.27528953552246;-8.104147911071777;-136.92718505859375
325;1673433503.9097128;47.1287498;7.238020499999999;66.28400421142578;1673433503.9884477;-28.340476989746094;-7.573812007904053;-137.0657501220703
326;1673433504.1136959;47.1287399;7.238006899999999;66.68099975585938;1673433504.190298;-28.557252883911133;-7.327038764953613;-137.10037231445312
327;1673433504.3065844;47.12873;7.237993299999999;67.0790023803711;1673433504.3909295;-28.566394805908203;-7.1168212890625;-137.22276306152344
328;1673433504.5068457;47.128720099999995;7.2379796999999995;67.47500610351562;1673433504.5822368;-28.49232292175293;-7.185899257659912;-137.1416778564453
329;1673433504.6956055;47.1287101;7.2379660999999995;67.8740005493164;1673433504.770324;-28.508220672607422;-7.199269771575928;-137.09059143066406
330;1673433504.8862052;47.128700099999996;7.2379526;68.27200317382812;1673433504.9706404;-28.414749145507812;-7.395288944244385;-136.97784423828125
331;1673433505.0909235;47.1286901;7.237939;68.67200469970703;1673433505.1783862;-28.415382385253906;-7.522022724151611;-136.96983337402344
332;1673433505.2989092;47.1286801;7.2379254;69.06900024414062;1673433505.3868194;-28.494007110595703;-7.674464225769043;-136.87881469726562
333;1673433505.5190682;47.1286701;7.237911899999999;69.46800231933594;1673433505.5975437;-28.596891403198242;-7.912738800048828;-136.74046325683594
334;1673433505.7142007;47.1286601;7.2378982999999995;69.86800384521484;1673433505.7828236;-28.56996726989746;-8.204889297485352;-136.6812744140625
335;1673433505.8979487;47.128650099999994;7.2378846;70.26399993896484;1673433505.9824638;-28.509145736694336;-8.32558822631836;-136.67869567871094
336;1673433506.1350064;47.1286402;7.2378708;70.66000366210938;1673433506.223327;-28.41468620300293;-8.645232200622559;-136.6914825439453
337;1673433506.3355374;47.1286303;7.237857;71.06000518798828;1673433506.4169345;-28.33582305908203;-8.867378234863281;-136.67962646484375
338;1673433506.5298855;47.128620299999994;7.2378431999999995;71.46500396728516;1673433506.6129298;-28.1452693939209;-9.143353462219238;-136.67262268066406
339;1673433506.7757642;47.1286104;7.237829499999999;71.86600494384766;1673433506.8510964;-28.018577575683594;-9.262962341308594;-136.66876220703125
340;1673433506.9679806;47.128600399999996;7.2378158;72.26500701904297;1673433507.053413;-27.995349884033203;-9.126632690429688;-136.6691131591797
341;1673433507.1494532;47.1285905;7.2378021;72.65900421142578;1673433507.2347584;-28.073972702026367;-9.100261688232422;-136.66543579101562
342;1673433507.3539453;47.1285806;7.2377885;73.0570068359375;1673433507.426635;-28.2261962890625;-8.856355667114258;-136.7469024658203
343;1673433507.5600493;47.1285707;7.2377749;73.4540023803711;1673433507.6366377;-28.279891967773438;-8.697282791137695;-136.7902069091797
344;1673433507.7410975;47.128560799999995;7.2377613;73.85000610351562;1673433507.8179843;-28.41568946838379;-8.594612121582031;-136.77035522460938
345;1673433507.9316225;47.1285509;7.2377477;74.24600219726562;1673433508.0137768;-28.578689575195312;-8.456348419189453;-136.83714294433594
346;1673433508.1329596;47.128541;7.2377341;74.64400482177734;1673433508.216804;-28.61847496032715;-8.442596435546875;-136.88682556152344
347;1673433508.3419275;47.128530999999995;7.2377204;75.04100036621094;1673433508.441027;-28.555747985839844;-8.337790489196777;-136.87937927246094
348;1673433508.551417;47.1285211;7.2377068;75.43600463867188;1673433508.6502407;-28.571443557739258;-8.300161361694336;-136.8997344970703
349;1673433508.7527544;47.1285111;7.2376932;75.83300018310547;1673433508.8359535;-28.567102432250977;-8.073034286499023;-136.94577026367188
350;1673433508.9669437;47.1285011;7.2376796;76.23500061035156;1673433509.0702233;-28.476945877075195;-7.792489051818848;-136.94586181640625
351;1673433509.1694987;47.1284911;7.237666;76.63500213623047;1673433509.2375455;-28.427427291870117;-7.795965671539307;-136.95701599121094
352;1673433509.3339694;47.128481099999995;7.2376524;77.03300476074219;1673433509.402094;-28.55051612854004;-7.7541399002075195;-136.95376586914062
353;1673433509.527189;47.1284711;7.2376387;77.4310073852539;1673433509.6142697;-28.314319610595703;-7.641326427459717;-136.95217895507812
354;1673433509.7253683;47.128461099999996;7.2376251;77.83000183105469;1673433509.7947588;-28.38628387451172;-7.760831832885742;-136.9219970703125
355;1673433509.9026499;47.1284512;7.2376115;78.2280044555664;1673433509.9791782;-28.37663459777832;-7.742473125457764;-136.943603515625
356;1673433510.0900776;47.1284412;7.2375978;78.62800598144531;1673433510.1708426;-28.41434097290039;-7.724330425262451;-136.91244506835938
357;1673433510.2955987;47.128431299999995;7.237584099999999;79.02800750732422;1673433510.3813074;-28.433656692504883;-7.845993995666504;-136.9363250732422
358;1673433510.508787;47.1284214;7.2375704999999995;79.4280014038086;1673433510.59798;-28.424516677856445;-8.047355651855469;-136.9077606201172
359;1673433510.728661;47.1284115;7.2375567;79.8270034790039;1673433510.8070617;-28.382366180419922;-8.033245086669922;-136.92408752441406
360;1673433510.9253814;47.1284016;7.237543;80.22600555419922;1673433511.0109584;-28.41023826599121;-8.106276512145996;-136.93319702148438
361;1673433511.1161907;47.128391699999995;7.237529299999999;80.62300109863281;1673433511.192289;-28.22867774963379;-8.051778793334961;-136.9099578857422
362;1673433511.3038313;47.1283818;7.237515699999999;81.02400207519531;1673433511.3835084;-28.40959358215332;-8.160555839538574;-136.9066162109375
363;1673433511.5082948;47.1283719;7.237502;81.42300415039062;1673433511.6025355;-28.436315536499023;-8.155990600585938;-136.93020629882812
364;1673433511.707908;47.1283621;7.2374883;81.82100677490234;1673433511.7861652;-28.4058837890625;-8.240652084350586;-136.9124755859375
365;1673433511.916776;47.128352199999995;7.2374747;82.22200012207031;1673433511.9968307;-28.403902053833008;-8.265278816223145;-136.9365997314453
366;1673433512.1134045;47.1283423;7.237461;82.6240005493164;1673433512.2102673;-28.476760864257812;-8.14745044708252;-136.92892456054688
367;1673433512.3426175;47.1283324;7.2374475;83.02300262451172;1673433512.4165733;-28.524015426635742;-8.065389633178711;-136.93389892578125
368;1673433512.5139775;47.128322499999996;7.2374338;83.41800689697266;1673433512.590375;-28.375349044799805;-8.046988487243652;-136.9293670654297
369;1673433512.7152507;47.1283126;7.2374202;83.81100463867188;1673433512.8075006;-28.425655364990234;-8.011422157287598;-136.9478302001953
370;1673433512.9311032;47.1283027;7.2374065;84.2080078125;1673433513.0249467;-28.2990665435791;-8.103532791137695;-136.92086791992188
371;1673433513.1376894;47.1282928;7.2373929;84.60700225830078;1673433513.2146451;-28.358783721923828;-8.112288475036621;-136.924072265625
372;1673433513.3327541;47.128282899999995;7.2373793;85.00800323486328;1673433513.412491;-28.30133056640625;-8.069170951843262;-136.93585205078125
373;1673433513.517977;47.128273;7.2373655999999995;85.41000366210938;1673433513.6125143;-28.30327796936035;-8.123517990112305;-136.909912109375
374;1673433513.726647;47.1282631;7.237352;85.81100463867188;1673433513.8281927;-28.384557723999023;-7.929474353790283;-136.96560668945312
375;1673433513.9367218;47.128253099999995;7.2373384;86.21000671386719;1673433514.0108428;-28.227752685546875;-8.05208683013916;-136.9106903076172
376;1673433514.1364594;47.1282432;7.237324699999999;86.60900115966797;1673433514.2139196;-28.24948501586914;-8.181351661682129;-136.90623474121094
377;1673433514.3353968;47.1282333;7.237311099999999;87.01100158691406;1673433514.4173086;-28.30615234375;-8.158819198608398;-136.9119110107422
378;1673433514.519283;47.128223399999996;7.2372974;87.41300201416016;1673433514.5988142;-28.232511520385742;-8.168534278869629;-136.90875244140625
379;1673433514.7204618;47.1282135;7.2372837;87.81400299072266;1673433514.8056846;-28.189199447631836;-8.22177505493164;-136.9073486328125
380;1673433514.9245071;47.1282035;7.237270199999999;88.21400451660156;1673433515.011331;-28.280302047729492;-8.074544906616211;-136.91957092285156
381;1673433515.1355987;47.128193599999996;7.237256599999999;88.61300659179688;1673433515.2123544;-28.385417938232422;-8.099973678588867;-136.94190979003906
382;1673433515.3285701;47.1281837;7.237242999999999;89.01000213623047;1673433515.4103882;-28.370574951171875;-8.152223587036133;-136.92214965820312
383;1673433515.5221305;47.1281738;7.2372293999999995;89.4050064086914;1673433515.598389;-28.36179542541504;-8.135017395019531;-136.92031860351562
384;1673433515.722129;47.1281639;7.2372157999999995;89.8010025024414;1673433515.7991118;-28.344758987426758;-8.187655448913574;-136.9228973388672
385;1673433515.926309;47.128153999999995;7.2372022;90.19700622558594;1673433516.0087924;-28.3752384185791;-8.233160018920898;-136.91531372070312
386;1673433516.1334333;47.1281441;7.2371886;90.59700775146484;1673433516.2193542;-28.448781967163086;-8.144509315490723;-136.91371154785156
387;1673433516.3468757;47.1281342;7.2371751;90.99700164794922;1673433516.4245665;-28.446392059326172;-8.234757423400879;-136.9032440185547
388;1673433516.5385633;47.128124199999995;7.2371615;91.39600372314453;1673433516.6109576;-28.38636016845703;-8.076128005981445;-136.89813232421875
389;1673433516.7268157;47.1281142;7.2371479999999995;91.79200744628906;1673433516.8093672;-28.374156951904297;-8.066367149353027;-136.910400390625
390;1673433516.9252455;47.1281043;7.2371343999999995;92.18700408935547;1673433516.9985907;-28.37430763244629;-8.079456329345703;-136.90301513671875
391;1673433517.1455693;47.1280943;7.2371208;92.58200073242188;1673433517.225663;-28.197893142700195;-8.136626243591309;-136.88755798339844
392;1673433517.3354542;47.1280843;7.2371072;92.97600555419922;1673433517.4123363;-28.148399353027344;-7.994887828826904;-136.89727783203125
393;1673433517.5164607;47.128074399999996;7.2370936;93.37400817871094;1673433517.5951283;-28.23439598083496;-8.31057357788086;-136.8466796875
394;1673433517.7051885;47.1280644;7.23708;93.77100372314453;1673433517.797263;-28.171934127807617;-8.127277374267578;-136.88121032714844
395;1673433517.9224508;47.128054399999996;7.2370664;94.16600799560547;1673433518.02671;-28.163249969482422;-8.134429931640625;-136.8779754638672
396;1673433518.1424499;47.128044499999994;7.237052899999999;94.56500244140625;1673433518.2222855;-28.161296844482422;-7.98500394821167;-136.87351989746094
397;1673433518.3340201;47.1280345;7.237039299999999;94.96300506591797;1673433518.4121156;-28.281749725341797;-8.006023406982422;-136.86326599121094
398;1673433518.5327668;47.128024499999995;7.2370258;95.36200714111328;1673433518.6145883;-28.182790756225586;-7.953609943389893;-136.83688354492188
399;1673433518.7205484;47.1280146;7.2370122;95.76200103759766;1673433518.8000674;-28.27747917175293;-7.966683387756348;-136.85845947265625
400;1673433518.902072;47.1280047;7.2369986;96.16200256347656;1673433518.9943802;-28.082305908203125;-8.144012451171875;-136.83834838867188
401;1673433519.1267288;47.127994799999996;7.236985;96.56300354003906;1673433519.2116282;-28.264812469482422;-8.111822128295898;-136.86080932617188
402;1673433519.3261611;47.1279849;7.2369714;96.96800231933594;1673433519.4032288;-28.25283432006836;-8.022055625915527;-136.8612518310547
403;1673433519.5319343;47.127975;7.236957899999999;97.37100219726562;1673433519.6140385;-28.43259048461914;-8.119133949279785;-136.8324432373047
404;1673433519.7352128;47.1279651;7.2369444;97.77200317382812;1673433519.814301;-28.235929489135742;-8.02698802947998;-136.8465576171875
405;1673433519.931819;47.1279551;7.2369308;98.17300415039062;1673433520.014199;-28.22435760498047;-7.9979352951049805;-136.8280487060547
406;1673433520.150225;47.1279453;7.2369172;98.57500457763672;1673433520.235557;-28.27301597595215;-8.241852760314941;-136.83497619628906
407;1673433520.3434205;47.1279354;7.2369036;98.97700500488281;1673433520.4263608;-28.27393341064453;-8.183350563049316;-136.8418426513672
408;1673433520.553724;47.127925499999996;7.23689;99.3790054321289;1673433520.6427045;-28.204580307006836;-8.109211921691895;-136.8214569091797
409;1673433520.7569444;47.1279155;7.2368764;99.7820053100586;1673433520.8297493;-28.249713897705078;-8.149688720703125;-136.81431579589844
410;1673433520.9315722;47.1279056;7.2368628;100.18500518798828;1673433521.013292;-28.15927505493164;-8.068105697631836;-136.82664489746094
411;1673433521.1361978;47.127895699999996;7.2368492;100.58700561523438;1673433521.2127163;-28.221521377563477;-8.000256538391113;-136.80152893066406
412;1673433521.3345556;47.1278858;7.2368356;100.98700714111328;1673433521.404887;-28.383481979370117;-8.129719734191895;-136.7849578857422
413;1673433521.532736;47.1278759;7.236822;101.38700103759766;1673433521.617662;-28.331192016601562;-8.233044624328613;-136.8242645263672
414;1673433521.7432175;47.127866;7.2368083;101.78900146484375;1673433521.8173532;-28.371110916137695;-8.241483688354492;-136.82081604003906
415;1673433521.941046;47.127856099999995;7.2367947;102.18700408935547;1673433522.0292916;-28.33097267150879;-8.1670560836792;-136.8286590576172
416;1673433522.1904993;47.1278462;7.2367811;102.5830078125;1673433522.2630308;-28.304357528686523;-8.20504093170166;-136.81689453125
417;1673433522.4036434;47.1278363;7.2367674;102.98200225830078;1673433522.474884;-28.43157196044922;-8.144883155822754;-136.8207244873047
418;1673433522.6016958;47.1278264;7.2367538;103.3810043334961;1673433522.673758;-28.263212203979492;-8.255589485168457;-136.83175659179688
419;1673433522.7878022;47.127816599999996;7.236739999999999;103.77900695800781;1673433522.8631172;-28.29981231689453;-8.397665977478027;-136.83831787109375
420;1673433522.9569097;47.1278067;7.236726399999999;104.17400360107422;1673433523.0254405;-28.257640838623047;-8.363994598388672;-136.81468200683594
