;pos_time;latitude;longitude;altitude;alt_time;pitch;roll;yaw
0;1673434927.7698529;47.1306423;7.2406201999999995;-0.004000000189989805;1673434927.7542014;-0.11069706827402115;0.14557655155658722;90.62549591064453
1;1673434927.9678104;47.1306423;7.2406201999999995;-0.0010000000474974513;1673434927.953169;0.007031179033219814;-0.1251981258392334;90.55384826660156
2;1673434928.1741478;47.1306423;7.2406201999999995;0.0;1673434928.1554904;-0.022580336779356003;0.08422599732875824;90.49650573730469
3;1673434928.361525;47.1306423;7.2406201;0.0;1673434928.3439648;-0.13769425451755524;-0.14140984416007996;90.68838500976562
4;1673434928.5680912;47.1306423;7.24062;0.0;1673434928.5524755;-0.1521235704421997;0.13263866305351257;90.56028747558594
5;1673434928.785985;47.1306423;7.2406198999999996;0.003000000026077032;1673434928.7684171;-0.1357790231704712;-0.1400364190340042;90.56965637207031
6;1673434929.0002625;47.1306423;7.2406198999999996;0.0;1673434928.978533;0.08414952456951141;0.07800047844648361;90.5657958984375
7;1673434929.205597;47.1306422;7.240619799999999;-0.0020000000949949026;1673434929.1876786;-0.08312346786260605;-0.059538982808589935;90.763671875
8;1673434929.3978148;47.1306422;7.240619799999999;-0.0010000000474974513;1673434929.3791237;-0.25591084361076355;0.08018695563077927;90.745361328125
9;1673434929.5713117;47.1306422;7.240619799999999;0.0;1673434929.5576477;-0.13031922280788422;0.12459583580493927;90.85267639160156
10;1673434929.7669811;47.1306422;7.240619799999999;0.0020000000949949026;1673434929.7500472;-0.13280506432056427;0.43438148498535156;90.74331665039062
11;1673434929.9687798;47.1306422;7.240619799999999;0.003000000026077032;1673434929.9491198;-0.07367973774671555;0.4412144720554352;90.74493408203125
12;1673434930.1669776;47.1306422;7.2406198999999996;0.003000000026077032;1673434930.1502903;-0.23086635768413544;0.31615251302719116;90.70050048828125
13;1673434930.3714235;47.1306422;7.24062;0.003000000026077032;1673434930.348945;-0.22537563741207123;0.3011912703514099;90.71954345703125
14;1673434930.5700276;47.1306423;7.2406201;0.005000000353902578;1673434930.5532837;-0.3305244445800781;0.34704557061195374;90.73564910888672
15;1673434930.7571304;47.1306423;7.2406201;0.004000000189989805;1673434930.741786;-0.19639042019844055;0.18747052550315857;90.6453628540039
16;1673434930.9637046;47.1306423;7.2406201;0.007000000216066837;1673434930.9450653;-0.230737566947937;0.5653655529022217;90.59178161621094
17;1673434931.1614697;47.1306424;7.2406201999999995;0.0;1673434931.1448903;-0.4393513798713684;0.688795804977417;90.84903717041016
18;1673434931.3601744;47.1306424;7.2406201999999995;0.003000000026077032;1673434931.342624;-0.3441579341888428;0.9362433552742004;90.933837890625
19;1673434931.5676775;47.1306424;7.2406201999999995;0.003000000026077032;1673434931.5462146;-0.15329860150814056;0.8144439458847046;90.90785217285156
20;1673434931.78297;47.1306424;7.2406201999999995;0.0;1673434931.768019;-0.3326793611049652;0.6734411120414734;90.707275390625
21;1673434931.9946544;47.1306424;7.2406201999999995;0.0010000000474974513;1673434931.9775195;-0.23641207814216614;0.5584622621536255;90.59253692626953
22;1673434932.2362182;47.1306423;7.2406201999999995;0.0010000000474974513;1673434932.2137315;-0.03212480992078781;0.27646952867507935;90.53050994873047
23;1673434932.3924649;47.1306423;7.2406201;0.005000000353902578;1673434932.3788059;-0.2265322357416153;0.20818230509757996;90.62194061279297
24;1673434932.5764723;47.1306423;7.24062;0.003000000026077032;1673434932.5597215;-0.2693691849708557;0.16152536869049072;90.84908294677734
25;1673434932.7828543;47.1306422;7.24062;0.004000000189989805;1673434932.7662792;-0.19452928006649017;0.3579171895980835;90.96422576904297
26;1673434932.9913554;47.1306422;7.24062;0.004000000189989805;1673434932.9736419;-0.37572240829467773;0.11646022647619247;91.21746063232422
27;1673434933.1862469;47.130642099999996;7.24062;0.007000000216066837;1673434933.1686778;1.2013888359069824;-0.9518238306045532;90.4577407836914
28;1673434933.3858435;47.1306419;7.2406201999999995;0.018000001087784767;1673434933.3712022;1.8660056591033936;-3.488293170928955;91.4004898071289
29;1673434933.5914514;47.1306416;7.2406204999999995;0.04100000113248825;1673434933.573884;5.451908588409424;-9.719688415527344;91.78443908691406
30;1673434933.791986;47.130641399999995;7.2406207;0.07600000500679016;1673434933.7763608;7.162993907928467;-8.205474853515625;91.51162719726562
31;1673434933.9913824;47.130641399999995;7.240620799999999;0.12200000882148743;1673434933.9727068;6.685873031616211;-7.245325088500977;91.58552551269531
32;1673434934.200866;47.130641399999995;7.2406209;0.1850000023841858;1673434934.1830003;6.641261577606201;-11.028129577636719;91.73157501220703
33;1673434934.397447;47.130641499999996;7.240620799999999;0.2680000066757202;1673434934.3826966;5.799490451812744;-7.6162848472595215;91.96793365478516
34;1673434934.6117463;47.130641399999995;7.2406207;0.36900001764297485;1673434934.5969958;5.673159599304199;-6.562085151672363;91.85895538330078
35;1673434934.807041;47.130641499999996;7.2406204999999995;0.48100003600120544;1673434934.790136;6.458899974822998;-11.880701065063477;91.66521453857422
36;1673434935.0063958;47.1306417;7.2406203;0.6060000061988831;1673434934.9907765;6.60554838180542;-8.49107837677002;91.91194152832031
37;1673434935.1878517;47.130641999999995;7.24062;0.7410000562667847;1673434935.1729372;6.223046779632568;-5.356412887573242;92.64933776855469
38;1673434935.3871844;47.1306423;7.2406198999999996;0.8860000371932983;1673434935.3715644;5.175483226776123;-9.456711769104004;93.63655853271484
39;1673434935.5686429;47.1306425;7.240619799999999;1.0490000247955322;1673434935.553028;5.166652202606201;-7.456377029418945;94.53018951416016
40;1673434935.7799468;47.1306425;7.2406197;1.2300000190734863;1673434935.763239;5.047863960266113;-3.985243082046509;94.62635803222656
41;1673434935.9874506;47.1306425;7.2406197;1.4160000085830688;1673434935.9708714;5.698071479797363;-9.388860702514648;94.29105377197266
42;1673434936.1922379;47.130642599999995;7.2406197;1.6010000705718994;1673434936.1766207;6.2628278732299805;-8.534576416015625;93.92244720458984
43;1673434936.380057;47.130642599999995;7.2406197;1.7850000858306885;1673434936.3663154;6.049541473388672;-4.610288619995117;94.15674591064453
44;1673434936.5877728;47.130642699999996;7.240619799999999;1.9640001058578491;1673434936.5721657;6.161254405975342;-8.054343223571777;94.31696319580078
45;1673434936.7941487;47.130642699999996;7.240619799999999;2.1480000019073486;1673434936.7755914;5.633927822113037;-8.343657493591309;94.54297637939453
46;1673434937.0091078;47.1306425;7.240619799999999;2.3420000076293945;1673434936.9884412;5.4324774742126465;-4.638579845428467;94.88157653808594
47;1673434937.2060761;47.1306424;7.240619799999999;2.5410001277923584;1673434937.1914372;5.608956813812256;-9.03388500213623;94.88902282714844
48;1673434937.399878;47.1306424;7.240619799999999;2.7370002269744873;1673434937.3835437;6.405256748199463;-9.545537948608398;95.13631439208984
49;1673434937.5874815;47.1306424;7.240619799999999;2.933000087738037;1673434937.5687842;6.719989776611328;-4.960114002227783;95.5163345336914
50;1673434937.8003213;47.1306424;7.240619799999999;3.125000238418579;1673434937.7846735;6.573193550109863;-7.228615760803223;95.38822174072266
51;1673434937.9836059;47.1306424;7.2406198999999996;3.317000150680542;1673434937.9669714;6.477679252624512;-9.347865104675293;95.00337982177734
52;1673434938.1823108;47.1306422;7.24062;3.515000104904175;1673434938.1651607;6.372768402099609;-5.598337650299072;94.8887710571289
53;1673434938.3833919;47.130641999999995;7.2406201;3.7160000801086426;1673434938.3677747;5.714417934417725;-7.419058799743652;94.73486328125
54;1673434938.5904992;47.130641999999995;7.2406201;3.9190001487731934;1673434938.5737202;5.891889572143555;-10.892468452453613;94.78323364257812
55;1673434938.7902136;47.130642099999996;7.24062;4.122000217437744;1673434938.775455;6.183773040771484;-6.8005242347717285;95.40010070800781
56;1673434938.9944394;47.130642099999996;7.24062;4.321000099182129;1673434938.9794333;6.697227478027344;-5.578478813171387;95.29716491699219
57;1673434939.1925182;47.1306422;7.24062;4.519000053405762;1673434939.1757805;6.691127300262451;-9.456469535827637;94.88780975341797
58;1673434939.3941731;47.130642099999996;7.24062;4.7170000076293945;1673434939.3795264;6.462235450744629;-7.2806782722473145;94.76946258544922
59;1673434939.583389;47.1306419;7.24062;4.9120001792907715;1673434939.5676975;5.932953357696533;-5.870293617248535;94.80828857421875
60;1673434939.805727;47.1306419;7.24062;5.1060004234313965;1673434939.7884166;5.793517112731934;-10.080352783203125;94.9853286743164
61;1673434939.9982197;47.1306419;7.24062;5.302000045776367;1673434939.9826043;6.226754665374756;-8.476319313049316;95.60389709472656
62;1673434940.1930902;47.1306419;7.2406198999999996;5.50600004196167;1673434940.1784408;7.006866455078125;-4.793105602264404;95.81727600097656
63;1673434940.4434943;47.1306419;7.2406198999999996;5.706000328063965;1673434940.4073467;6.633414268493652;-8.500460624694824;95.31414031982422
64;1673434940.6453207;47.1306418;7.240619799999999;5.913000106811523;1673434940.630141;6.6575846672058105;-9.36573600769043;94.9167709350586
65;1673434940.877882;47.1306416;7.240619799999999;6.12000036239624;1673434940.86325;6.4016032218933105;-5.389834403991699;94.86359405517578
66;1673434941.0702841;47.1306416;7.2406197;6.325000286102295;1673434941.050769;5.666925430297852;-8.635228157043457;94.97313690185547
67;1673434941.245871;47.1306416;7.2406197;6.52400016784668;1673434941.2313468;5.411988735198975;-10.179675102233887;95.17987823486328
68;1673434941.4286933;47.1306417;7.2406196;6.7270002365112305;1673434941.414042;5.76671838760376;-5.74747371673584;95.3160400390625
69;1673434941.6344843;47.1306417;7.2406196;6.928000450134277;1673434941.6124732;6.180739402770996;-7.440313339233398;94.90289306640625
70;1673434941.833505;47.1306418;7.2406196;7.13200044631958;1673434941.818709;6.27011775970459;-10.477880477905273;94.34786987304688
71;1673434942.023585;47.1306418;7.2406196;7.337000370025635;1673434942.0094345;6.344930171966553;-6.663346290588379;94.60779571533203
72;1673434942.2151241;47.1306418;7.2406196;7.539000511169434;1673434942.1985364;5.700240135192871;-6.932131767272949;95.00279235839844
73;1673434942.3986452;47.1306419;7.2406196;7.740000247955322;1673434942.3838558;5.644456386566162;-10.08375072479248;95.21942901611328
74;1673434942.5913558;47.130641999999995;7.2406196;7.942000389099121;1673434942.574704;5.944886684417725;-6.041359901428223;95.29145812988281
75;1673434942.790984;47.1306419;7.240619499999999;8.142000198364258;1673434942.774288;6.09469747543335;-5.74123477935791;95.1946029663086
76;1673434942.9872386;47.1306419;7.2406196;8.339000701904297;1673434942.971622;6.37123966217041;-10.144401550292969;94.85985565185547
77;1673434943.214507;47.1306418;7.2406196;8.541000366210938;1673434943.1964934;6.588083744049072;-7.832674503326416;94.79938507080078
78;1673434943.4028242;47.1306416;7.2406196;8.742000579833984;1673434943.38719;6.371565341949463;-5.9972310066223145;95.05439758300781
79;1673434943.6057544;47.1306417;7.2406197;8.937000274658203;1673434943.588196;6.139835357666016;-9.91699504852295;95.25953674316406
80;1673434943.8178675;47.1306417;7.240619799999999;9.131999969482422;1673434943.7991831;5.777555465698242;-8.633286476135254;95.2787857055664
81;1673434944.0111465;47.1306418;7.2406198999999996;9.334000587463379;1673434943.995515;5.9415178298950195;-5.084329128265381;95.09882354736328
82;1673434944.2079413;47.1306418;7.2406198999999996;9.532999992370605;1673434944.1932938;6.155531406402588;-9.431769371032715;94.59521484375
83;1673434944.4065838;47.1306418;7.24062;9.734000205993652;1673434944.3898218;6.871420860290527;-9.873003959655762;94.5445785522461
84;1673434944.604756;47.1306418;7.24062;9.938000679016113;1673434944.580046;6.675248622894287;-5.827458381652832;95.02293395996094
85;1673434944.8115556;47.1306418;7.24062;10.13800048828125;1673434944.7978804;6.401862144470215;-8.012344360351562;95.08495330810547
86;1673434945.0041828;47.130641999999995;7.2406201;10.395000457763672;1673434944.9898593;6.13634729385376;-10.442625999450684;94.72223663330078
87;1673434945.181019;47.1306423;7.24062;10.754000663757324;1673434945.1647685;6.319647312164307;-8.239234924316406;94.51517486572266
88;1673434945.3955445;47.130642599999995;7.2406198999999996;11.143000602722168;1673434945.376712;6.1156439781188965;-7.623044013977051;94.84044647216797
89;1673434945.6113527;47.130643;7.240619799999999;11.538000106811523;1673434945.5957696;6.084416389465332;-9.288844108581543;94.83228302001953
90;1673434945.8183155;47.130643199999994;7.2406196;11.941000938415527;1673434945.7988017;6.192193984985352;-6.1239542961120605;95.07158660888672
91;1673434946.0055475;47.130643299999996;7.240619499999999;12.343000411987305;1673434945.9897714;5.748852729797363;-3.8690688610076904;95.32174682617188
92;1673434946.210565;47.1306434;7.2406194;12.742000579833984;1673434946.192999;5.660356521606445;-7.411538600921631;95.0860366821289
93;1673434946.4076252;47.1306435;7.240619499999999;13.145000457763672;1673434946.3890922;5.660627841949463;-6.199300289154053;94.77580261230469
94;1673434946.5935967;47.1306434;7.240619499999999;13.552000999450684;1673434946.578905;5.474830627441406;-3.799315929412842;94.89530944824219
95;1673434946.7963555;47.130643199999994;7.240619499999999;13.956000328063965;1673434946.7767303;5.5369672775268555;-7.644658088684082;94.94171905517578
96;1673434946.9940493;47.130643;7.2406196;14.359000205993652;1673434946.9783084;5.8274383544921875;-9.1037015914917;94.88679504394531
97;1673434947.1838927;47.130642699999996;7.2406196;14.76300048828125;1673434947.1692522;5.941991329193115;-5.417957782745361;94.81725311279297
98;1673434947.4068394;47.130642599999995;7.2406196;15.165000915527344;1673434947.388296;6.023270606994629;-8.068477630615234;94.8540267944336
99;1673434947.6141913;47.130642599999995;7.2406197;15.570000648498535;1673434947.5946321;6.344660758972168;-10.060932159423828;94.84534454345703
100;1673434947.8262234;47.130642599999995;7.2406197;15.980000495910645;1673434947.8026848;6.450077533721924;-6.026272296905518;94.78822326660156
101;1673434948.0263083;47.1306425;7.240619799999999;16.394001007080078;1673434948.0092213;6.186076641082764;-7.034542083740234;94.99381256103516
102;1673434948.220319;47.1306425;7.240619799999999;16.801000595092773;1673434948.202754;6.083649635314941;-9.697651863098145;95.22122192382812
103;1673434948.4150045;47.1306424;7.240619799999999;17.211000442504883;1673434948.3974364;6.1615142822265625;-7.3231048583984375;95.03343200683594
104;1673434948.6142123;47.1306424;7.2406197;17.621000289916992;1673434948.5976365;5.984765529632568;-5.655797958374023;94.8993911743164
105;1673434948.8062942;47.1306425;7.2406197;18.027000427246094;1673434948.7893748;6.042078971862793;-9.180810928344727;94.8311996459961
106;1673434949.0162628;47.130642599999995;7.2406197;18.43600082397461;1673434948.998701;6.193487644195557;-7.987763404846191;94.83760070800781
107;1673434949.2444654;47.130642599999995;7.2406197;18.84600067138672;1673434949.2260518;6.226519584655762;-4.950505256652832;94.98540496826172
108;1673434949.4304342;47.130642599999995;7.2406197;19.248001098632812;1673434949.4174666;5.866652965545654;-7.324292182922363;95.20938110351562
109;1673434949.6273046;47.130642699999996;7.2406197;19.657001495361328;1673434949.6100292;5.511963844299316;-8.983121871948242;95.12679290771484
110;1673434949.8354206;47.130642599999995;7.2406197;20.071001052856445;1673434949.8176036;5.742257118225098;-5.445943355560303;94.93855285644531
111;1673434950.0181422;47.1306425;7.2406197;20.48000144958496;1673434950.005442;5.725603103637695;-6.850175857543945;94.84403228759766
112;1673434950.2195826;47.130642599999995;7.240619799999999;20.881000518798828;1673434950.1992924;6.143253326416016;-9.939091682434082;94.84130859375
113;1673434950.4150896;47.130642699999996;7.240619799999999;21.282001495361328;1673434950.403341;6.338478088378906;-6.119266033172607;94.80238342285156
114;1673434950.6614292;47.130642599999995;7.240619799999999;21.6820011138916;1673434950.6444101;6.142553329467773;-6.270327568054199;94.96726989746094
115;1673434950.8832078;47.130642599999995;7.240619799999999;22.075000762939453;1673434950.8675795;5.9589457511901855;-9.50157356262207;94.95528411865234
116;1673434951.1337156;47.1306425;7.240619799999999;22.472000122070312;1673434951.1239603;5.906605243682861;-7.193617820739746;94.88148498535156
117;1673434951.2776856;47.1306425;7.240619799999999;22.871000289916992;1673434951.2628708;5.711569786071777;-5.258693218231201;94.9464111328125
118;1673434951.5126808;47.1306425;7.240619799999999;23.270000457763672;1673434951.5009706;6.0755743980407715;-9.618111610412598;94.90890502929688
119;1673434951.6957214;47.130642599999995;7.240619799999999;23.672000885009766;1673434951.681083;6.249617099761963;-7.660584449768066;94.83052825927734
120;1673434951.8697839;47.130642699999996;7.240619799999999;24.07400131225586;1673434951.8551526;6.2295098304748535;-5.038661003112793;94.90411376953125
121;1673434952.053708;47.130642599999995;7.240619799999999;24.466001510620117;1673434952.0412393;6.049550533294678;-8.48598861694336;95.02633666992188
122;1673434952.2375906;47.130642599999995;7.240619799999999;24.86400032043457;1673434952.2208242;5.92185640335083;-9.029056549072266;95.09197998046875
123;1673434952.429655;47.130642599999995;7.2406197;25.26300048828125;1673434952.4154563;5.888982772827148;-5.210000991821289;95.06211853027344
124;1673434952.6241252;47.130642599999995;7.2406197;25.660001754760742;1673434952.609485;5.593245506286621;-7.117293834686279;94.9110336303711
125;1673434952.8298607;47.130642699999996;7.2406197;26.052001953125;1673434952.813266;5.7427144050598145;-10.008065223693848;94.8744125366211
126;1673434953.0310085;47.1306428;7.240619799999999;26.448001861572266;1673434953.0152462;5.97855281829834;-5.820997714996338;94.90105438232422
127;1673434953.2346768;47.130642699999996;7.240619799999999;26.845001220703125;1673434953.2141805;6.173119068145752;-5.855098724365234;95.0576400756836
128;1673434953.4461432;47.130642699999996;7.240619799999999;27.233001708984375;1673434953.4282224;6.176180839538574;-9.648456573486328;95.02482604980469
129;1673434953.6234186;47.130642599999995;7.2406197;27.628002166748047;1673434953.6087859;6.2009735107421875;-7.013113498687744;94.8241195678711
130;1673434953.825909;47.130642599999995;7.240619799999999;28.022001266479492;1673434953.8061428;5.981114864349365;-5.477260112762451;94.89884185791016
131;1673434954.028127;47.130642599999995;7.240619799999999;28.41200065612793;1673434954.0125082;6.013149738311768;-9.127254486083984;94.93829345703125
132;1673434954.223858;47.130642699999996;7.240619799999999;28.805002212524414;1673434954.207762;6.004470348358154;-7.732433795928955;94.8992919921875
133;1673434954.423314;47.130642699999996;7.240619799999999;29.200000762939453;1673434954.409673;6.171311855316162;-4.622734069824219;94.91837310791016
134;1673434954.6266925;47.130642699999996;7.240619799999999;29.588001251220703;1673434954.6101084;6.096773624420166;-8.106973648071289;94.77706909179688
135;1673434954.8237317;47.130642699999996;7.240619799999999;29.979001998901367;1673434954.8058994;6.31964111328125;-8.571435928344727;94.79132080078125
136;1673434955.011094;47.130642599999995;7.240619799999999;30.374000549316406;1673434954.9954915;6.150084972381592;-4.925665855407715;95.07926940917969
137;1673434955.2046516;47.1306425;7.240619799999999;30.769001007080078;1673434955.1878784;5.976672172546387;-7.798810958862305;95.02271270751953
138;1673434955.3982017;47.130642599999995;7.240619799999999;31.16400146484375;1673434955.3805993;5.818183422088623;-9.395955085754395;94.80651092529297
139;1673434955.5957687;47.130642599999995;7.240619799999999;31.560001373291016;1673434955.5800726;5.855556488037109;-5.593158721923828;94.76105499267578
140;1673434955.8062544;47.1306425;7.240619799999999;31.957000732421875;1673434955.7906241;5.983998775482178;-6.717790603637695;94.93191528320312
141;1673434956.021281;47.1306425;7.2406197;32.345001220703125;1673434956.0047286;6.058917999267578;-9.614459991455078;94.87328338623047
142;1673434956.2176154;47.1306424;7.240619799999999;32.73400115966797;1673434956.1980834;6.429902076721191;-6.819409370422363;94.86274719238281
143;1673434956.414169;47.1306423;7.240619799999999;33.12800216674805;1673434956.397577;6.24006986618042;-5.545976638793945;94.91754150390625
144;1673434956.6107945;47.1306424;7.240619799999999;33.520999908447266;1673434956.5931218;6.108880519866943;-9.791545867919922;94.92776489257812
145;1673434956.8203952;47.1306425;7.2406198999999996;33.91699981689453;1673434956.801853;6.210361003875732;-7.694393157958984;94.89652252197266
146;1673434957.038773;47.1306425;7.2406198999999996;34.31700134277344;1673434957.0212054;6.152071475982666;-4.845424175262451;94.9421615600586
147;1673434957.2380471;47.1306425;7.240619799999999;34.70800018310547;1673434957.2223973;6.0342559814453125;-8.5086669921875;94.96808624267578
148;1673434957.4456897;47.1306424;7.240619799999999;35.105003356933594;1673434957.4291005;5.902021408081055;-8.797531127929688;94.88807678222656
149;1673434957.6423638;47.1306423;7.2406197;35.50800323486328;1673434957.626525;5.915426731109619;-5.366298675537109;94.97782135009766
150;1673434957.8294034;47.1306424;7.2406197;35.91100311279297;1673434957.810842;5.785682678222656;-7.423379421234131;95.076416015625
151;1673434958.0363061;47.1306425;7.2406197;36.3120002746582;1673434958.0177631;5.942758083343506;-9.707667350769043;94.93274688720703
152;1673434958.2462673;47.1306425;7.2406197;36.7140007019043;1673434958.2306566;5.968272686004639;-5.514054775238037;94.81759643554688
153;1673434958.4384255;47.1306425;7.2406197;37.11800003051758;1673434958.4228096;5.807276725769043;-5.96176815032959;94.82283020019531
154;1673434958.6301134;47.1306425;7.2406197;37.51000213623047;1673434958.6135223;5.916522979736328;-9.748329162597656;94.88935089111328
155;1673434958.8277745;47.1306425;7.2406197;37.90800094604492;1673434958.8101873;6.125784873962402;-6.494347095489502;95.07186889648438
156;1673434959.025518;47.1306425;7.2406197;38.30900192260742;1673434959.0079553;6.198235511779785;-5.713790416717529;94.95728302001953
157;1673434959.2343228;47.130642599999995;7.240619799999999;38.70900344848633;1673434959.2196696;6.128192901611328;-9.288785934448242;94.91345977783203
158;1673434959.4422166;47.130642699999996;7.240619799999999;39.104000091552734;1673434959.424236;6.116555213928223;-7.68160343170166;94.9538345336914
159;1673434959.6559415;47.1306428;7.240619799999999;39.50400161743164;1673434959.6383827;6.115084171295166;-4.525242328643799;94.9842529296875
160;1673434959.869902;47.1306428;7.240619799999999;39.89400100708008;1673434959.8536408;5.870570182800293;-7.701092720031738;95.01961517333984
161;1673434960.070442;47.130642699999996;7.240619799999999;40.28900146484375;1673434960.0532937;5.69731330871582;-8.624351501464844;94.8848876953125
162;1673434960.2621589;47.130642599999995;7.240619799999999;40.682003021240234;1673434960.2445004;5.855773448944092;-4.797846794128418;94.8979263305664
163;1673434960.4564142;47.130642599999995;7.2406198999999996;41.077003479003906;1673434960.4398124;5.98510217666626;-7.533064842224121;94.907470703125
164;1673434960.6502352;47.130642699999996;7.2406198999999996;41.467002868652344;1673434960.6355064;6.369955062866211;-9.023946762084961;94.86598205566406
165;1673434960.86338;47.130642699999996;7.2406198999999996;41.86000061035156;1673434960.8496788;6.475830078125;-5.495957851409912;94.75366973876953
166;1673434961.083057;47.130642699999996;7.24062;42.25200271606445;1673434961.0670185;6.3227691650390625;-6.54725980758667;94.90663146972656
167;1673434961.263114;47.130642599999995;7.24062;42.63500213623047;1673434961.2504163;6.019116401672363;-9.516891479492188;95.00882720947266
168;1673434961.4405568;47.1306425;7.2406198999999996;43.02900314331055;1673434961.425756;5.898132801055908;-6.2361860275268555;94.94189453125
169;1673434961.6313262;47.1306424;7.240619799999999;43.42300033569336;1673434961.6137788;5.641159534454346;-5.689284324645996;94.99671936035156
170;1673434961.8414407;47.1306425;7.240619799999999;43.81700134277344;1673434961.8227406;5.826251983642578;-10.176490783691406;94.88848876953125
171;1673434962.0420687;47.130642599999995;7.2406197;44.2140007019043;1673434962.0264668;6.0199360847473145;-6.684609413146973;94.85738372802734
172;1673434962.2295818;47.130642599999995;7.2406197;44.61100387573242;1673434962.2137942;6.111198902130127;-5.128178119659424;94.92387390136719
173;1673434962.442081;47.130642599999995;7.240619799999999;44.99700164794922;1673434962.4264612;6.041853427886963;-8.475080490112305;94.90064239501953
174;1673434962.6369653;47.130642599999995;7.240619799999999;45.38900375366211;1673434962.6194136;6.081228256225586;-8.346434593200684;94.96441650390625
175;1673434962.8307145;47.1306425;7.240619799999999;45.784000396728516;1673434962.8121824;5.769058704376221;-5.07245397567749;94.92399597167969
176;1673434963.0330698;47.1306425;7.240619799999999;46.17500305175781;1673434963.0174541;5.605496883392334;-7.6073994636535645;94.76390838623047
177;1673434963.248973;47.1306425;7.2406197;46.56900405883789;1673434963.230421;5.620983600616455;-9.897006034851074;94.8940658569336
178;1673434963.450614;47.130642599999995;7.2406197;46.965003967285156;1673434963.43599;5.929224491119385;-5.7054643630981445;95.086181640625
179;1673434963.6627932;47.130642599999995;7.2406197;47.35900115966797;1673434963.6488764;6.06851053237915;-5.8209428787231445;95.1146240234375
180;1673434963.9285765;47.1306425;7.2406197;47.74400329589844;1673434963.907965;6.120600700378418;-9.43846607208252;95.01962280273438
181;1673434964.1028476;47.1306424;7.2406197;48.12800216674805;1673434964.0879583;5.813066005706787;-6.808960437774658;95.01774597167969
182;1673434964.279174;47.1306423;7.2406197;48.474002838134766;1673434964.262446;5.580837249755859;-5.901264667510986;95.11136627197266
183;1673434964.4608464;47.1306424;7.240619799999999;48.768001556396484;1673434964.4462025;5.848454475402832;-9.475528717041016;95.1036376953125
184;1673434964.7031405;47.1306424;7.240619799999999;49.01100158691406;1673434964.6805873;6.011233806610107;-6.624323844909668;95.27088165283203
185;1673434964.892093;47.1306422;7.2406198999999996;49.21200180053711;1673434964.8774529;6.0491461753845215;-4.6927008628845215;95.27470397949219
186;1673434965.0665395;47.130641999999995;7.2406198999999996;49.36900329589844;1673434965.0499396;9.481941223144531;-4.830162525177002;95.27997589111328
187;1673434965.2570343;47.130641399999995;7.2406194;49.51300048828125;1673434965.2385032;26.01137351989746;16.308820724487305;102.9953842163086
188;1673434965.4514356;47.1306394;7.2406166999999995;49.63800048828125;1673434965.436783;32.41960144042969;39.60602569580078;114.93640899658203
189;1673434965.6401176;47.1306352;7.2406105;49.7390022277832;1673434965.62533;30.580490112304688;52.71033477783203;122.24092864990234
190;1673434965.844;47.1306282;7.240600499999999;49.80600357055664;1673434965.826429;15.473456382751465;56.31035614013672;130.60031127929688
191;1673434966.0393925;47.1306188;7.2405873;49.849002838134766;1673434966.020848;-2.5429201126098633;55.9807243347168;143.1084747314453
192;1673434966.246686;47.1306076;7.2405716;49.86600112915039;1673434966.2291265;-17.711881637573242;51.72042465209961;153.08758544921875
193;1673434966.4453573;47.130594699999996;7.2405541;49.875003814697266;1673434966.430697;-30.25714874267578;44.29438400268555;164.25421142578125
194;1673434966.6359286;47.1305802;7.2405352;49.868003845214844;1673434966.6190577;-41.35831069946289;39.723907470703125;176.68231201171875
195;1673434966.8357184;47.1305644;7.2405146;49.85400390625;1673434966.8191276;-49.281951904296875;34.445194244384766;-170.14132690429688
196;1673434967.0305874;47.130547299999996;7.2404924;49.829002380371094;1673434967.0132136;-50.01658630371094;26.172222137451172;-159.84201049804688
197;1673434967.246184;47.130529499999994;7.2404687999999995;49.78700256347656;1673434967.2236376;-47.74574661254883;20.543508529663086;-153.77645874023438
198;1673434967.4381492;47.1305111;7.2404443;49.733001708984375;1673434967.4233682;-47.672393798828125;16.533082962036133;-147.88015747070312
199;1673434967.642912;47.1304926;7.2404193999999995;49.691001892089844;1673434967.6263206;-46.30068588256836;10.71997356414795;-140.18968200683594
200;1673434967.8469627;47.1304739;7.240393999999999;49.660003662109375;1673434967.8284185;-45.969303131103516;8.278118133544922;-133.86761474609375
201;1673434968.046603;47.1304553;7.2403680999999995;49.63600158691406;1673434968.0290318;-47.16331481933594;1.4971396923065186;-128.22520446777344
202;1673434968.283484;47.130436499999995;7.2403420999999994;49.62300109863281;1673434968.2683027;-46.06939697265625;-0.3892343044281006;-130.70138549804688
203;1673434968.4767997;47.1304174;7.240316099999999;49.61600112915039;1673434968.4641116;-46.80689239501953;0.6817657351493835;-133.51930236816406
204;1673434968.7010875;47.1303981;7.240290399999999;49.62000274658203;1673434968.686291;-47.620853424072266;1.8529928922653198;-134.67803955078125
205;1673434968.8671098;47.1303784;7.2402647;49.634002685546875;1673434968.8544278;-48.32685852050781;3.270329475402832;-135.2402801513672
206;1673434969.0549178;47.1303586;7.2402391999999995;49.64600372314453;1673434969.0381656;-48.28669738769531;4.847346782684326;-135.78140258789062
207;1673434969.251414;47.130338599999995;7.240213499999999;49.67100143432617;1673434969.231609;-47.96942138671875;5.567043304443359;-135.85482788085938
208;1673434969.4548619;47.130318599999995;7.240187499999999;49.69400405883789;1673434969.4372933;-48.519309997558594;6.1490983963012695;-135.92578125
209;1673434969.6603703;47.130298499999995;7.2401614;49.71600341796875;1673434969.6437774;-48.58669662475586;6.149816989898682;-135.74069213867188
210;1673434969.857446;47.130278399999995;7.2401351;49.74100112915039;1673434969.8407497;-48.392555236816406;6.094542026519775;-135.62059020996094
211;1673434970.0428524;47.1302583;7.2401086999999995;49.7660026550293;1673434970.0280366;-48.511348724365234;6.116153240203857;-135.5030059814453
212;1673434970.2476928;47.1302382;7.2400820999999995;49.77800369262695;1673434970.2288659;-48.443275451660156;6.104734420776367;-135.37570190429688
213;1673434970.435973;47.1302181;7.2400553;49.7920036315918;1673434970.4202344;-48.04331970214844;5.898406982421875;-135.25904846191406
214;1673434970.6400843;47.1301979;7.240028499999999;49.801002502441406;1673434970.6254478;-47.927589416503906;5.881900310516357;-135.27658081054688
215;1673434970.8359413;47.1301779;7.2400015;49.80900192260742;1673434970.8193164;-47.70763397216797;5.863030433654785;-135.2464599609375
216;1673434971.0532756;47.1301578;7.2399743999999995;49.81900405883789;1673434971.0347185;-47.75564956665039;5.804985046386719;-135.21017456054688
217;1673434971.2639515;47.1301377;7.239947399999999;49.8280029296875;1673434971.248191;-48.03451919555664;5.8819756507873535;-135.22760009765625
218;1673434971.462405;47.1301177;7.239920199999999;49.836002349853516;1673434971.4477785;-48.14665603637695;5.859249591827393;-135.2041473388672
219;1673434971.669352;47.1300976;7.2398931;49.83500289916992;1673434971.655679;-47.97711944580078;5.730492115020752;-135.1298828125
220;1673434971.8475292;47.1300776;7.2398659;49.8380012512207;1673434971.8335366;-47.62196731567383;5.7439165115356445;-135.15487670898438
221;1673434972.0357373;47.1300576;7.2398387;49.84100341796875;1673434972.022073;-47.64597702026367;5.737740516662598;-135.1669158935547
222;1673434972.2223015;47.1300376;7.2398114;49.84400177001953;1673434972.2066786;-47.900672912597656;5.863992214202881;-135.22769165039062
223;1673434972.4257898;47.130017599999995;7.2397842;49.845001220703125;1673434972.4072535;-48.05935287475586;5.756480693817139;-135.1502227783203
224;1673434972.6295378;47.1299977;7.2397569;49.84700393676758;1673434972.6126025;-47.86041259765625;5.6749796867370605;-135.14268493652344
225;1673434972.838676;47.1299777;7.2397295999999995;49.845001220703125;1673434972.822111;-47.75137710571289;5.690798282623291;-135.15786743164062
226;1673434973.0441012;47.1299578;7.239702299999999;49.85100173950195;1673434973.0275044;-47.86444091796875;5.702353000640869;-135.18673706054688
227;1673434973.244715;47.129937899999994;7.2396750999999995;49.85400390625;1673434973.2281258;-48.08082580566406;5.779538631439209;-135.1782684326172
228;1673434973.44299;47.129917899999995;7.239647799999999;49.85100173950195;1673434973.4215057;-48.01816177368164;5.758556842803955;-135.13467407226562
229;1673434973.642633;47.129897899999996;7.2396205;49.84600067138672;1673434973.6276412;-47.6973762512207;5.674379825592041;-135.10983276367188
230;1673434973.852082;47.1298779;7.2395932;49.842002868652344;1673434973.8329422;-47.58579635620117;5.821935653686523;-135.15724182128906
231;1673434974.061704;47.129858;7.2395659;49.8390007019043;1673434974.04408;-47.72102737426758;5.719236373901367;-135.10336303710938
232;1673434974.2636566;47.1298381;7.2395385999999995;49.8380012512207;1673434974.2489438;-47.841766357421875;5.757120132446289;-135.13702392578125
233;1673434974.470886;47.129818199999995;7.239511299999999;49.8380012512207;1673434974.4533198;-47.87156677246094;5.717750549316406;-135.1009979248047
234;1673434974.6471539;47.1297983;7.2394839;49.8390007019043;1673434974.6354427;-47.902557373046875;5.633790493011475;-135.09315490722656
235;1673434974.8394048;47.1297784;7.239456499999999;49.84300231933594;1673434974.8235917;-48.001522064208984;5.574549198150635;-135.07273864746094
236;1673434975.0368404;47.1297585;7.2394292;49.84800338745117;1673434975.021245;-48.01832580566406;5.589262962341309;-135.06625366210938
237;1673434975.2436762;47.129738499999995;7.2394019;49.85200119018555;1673434975.226112;-48.00794982910156;5.537046432495117;-135.02777099609375
238;1673434975.4566517;47.1297186;7.239374499999999;49.85600280761719;1673434975.4390852;-47.908485412597656;5.615365028381348;-135.06150817871094
239;1673434975.659312;47.1296987;7.2393472;49.86000061035156;1673434975.6417253;-47.906524658203125;5.639601230621338;-135.0459442138672
240;1673434975.8399491;47.1296787;7.2393198;49.8640022277832;1673434975.823357;-47.923336029052734;5.604180812835693;-135.01258850097656
241;1673434976.0310154;47.1296588;7.2392924999999995;49.868003845214844;1673434976.0153856;-47.870567321777344;5.5363545417785645;-134.9627685546875
242;1673434976.2604516;47.129638799999995;7.2392651;49.87200164794922;1673434976.2387474;-47.772003173828125;5.44078254699707;-134.90362548828125
243;1673434976.452859;47.129618799999996;7.239237699999999;49.87900161743164;1673434976.4372027;-47.69306182861328;5.5023627281188965;-134.92318725585938
244;1673434976.6405172;47.1295989;7.2392103;49.88500213623047;1673434976.6248431;-47.860416412353516;5.531798362731934;-134.9011993408203
245;1673434976.8321245;47.1295789;7.239183;49.89200210571289;1673434976.8164957;-48.051734924316406;5.473812580108643;-134.8168182373047
246;1673434977.0328157;47.129559;7.2391555;49.89500427246094;1673434977.0181787;-48.004268646240234;5.40911340713501;-134.79159545898438
247;1673434977.223266;47.129539;7.239128099999999;49.89800262451172;1673434977.2076492;-47.7379035949707;5.343769073486328;-134.74212646484375
248;1673434977.4222965;47.129518999999995;7.2391007;49.90300369262695;1673434977.405712;-47.760826110839844;5.284380912780762;-134.67738342285156
249;1673434977.6277325;47.1294991;7.239073299999999;49.90900421142578;1673434977.6111405;-47.766578674316406;5.352204322814941;-134.6779022216797
250;1673434977.8362334;47.1294791;7.239046;49.9160041809082;1673434977.8176947;-48.051727294921875;5.324345111846924;-134.5941925048828
251;1673434978.0342164;47.1294592;7.239018499999999;49.92400360107422;1673434978.0186124;-48.20125198364258;5.168441295623779;-134.51109313964844
252;1673434978.2614536;47.1294392;7.2389911;49.92900085449219;1673434978.2450707;-47.96372604370117;5.132289886474609;-134.42332458496094
253;1673434978.4464324;47.129419299999995;7.238963699999999;49.93800354003906;1673434978.43162;-47.86520767211914;5.446916103363037;-134.45599365234375
254;1673434978.6506653;47.129399299999996;7.2389363;49.945003509521484;1673434978.6350505;-47.59091567993164;7.615276336669922;-134.85888671875
255;1673434978.8576496;47.1293795;7.238908599999999;49.95100402832031;1673434978.8364997;-47.567649841308594;7.582690238952637;-134.22994995117188
256;1673434979.061515;47.129359799999996;7.2388809;49.95600128173828;1673434979.0428596;-47.83999252319336;6.761689186096191;-133.65216064453125
257;1673434979.2633624;47.129340199999994;7.238853;49.9640007019043;1673434979.247746;-47.75749969482422;7.859549522399902;-133.68971252441406
258;1673434979.4656878;47.129320799999995;7.2388248;49.97300338745117;1673434979.4471447;-47.8431282043457;8.240716934204102;-133.41323852539062
259;1673434979.6671135;47.1293016;7.238796499999999;49.980003356933594;1673434979.6397665;-47.64519500732422;8.55301570892334;-133.1422882080078
260;1673434979.8672512;47.129282499999995;7.238767999999999;49.999000549316406;1673434979.8506672;-41.6141242980957;8.195828437805176;-132.3748779296875
261;1673434980.0865524;47.129264;7.238740099999999;50.03000259399414;1673434980.0700133;-28.07999038696289;9.734918594360352;-133.85134887695312
262;1673434980.281466;47.1292465;7.2387136;50.05000305175781;1673434980.2658575;-10.371590614318848;8.827071189880371;-134.44871520996094
263;1673434980.4751675;47.1292305;7.2386894999999996;50.05900192260742;1673434980.4593868;2.71728253364563;8.47916316986084;-135.89939880371094
264;1673434980.6714475;47.1292166;7.2386687;50.05400085449219;1673434980.6558318;11.322796821594238;8.085234642028809;-136.40249633789062
265;1673434980.8572626;47.1292048;7.238651399999999;50.0420036315918;1673434980.8396654;15.307578086853027;9.181965827941895;-136.56092834472656
266;1673434981.0592036;47.129194899999995;7.2386373;50.01700210571289;1673434981.0406659;21.15100860595703;11.043975830078125;-138.64454650878906
267;1673434981.2669735;47.129186999999995;7.2386263;49.97200393676758;1673434981.2513833;22.8708438873291;14.242616653442383;-139.17359924316406
268;1673434981.4732897;47.129180999999996;7.2386178;49.923004150390625;1673434981.4576857;19.37902069091797;13.415290832519531;-138.0845184326172
269;1673434981.6707673;47.1291766;7.238611;49.89800262451172;1673434981.6561298;9.25810718536377;16.634382247924805;-137.7159423828125
270;1673434981.8742256;47.1291733;7.2386053;49.90500259399414;1673434981.856978;1.0677239894866943;10.529356002807617;-136.12693786621094
271;1673434982.0712063;47.1291705;7.2385999;49.94000244140625;1673434982.056414;-7.195158004760742;8.266593933105469;-135.95315551757812
272;1673434982.2701318;47.1291679;7.2385949;49.97200393676758;1673434982.2564685;-10.700100898742676;5.934741973876953;-136.3919677734375
273;1673434982.4866955;47.1291653;7.238589999999999;49.99500274658203;1673434982.4700887;-10.931437492370605;4.520877361297607;-137.62213134765625
274;1673434982.654964;47.1291624;7.238585499999999;50.01400375366211;1673434982.6393483;-8.482948303222656;6.0236921310424805;-139.2319793701172
275;1673434982.8572638;47.1291594;7.2385813;50.02700424194336;1673434982.8299408;-4.341439247131348;9.111236572265625;-140.8179931640625
276;1673434983.048584;47.1291563;7.238577599999999;50.038002014160156;1673434983.0329928;0.27546897530555725;8.023234367370605;-141.22512817382812
277;1673434983.258421;47.1291532;7.238574;50.07500076293945;1673434983.2374978;-19.887283325195312;11.75350284576416;-140.634765625
278;1673434983.4512835;47.129149299999995;7.2385696;50.14600372314453;1673434983.4336884;-19.688344955444336;3.1745400428771973;-136.767822265625
279;1673434983.6762283;47.1291447;7.238564599999999;50.27900314331055;1673434983.659491;-16.40826416015625;0.8569270968437195;-136.59266662597656
280;1673434983.887135;47.1291393;7.2385592999999995;50.51700210571289;1673434983.8714862;-19.750701904296875;2.5865230560302734;-137.14547729492188
281;1673434984.0742877;47.1291334;7.2385535999999995;50.8380012512207;1673434984.0555496;-26.421524047851562;5.735770225524902;-137.48794555664062
282;1673434984.262489;47.1291267;7.2385465;51.19600296020508;1673434984.247856;-43.010162353515625;13.209694862365723;-138.32632446289062
283;1673434984.4675407;47.1291188;7.238536799999999;51.55800247192383;1673434984.4519286;-44.27919387817383;13.580997467041016;-136.02650451660156
284;1673434984.6609457;47.129109799999995;7.2385242;51.93600082397461;1673434984.6453333;-38.91970443725586;14.090729713439941;-135.78269958496094
285;1673434984.8531642;47.129100099999995;7.2385101999999995;52.30600357055664;1673434984.8358738;-33.236114501953125;13.381560325622559;-135.9641876220703
286;1673434985.0624583;47.1290902;7.238495299999999;52.67400360107422;1673434985.0448737;-28.484952926635742;11.285276412963867;-136.18055725097656
287;1673434985.2665935;47.129080099999996;7.238480099999999;53.0420036315918;1673434985.2498658;-25.288782119750977;8.38123607635498;-136.0763702392578
288;1673434985.4779139;47.12907;7.238464899999999;53.41400146484375;1673434985.4642339;-22.388710021972656;6.296980857849121;-136.174560546875
289;1673434985.6791995;47.129059999999996;7.2384501;53.788002014160156;1673434985.661644;-20.301015853881836;5.157718658447266;-136.4995574951172
290;1673434985.9002595;47.129050299999996;7.2384359;54.163002014160156;1673434985.882655;-20.03311538696289;6.014827251434326;-137.14706420898438
291;1673434986.0883837;47.129040599999996;7.238422;54.544002532958984;1673434986.0708249;-20.21578025817871;8.38166618347168;-137.75396728515625
292;1673434986.2786705;47.129031;7.238408499999999;54.926002502441406;1673434986.263111;-21.242156982421875;9.781238555908203;-137.9592742919922
293;1673434986.469595;47.1290215;7.2383953;55.310001373291016;1673434986.4548945;-22.310428619384766;10.359030723571777;-137.97128295898438
294;1673434986.6564665;47.129011899999995;7.238382199999999;55.69700241088867;1673434986.6378589;-23.635574340820312;9.558553695678711;-137.84092712402344
295;1673434986.8541152;47.1290024;7.238369199999999;56.0880012512207;1673434986.8383434;-24.750751495361328;8.246881484985352;-137.55088806152344
296;1673434987.0710452;47.1289927;7.2383561;56.480003356933594;1673434987.0533218;-25.236492156982422;7.003709316253662;-137.0697784423828
297;1673434987.2826748;47.1289831;7.238342899999999;56.875003814697266;1673434987.266085;-25.580183029174805;6.83506965637207;-137.0078582763672
298;1673434987.4755015;47.1289734;7.238329599999999;57.27300262451172;1673434987.4608521;-25.52244758605957;7.239413738250732;-136.9651641845703
299;1673434987.6644895;47.1289636;7.238315999999999;57.672000885009766;1673434987.6497748;-25.17896842956543;8.603691101074219;-137.27862548828125
300;1673434987.9105864;47.1289538;7.2383023;58.06900405883789;1673434987.8963745;-24.8709774017334;9.707764625549316;-137.56915283203125
301;1673434988.1050885;47.128944;7.2382887;58.46200180053711;1673434988.0836022;-24.680316925048828;10.080644607543945;-137.65760803222656
302;1673434988.294474;47.128934099999995;7.238275;58.855003356933594;1673434988.2759;-24.502016067504883;10.185847282409668;-137.5360107421875
303;1673434988.4955606;47.1289242;7.238261499999999;59.24700164794922;1673434988.4789507;-24.564199447631836;9.770090103149414;-137.44497680664062
304;1673434988.7061453;47.1289143;7.238248;59.643001556396484;1673434988.6885827;-24.618968963623047;8.898550987243652;-137.1647491455078
305;1673434988.8999653;47.128904299999995;7.2382345;60.044002532958984;1673434988.8814006;-24.789291381835938;8.189197540283203;-136.959228515625
306;1673434989.1006138;47.1288943;7.238220999999999;60.4430046081543;1673434989.081412;-24.583791732788086;7.508286476135254;-136.85372924804688
307;1673434989.278933;47.1288844;7.2382075;60.84100341796875;1673434989.2641842;-24.81281280517578;7.382582664489746;-136.88037109375
308;1673434989.4689634;47.128874499999995;7.2381939;61.2390022277832;1673434989.4533653;-24.65108299255371;6.98685359954834;-136.76437377929688
309;1673434989.6680715;47.1288646;7.2381803;61.637001037597656;1673434989.6534157;-24.685653686523438;7.239691734313965;-136.90017700195312
310;1673434989.8609524;47.1288548;7.2381667;62.035003662109375;1673434989.8467002;-24.78294563293457;6.890850067138672;-136.84324645996094
311;1673434990.0823462;47.128845;7.2381531;62.432003021240234;1673434990.063752;-24.585826873779297;7.943001747131348;-136.98348999023438
312;1673434990.2841036;47.1288352;7.2381394;62.8280029296875;1673434990.2664292;-24.61906623840332;8.620941162109375;-137.16468811035156
313;1673434990.4746938;47.1288254;7.238125699999999;63.22600173950195;1673434990.4600556;-24.607452392578125;8.58371353149414;-137.17013549804688
314;1673434990.6842966;47.128815499999995;7.238112;63.62800216674805;1673434990.667555;-24.65391731262207;9.498825073242188;-137.3365936279297
315;1673434990.882771;47.1288057;7.2380983;64.0260009765625;1673434990.866129;-24.3577880859375;10.048161506652832;-137.40589904785156
316;1673434991.0725288;47.1287958;7.2380847;64.42100524902344;1673434991.0501015;-24.53925323486328;9.942070960998535;-137.4550018310547
317;1673434991.2827964;47.128785799999996;7.2380713;64.81800079345703;1673434991.2650754;-24.6243896484375;9.909963607788086;-137.30828857421875
318;1673434991.48002;47.1287758;7.238057899999999;65.21500396728516;1673434991.4642198;-24.618627548217773;9.844950675964355;-137.11422729492188
319;1673434991.6859977;47.1287658;7.2380445;65.61300659179688;1673434991.668316;-24.711402893066406;9.436756134033203;-136.9829559326172
320;1673434991.9415128;47.1287558;7.238030999999999;66.01300048828125;1673434991.9108214;-24.967510223388672;8.960976600646973;-136.74264526367188
321;1673434992.1151028;47.1287459;7.2380176;66.41000366210938;1673434992.1008968;-25.07012176513672;8.860407829284668;-136.7370147705078
322;1673434992.3157017;47.128735999999996;7.238004;66.80599975585938;1673434992.2995477;-25.106061935424805;8.482177734375;-136.66885375976562
323;1673434992.494518;47.128726199999996;7.2379904999999995;67.20100402832031;1673434992.4785552;-25.196802139282227;8.246758460998535;-136.5422821044922
324;1673434992.7058783;47.128716399999995;7.237976799999999;67.59700012207031;1673434992.689264;-25.16111183166504;7.83358097076416;-136.52696228027344
325;1673434992.9108896;47.1287066;7.237963199999999;67.99500274658203;1673434992.8933268;-25.110916137695312;7.535390377044678;-136.50125122070312
326;1673434993.0948215;47.1286968;7.2379495;68.39300537109375;1673434993.079207;-25.13812255859375;7.1485490798950195;-136.49896240234375
327;1673434993.290511;47.128687;7.2379359;68.78900146484375;1673434993.2698727;-25.071741104125977;6.862112045288086;-136.49163818359375
328;1673434993.4861958;47.1286771;7.2379222;69.18700408935547;1673434993.4723694;-25.2734375;6.966989994049072;-136.5406036376953
329;1673434993.6900308;47.1286673;7.2379086;69.58300018310547;1673434993.6753983;-25.332191467285156;7.119267463684082;-136.70040893554688
330;1673434993.9051058;47.128657399999994;7.237895;69.9800033569336;1673434993.8783143;-25.3474178314209;7.289308071136475;-136.7259063720703
331;1673434994.1404192;47.1286475;7.2378813;70.3800048828125;1673434994.1207528;-25.356685638427734;7.318024158477783;-136.6706085205078
332;1673434994.3120375;47.1286376;7.2378675999999995;70.77900695800781;1673434994.2983618;-25.395172119140625;7.704496383666992;-136.7225341796875
333;1673434994.497616;47.128627699999996;7.237853899999999;71.17400360107422;1673434994.4839556;-25.329954147338867;7.65121603012085;-136.703369140625
334;1673434994.6785142;47.1286178;7.2378402;71.56999969482422;1673434994.6629012;-25.35034942626953;7.581849575042725;-136.62258911132812
335;1673434994.8874838;47.1286079;7.2378265;71.96600341796875;1673434994.8731334;-25.250825881958008;7.797545909881592;-136.6447296142578
336;1673434995.1017444;47.128597899999995;7.2378127999999995;72.36100006103516;1673434995.0830505;-25.036190032958984;7.964107036590576;-136.69969177246094
337;1673434995.299627;47.1285879;7.237799099999999;72.75700378417969;1673434995.2830365;-25.202495574951172;8.30775260925293;-136.88343811035156
338;1673434995.4831808;47.128578;7.2377854;73.156005859375;1673434995.4664042;-25.10748863220215;8.320855140686035;-136.85044860839844
339;1673434995.701468;47.128568;7.2377717;73.55500030517578;1673434995.680969;-24.940771102905273;8.698203086853027;-137.0290985107422
340;1673434995.8994224;47.1285581;7.2377579999999995;73.95500183105469;1673434995.882831;-24.983985900878906;8.855842590332031;-137.032470703125
341;1673434996.1327982;47.128548099999996;7.237744299999999;74.35100555419922;1673434996.1161716;-25.017986297607422;8.934727668762207;-136.95401000976562
342;1673434996.3249664;47.1285382;7.2377306;74.74600219726562;1673434996.308816;-25.222965240478516;9.179731369018555;-137.0092010498047
343;1673434996.5231411;47.1285282;7.237717;75.14100646972656;1673434996.5094576;-25.433359146118164;9.032036781311035;-136.92019653320312
344;1673434996.7235546;47.128518299999996;7.2377034;75.54199981689453;1673434996.7073605;-25.732919692993164;9.265424728393555;-136.96788024902344
345;1673434996.922825;47.1285083;7.2376897;75.94300079345703;1673434996.9090047;-25.790367126464844;9.048401832580566;-136.90342712402344
346;1673434997.112487;47.1284983;7.2376759999999996;76.34000396728516;1673434997.0938332;-25.808330535888672;9.005805015563965;-136.87127685546875
347;1673434997.317196;47.1284883;7.237662299999999;76.73600006103516;1673434997.300595;-25.529176712036133;9.009102821350098;-136.87339782714844
348;1673434997.524233;47.1284783;7.2376485;77.13500213623047;1673434997.5105705;-25.261573791503906;8.989903450012207;-136.90721130371094
349;1673434997.7068837;47.128468399999996;7.2376347;77.5300064086914;1673434997.6920815;-25.25470733642578;8.825533866882324;-136.90365600585938
350;1673434997.9067433;47.1284585;7.2376209;77.927001953125;1673434997.890111;-25.26432991027832;8.639530181884766;-136.88931274414062
351;1673434998.1031106;47.1284485;7.2376071;78.32600402832031;1673434998.0883226;-25.287494659423828;8.645575523376465;-136.93780517578125
352;1673434998.302088;47.128438599999996;7.2375934;78.72400665283203;1673434998.287454;-25.21475601196289;8.66270923614502;-136.94036865234375
353;1673434998.512238;47.1284287;7.2375796999999995;79.125;1673434998.496505;-25.148738861083984;8.685754776000977;-136.9066162109375
354;1673434998.7470222;47.1284188;7.2375661;79.5250015258789;1673434998.7332895;-25.346454620361328;8.723012924194336;-136.9438018798828
355;1673434998.926758;47.1284089;7.237552399999999;79.92100524902344;1673434998.9100008;-25.273366928100586;8.601338386535645;-136.91693115234375
356;1673434999.1183867;47.128398999999995;7.237538799999999;80.31500244140625;1673434999.102779;-25.408899307250977;8.711161613464355;-136.92991638183594
357;1673434999.3183036;47.1283892;7.2375251;80.7090072631836;1673434999.3015492;-25.4027156829834;8.652578353881836;-136.9337615966797
358;1673434999.514795;47.1283792;7.2375115;81.10200500488281;1673434999.5001485;-25.281963348388672;8.694918632507324;-136.9237823486328
359;1673434999.707772;47.128369299999996;7.2374978;81.49700164794922;1673434999.6892314;-25.214900970458984;8.751049995422363;-136.93316650390625
360;1673434999.9047098;47.1283594;7.2374842;81.89600372314453;1673434999.8861718;-25.261632919311523;8.76811695098877;-136.91970825195312
361;1673435000.1008158;47.1283495;7.2374706;82.29800415039062;1673435000.0869992;-25.20556640625;8.988412857055664;-136.928955078125
362;1673435000.3065593;47.1283396;7.2374569;82.69800567626953;1673435000.2899706;-25.36005973815918;8.732845306396484;-136.90521240234375
363;1673435000.4940262;47.128329699999995;7.2374433;83.09600067138672;1673435000.4782934;-25.35063934326172;8.79198169708252;-136.93759155273438
364;1673435000.6920466;47.1283198;7.2374296;83.49400329589844;1673435000.6743424;-25.206729888916016;8.747220039367676;-136.9112091064453
365;1673435000.8985128;47.1283099;7.237415899999999;83.89100646972656;1673435000.8838758;-25.287492752075195;8.583294868469238;-136.9199676513672
366;1673435001.1089187;47.128299999999996;7.2374022;84.28500366210938;1673435001.0893986;-25.25769805908203;8.658454895019531;-136.93353271484375
367;1673435001.317657;47.128290199999995;7.2373886;84.68000030517578;1673435001.3028913;-25.36607551574707;8.65877914428711;-136.94854736328125
368;1673435001.5015254;47.1282803;7.2373750999999995;85.07400512695312;1673435001.487863;-25.41010093688965;8.68907356262207;-136.93826293945312
369;1673435001.69538;47.1282704;7.2373615;85.47000122070312;1673435001.6795456;-25.469558715820312;8.719582557678223;-136.9431610107422
370;1673435001.9046867;47.128260499999996;7.2373479;85.86200714111328;1673435001.8870761;-25.41866683959961;8.772407531738281;-136.93392944335938
371;1673435002.108031;47.1282506;7.237334199999999;86.25800323486328;1673435002.0912886;-25.404932022094727;8.779984474182129;-136.94677734375
372;1673435002.3034384;47.1282407;7.2373205;86.65300750732422;1673435002.2878191;-25.318403244018555;8.740723609924316;-136.92593383789062
373;1673435002.4949274;47.128230699999996;7.2373068;87.04900360107422;1673435002.4793403;-25.264677047729492;8.66811752319336;-136.9156494140625
374;1673435002.6906054;47.1282208;7.2372931;87.44800567626953;1673435002.6737607;-25.190481185913086;8.69176959991455;-136.94671630859375
375;1673435002.8942955;47.1282109;7.2372795;87.84700775146484;1673435002.8786802;-25.277698516845703;8.734692573547363;-136.9627685546875
376;1673435003.1311374;47.128201;7.2372659;88.24400329589844;1673435003.1095548;-25.227195739746094;8.562493324279785;-136.91651916503906
377;1673435003.3573115;47.128191099999995;7.2372521999999995;88.64200592041016;1673435003.3446221;-25.276283264160156;8.597328186035156;-136.94346618652344
378;1673435003.5535247;47.1281812;7.2372385999999995;89.03700256347656;1673435003.540826;-25.417278289794922;8.58252239227295;-136.94863891601562
379;1673435003.7176793;47.1281713;7.237225;89.4280014038086;1673435003.703977;-25.22189712524414;8.678123474121094;-136.9592742919922
380;1673435003.9042065;47.128161399999996;7.2372114;89.82100677490234;1673435003.883586;-25.317481994628906;8.715885162353516;-136.9681396484375
381;1673435004.1049898;47.1281515;7.2371978;90.21500396728516;1673435004.0913217;-25.309133529663086;8.621526718139648;-136.94619750976562
382;1673435004.3072515;47.1281416;7.2371842;90.60400390625;1673435004.292334;-25.51920509338379;8.656200408935547;-136.93951416015625
383;1673435004.5063229;47.128131599999996;7.2371706;90.99800109863281;1673435004.4887562;-25.41611671447754;8.727459907531738;-136.9355926513672
384;1673435004.6998956;47.1281216;7.237157;91.39100646972656;1673435004.6823263;-25.227319717407227;8.649194717407227;-136.9210968017578
385;1673435004.910257;47.1281117;7.2371433;91.78700256347656;1673435004.8936615;-25.22748565673828;8.599660873413086;-136.92420959472656
386;1673435005.1282742;47.128101799999996;7.2371297;92.18000793457031;1673435005.111657;-25.2756404876709;8.695100784301758;-136.95921325683594
387;1673435005.3216536;47.1280918;7.2371161;92.5770034790039;1673435005.3040657;-25.234586715698242;8.526371002197266;-136.9431610107422
388;1673435005.5289462;47.1280819;7.2371025;92.97400665283203;1673435005.5133138;-25.29250717163086;8.588067054748535;-136.93511962890625
389;1673435005.71914;47.128071999999996;7.2370889;93.37200164794922;1673435005.7025466;-25.20554542541504;8.521627426147461;-136.9518585205078
390;1673435005.928437;47.128062;7.237075399999999;93.77000427246094;1673435005.911835;-25.327085494995117;8.629877090454102;-136.94741821289062
391;1673435006.1527982;47.128052;7.2370619;94.16300201416016;1673435006.1281745;-25.21413230895996;8.689336776733398;-136.9285888671875
392;1673435006.3276782;47.128042099999995;7.2370484;94.55900573730469;1673435006.309991;-25.285219192504883;8.846285820007324;-136.93484497070312
393;1673435006.541093;47.1280321;7.237034899999999;94.9540023803711;1673435006.5284896;-25.43400001525879;8.671337127685547;-136.870849609375
394;1673435006.7412004;47.1280222;7.237021299999999;95.35100555419922;1673435006.727276;-25.52461814880371;8.734423637390137;-136.92462158203125
395;1673435006.9182038;47.128012299999995;7.2370078;95.74900817871094;1673435006.9052649;-25.446632385253906;8.63403606414795;-136.90122985839844
396;1673435007.0975924;47.1280023;7.2369942;96.14600372314453;1673435007.0819662;-25.152877807617188;8.86013412475586;-136.91490173339844
397;1673435007.2939868;47.127992299999995;7.236980699999999;96.54200744628906;1673435007.2754247;-25.245235443115234;8.795799255371094;-136.8843231201172
398;1673435007.4954517;47.1279823;7.236967099999999;96.93900299072266;1673435007.4781547;-25.18289566040039;8.885869979858398;-136.87159729003906
399;1673435007.679832;47.127972299999996;7.236953499999999;97.33500671386719;1673435007.664205;-25.120283126831055;8.887160301208496;-136.86328125
400;1673435007.8734012;47.1279624;7.236939899999999;97.73300170898438;1673435007.8576362;-25.099597930908203;8.986777305603027;-136.8813018798828
401;1673435008.098972;47.1279525;7.2369262999999995;98.13200378417969;1673435008.0775013;-25.28369140625;8.788507461547852;-136.8703155517578
402;1673435008.3065202;47.1279426;7.236912599999999;98.531005859375;1673435008.28895;-25.17783546447754;8.697226524353027;-136.8883056640625
403;1673435008.4983447;47.127932699999995;7.2368991;98.92900848388672;1673435008.4816399;-25.172937393188477;8.684372901916504;-136.89657592773438
404;1673435008.7182963;47.1279228;7.2368855;99.3270034790039;1673435008.699487;-25.207155227661133;8.743675231933594;-136.8968048095703
405;1673435008.9184704;47.1279128;7.236872;99.72400665283203;1673435008.9007568;-25.25248908996582;8.852204322814941;-136.8895721435547
406;1673435009.1406486;47.127902899999995;7.2368584;100.12300109863281;1673435009.1001866;-25.419925689697266;8.690533638000488;-136.85208129882812
407;1673435009.329729;47.127893099999994;7.2368448;100.52300262451172;1673435009.313132;-25.40164566040039;8.714735984802246;-136.8603057861328
408;1673435009.5208046;47.1278832;7.236831199999999;100.9260025024414;1673435009.5070405;-25.411399841308594;8.70046329498291;-136.8707275390625
409;1673435009.7269528;47.127873199999996;7.2368175;101.32300567626953;1673435009.7084103;-25.177148818969727;8.688331604003906;-136.86688232421875
410;1673435009.919445;47.1278632;7.2368039;101.72200775146484;1673435009.9046543;-25.132272720336914;8.666275024414062;-136.85122680664062
411;1673435010.1549506;47.1278533;7.2367903;102.11700439453125;1673435010.1291857;-25.244443893432617;8.758511543273926;-136.85643005371094
412;1673435010.3369145;47.127843399999996;7.2367767;102.51300811767578;1673435010.322265;-25.198440551757812;8.848280906677246;-136.86590576171875
413;1673435010.5503051;47.1278334;7.2367631;102.91300201416016;1673435010.5325084;-25.23692512512207;8.723824501037598;-136.8286590576172
414;1673435010.7315207;47.1278236;7.2367494;103.31300354003906;1673435010.7158966;-25.22014808654785;8.628775596618652;-136.81068420410156
415;1673435010.9063911;47.1278137;7.2367358;103.71200561523438;1673435010.8924828;-25.302438735961914;8.618885040283203;-136.86468505859375
416;1673435011.103272;47.127803799999995;7.2367222;104.11300659179688;1673435011.084742;-25.2868709564209;8.698590278625488;-136.8567657470703
417;1673435011.2979558;47.1277938;7.2367086;104.51500701904297;1673435011.281217;-25.320974349975586;8.741894721984863;-136.85540771484375
418;1673435011.5007598;47.1277839;7.236695;104.91500854492188;1673435011.4840817;-25.254030227661133;8.720077514648438;-136.84414672851562
