;pos_time;latitude;longitude;altitude;alt_time;pitch;roll;yaw
0;1673432176.2288;47.1306425;7.240619499999999;0.003000000026077032;1673432176.327435;-0.04483288154006004;-1.323253870010376;90.54572296142578
1;1673432176.4227421;47.1306425;7.240619499999999;0.003000000026077032;1673432176.524573;-0.11297651380300522;-1.2315616607666016;90.47309875488281
2;1673432176.624158;47.1306425;7.2406196;0.003000000026077032;1673432176.7251554;-0.026916760951280594;-1.0990294218063354;90.47181701660156
3;1673432176.8283093;47.1306425;7.2406196;0.0;1673432176.9309294;-0.19951504468917847;0.3216302990913391;90.42068481445312
4;1673432177.0341895;47.1306425;7.2406196;-0.003000000026077032;1673432177.1404712;-0.16518622636795044;0.029360990971326828;90.41462707519531
5;1673432177.2387526;47.1306425;7.2406196;-0.006000000052154064;1673432177.337542;-0.01104677002876997;0.13111215829849243;90.3707504272461
6;1673432177.4196556;47.1306425;7.240619499999999;-0.010000000707805157;1673432177.5246875;0.19951653480529785;0.06151443347334862;90.53404998779297
7;1673432177.634759;47.1306424;7.2406194;-0.01600000075995922;1673432177.7408495;0.23452475666999817;0.15655289590358734;90.31500244140625
8;1673432177.8244228;47.1306424;7.2406194;-0.01900000125169754;1673432177.929393;-0.035753145813941956;-0.08133623749017715;90.55451202392578
9;1673432178.0217092;47.1306424;7.2406193;-0.0010000000474974513;1673432178.1191654;-0.2775076627731323;-1.4803904294967651;90.48834991455078
10;1673432178.225054;47.1306423;7.2406193;-0.0010000000474974513;1673432178.3262417;-0.29846838116645813;-0.681627631187439;90.43026733398438
11;1673432178.4264996;47.1306423;7.2406193;-0.0010000000474974513;1673432178.532099;-0.03807547688484192;-1.0418850183486938;90.48283386230469
12;1673432178.6297565;47.1306423;7.2406194;-0.005000000353902578;1673432178.7309518;0.06500367075204849;-0.7776606678962708;90.31172943115234
13;1673432178.8321834;47.1306424;7.2406194;-0.007000000216066837;1673432178.9383028;0.06123577803373337;-0.7681187987327576;90.27718353271484
14;1673432179.0365078;47.1306424;7.2406194;-0.007000000216066837;1673432179.1441078;-0.05365818366408348;-1.7007766962051392;90.58197784423828
15;1673432179.2482486;47.1306424;7.240619499999999;-0.010000000707805157;1673432179.3502889;-0.2950662076473236;-1.353358507156372;90.39942932128906
16;1673432179.431843;47.1306424;7.2406196;-0.014000000432133675;1673432179.5368202;-0.34553536772727966;-1.2748956680297852;90.35874938964844
17;1673432179.645867;47.1306424;7.2406197;0.0;1673432179.7480426;-0.09614664316177368;-1.3458174467086792;90.26214599609375
18;1673432179.839912;47.1306424;7.240619799999999;0.003000000026077032;1673432179.9347596;0.11513128876686096;-1.2029123306274414;90.54194641113281
19;1673432180.0395684;47.1306424;7.2406198999999996;0.0;1673432180.142202;-0.10815973579883575;-1.0607516765594482;90.2275619506836
20;1673432180.2433772;47.1306424;7.2406198999999996;0.0020000000949949026;1673432180.3475955;0.11147342622280121;-0.5241183638572693;90.47378540039062
21;1673432180.4390686;47.1306425;7.2406198999999996;0.0020000000949949026;1673432180.5334725;0.02708861045539379;-0.7376776337623596;90.19526672363281
22;1673432180.6245432;47.1306425;7.2406198999999996;-0.0010000000474974513;1673432180.7346745;0.07454939931631088;-0.5951189994812012;90.0108871459961
23;1673432180.8374145;47.130642599999995;7.2406198999999996;-0.003000000026077032;1673432180.9406202;0.08646635711193085;-0.6115520000457764;87.11590576171875
24;1673432181.0363436;47.130642699999996;7.24062;0.0010000000474974513;1673432181.1304448;-0.02013731747865677;0.20288428664207458;84.87969970703125
25;1673432181.2377431;47.1306431;7.24062;0.00800000037997961;1673432181.331008;0.5436608791351318;0.83702552318573;83.11514282226562
26;1673432181.4255872;47.1306437;7.2406198999999996;0.0010000000474974513;1673432181.5300927;1.0361926555633545;4.719400405883789;78.69905090332031
27;1673432181.6281772;47.1306446;7.240619799999999;0.004000000189989805;1673432181.7433136;3.0891506671905518;8.684065818786621;77.10877990722656
28;1673432181.8447852;47.1306456;7.2406197;0.01100000087171793;1673432181.945206;5.844945907592773;12.477972030639648;77.67679595947266
29;1673432182.0377607;47.1306467;7.2406197;0.01900000125169754;1673432182.147562;6.4242682456970215;16.033052444458008;80.5152816772461
30;1673432182.2511516;47.130648;7.2406197;0.039000000804662704;1673432182.3627684;5.128787040710449;17.974172592163086;83.10246276855469
31;1673432182.4632194;47.1306492;7.240619799999999;0.07000000029802322;1673432182.5617676;4.526216983795166;19.64393424987793;85.14008331298828
32;1673432182.6628225;47.1306502;7.2406198999999996;0.11300000548362732;1673432182.7750692;4.252191543579102;21.17388916015625;86.70561981201172
33;1673432182.861981;47.130651;7.24062;0.17000000178813934;1673432182.9565701;4.146114349365234;22.956724166870117;87.9720230102539
34;1673432183.0564687;47.1306514;7.2406201999999995;0.23900000751018524;1673432183.1587963;4.288459300994873;24.78941535949707;88.96865844726562
35;1673432183.2598124;47.1306516;7.2406204;0.3160000145435333;1673432183.3634262;4.569018840789795;26.685474395751953;89.75260925292969
36;1673432183.461296;47.130651199999996;7.2406206;0.4050000309944153;1673432183.5578368;4.991933345794678;28.374713897705078;90.37870025634766
37;1673432183.6513972;47.1306504;7.2406206;0.503000020980835;1673432183.750229;5.045426845550537;26.737857818603516;90.80585479736328
38;1673432183.856957;47.130649;7.2406206;0.6080000400543213;1673432183.9530237;4.74550724029541;23.97492027282715;91.06867980957031
39;1673432184.064784;47.1306474;7.2406204999999995;0.718000054359436;1673432184.1583793;4.415512561798096;21.458852767944336;91.2361068725586
40;1673432184.2661924;47.130645799999996;7.2406204;0.8400000333786011;1673432184.3629003;4.116822719573975;19.21992301940918;91.344482421875
41;1673432184.4416583;47.1306442;7.2406201;0.9720000624656677;1673432184.5359714;3.7135121822357178;15.341920852661133;91.41302490234375
42;1673432184.628426;47.1306429;7.2406198999999996;1.1130000352859497;1673432184.7244694;3.5614535808563232;12.467012405395508;91.1031723022461
43;1673432184.841013;47.130641999999995;7.2406196;1.2730000019073486;1673432184.9510417;3.0685322284698486;14.758605003356934;90.59833526611328
44;1673432185.0542545;47.130641399999995;7.2406193;1.4570000171661377;1673432185.1582103;3.0292351245880127;13.161192893981934;90.33919525146484
45;1673432185.2564898;47.1306413;7.240619199999999;1.6500000953674316;1673432185.357732;2.635035753250122;13.876781463623047;91.2374267578125
46;1673432185.4567347;47.130641499999996;7.2406191;1.8480000495910645;1673432185.5659678;3.1671652793884277;18.615623474121094;90.79960632324219
47;1673432185.6612766;47.1306417;7.240619;2.0440001487731934;1673432185.75817;3.211127281188965;17.793212890625;90.46294403076172
48;1673432185.8457904;47.130641999999995;7.2406191;2.236999988555908;1673432185.9400437;3.6112732887268066;16.949607849121094;90.2867431640625
49;1673432186.0327373;47.1306423;7.2406191;2.4280002117156982;1673432186.1404402;3.7735602855682373;20.598289489746094;90.212158203125
50;1673432186.242831;47.130642599999995;7.2406191;2.626000165939331;1673432186.3471048;3.6967906951904297;21.464468002319336;90.18617248535156
51;1673432186.4291914;47.1306428;7.2406191;2.827000141143799;1673432186.5260873;3.6252281665802;18.479652404785156;90.27725219726562
52;1673432186.628431;47.1306429;7.2406191;3.0300002098083496;1673432186.7205696;3.5541393756866455;20.133817672729492;90.27069854736328
53;1673432186.834464;47.1306429;7.2406191;3.2310001850128174;1673432186.935613;3.67470645904541;21.399919509887695;90.14032745361328
54;1673432187.036034;47.1306428;7.2406191;3.427000045776367;1673432187.1344576;3.6784229278564453;17.69582176208496;90.15711212158203
55;1673432187.244293;47.130642699999996;7.240619199999999;3.620000123977661;1673432187.3564181;3.8203001022338867;17.403888702392578;90.1060562133789
56;1673432187.4610496;47.1306425;7.240619199999999;3.81600022315979;1673432187.5464141;4.02789831161499;20.019210815429688;89.99878692626953
57;1673432187.642991;47.1306424;7.2406193;4.016000270843506;1673432187.7448168;3.744138240814209;17.914085388183594;90.32344055175781
58;1673432187.8471434;47.1306425;7.2406193;4.220000267028809;1673432187.9578898;3.6788089275360107;16.666044235229492;90.14232635498047
59;1673432188.066974;47.1306425;7.2406193;4.420000076293945;1673432188.1697378;3.7743473052978516;19.98432731628418;90.16081237792969
60;1673432188.3012054;47.1306425;7.2406193;4.619000434875488;1673432188.3974035;3.769282341003418;18.587997436523438;90.10195922851562
61;1673432188.485931;47.1306425;7.2406193;4.817000389099121;1673432188.5931025;3.551805257797241;16.76342010498047;90.17520141601562
62;1673432188.6777139;47.1306424;7.2406193;5.014000415802002;1673432188.7757027;3.6924853324890137;19.05243682861328;90.35107421875
63;1673432188.8630211;47.1306425;7.2406193;5.219000339508057;1673432188.9576137;3.6194851398468018;20.145748138427734;90.26382446289062
64;1673432189.072871;47.130642599999995;7.2406193;5.427000045776367;1673432189.1778543;3.6186776161193848;16.988378524780273;90.25504302978516
65;1673432189.2866082;47.130642699999996;7.2406193;5.630000114440918;1673432189.377734;3.568606376647949;19.4429988861084;90.22158813476562
66;1673432189.4871092;47.1306428;7.2406193;5.833000183105469;1673432189.5805633;3.6228816509246826;20.766984939575195;90.12552642822266
67;1673432189.7264063;47.1306428;7.2406193;6.0360002517700195;1673432189.8159866;3.4285552501678467;17.948360443115234;90.29971313476562
68;1673432189.8958;47.1306428;7.2406193;6.235000133514404;1673432189.9892771;3.725958824157715;18.389841079711914;90.27547454833984
69;1673432190.0779276;47.130642699999996;7.2406193;6.433000087738037;1673432190.174634;3.675534725189209;20.910476684570312;90.18907928466797
70;1673432190.2710218;47.130642699999996;7.2406193;6.629000186920166;1673432190.3738382;3.7172460556030273;18.08514976501465;90.3131103515625
71;1673432190.4603374;47.1306428;7.2406193;6.826000213623047;1673432190.5566332;3.6261866092681885;17.598764419555664;90.13716125488281
72;1673432190.6483152;47.1306428;7.2406194;7.021000385284424;1673432190.7468984;3.7060468196868896;21.259302139282227;90.20464324951172
73;1673432190.8441536;47.130642699999996;7.2406194;7.216000556945801;1673432190.9444134;3.695284128189087;18.4569091796875;90.23794555664062
74;1673432191.0549588;47.130642699999996;7.2406193;7.4120001792907715;1673432191.1539803;3.4328877925872803;17.29902458190918;90.19451141357422
75;1673432191.2511544;47.1306425;7.2406193;7.6080002784729;1673432191.355481;3.606484889984131;19.480113983154297;90.19312286376953
76;1673432191.4731135;47.1306425;7.2406193;7.807000160217285;1673432191.5736675;3.7885613441467285;19.4320011138916;90.12316131591797
77;1673432191.6722841;47.130642599999995;7.2406193;8.010000228881836;1673432191.797527;3.52996826171875;17.141286849975586;90.28660583496094
78;1673432191.9160297;47.130642699999996;7.2406194;8.210000038146973;1673432192.007494;3.7711730003356934;18.80261993408203;90.09632110595703
79;1673432192.1213667;47.130642699999996;7.2406194;8.409000396728516;1673432192.2308254;3.780269145965576;20.69110107421875;90.16429138183594
80;1673432192.3123507;47.130642699999996;7.240619499999999;8.604000091552734;1673432192.4167383;3.6878232955932617;17.445486068725586;90.26941680908203
81;1673432192.501112;47.130642699999996;7.240619499999999;8.79900074005127;1673432192.5975223;3.594651460647583;18.22963523864746;90.23401641845703
82;1673432192.6906857;47.130642599999995;7.240619499999999;8.991000175476074;1673432192.7863407;3.728778123855591;20.855628967285156;90.18858337402344
83;1673432192.8826122;47.130642599999995;7.240619499999999;9.188000679016113;1673432192.9693868;3.7886946201324463;18.204397201538086;90.17961883544922
84;1673432193.0591943;47.130642699999996;7.240619499999999;9.384000778198242;1673432193.1558135;3.697782278060913;17.249950408935547;90.12315368652344
85;1673432193.2506912;47.130642699999996;7.240619499999999;9.580000877380371;1673432193.350843;3.5896706581115723;20.955942153930664;90.13228607177734
86;1673432193.4790573;47.130642699999996;7.240619499999999;9.779000282287598;1673432193.5746064;3.654172420501709;18.72174072265625;90.12495422363281
87;1673432193.6710055;47.130642699999996;7.240619499999999;9.97700023651123;1673432193.7739496;3.4972214698791504;17.362899780273438;90.41361236572266
88;1673432193.8717327;47.130642599999995;7.240619499999999;10.178000450134277;1673432193.9676497;3.550781011581421;18.449508666992188;90.34722137451172
89;1673432194.0558028;47.1306425;7.240619499999999;10.47700023651123;1673432194.15659;4.006779193878174;21.657180786132812;90.3965072631836
90;1673432194.2505145;47.1306423;7.2406194;10.857000350952148;1673432194.3484108;3.863874912261963;18.971567153930664;90.3385009765625
91;1673432194.4518006;47.130641999999995;7.2406194;11.246000289916992;1673432194.5652914;3.761213779449463;18.23486328125;90.27456665039062
92;1673432194.6705992;47.1306416;7.2406193;11.63900089263916;1673432194.7701707;3.685474157333374;19.60050392150879;90.18059539794922
93;1673432194.8622615;47.1306413;7.2406193;12.039000511169434;1673432194.958232;3.3057339191436768;15.921477317810059;90.29240417480469
94;1673432195.0627844;47.130641;7.240619199999999;12.439000129699707;1673432195.1662152;3.223654270172119;15.344657897949219;90.2701416015625
95;1673432195.2688434;47.130640799999995;7.2406191;12.839000701904297;1673432195.3724377;3.3028414249420166;17.825368881225586;90.16437530517578
96;1673432195.469819;47.130640799999995;7.240619;13.238000869750977;1673432195.5752974;3.246518611907959;16.427427291870117;90.10015869140625
97;1673432195.6790638;47.130640899999996;7.240619;13.631000518798828;1673432195.791687;3.3124043941497803;15.538066864013672;90.12405395507812
98;1673432195.888358;47.1306411;7.240619;14.019001007080078;1673432195.9885828;3.312723159790039;19.370468139648438;90.12796783447266
99;1673432196.083298;47.130641399999995;7.240619;14.406001091003418;1673432196.1846626;3.4677083492279053;18.136505126953125;90.16212463378906
100;1673432196.2686286;47.1306416;7.240619;14.789000511169434;1673432196.3666098;3.327418088912964;17.1335506439209;90.22725677490234
101;1673432196.4594417;47.1306417;7.2406191;15.168001174926758;1673432196.5590549;3.475874423980713;19.38188934326172;90.29463195800781
102;1673432196.6570284;47.1306418;7.2406191;15.552000999450684;1673432196.7627752;3.376633644104004;19.713790893554688;90.29279327392578
103;1673432196.8645566;47.130641999999995;7.2406191;15.938000679016113;1673432196.9588642;3.481083869934082;17.780309677124023;90.34928131103516
104;1673432197.0639484;47.130642099999996;7.2406191;16.329999923706055;1673432197.1729355;3.628343105316162;18.95073699951172;90.24536895751953
105;1673432197.271483;47.130642099999996;7.2406191;16.72300148010254;1673432197.3747618;3.512284517288208;20.58038902282715;90.18148803710938
106;1673432197.4686863;47.130642099999996;7.2406191;17.117000579833984;1673432197.5728073;3.477938413619995;17.799942016601562;90.23169708251953
107;1673432197.6724787;47.130641999999995;7.240619199999999;17.506000518798828;1673432197.7842975;3.4373066425323486;16.676788330078125;90.18159484863281
108;1673432197.8937027;47.1306419;7.240619199999999;17.893001556396484;1673432197.996467;3.5739004611968994;18.965890884399414;90.06547546386719
109;1673432198.0929012;47.1306418;7.240619199999999;18.286001205444336;1673432198.1924992;3.410322904586792;18.374805450439453;90.22209167480469
110;1673432198.2741976;47.1306419;7.240619199999999;18.681001663208008;1673432198.3647437;3.492123603820801;16.0653018951416;90.27825927734375
111;1673432198.456325;47.1306419;7.240619199999999;19.077001571655273;1673432198.578457;3.6038265228271484;18.95903968811035;90.15699005126953
112;1673432198.6745832;47.1306419;7.240619199999999;19.47300148010254;1673432198.7749476;3.6937568187713623;19.030397415161133;90.24939727783203
113;1673432198.8749764;47.130641999999995;7.2406193;19.860000610351562;1673432198.9735742;3.3953921794891357;16.36562156677246;90.26089477539062
114;1673432199.0570228;47.130641999999995;7.2406193;20.249000549316406;1673432199.1611946;3.5999059677124023;18.3703670501709;90.19520568847656
115;1673432199.2720017;47.130641999999995;7.2406193;20.641000747680664;1673432199.393388;3.488905668258667;19.467275619506836;90.20508575439453
116;1673432199.4914012;47.130642099999996;7.240619199999999;21.038000106811523;1673432199.6172838;3.519928216934204;17.377674102783203;90.23111724853516
117;1673432199.7124844;47.1306423;7.240619199999999;21.431001663208008;1673432199.8217406;3.4763004779815674;18.445117950439453;90.20362854003906
118;1673432199.9060795;47.1306424;7.240619199999999;21.825000762939453;1673432200.00089;3.7304062843322754;20.58496856689453;90.22413635253906
119;1673432200.0935402;47.1306424;7.240619199999999;22.220001220703125;1673432200.190319;3.4765632152557373;18.077301025390625;90.27083587646484
120;1673432200.290613;47.1306424;7.240619199999999;22.61100196838379;1673432200.395018;3.563814163208008;16.9821720123291;90.23111724853516
121;1673432200.488899;47.1306423;7.240619199999999;23.00200080871582;1673432200.5882962;3.5952610969543457;19.326644897460938;90.02027130126953
122;1673432200.6845853;47.1306422;7.240619199999999;23.4010009765625;1673432200.7853243;3.424470901489258;19.032085418701172;90.26451110839844
123;1673432200.8835425;47.1306423;7.2406191;23.809001922607422;1673432200.9822059;3.414517879486084;16.37778663635254;90.3030014038086
124;1673432201.0696177;47.1306423;7.2406191;24.214000701904297;1673432201.16538;3.204340696334839;19.090261459350586;90.16736602783203
125;1673432201.2535725;47.1306423;7.240619;24.61600112915039;1673432201.354814;3.35701847076416;19.458723068237305;90.20417785644531
126;1673432201.45764;47.1306423;7.240619;25.01000213623047;1673432201.5723374;3.322511911392212;16.551239013671875;90.31754302978516
127;1673432201.6729782;47.1306423;7.240619;25.405000686645508;1673432201.774281;3.466317653656006;18.30877685546875;90.24815368652344
128;1673432201.869578;47.1306423;7.240619;25.803001403808594;1673432201.9751031;3.351775884628296;19.630277633666992;90.1395034790039
129;1673432202.0766404;47.1306424;7.240619;26.2080020904541;1673432202.1804762;3.2899577617645264;18.10576820373535;90.21227264404297
130;1673432202.2817583;47.130642599999995;7.240618899999999;26.612001419067383;1673432202.3778148;3.369206666946411;18.373889923095703;90.2159423828125
131;1673432202.4659173;47.130642599999995;7.240618899999999;27.012001037597656;1673432202.5666077;3.456455707550049;20.522563934326172;90.23558044433594
132;1673432202.6647413;47.130642599999995;7.240618899999999;27.406002044677734;1673432202.7626383;3.3340811729431152;17.98397445678711;90.3026123046875
133;1673432202.8608046;47.1306425;7.240619;27.79400062561035;1673432202.970411;3.470548152923584;17.38056182861328;90.19244384765625
134;1673432203.0716834;47.1306425;7.240619;28.181001663208008;1673432203.1799943;3.4539237022399902;19.549152374267578;90.06456756591797
135;1673432203.2714102;47.1306424;7.240619;28.57900047302246;1673432203.3657289;3.436965227127075;19.122102737426758;90.25070190429688
136;1673432203.4599714;47.1306425;7.240619;28.977001190185547;1673432203.5677016;3.252476692199707;16.53755760192871;90.2871322631836
137;1673432203.6746447;47.1306425;7.240619;29.37200164794922;1673432203.7863889;3.6120314598083496;19.562166213989258;90.21610260009766
138;1673432203.8820033;47.1306424;7.2406191;29.766000747680664;1673432203.987707;3.6697399616241455;19.105998992919922;90.09886169433594
139;1673432204.0834532;47.1306424;7.2406191;30.154001235961914;1673432204.1851692;3.490917921066284;16.57415199279785;90.23190307617188
140;1673432204.2735686;47.1306423;7.2406191;30.545001983642578;1673432204.379028;3.5945920944213867;18.517345428466797;90.28701782226562
141;1673432204.480439;47.1306423;7.2406191;30.939001083374023;1673432204.5825791;3.396512508392334;19.83861541748047;90.19656372070312
142;1673432204.679995;47.1306424;7.2406191;31.33700180053711;1673432204.7829561;3.4869699478149414;17.32210350036621;90.21096801757812
143;1673432204.876267;47.1306425;7.2406191;31.737001419067383;1673432204.9804165;3.224353790283203;18.23757553100586;90.21517181396484
144;1673432205.077844;47.1306425;7.2406191;32.13500213623047;1673432205.1836164;3.3587186336517334;20.458114624023438;90.20061492919922
145;1673432205.2987573;47.1306425;7.2406191;32.534000396728516;1673432205.39081;3.285555362701416;18.027734756469727;90.24799346923828
146;1673432205.5122004;47.1306425;7.2406191;32.92500305175781;1673432205.6013236;3.4265058040618896;17.39725685119629;90.27550506591797
147;1673432205.6836197;47.1306424;7.2406191;33.31800079345703;1673432205.7787905;3.537550210952759;19.75598907470703;90.15193939208984
148;1673432205.8708255;47.1306424;7.2406191;33.71500015258789;1673432205.9696584;3.3520872592926025;18.83171272277832;90.28453826904297
149;1673432206.0599208;47.1306424;7.240619199999999;34.11600112915039;1673432206.158769;3.274113178253174;16.728294372558594;90.23519897460938
150;1673432206.2529275;47.1306425;7.240619199999999;34.513999938964844;1673432206.3549438;3.427626371383667;19.381589889526367;90.20301055908203
151;1673432206.4570773;47.1306425;7.240619199999999;34.90999984741211;1673432206.559808;3.5641281604766846;19.18590545654297;90.1065902709961
152;1673432206.6635532;47.1306425;7.240619199999999;35.302001953125;1673432206.7757795;3.3889565467834473;16.94487190246582;90.2808837890625
153;1673432206.863743;47.1306425;7.240619199999999;35.69900131225586;1673432206.9699786;3.4549384117126465;18.512144088745117;90.22227478027344
154;1673432207.0729454;47.1306424;7.240619199999999;36.10200119018555;1673432207.1662438;3.372645378112793;19.792129516601562;90.1720199584961
155;1673432207.267531;47.1306425;7.240619199999999;36.51000213623047;1673432207.3795662;3.3116557598114014;17.369659423828125;90.25114440917969
156;1673432207.4841266;47.130642599999995;7.240619199999999;36.91800308227539;1673432207.5834084;3.37416672706604;17.932035446166992;90.25211334228516
157;1673432207.6981573;47.130642699999996;7.2406193;37.32200241088867;1673432207.7952404;3.3709352016448975;20.82015609741211;90.20115661621094
158;1673432207.902949;47.130642699999996;7.2406193;37.72200012207031;1673432207.994284;3.491931915283203;18.20111656188965;90.10646057128906
159;1673432208.1254592;47.130642599999995;7.2406194;38.112003326416016;1673432208.2266057;3.41489577293396;17.497583389282227;90.17827606201172
160;1673432208.321657;47.130642599999995;7.2406194;38.50400161743164;1673432208.4071379;3.6546785831451416;19.939035415649414;90.23094177246094
161;1673432208.5218709;47.130642599999995;7.2406194;38.90300369262695;1673432208.6241636;3.466784715652466;19.100906372070312;90.29508209228516
162;1673432208.711387;47.130642599999995;7.2406194;39.303001403808594;1673432208.800484;3.3473658561706543;16.828378677368164;90.25579833984375
163;1673432208.8787503;47.130642699999996;7.2406194;39.702003479003906;1673432208.9885368;3.528862953186035;19.646778106689453;90.13427734375
164;1673432209.0858645;47.130642699999996;7.2406194;40.10300064086914;1673432209.1972976;3.465226173400879;19.59178924560547;90.0967025756836
165;1673432209.2943966;47.130642599999995;7.2406194;40.49700164794922;1673432209.394429;3.4622461795806885;16.834503173828125;90.31607818603516
166;1673432209.4906542;47.130642599999995;7.2406194;40.89500045776367;1673432209.6012905;3.5586748123168945;18.688365936279297;90.25067138671875
167;1673432209.7050698;47.1306425;7.2406194;41.29500198364258;1673432209.8102167;3.606947660446167;19.81333351135254;90.24998474121094
168;1673432209.9047039;47.130642599999995;7.2406194;41.7030029296875;1673432210.004445;3.598210573196411;17.421207427978516;90.22476196289062
169;1673432210.119475;47.130642599999995;7.2406194;42.10900115966797;1673432210.2055817;3.3802695274353027;17.93260955810547;90.12088012695312
170;1673432210.3076305;47.130642699999996;7.2406193;42.51300048828125;1673432210.4017053;3.3545594215393066;20.46636962890625;90.14470672607422
171;1673432210.4990077;47.130642599999995;7.2406193;42.915000915527344;1673432210.6057646;3.2639482021331787;17.844449996948242;90.15792846679688
172;1673432210.7164223;47.130642599999995;7.240619199999999;43.310001373291016;1673432210.8245215;3.347484588623047;17.383180618286133;90.18317413330078
173;1673432210.9076562;47.1306425;7.240619199999999;43.711002349853516;1673432210.9976165;3.3244974613189697;19.690340042114258;90.20878601074219
174;1673432211.0807734;47.1306425;7.240619199999999;44.12000274658203;1673432211.1823242;3.4299662113189697;18.637863159179688;90.2677001953125
175;1673432211.286753;47.130642599999995;7.240619199999999;44.52800369262695;1673432211.386886;3.349414348602295;16.898656845092773;90.33287048339844
176;1673432211.4824462;47.130642699999996;7.240619199999999;44.932003021240234;1673432211.5886185;3.4491658210754395;19.529052734375;90.25567626953125
177;1673432211.6799626;47.130642699999996;7.240619199999999;45.332000732421875;1673432211.779081;3.2717418670654297;19.536624908447266;90.18633270263672
178;1673432211.86598;47.130642699999996;7.240619199999999;45.724002838134766;1673432211.973684;3.2189643383026123;17.295276641845703;90.31598663330078
179;1673432212.081552;47.130642599999995;7.240619199999999;46.11900329589844;1673432212.185817;3.3722152709960938;18.328824996948242;90.27234649658203
180;1673432212.2887678;47.130642599999995;7.240619199999999;46.52000045776367;1673432212.3917599;3.4768595695495605;19.863391876220703;90.20999908447266
181;1673432212.5045767;47.130642599999995;7.2406191;46.92500305175781;1673432212.6315172;3.3021724224090576;17.263031005859375;90.15669250488281
182;1673432212.7235916;47.130642699999996;7.2406191;47.332000732421875;1673432212.88478;3.3259034156799316;18.087329864501953;90.21533203125
183;1673432212.9633152;47.1306428;7.2406191;47.73500061035156;1673432213.0476353;3.3101463317871094;20.79810333251953;90.21932983398438
184;1673432213.1260319;47.1306428;7.2406191;48.130001068115234;1673432213.207461;3.1610770225524902;18.54409408569336;90.27896881103516
185;1673432213.2994359;47.1306428;7.2406191;48.470001220703125;1673432213.428813;3.1944358348846436;18.05108642578125;90.29267120361328
186;1673432213.5159023;47.1306428;7.2406191;48.7660026550293;1673432213.6545238;3.316819429397583;20.377031326293945;90.23696899414062
187;1673432213.743364;47.130643;7.240619199999999;49.01700210571289;1673432213.8307133;3.3862764835357666;18.097938537597656;90.18753051757812
188;1673432213.9280005;47.130643199999994;7.2406193;49.22900390625;1673432214.0371175;3.4126060009002686;17.74144744873047;90.0718002319336
189;1673432214.132449;47.1306435;7.2406193;49.40800094604492;1673432214.236254;15.89460277557373;31.99566078186035;96.47976684570312
190;1673432214.3324583;47.1306434;7.2406188;49.57200241088867;1673432214.4298594;22.23906135559082;46.686614990234375;108.42899322509766
191;1673432214.519978;47.1306422;7.2406160999999996;49.71000289916992;1673432214.6348972;19.790691375732422;56.93094253540039;118.69622039794922
192;1673432214.7245057;47.1306394;7.2406104;49.82100296020508;1673432214.8253388;5.9742231369018555;59.04338836669922;127.05168914794922
193;1673432214.9153354;47.1306349;7.240601799999999;49.88300323486328;1673432215.0202477;-10.268052101135254;53.288970947265625;136.53562927246094
194;1673432215.1627777;47.1306291;7.240590699999999;49.919002532958984;1673432215.2514317;-22.793689727783203;50.782413482666016;146.26036071777344
195;1673432215.3420913;47.130621999999995;7.2405778;49.948001861572266;1673432215.4334881;-35.928260803222656;43.50046920776367;159.01251220703125
196;1673432215.519312;47.1306138;7.240563099999999;49.96600341796875;1673432215.6180818;-48.53029251098633;41.16471862792969;171.39828491210938
197;1673432215.709428;47.1306046;7.2405466999999994;49.9640007019043;1673432215.814339;-50.9609260559082;30.217472076416016;-176.56301879882812
198;1673432215.9116375;47.1305944;7.2405288;49.922000885009766;1673432216.037192;-46.706626892089844;22.506149291992188;-170.2490997314453
199;1673432216.2022634;47.1305838;7.240509899999999;49.86100387573242;1673432216.280537;-46.94715881347656;16.749940872192383;-163.85316467285156
200;1673432216.407025;47.130572799999996;7.240490299999999;49.80400085449219;1673432216.4850712;-46.16811752319336;11.736207962036133;-156.79690551757812
201;1673432216.5694447;47.1305616;7.2404703999999995;49.7660026550293;1673432216.6626618;-45.7182731628418;7.070949077606201;-149.3713836669922
202;1673432216.750944;47.1305504;7.2404500999999994;49.743003845214844;1673432216.8541481;-48.145503997802734;2.4152727127075195;-142.90499877929688
203;1673432216.964738;47.1305392;7.240429499999999;49.72500228881836;1673432217.0528035;-48.4652214050293;-3.6088271141052246;-136.0325927734375
204;1673432217.146176;47.1305279;7.240408899999999;49.71200180053711;1673432217.2279856;-46.702392578125;-12.522150039672852;-132.56494140625
205;1673432217.3130734;47.1305164;7.2403882;49.69600296020508;1673432217.4104931;-44.245059967041016;-13.471531867980957;-139.49818420410156
206;1673432217.5031605;47.130504599999995;7.2403683;49.67000198364258;1673432217.6113384;-38.562137603759766;-6.959542274475098;-153.25994873046875
207;1673432217.7084079;47.1304927;7.2403498;49.6400032043457;1673432217.8130014;-37.185420989990234;-1.7357176542282104;-163.1942138671875
208;1673432217.911959;47.130480999999996;7.240333;49.625003814697266;1673432218.0070987;-38.7811393737793;4.148368835449219;-172.60269165039062
209;1673432218.103532;47.130469299999994;7.240317699999999;49.625003814697266;1673432218.2068653;-42.17015838623047;9.380414009094238;178.6680908203125
210;1673432218.3124654;47.1304576;7.240303699999999;49.64500045776367;1673432218.4082215;-41.43534851074219;16.78728675842285;168.853271484375
211;1673432218.529913;47.130445599999994;7.2402912;49.67100143432617;1673432218.6298869;-39.43650436401367;25.671876907348633;159.40663146972656
212;1673432218.739562;47.1304333;7.2402795;49.71000289916992;1673432218.8339489;-36.116050720214844;32.07670974731445;152.7799835205078
213;1673432218.922995;47.130420799999996;7.240268299999999;49.76300048828125;1673432219.0215795;-39.57451629638672;38.240264892578125;159.7398223876953
214;1673432219.1343558;47.1304077;7.2402565999999995;49.80400085449219;1673432219.2293262;-42.29680252075195;32.391326904296875;-179.4279327392578
215;1673432219.3216038;47.1303945;7.2402435;49.836002349853516;1673432219.4268918;-44.1085319519043;21.317354202270508;-166.8879852294922
216;1673432219.531755;47.1303816;7.2402289;49.858001708984375;1673432219.6271732;-47.151607513427734;19.994728088378906;-161.51719665527344
217;1673432219.7160878;47.130368999999995;7.2402131;49.87000274658203;1673432219.80464;-46.28799819946289;14.012850761413574;-152.48878479003906
218;1673432219.896419;47.1303567;7.240196;49.875003814697266;1673432219.9990084;-45.1495361328125;8.80897331237793;-143.7268829345703
219;1673432220.1110039;47.1303449;7.2401779;49.868003845214844;1673432220.2099974;-44.26955032348633;0.3470325767993927;-135.04443359375
220;1673432220.3136978;47.1303337;7.240158999999999;49.88100051879883;1673432220.409575;-47.39968490600586;-8.908802032470703;-132.13343811035156
221;1673432220.5016422;47.1303225;7.2401398;49.90800094604492;1673432220.6034148;-52.70595169067383;-14.317272186279297;-134.26705932617188
222;1673432220.701828;47.1303108;7.2401203999999995;49.93100357055664;1673432220.8046262;-51.338661193847656;-8.908228874206543;-138.9139862060547
223;1673432220.9062161;47.130298499999995;7.2401012;49.94300079345703;1673432221.0183232;-49.82590103149414;-5.282801628112793;-140.3846435546875
224;1673432221.1176546;47.1302859;7.2400822;49.94300079345703;1673432221.2420974;-48.89099884033203;-4.588252544403076;-140.14132690429688
225;1673432221.3313234;47.1302731;7.2400630999999995;49.94600296020508;1673432221.4469192;-48.04417419433594;-6.102407455444336;-139.64151000976562
226;1673432221.5743198;47.1302601;7.240043999999999;49.94900131225586;1673432221.6534421;-48.84361267089844;-6.835397243499756;-139.73089599609375
227;1673432221.7400274;47.1302471;7.2400249;49.948001861572266;1673432221.8737152;-49.118350982666016;-7.0998992919921875;-139.8861541748047
228;1673432221.9990191;47.1302338;7.2400060999999996;49.94600296020508;1673432222.079097;-48.326663970947266;-7.155577182769775;-140.08743286132812
229;1673432222.1703908;47.1302205;7.239987299999999;49.945003509521484;1673432222.2660084;-48.29820251464844;-5.611866474151611;-140.30210876464844
230;1673432222.3565493;47.130207;7.2399688;49.93800354003906;1673432222.4560459;-47.6059455871582;-5.550136089324951;-139.8498077392578
231;1673432222.5444844;47.1301935;7.239950299999999;49.932003021240234;1673432222.6334891;-47.54605484008789;-5.713901996612549;-139.71170043945312
232;1673432222.7280357;47.130179999999996;7.239931899999999;49.92400360107422;1673432222.8300097;-47.678138732910156;-5.9574785232543945;-139.59552001953125
233;1673432222.923878;47.130166599999995;7.2399134;49.926002502441406;1673432223.0301433;-47.96852493286133;-6.192444801330566;-139.49867248535156
234;1673432223.1261685;47.1301531;7.239895;49.92400360107422;1673432223.2201855;-48.232322692871094;-6.324673175811768;-139.4544677734375
235;1673432223.3127663;47.1301397;7.2398766;49.91800308227539;1673432223.42331;-47.88671112060547;-6.350982666015625;-139.432861328125
236;1673432223.5214913;47.1301262;7.2398582;49.913002014160156;1673432223.6330643;-47.467262268066406;-6.386076927185059;-139.36434936523438
237;1673432223.7342455;47.1301127;7.2398399;49.90800094604492;1673432223.8441439;-47.51235580444336;-6.3978447914123535;-139.32113647460938
238;1673432223.9421713;47.1300992;7.239821699999999;49.90400314331055;1673432224.0462868;-47.65743637084961;-6.4322614669799805;-139.30126953125
239;1673432224.1383297;47.130085799999996;7.2398035;49.89900207519531;1673432224.2608318;-47.53974914550781;-6.456191062927246;-139.2711944580078
240;1673432224.3754926;47.130072399999996;7.239785299999999;49.8910026550293;1673432224.4770544;-47.38254928588867;-6.387524127960205;-139.27584838867188
241;1673432224.5842884;47.130058899999995;7.2397671;49.884002685546875;1673432224.670271;-47.128658294677734;-6.3993635177612305;-139.24110412597656
242;1673432224.8148034;47.1300455;7.239749;49.88200378417969;1673432224.9002597;-47.238067626953125;-6.429683208465576;-139.17556762695312
243;1673432225.0074155;47.1300321;7.2397309;49.88200378417969;1673432225.092874;-47.67757797241211;-6.45772123336792;-139.2034912109375
244;1673432225.1766357;47.1300187;7.2397127999999995;49.884002685546875;1673432225.275007;-47.777000427246094;-6.456307888031006;-139.19622802734375
245;1673432225.3636053;47.1300053;7.2396948;49.88800048828125;1673432225.464843;-47.87449264526367;-6.443569183349609;-139.1885986328125
246;1673432225.563449;47.1299919;7.2396766999999995;49.88900375366211;1673432225.650038;-47.73504638671875;-6.359799861907959;-139.2187042236328
247;1673432225.7396321;47.1299784;7.239658599999999;49.893001556396484;1673432225.8374832;-47.647525787353516;-6.347428321838379;-139.19146728515625
248;1673432225.9321887;47.129965;7.239640499999999;49.89800262451172;1673432226.0407672;-47.88982009887695;-6.380897045135498;-139.18734741210938
249;1673432226.1436641;47.1299515;7.2396224;49.9010009765625;1673432226.247281;-47.88796615600586;-6.296460151672363;-139.244140625
250;1673432226.3449166;47.1299381;7.2396042;49.90300369262695;1673432226.4463103;-47.751869201660156;-6.284780025482178;-139.2311248779297
251;1673432226.535273;47.129924599999995;7.2395860999999995;49.90500259399414;1673432226.6296618;-47.72657012939453;-6.265890598297119;-139.25588989257812
252;1673432226.7225308;47.129911199999995;7.239567999999999;49.90500259399414;1673432226.8212087;-47.54329299926758;-6.23756217956543;-139.2180633544922
253;1673432226.9226768;47.129897799999995;7.2395499;49.90500259399414;1673432227.0266674;-47.62133026123047;-6.232150077819824;-139.23568725585938
254;1673432227.1525135;47.129884399999995;7.2395318;49.9010009765625;1673432227.2379124;-47.496612548828125;-6.2041449546813965;-139.26385498046875
255;1673432227.335874;47.129871;7.2395137;49.89500427246094;1673432227.432593;-47.21806716918945;-6.119959831237793;-139.28146362304688
256;1673432227.5180976;47.1298576;7.239495499999999;49.893001556396484;1673432227.6524467;-47.16965103149414;-6.134985446929932;-139.25511169433594
257;1673432227.735507;47.1298442;7.239477399999999;49.8900032043457;1673432227.8416843;-47.39128112792969;-6.133824825286865;-139.2545623779297
258;1673432227.9367394;47.1298308;7.2394593;49.8900032043457;1673432228.0339077;-47.658870697021484;-6.142097473144531;-139.28016662597656
259;1673432228.134204;47.129817499999994;7.239441299999999;49.89200210571289;1673432228.2275672;-47.67298889160156;-6.121487140655518;-139.28732299804688
260;1673432228.327609;47.1298041;7.2394232;49.89500427246094;1673432228.4286752;-47.54120635986328;-6.0451273918151855;-139.33575439453125
261;1673432228.527787;47.129790799999995;7.2394051;49.90200424194336;1673432228.631785;-47.62821960449219;-6.029466152191162;-139.32940673828125
262;1673432228.7241712;47.129777399999995;7.239387;49.90900421142578;1673432228.8215973;-47.87511444091797;-5.9768967628479;-139.377197265625
263;1673432228.92117;47.129763999999994;7.2393689;49.91400146484375;1673432229.0271368;-47.76411056518555;-5.940735340118408;-139.4066925048828
264;1673432229.122552;47.1297506;7.239350699999999;49.9170036315918;1673432229.2261028;-47.53117370605469;-5.895576477050781;-139.44232177734375
265;1673432229.3442273;47.1297371;7.2393323999999994;49.919002532958984;1673432229.4604726;-47.3969841003418;-5.862522125244141;-139.45263671875
266;1673432229.5584843;47.1297237;7.2393142;49.92400360107422;1673432229.6671014;-47.610252380371094;-5.867835521697998;-139.44869995117188
267;1673432229.7442594;47.1297103;7.2392959999999995;49.93400192260742;1673432229.8370068;-48.0896110534668;-5.889217853546143;-139.46951293945312
268;1673432229.9431682;47.1296969;7.2392778;49.93800354003906;1673432230.0352247;-47.98707962036133;-5.817039489746094;-139.5562286376953
269;1673432230.134281;47.1296834;7.239259499999999;49.93700408935547;1673432230.235577;-47.42761993408203;-5.758049011230469;-139.57366943359375
270;1673432230.328869;47.12967;7.2392411999999995;49.93700408935547;1673432230.428156;-47.215492248535156;-5.69101619720459;-139.5919189453125
271;1673432230.5301125;47.129656499999996;7.2392229;49.939002990722656;1673432230.6333287;-47.5402946472168;-5.713481426239014;-139.59228515625
272;1673432230.724645;47.129643099999996;7.239204699999999;49.941001892089844;1673432230.8267264;-48.05735778808594;-5.692113399505615;-139.67616271972656
273;1673432230.9281344;47.1296296;7.2391863999999995;49.94300079345703;1673432231.0362792;-47.87789535522461;-5.591289043426514;-139.74888610839844
274;1673432231.138902;47.1296161;7.2391681;49.94300079345703;1673432231.293168;-47.573089599609375;-5.523721694946289;-139.78038024902344
275;1673432231.3886125;47.1296027;7.2391498;49.945003509521484;1673432231.4820158;-47.57674026489258;-5.4713945388793945;-139.8086395263672
276;1673432231.5690377;47.1295892;7.2391314;49.94700241088867;1673432231.665092;-47.63341522216797;-5.534360408782959;-139.82237243652344
277;1673432231.7597408;47.1295758;7.2391131;49.95100402832031;1673432231.893543;-47.931575775146484;-5.493617534637451;-139.9107666015625
278;1673432231.9866712;47.129562299999996;7.239094799999999;49.958003997802734;1673432232.0820084;-48.03170394897461;-5.45001745223999;-139.9717254638672
279;1673432232.184753;47.129548799999995;7.2390764;49.961002349853516;1673432232.2821882;-47.896888732910156;-5.418532848358154;-140.03955078125
280;1673432232.3697155;47.1295353;7.2390579;49.9630012512207;1673432232.4667032;-47.61708450317383;-5.3313093185424805;-140.1142578125
281;1673432232.5639992;47.1295218;7.2390395;49.965003967285156;1673432232.6686516;-47.75041580200195;-5.28507137298584;-140.17510986328125
282;1673432232.775812;47.1295084;7.2390210999999995;49.96800231933594;1673432232.8909128;-47.9195671081543;-5.267313480377197;-140.2628936767578
283;1673432232.9705422;47.1294949;7.2390026;49.970001220703125;1673432233.0579607;-47.8397102355957;-5.2112627029418945;-140.36595153808594
284;1673432233.149038;47.129481299999995;7.2389842;49.974002838134766;1673432233.2614417;-47.9039306640625;-5.134249687194824;-140.45291137695312
285;1673432233.3554292;47.1294678;7.2389657;49.97800064086914;1673432233.4568598;-47.933349609375;-5.042638301849365;-140.58224487304688
286;1673432233.5685363;47.1294542;7.238947199999999;49.98200225830078;1673432233.6789854;-47.9551887512207;-5.465422630310059;-140.57208251953125
287;1673432233.7773483;47.129440699999996;7.2389288999999994;49.98500061035156;1673432233.8721697;-48.296756744384766;-5.460237979888916;-140.82191467285156
288;1673432233.9620476;47.1294271;7.238910499999999;49.98800277709961;1673432234.064134;-47.9043083190918;-5.583969593048096;-140.84153747558594
289;1673432234.1591089;47.1294135;7.238892099999999;49.9900016784668;1673432234.2537513;-47.66193771362305;-6.221164226531982;-141.00390625
290;1673432234.33676;47.129399799999995;7.2388737999999995;49.99100112915039;1673432234.4359415;-48.14686965942383;-5.987874507904053;-141.36390686035156
291;1673432234.5322688;47.129386;7.238855699999999;49.992000579833984;1673432234.6418128;-48.07162094116211;-5.7631402015686035;-141.55458068847656
292;1673432234.737932;47.1293721;7.2388376;49.99400329589844;1673432234.8461084;-47.74391174316406;-5.9558844566345215;-141.5960693359375
293;1673432234.937413;47.1293582;7.2388197;49.99400329589844;1673432235.0423822;-47.73981475830078;-6.206417560577393;-141.73843383789062
294;1673432235.144437;47.1293443;7.2388018;49.99400329589844;1673432235.25597;-47.585472106933594;-6.383703231811523;-141.95327758789062
295;1673432235.358887;47.1293304;7.238784099999999;49.996002197265625;1673432235.4635808;-47.66640090942383;-6.910533905029297;-141.99095153808594
296;1673432235.562626;47.1293163;7.2387666;49.99800109863281;1673432235.679287;-47.90226745605469;-7.370169162750244;-142.21556091308594
297;1673432235.7684655;47.1293022;7.238749299999999;50.00200271606445;1673432235.870678;-47.966407775878906;-7.161133289337158;-142.5144500732422
298;1673432235.9690847;47.1292879;7.238732199999999;50.00800323486328;1673432236.0632448;-48.05586242675781;-6.946152210235596;-142.58287048339844
299;1673432236.1653817;47.1292735;7.2387152;50.012001037597656;1673432236.2574682;-47.80332946777344;-7.967232704162598;-142.45298767089844
300;1673432236.3437905;47.1292591;7.2386984;50.01700210571289;1673432236.4514513;-47.7738151550293;-7.933094501495361;-142.57908630371094
301;1673432236.5581841;47.1292446;7.238681799999999;50.022003173828125;1673432236.661464;-42.682159423828125;-8.060028076171875;-142.94595336914062
302;1673432236.7636776;47.129230199999995;7.2386656;50.0410041809082;1673432236.865996;-32.36405944824219;-8.615133285522461;-141.35240173339844
303;1673432236.9668546;47.129216199999995;7.2386501;50.070003509521484;1673432237.0698135;-20.387632369995117;-7.099851131439209;-140.1637725830078
304;1673432237.1619914;47.1292033;7.238635899999999;50.0880012512207;1673432237.2596352;-10.50761890411377;-5.785408020019531;-138.83714294433594
305;1673432237.3541746;47.129191999999996;7.238623199999999;50.09700393676758;1673432237.4562507;-4.20856237411499;-5.412646770477295;-137.82969665527344
306;1673432237.5561678;47.1291825;7.2386123;50.10100173950195;1673432237.6533694;-1.006658911705017;-2.939546823501587;-138.3316192626953
307;1673432237.7505465;47.129174899999995;7.238603299999999;50.10900115966797;1673432237.8500388;-0.7608965039253235;-1.0823156833648682;-138.5550994873047
308;1673432237.942688;47.1291693;7.238595999999999;50.11600112915039;1673432238.053354;-4.283621311187744;-4.172732830047607;-138.23681640625
309;1673432238.1528614;47.129165199999996;7.2385902;50.124000549316406;1673432238.2619123;-7.949354648590088;-9.17176342010498;-136.4902801513672
310;1673432238.3588321;47.129162199999996;7.2385855999999995;50.130001068115234;1673432238.4611516;-11.963181495666504;-10.454986572265625;-136.0553436279297
311;1673432238.5562334;47.12916;7.238582;50.13800048828125;1673432238.6483335;-14.860764503479004;-12.719244003295898;-136.97821044921875
312;1673432238.739382;47.1291582;7.238579199999999;50.143001556396484;1673432238.8464973;-20.028223037719727;-14.304227828979492;-137.8943328857422
313;1673432238.9464295;47.129156599999995;7.2385769;50.16200256347656;1673432239.0517633;-40.68838882446289;-10.330758094787598;-135.20579528808594
314;1673432239.1471684;47.1291544;7.2385739;50.249000549316406;1673432239.2439647;-31.189207077026367;-4.633801460266113;-136.83531188964844
315;1673432239.331508;47.1291513;7.2385692;50.3910026550293;1673432239.4311485;-21.462154388427734;-3.421257734298706;-137.9306182861328
316;1673432239.5232692;47.129148099999995;7.238563999999999;50.61900329589844;1673432239.6247082;-35.31832504272461;-4.749697685241699;-138.21707153320312
317;1673432239.727104;47.1291448;7.2385581;50.94600296020508;1673432239.840644;-46.50471115112305;-7.997107028961182;-137.57875061035156
318;1673432239.9518056;47.1291405;7.2385508;51.32600402832031;1673432240.051948;-53.40304946899414;-10.869911193847656;-137.66319274902344
319;1673432240.1514404;47.1291346;7.238542;51.677001953125;1673432240.2531586;-50.34079360961914;-8.809581756591797;-138.95936584472656
320;1673432240.3590667;47.1291272;7.2385319;52.00700378417969;1673432240.4615657;-48.162193298339844;-9.157325744628906;-137.87989807128906
321;1673432240.5587103;47.1291187;7.238520599999999;52.316001892089844;1673432240.6628435;-43.88956069946289;-8.299246788024902;-138.19320678710938
322;1673432240.7603981;47.1291094;7.238508599999999;52.61700439453125;1673432240.8669064;-41.48493957519531;-7.999082565307617;-137.82754516601562
323;1673432240.970098;47.1290997;7.2384962999999996;52.919002532958984;1673432241.0719688;-39.44337844848633;-7.626851558685303;-137.40953063964844
324;1673432241.1711586;47.1290899;7.2384837;53.22800064086914;1673432241.272181;-38.700721740722656;-7.4914937019348145;-137.07713317871094
325;1673432241.3659947;47.129079999999995;7.2384708;53.547000885009766;1673432241.473354;-38.24150466918945;-7.394834518432617;-136.9259490966797
326;1673432241.562759;47.1290701;7.238457899999999;53.88200378417969;1673432241.6636539;-37.832115173339844;-7.454364776611328;-136.8224639892578
327;1673432241.75912;47.1290604;7.2384448;54.228004455566406;1673432241.8612003;-37.68783187866211;-7.688029766082764;-136.74838256835938
328;1673432241.953411;47.1290507;7.2384318;54.57400131225586;1673432242.054518;-37.770870208740234;-7.673580646514893;-136.7634735107422
329;1673432242.1542065;47.129041099999995;7.2384186999999995;54.93000411987305;1673432242.2554357;-37.7639274597168;-7.947706699371338;-136.78091430664062
330;1673432242.3576663;47.129031499999996;7.2384056999999995;55.2910041809082;1673432242.4576108;-37.8224983215332;-8.02662181854248;-136.777587890625
331;1673432242.5556226;47.1290219;7.2383926;55.65700149536133;1673432242.6586325;-38.079246520996094;-8.032540321350098;-136.8431396484375
332;1673432242.752929;47.1290124;7.2383795;56.02800369262695;1673432242.8504374;-38.21505355834961;-8.033292770385742;-136.84576416015625
333;1673432242.950418;47.129002899999996;7.2383665;56.40500259399414;1673432243.055141;-38.30513381958008;-8.036567687988281;-136.875244140625
334;1673432243.1568332;47.1289934;7.2383535;56.78000259399414;1673432243.2601583;-38.454349517822266;-8.009944915771484;-136.9237518310547
335;1673432243.3594415;47.128983899999994;7.238340399999999;57.15900421142578;1673432243.4633136;-38.43822479248047;-8.091482162475586;-136.93186950683594
336;1673432243.5779612;47.128974299999996;7.2383273;57.5410041809082;1673432243.6822805;-38.479461669921875;-8.092667579650879;-136.94325256347656
337;1673432243.7662683;47.1289648;7.2383142;57.92400360107422;1673432243.8647509;-38.44782257080078;-8.087146759033203;-136.94314575195312
338;1673432243.9614956;47.1289552;7.238301099999999;58.307003021240234;1673432244.072757;-38.461727142333984;-8.195229530334473;-136.91378784179688
339;1673432244.173131;47.128945599999994;7.238288;58.689002990722656;1673432244.271326;-38.49806594848633;-8.131829261779785;-136.9182891845703
340;1673432244.3711622;47.128935999999996;7.238274799999999;59.070003509521484;1673432244.4693577;-38.65559005737305;-7.991875171661377;-136.9464874267578
341;1673432244.5677066;47.1289264;7.2382618;59.44600296020508;1673432244.667098;-38.630584716796875;-8.036128997802734;-136.9215087890625
342;1673432244.7634404;47.1289168;7.2382485999999995;59.82600402832031;1673432244.8672328;-38.672489166259766;-7.9408345222473145;-136.98460388183594
343;1673432244.9628532;47.1289072;7.2382355;60.20700454711914;1673432245.06085;-38.746864318847656;-7.855473518371582;-136.97132873535156
344;1673432245.156725;47.128897599999995;7.2382224;60.5880012512207;1673432245.2577493;-38.73339080810547;-7.804113864898682;-136.9556121826172
345;1673432245.3594663;47.128887899999995;7.2382092;60.97200393676758;1673432245.4632819;-38.77770233154297;-7.954906463623047;-136.9272918701172
346;1673432245.5579703;47.1288783;7.238195999999999;61.355003356933594;1673432245.6628175;-38.850311279296875;-7.983105659484863;-136.93814086914062
347;1673432245.7578037;47.1288687;7.2381828;61.73400115966797;1673432245.8632662;-38.76941680908203;-7.988052845001221;-136.933349609375
348;1673432245.983402;47.128859;7.2381696;62.11700439453125;1673432246.0783157;-38.77333450317383;-8.013643264770508;-136.92385864257812
349;1673432246.1616418;47.1288493;7.2381563;62.49900436401367;1673432246.2719073;-38.82337188720703;-7.923717498779297;-136.9668426513672
350;1673432246.3800232;47.1288395;7.2381429;62.88500213623047;1673432246.4861257;-38.7594108581543;-7.923605442047119;-136.9345703125
351;1673432246.5681195;47.1288298;7.2381296;63.272003173828125;1673432246.6595433;-38.82564926147461;-7.92000675201416;-136.94781494140625
352;1673432246.751952;47.1288201;7.2381164;63.65700149536133;1673432246.8579967;-38.93501663208008;-7.864449501037598;-136.95460510253906
353;1673432246.958607;47.1288103;7.2381031;64.04199981689453;1673432247.075801;-38.88196563720703;-7.751615524291992;-136.9483184814453
354;1673432247.178388;47.1288006;7.2380897;64.427001953125;1673432247.2943435;-38.89657974243164;-7.882901191711426;-136.91305541992188
355;1673432247.407306;47.1287909;7.2380764;64.8070068359375;1673432247.5113835;-38.81277084350586;-7.856563091278076;-136.97015380859375
356;1673432247.6100283;47.1287811;7.2380629999999995;65.19100189208984;1673432247.699399;-38.918087005615234;-7.796633243560791;-136.92701721191406
357;1673432247.7819338;47.1287714;7.2380495;65.5780029296875;1673432247.873812;-38.87406539916992;-7.876789093017578;-136.9718475341797
358;1673432247.9701743;47.1287616;7.2380360999999995;65.97000122070312;1673432248.0746593;-38.891021728515625;-7.998680591583252;-136.91583251953125
359;1673432248.1848;47.128751799999996;7.238022699999999;66.36500549316406;1673432248.2833388;-38.728240966796875;-7.948467254638672;-136.95724487304688
360;1673432248.3677442;47.1287421;7.2380093;66.7550048828125;1673432248.4735954;-38.834381103515625;-7.920936584472656;-136.94668579101562
361;1673432248.5573406;47.128732299999996;7.237995799999999;67.14900207519531;1673432248.6514096;-38.78316879272461;-7.925441265106201;-136.90611267089844
362;1673432248.7585418;47.128722599999996;7.2379824;67.54000091552734;1673432248.8625672;-38.82588195800781;-8.049074172973633;-136.92376708984375
363;1673432248.962675;47.128712799999995;7.237968899999999;67.927001953125;1673432249.0649507;-38.8824462890625;-7.995235443115234;-136.96644592285156
364;1673432249.1687422;47.128703099999996;7.2379555;68.31200408935547;1673432249.266368;-38.85696792602539;-8.059195518493652;-136.93130493164062
365;1673432249.3553956;47.128693399999996;7.237941999999999;68.69800567626953;1673432249.4539735;-38.87819290161133;-8.1281099319458;-136.9834747314453
366;1673432249.5503623;47.128683599999995;7.2379286;69.08600616455078;1673432249.6553462;-38.892555236816406;-8.027631759643555;-136.9679412841797
367;1673432249.7610717;47.128673899999995;7.2379152;69.4729995727539;1673432249.8655388;-38.958683013916016;-7.978866100311279;-136.96170043945312
368;1673432249.9594936;47.128664099999995;7.2379017999999995;69.85700225830078;1673432250.0633519;-38.87858200073242;-7.965835094451904;-136.94363403320312
369;1673432250.167418;47.1286543;7.2378884;70.23800659179688;1673432250.2775967;-38.847938537597656;-7.93477725982666;-136.97886657714844
370;1673432250.3833597;47.1286445;7.237875;70.62200164794922;1673432250.487626;-38.77571105957031;-8.00771427154541;-136.930908203125
371;1673432250.5876737;47.1286347;7.237861499999999;71.00800323486328;1673432250.6846352;-38.864253997802734;-7.989292144775391;-136.9545135498047
372;1673432250.7705102;47.1286249;7.2378481;71.39700317382812;1673432250.8669345;-38.87666320800781;-7.912355422973633;-136.967529296875
373;1673432250.9661744;47.1286151;7.2378347;71.78700256347656;1673432251.0733354;-38.89860153198242;-7.922071933746338;-136.92803955078125
374;1673432251.1726825;47.1286053;7.237821299999999;72.17900085449219;1673432251.2649674;-38.86767578125;-7.824128150939941;-136.9805450439453
375;1673432251.3561997;47.128595399999995;7.2378078;72.56999969482422;1673432251.467577;-38.87054443359375;-7.963072776794434;-136.9196319580078
376;1673432251.5738995;47.1285856;7.2377943;72.96100616455078;1673432251.6869621;-38.866207122802734;-8.060508728027344;-136.9166259765625
377;1673432251.777284;47.1285758;7.2377807;73.3550033569336;1673432251.878417;-38.852806091308594;-8.02794361114502;-136.9488983154297
378;1673432251.9736006;47.1285659;7.2377671999999995;73.7490005493164;1673432252.0744543;-38.92190170288086;-8.021546363830566;-136.93572998046875
379;1673432252.1665132;47.1285561;7.2377537;74.14300537109375;1673432252.2588742;-38.84090805053711;-8.015376091003418;-136.93150329589844
380;1673432252.359094;47.128546199999995;7.237740199999999;74.53700256347656;1673432252.4623554;-38.89156723022461;-7.890261650085449;-136.9444580078125
381;1673432252.5583851;47.128536399999994;7.2377268;74.927001953125;1673432252.658516;-38.97551727294922;-7.869335651397705;-136.954833984375
382;1673432252.7578566;47.1285265;7.237713299999999;75.31700134277344;1673432252.8688915;-38.95766067504883;-7.863725185394287;-136.92958068847656
383;1673432252.9764504;47.1285166;7.2376998;75.7090072631836;1673432253.0797718;-38.933631896972656;-7.8190813064575195;-136.93338012695312
384;1673432253.1704397;47.128506699999996;7.2376863;76.10200500488281;1673432253.3052125;-38.89801025390625;-7.9920148849487305;-136.92745971679688
385;1673432253.4241023;47.128496899999995;7.2376727999999995;76.49600219726562;1673432253.527336;-38.97574234008789;-8.029210090637207;-136.92616271972656
386;1673432253.7194748;47.128487;7.2376591999999995;76.89200592041016;1673432253.7813323;-38.97016906738281;-8.009008407592773;-136.9226837158203
387;1673432253.852626;47.1284772;7.2376457;77.28600311279297;1673432253.939053;-38.956520080566406;-8.053010940551758;-136.92996215820312
388;1673432254.0256612;47.1284673;7.237632199999999;77.6810073852539;1673432254.124111;-38.953338623046875;-8.00629711151123;-136.9203338623047
389;1673432254.2136948;47.128457399999995;7.237618599999999;78.07600402832031;1673432254.317766;-38.862152099609375;-8.070926666259766;-136.95919799804688
390;1673432254.4105067;47.1284475;7.2376051;78.46900177001953;1673432254.506117;-38.942054748535156;-8.077995300292969;-136.9362030029297
391;1673432254.5973284;47.1284375;7.2375915;78.86400604248047;1673432254.6962252;-38.96244430541992;-8.147974967956543;-136.90750122070312
392;1673432254.781813;47.128427599999995;7.237578;79.26000213623047;1673432254.8726306;-38.90694046020508;-8.00357723236084;-136.9474639892578
393;1673432254.961546;47.1284177;7.237564399999999;79.65900421142578;1673432255.067417;-39.02162551879883;-8.255128860473633;-136.87596130371094
394;1673432255.1631117;47.1284078;7.2375509;80.05500030517578;1673432255.2721932;-38.95170593261719;-7.989538192749023;-136.9464569091797
395;1673432255.3681564;47.128397799999995;7.237537499999999;80.4520034790039;1673432255.4703126;-39.049835205078125;-7.937865257263184;-136.8931121826172
396;1673432255.5700386;47.1283879;7.237524;80.85100555419922;1673432255.6704192;-38.962276458740234;-7.788262844085693;-136.91612243652344
397;1673432255.7584734;47.1283779;7.2375105;81.24600219726562;1673432255.8574762;-38.94341278076172;-7.816624164581299;-136.90286254882812
398;1673432255.9527395;47.1283679;7.2374969;81.64400482177734;1673432256.0578282;-38.87480545043945;-7.779660224914551;-136.8831024169922
399;1673432256.1623163;47.128358;7.2374833;82.04200744628906;1673432256.2644427;-38.975589752197266;-8.069676399230957;-136.86337280273438
400;1673432256.3642163;47.128347999999995;7.2374696;82.44000244140625;1673432256.478193;-38.947418212890625;-7.983686447143555;-136.88754272460938
401;1673432256.5833883;47.1283381;7.237456099999999;82.83700561523438;1673432256.6896267;-38.98542785644531;-7.974080562591553;-136.88180541992188
402;1673432256.7803192;47.1283281;7.237442499999999;83.23700714111328;1673432256.8740604;-38.924861907958984;-7.884103298187256;-136.90782165527344
403;1673432256.9717665;47.128318199999995;7.237428899999999;83.63700103759766;1673432257.0744376;-38.924110412597656;-8.023735046386719;-136.87518310546875
404;1673432257.178058;47.1283082;7.237415299999999;84.03500366210938;1673432257.274409;-38.894264221191406;-7.889443397521973;-136.88571166992188
405;1673432257.3710823;47.128298199999996;7.2374016999999995;84.43400573730469;1673432257.4692292;-38.9249267578125;-7.918256759643555;-136.86277770996094
406;1673432257.555674;47.1282883;7.237387999999999;84.83500671386719;1673432257.665441;-38.90707778930664;-8.128316879272461;-136.87098693847656
407;1673432257.771202;47.1282784;7.2373743;85.23400115966797;1673432257.8721013;-38.91411209106445;-8.054451942443848;-136.88670349121094
408;1673432257.9712408;47.128268399999996;7.2373607;85.63400268554688;1673432258.0693216;-38.8404426574707;-7.969561576843262;-136.8712921142578
409;1673432258.1646779;47.1282585;7.2373471;86.03500366210938;1673432258.2744863;-38.854156494140625;-8.041193962097168;-136.86050415039062
410;1673432258.3871782;47.1282485;7.2373335;86.43400573730469;1673432258.4839919;-38.87775802612305;-7.961599349975586;-136.87939453125
411;1673432258.5778775;47.128238599999996;7.237319899999999;86.8330078125;1673432258.6832736;-38.90381622314453;-7.896649360656738;-136.86489868164062
412;1673432258.780437;47.1282287;7.2373062;87.23300170898438;1673432258.8942504;-38.87919616699219;-8.283257484436035;-136.80894470214844
413;1673432258.9987657;47.1282187;7.2372925;87.63300323486328;1673432259.1037483;-38.89425277709961;-8.082282066345215;-136.89474487304688
414;1673432259.194533;47.128208799999996;7.2372787999999995;88.0320053100586;1673432259.3068132;-38.85110855102539;-8.130563735961914;-136.8397979736328
415;1673432259.4037824;47.1281988;7.2372651999999995;88.427001953125;1673432259.5156124;-38.853763580322266;-7.978306770324707;-136.8726806640625
416;1673432259.613323;47.1281889;7.2372516;88.82200622558594;1673432259.7188604;-38.8978385925293;-8.042359352111816;-136.85108947753906
417;1673432259.8162796;47.128178999999996;7.237237899999999;89.22000122070312;1673432259.9102378;-39.00544738769531;-7.941070556640625;-136.88153076171875
418;1673432260.0103624;47.128169;7.237224299999999;89.61900329589844;1673432260.1627216;-38.96614456176758;-8.057747840881348;-136.8668670654297
