;pos_time;latitude;longitude;altitude;alt_time;pitch;roll;yaw
0;1673432508.807005;47.1306425;7.2406198999999996;0.0010000000474974513;1673432508.9408598;0.16611802577972412;-0.22297629714012146;90.25809478759766
1;1673432509.0140715;47.1306425;7.2406198999999996;0.0020000000949949026;1673432509.1375525;0.13963405787944794;-0.315533310174942;90.50688171386719
2;1673432509.212755;47.1306425;7.2406198999999996;0.003000000026077032;1673432509.3309586;0.062350526452064514;-0.2867223918437958;90.39047241210938
3;1673432509.4071865;47.1306425;7.2406198999999996;0.0020000000949949026;1673432509.5349867;0.08760058879852295;-0.2691437304019928;90.2820816040039
4;1673432509.624526;47.1306425;7.2406198999999996;0.003000000026077032;1673432509.7539163;0.11893977224826813;-0.4126284420490265;90.4798812866211
5;1673432509.832439;47.1306425;7.2406198999999996;0.003000000026077032;1673432509.9529095;0.007023075129836798;-0.35008302330970764;90.41580963134766
6;1673432510.0355144;47.1306425;7.2406198999999996;0.004000000189989805;1673432510.158099;0.12152478843927383;-0.3509972095489502;90.4941177368164
7;1673432510.239225;47.1306424;7.2406198999999996;0.004000000189989805;1673432510.3670034;0.06068906933069229;-0.3435247242450714;90.50389862060547
8;1673432510.4388766;47.1306424;7.2406198999999996;0.006000000052154064;1673432510.5524812;0.2812179923057556;-0.18469345569610596;90.3828125
9;1673432510.6270413;47.1306424;7.2406198999999996;0.00800000037997961;1673432510.7549343;0.30638381838798523;-0.4064275324344635;90.27860260009766
10;1673432510.830358;47.1306424;7.2406198999999996;0.009000000543892384;1673432510.966837;0.06673628091812134;-0.1646806299686432;90.26253509521484
11;1673432511.0425768;47.1306424;7.24062;0.009000000543892384;1673432511.1526892;-0.07860691100358963;-0.4028639495372772;90.38360595703125
12;1673432511.216539;47.1306424;7.24062;0.009000000543892384;1673432511.3314404;0.21299737691879272;-0.2370673418045044;90.25221252441406
13;1673432511.4057496;47.1306423;7.2406201;0.005000000353902578;1673432511.521327;0.025366267189383507;-0.4654618799686432;90.32152557373047
14;1673432511.5964787;47.1306423;7.2406201999999995;0.0;1673432511.7258558;-0.030095839872956276;-1.4938231706619263;90.35317993164062
15;1673432511.8113446;47.1306423;7.2406203;-0.0010000000474974513;1673432511.9350286;-0.1867905706167221;-0.9995225667953491;90.26201629638672
16;1673432512.0189986;47.1306423;7.2406203;-0.0010000000474974513;1673432512.143383;-0.27461880445480347;-1.3078343868255615;90.43437957763672
17;1673432512.2210348;47.1306424;7.2406203;0.0010000000474974513;1673432512.3504643;-0.19883795082569122;-1.0005455017089844;90.36149597167969
18;1673432512.4270613;47.1306424;7.2406203;0.0010000000474974513;1673432512.5493975;0.02233557030558586;-0.9756708145141602;90.16822052001953
19;1673432512.6227627;47.1306424;7.2406203;0.0;1673432512.7560873;-0.14804279804229736;-1.9327088594436646;90.47662353515625
20;1673432512.8307784;47.1306424;7.2406203;-0.005000000353902578;1673432512.9595032;-0.24860161542892456;-1.5240364074707031;90.34982299804688
21;1673432513.0389776;47.1306424;7.2406203;-0.013000000268220901;1673432513.1731033;0.0786924958229065;-1.6699870824813843;90.48550415039062
22;1673432513.2489924;47.1306424;7.2406203;-0.003000000026077032;1673432513.3655677;-0.16738997399806976;-1.628089189529419;90.43887329101562
23;1673432513.4423795;47.1306424;7.2406203;-0.006000000052154064;1673432513.5627992;-0.139552041888237;-1.2237060070037842;90.54069519042969
24;1673432513.6463637;47.1306424;7.2406201999999995;-0.007000000216066837;1673432513.7640421;-0.029445504769682884;-0.900002121925354;90.35311889648438
25;1673432513.8506763;47.1306424;7.2406201999999995;-0.004000000189989805;1673432513.9637578;-0.0390801839530468;-0.707589864730835;90.39073944091797
26;1673432514.0348735;47.1306424;7.2406201999999995;-0.003000000026077032;1673432514.1526475;-0.20995870232582092;-0.5378957390785217;90.2979507446289
27;1673432514.232046;47.1306425;7.2406201999999995;-0.004000000189989805;1673432514.3544936;-0.1137416809797287;-0.53475421667099;90.5237808227539
28;1673432514.4253435;47.1306425;7.2406201999999995;0.0;1673432514.5528104;-0.04388156533241272;-0.7037758827209473;90.796875
29;1673432514.632627;47.130642599999995;7.2406201999999995;0.00800000037997961;1673432514.7660708;0.03286692500114441;-0.6038981080055237;93.14054107666016
30;1673432514.8442807;47.1306428;7.2406201999999995;0.015000000596046448;1673432514.9709067;-0.021473100408911705;1.569460153579712;94.61934661865234
31;1673432515.0492063;47.1306434;7.2406203;0.01600000075995922;1673432515.1753962;0.23607312142848969;4.853626728057861;98.75830841064453
32;1673432515.2574244;47.1306442;7.2406204;0.018000001087784767;1673432515.3911178;-0.29955893754959106;10.26628303527832;102.92635345458984
33;1673432515.466378;47.1306453;7.2406204;0.023000001907348633;1673432515.5918796;-1.1170648336410522;13.711289405822754;102.10150909423828
34;1673432515.66651;47.1306467;7.2406206;0.039000000804662704;1673432515.7978587;-0.49489855766296387;16.284957885742188;99.56018829345703
35;1673432515.8850787;47.130648099999995;7.2406209;0.0690000057220459;1673432516.004212;-0.08800359815359116;17.657798767089844;97.64159393310547
36;1673432516.0786557;47.1306495;7.2406212;0.11000000685453415;1673432516.1963131;0.7274166941642761;19.349746704101562;96.1068344116211
37;1673432516.2723145;47.1306508;7.2406216;0.16200000047683716;1673432516.3916335;1.6351771354675293;21.44283103942871;94.89431762695312
38;1673432516.4655886;47.1306519;7.2406220999999995;0.22500000894069672;1673432516.5884974;2.4733972549438477;23.220609664916992;93.90985870361328
39;1673432516.6585848;47.1306526;7.2406225;0.29600000381469727;1673432516.7838492;3.2743945121765137;24.899410247802734;93.07831573486328
40;1673432516.860577;47.130652999999995;7.2406228;0.3710000216960907;1673432516.9827297;4.277316093444824;26.891504287719727;92.41374206542969
41;1673432517.0594056;47.1306529;7.2406229;0.45600003004074097;1673432517.1735587;5.21787691116333;28.673912048339844;91.85585021972656
42;1673432517.2502558;47.1306523;7.240622999999999;0.550000011920929;1673432517.370197;5.946878433227539;28.91753387451172;91.33709716796875
43;1673432517.4417646;47.130651099999994;7.2406229;0.6510000228881836;1673432517.5715168;5.5230021476745605;26.113758087158203;90.74234008789062
44;1673432517.6423094;47.1306495;7.2406225;0.7580000162124634;1673432517.7612848;5.202773571014404;23.1790714263916;90.26483917236328
45;1673432517.8404772;47.130647599999996;7.240622;0.8700000643730164;1673432517.974119;4.471314907073975;20.505558013916016;89.87801361083984
46;1673432518.0575168;47.130645799999996;7.240621399999999;0.9890000224113464;1673432518.1875439;3.852947950363159;17.14081382751465;89.57394409179688
47;1673432518.262668;47.1306442;7.2406209;1.1230000257492065;1673432518.3797426;3.1815333366394043;14.093178749084473;89.34969329833984
48;1673432518.4544106;47.1306428;7.2406204999999995;1.2700001001358032;1673432518.5722363;3.1526153087615967;14.39309310913086;88.79484558105469
49;1673432518.6364186;47.1306419;7.2406201999999995;1.4300000667572021;1673432518.754179;3.0838911533355713;13.028684616088867;88.26234436035156
50;1673432518.8250234;47.130641499999996;7.24062;1.6030000448226929;1673432518.9477065;2.95100736618042;11.858771324157715;89.8109359741211
51;1673432519.035911;47.130641399999995;7.2406198999999996;1.78600013256073;1673432519.1677427;3.564950704574585;16.717384338378906;88.92340087890625
52;1673432519.2463684;47.130641499999996;7.24062;1.977000117301941;1673432519.3637784;4.190670490264893;18.235122680664062;88.32257080078125
53;1673432519.4485033;47.1306419;7.24062;2.1660001277923584;1673432519.5855389;4.3102545738220215;16.392183303833008;87.89590454101562
54;1673432519.6783729;47.1306422;7.2406201;2.3560001850128174;1673432519.7856889;4.666162490844727;18.407094955444336;87.67544555664062
55;1673432519.8620973;47.1306425;7.2406201;2.552000045776367;1673432519.9813597;5.178717136383057;21.736400604248047;87.49409484863281
56;1673432520.0631576;47.130642699999996;7.2406201999999995;2.753000020980835;1673432520.192111;5.111566066741943;18.604446411132812;87.40811157226562
57;1673432520.2733963;47.1306429;7.2406203;2.953000068664551;1673432520.4111178;4.962008953094482;18.757701873779297;87.3578872680664
58;1673432520.494243;47.130643;7.2406203;3.1510002613067627;1673432520.6143544;5.07084846496582;21.881216049194336;87.4609146118164
59;1673432520.7359598;47.1306431;7.2406204;3.3450002670288086;1673432520.8704507;5.247785568237305;19.00092124938965;87.46697235107422
60;1673432520.9351923;47.1306429;7.2406204999999995;3.5360002517700195;1673432521.0482516;5.031649589538574;17.172502517700195;87.50318145751953
61;1673432521.138905;47.130642699999996;7.2406204999999995;3.7290000915527344;1673432521.2509217;5.070856094360352;19.16608428955078;87.4177474975586
62;1673432521.322411;47.1306425;7.2406204999999995;3.9280002117156982;1673432521.4441478;5.125400066375732;19.326847076416016;87.5556869506836
63;1673432521.5038323;47.1306424;7.2406204999999995;4.134000301361084;1673432521.6118603;4.934962749481201;15.97689437866211;87.52456665039062
64;1673432521.6877632;47.1306424;7.2406204999999995;4.340000152587891;1673432521.8107355;4.8765764236450195;18.700227737426758;87.53174591064453
65;1673432521.8858898;47.1306424;7.2406204999999995;4.5400004386901855;1673432522.0024934;4.888797760009766;19.74706268310547;87.58016967773438
66;1673432522.0840921;47.1306424;7.2406204;4.73900032043457;1673432522.203754;4.596691131591797;16.523447036743164;87.61367797851562
67;1673432522.2765744;47.1306424;7.2406203;4.938000202178955;1673432522.3884568;4.358103275299072;18.046899795532227;87.63113403320312
68;1673432522.4612608;47.1306424;7.2406201999999995;5.13700008392334;1673432522.5757558;4.645346164703369;20.475811004638672;87.66362762451172
69;1673432522.6506755;47.1306425;7.2406201;5.340000152587891;1673432522.7865758;4.294320583343506;17.248788833618164;87.69862365722656
70;1673432522.8679974;47.130642599999995;7.2406201;5.5420002937316895;1673432522.9934;4.256412506103516;18.129573822021484;87.64976501464844
71;1673432523.0613828;47.130642699999996;7.2406201;5.741000175476074;1673432523.1832469;4.495955944061279;21.23422622680664;87.56304168701172
72;1673432523.260966;47.130642699999996;7.2406201;5.938000202178955;1673432523.392123;4.612329483032227;18.91160011291504;87.46348571777344
73;1673432523.4717352;47.130642699999996;7.2406201999999995;6.135000228881836;1673432523.5966578;4.547445774078369;17.48012351989746;87.55622863769531
74;1673432523.662412;47.130642699999996;7.2406201999999995;6.331000328063965;1673432523.77509;4.579995155334473;19.859800338745117;87.69002532958984
75;1673432523.8491464;47.130642599999995;7.2406201999999995;6.528000354766846;1673432523.9747968;4.6568779945373535;19.405399322509766;87.60890197753906
76;1673432524.0536346;47.130642599999995;7.2406203;6.725000381469727;1673432524.1721368;4.654318332672119;16.756450653076172;87.60436248779297
77;1673432524.2460558;47.130642699999996;7.2406203;6.919000148773193;1673432524.3920546;4.552698612213135;19.071035385131836;87.62567138671875
78;1673432524.4638379;47.130642699999996;7.2406203;7.112000465393066;1673432524.585477;4.829239845275879;20.13412857055664;87.5550765991211
79;1673432524.6645985;47.130642699999996;7.2406204;7.308000564575195;1673432524.8038938;4.692511558532715;17.24688720703125;87.6082992553711
80;1673432524.8895063;47.130642599999995;7.2406204;7.505000591278076;1673432525.025991;4.845982074737549;17.282569885253906;87.49433135986328
81;1673432525.1067705;47.130642599999995;7.2406204999999995;7.706000328063965;1673432525.2325542;4.884043216705322;20.644556045532227;87.5081558227539
82;1673432525.313098;47.130642699999996;7.2406204999999995;7.910000324249268;1673432525.454215;4.7091193199157715;18.128952026367188;87.62403869628906
83;1673432525.5234966;47.130642699999996;7.2406204999999995;8.111000061035156;1673432525.631642;4.7845258712768555;17.18406867980957;87.53620147705078
84;1673432525.6992297;47.1306428;7.2406204999999995;8.3100004196167;1673432525.8035388;4.7622904777526855;20.981666564941406;87.61849975585938
85;1673432525.8696747;47.1306428;7.2406204999999995;8.510000228881836;1673432525.981487;4.634177207946777;18.90549087524414;87.62409210205078
86;1673432526.051713;47.1306429;7.2406204999999995;8.709000587463379;1673432526.1885312;4.527721881866455;17.128503799438477;87.65045166015625
87;1673432526.2734387;47.1306428;7.2406204999999995;8.906000137329102;1673432526.3872836;4.5296711921691895;19.678726196289062;87.65809631347656
88;1673432526.462993;47.1306428;7.2406206;9.106000900268555;1673432526.582956;4.8469557762146;19.663476943969727;87.54708862304688
89;1673432526.6647804;47.1306428;7.2406206;9.308000564575195;1673432526.783208;4.693268775939941;17.10331916809082;87.54995727539062
90;1673432526.8603263;47.1306429;7.2406206;9.504000663757324;1673432526.9923437;4.839773654937744;19.201873779296875;87.57147979736328
91;1673432527.0750668;47.1306428;7.2406207;9.697000503540039;1673432527.198465;4.982859134674072;20.110105514526367;87.49170684814453
92;1673432527.2732635;47.1306428;7.2406207;9.890000343322754;1673432527.3983443;4.80200719833374;17.79965591430664;87.68053436279297
93;1673432527.4868646;47.130642699999996;7.2406207;10.083000183105469;1673432527.620773;4.748418807983398;16.600948333740234;87.70950317382812
94;1673432527.6964953;47.130642599999995;7.2406207;10.320000648498535;1673432527.8322353;4.561000823974609;20.117355346679688;87.6193618774414
95;1673432527.9132905;47.1306424;7.2406207;10.676000595092773;1673432528.0216417;5.335567951202393;20.92221450805664;87.65919494628906
96;1673432528.086785;47.130642099999996;7.2406206;11.0600004196167;1673432528.2043517;4.819037914276123;17.323396682739258;87.5799560546875
97;1673432528.2842963;47.1306418;7.2406206;11.447000503540039;1673432528.4067597;4.753910064697266;19.07400131225586;87.60110473632812
98;1673432528.4870522;47.130641499999996;7.2406204999999995;11.842000961303711;1673432528.6201117;4.356733798980713;18.291109085083008;87.70923614501953
99;1673432528.703509;47.1306413;7.2406204999999995;12.241000175476074;1673432528.8336291;4.314631462097168;14.669293403625488;87.77967071533203
100;1673432528.9017742;47.130641;7.2406204999999995;12.643000602722168;1673432529.0303268;4.403942584991455;16.684181213378906;87.62084197998047
101;1673432529.1118793;47.130640899999996;7.2406204999999995;13.04800033569336;1673432529.2341757;4.610531330108643;17.654558181762695;87.48699188232422
102;1673432529.3119886;47.130641;7.2406204999999995;13.454000473022461;1673432529.4606087;4.486819267272949;15.31457805633545;87.5604476928711
103;1673432529.5312905;47.1306411;7.2406204;13.858000755310059;1673432529.6352754;4.587904453277588;17.00086212158203;87.56948852539062
104;1673432529.707101;47.1306413;7.2406204;14.259000778198242;1673432529.822388;4.52870512008667;19.55251693725586;87.61614227294922
105;1673432529.9016228;47.130641499999996;7.2406204;14.66100025177002;1673432530.0021954;4.390382766723633;17.841642379760742;87.59788513183594
106;1673432530.070913;47.1306417;7.2406204;15.066000938415527;1673432530.196539;4.387945652008057;17.94886016845703;87.6407241821289
107;1673432530.288244;47.1306418;7.2406203;15.472001075744629;1673432530.4209;4.492044925689697;20.046438217163086;87.69792938232422
108;1673432530.4963725;47.1306418;7.2406203;15.881000518798828;1673432530.6145084;4.537187576293945;18.589290618896484;87.62496185302734
109;1673432530.6984673;47.1306419;7.2406203;16.290000915527344;1673432530.8255923;4.311494827270508;16.822952270507812;87.67002868652344
110;1673432530.8986473;47.1306419;7.2406201999999995;16.696001052856445;1673432531.0107312;4.479953289031982;19.49266242980957;87.62616729736328
111;1673432531.087328;47.1306419;7.2406201999999995;17.10300064086914;1673432531.2334428;4.530435085296631;18.986082077026367;87.52464294433594
112;1673432531.3073065;47.1306419;7.2406201999999995;17.513999938964844;1673432531.4388788;4.512264251708984;16.571025848388672;87.58956909179688
113;1673432531.513223;47.1306419;7.2406201999999995;17.924001693725586;1673432531.64753;4.504791736602783;18.202219009399414;87.56956481933594
114;1673432531.7215006;47.1306418;7.2406203;18.338001251220703;1673432531.8353205;4.6838860511779785;19.087549209594727;87.54917907714844
115;1673432531.9140484;47.1306419;7.2406203;18.75200080871582;1673432532.0317097;4.679523944854736;16.555343627929688;87.56959533691406
116;1673432532.1068974;47.1306419;7.2406203;19.16200065612793;1673432532.2243676;4.6599955558776855;17.549198150634766;87.64076232910156
117;1673432532.2919388;47.130641999999995;7.2406203;19.564001083374023;1673432532.4107652;4.685935020446777;19.935619354248047;87.69245910644531
118;1673432532.4805639;47.130641999999995;7.2406201999999995;19.963001251220703;1673432532.5998967;4.602555751800537;17.346691131591797;87.646240234375
119;1673432532.6874473;47.130642099999996;7.2406201999999995;20.36400032043457;1673432532.7981906;4.400008678436279;17.242055892944336;87.60752868652344
120;1673432532.8731556;47.130642099999996;7.2406201;20.767000198364258;1673432532.9921007;4.574084281921387;19.481813430786133;87.44023895263672
121;1673432533.0638099;47.1306422;7.2406201;21.17300033569336;1673432533.2006917;4.506990432739258;18.460025787353516;87.4969482421875
122;1673432533.2842007;47.1306422;7.24062;21.577001571655273;1673432533.4117603;4.344620227813721;16.64671516418457;87.67736053466797
123;1673432533.4915764;47.1306423;7.24062;21.977001190185547;1673432533.6149874;4.392848491668701;19.754817962646484;87.70404052734375
124;1673432533.6926806;47.1306424;7.24062;22.375001907348633;1673432533.8161829;4.451463222503662;19.002948760986328;87.55335998535156
125;1673432533.900643;47.1306424;7.24062;22.775001525878906;1673432534.0282977;4.533649444580078;16.957050323486328;87.55780792236328
126;1673432534.106243;47.1306424;7.24062;23.179000854492188;1673432534.229501;4.594709396362305;18.611745834350586;87.65169525146484
127;1673432534.3059263;47.1306423;7.24062;23.58500099182129;1673432534.4267638;4.632028102874756;19.795066833496094;87.62348175048828
128;1673432534.5034053;47.1306423;7.24062;23.99100112915039;1673432534.6288867;4.328728675842285;16.661409378051758;87.52928924560547
129;1673432534.7053683;47.1306423;7.2406198999999996;24.395000457763672;1673432534.8287888;4.360815048217773;17.413780212402344;87.5322036743164
130;1673432534.8956032;47.1306422;7.2406198999999996;24.795001983642578;1673432535.0121398;4.658475875854492;20.208322525024414;87.6617202758789
131;1673432535.0913568;47.1306423;7.2406198999999996;25.194000244140625;1673432535.2336888;4.671881675720215;17.375587463378906;87.63961029052734
132;1673432535.3074908;47.1306423;7.2406198999999996;25.59400177001953;1673432535.4386673;4.612255096435547;16.73563575744629;87.54105377197266
133;1673432535.502685;47.1306422;7.2406198999999996;25.9950008392334;1673432535.6105056;4.5813398361206055;19.54177474975586;87.48660278320312
134;1673432535.6910691;47.1306422;7.2406198999999996;26.400001525878906;1673432535.8154638;4.396164417266846;19.195499420166016;87.57440185546875
135;1673432535.9091258;47.1306423;7.2406198999999996;26.8070011138916;1673432536.0312521;4.416452884674072;16.36358642578125;87.7256088256836
136;1673432536.1003878;47.1306424;7.2406198999999996;27.21200180053711;1673432536.2242427;4.34221887588501;19.29138946533203;87.71869659423828
137;1673432536.2877233;47.1306424;7.2406198999999996;27.60900115966797;1673432536.4046092;4.74090051651001;19.60385513305664;87.5802993774414
138;1673432536.4821737;47.1306425;7.24062;28.00800132751465;1673432536.6155715;4.750749111175537;16.83775520324707;87.5609359741211
139;1673432536.6949348;47.1306424;7.24062;28.405000686645508;1673432536.8157976;4.512874603271484;18.38068389892578;87.5452651977539
140;1673432536.907802;47.1306424;7.24062;28.802001953125;1673432537.0285118;4.637531757354736;19.975685119628906;87.60950469970703
141;1673432537.102085;47.1306424;7.2406198999999996;29.20100212097168;1673432537.2256324;4.464056015014648;17.428709030151367;87.60076141357422
142;1673432537.3020446;47.1306424;7.2406198999999996;29.602001190185547;1673432537.4652963;4.610073566436768;17.28108024597168;87.59950256347656
143;1673432537.5378191;47.1306424;7.2406198999999996;30.000001907348633;1673432537.656369;4.424255847930908;20.405330657958984;87.61678314208984
144;1673432537.732596;47.1306423;7.2406198999999996;30.395002365112305;1673432537.8480797;4.4546074867248535;17.612916946411133;87.60236358642578
145;1673432537.91532;47.1306423;7.2406198999999996;30.796001434326172;1673432538.016083;4.374581813812256;16.717395782470703;87.6607894897461
146;1673432538.0911741;47.1306423;7.2406198999999996;31.20100212097168;1673432538.2231276;4.498140811920166;19.308332443237305;87.6314926147461
147;1673432538.2997296;47.1306422;7.2406198999999996;31.60700225830078;1673432538.4292285;4.595763683319092;18.781963348388672;87.55413055419922
148;1673432538.5032058;47.1306423;7.24062;32.01100158691406;1673432538.7121153;4.495263576507568;16.200611114501953;87.59290313720703
149;1673432538.834536;47.1306423;7.24062;32.413002014160156;1673432538.9172578;4.4345927238464355;19.20672035217285;87.63025665283203
150;1673432538.9809043;47.1306423;7.24062;32.81100082397461;1673432539.0940237;4.500324249267578;19.836183547973633;87.64445495605469
151;1673432539.1841779;47.1306423;7.2406201;33.2140007019043;1673432539.2813802;4.600470066070557;16.486270904541016;87.54668426513672
152;1673432539.352555;47.1306423;7.2406201;33.61900329589844;1673432539.4557767;4.6529436111450195;17.712068557739258;87.48239135742188
153;1673432539.5188339;47.1306422;7.2406201;34.02400207519531;1673432539.6179607;4.756076812744141;19.733341217041016;87.53430938720703
154;1673432539.6878214;47.1306422;7.2406201;34.42900085449219;1673432539.7987113;4.521195888519287;17.443084716796875;87.6303482055664
155;1673432539.876382;47.1306423;7.2406201;34.83300018310547;1673432540.0069776;4.563873291015625;16.74232292175293;87.58615112304688
156;1673432540.1039193;47.1306424;7.2406201999999995;35.23400115966797;1673432540.24636;4.611269474029541;19.752084732055664;87.5178451538086
157;1673432540.3207932;47.1306424;7.2406201999999995;35.63199996948242;1673432540.4472418;4.486651420593262;18.21083641052246;87.55577850341797
158;1673432540.5310767;47.1306425;7.2406201;36.03200149536133;1673432540.6789684;4.394009590148926;17.032922744750977;87.71515655517578
159;1673432540.7454588;47.1306425;7.2406201;36.432003021240234;1673432540.8532171;4.533647537231445;19.23859977722168;87.66959381103516
160;1673432540.9216928;47.1306425;7.2406201999999995;36.836002349853516;1673432541.0473351;4.599208354949951;19.658815383911133;87.60674285888672
161;1673432541.1560895;47.130642599999995;7.2406201999999995;37.2390022277832;1673432541.2633367;4.494565486907959;16.831817626953125;87.57278442382812
162;1673432541.3414035;47.130642599999995;7.2406201999999995;37.63600158691406;1673432541.4549978;4.5382490158081055;18.627389907836914;87.59001922607422
163;1673432541.5233498;47.130642599999995;7.2406201999999995;38.027000427246094;1673432541.6405022;4.5591139793396;20.174304962158203;87.57711029052734
164;1673432541.7110558;47.130642599999995;7.2406201999999995;38.42300033569336;1673432541.8595371;4.580432415008545;17.364044189453125;87.5687026977539
165;1673432541.9695623;47.130642599999995;7.2406201999999995;38.81800079345703;1673432542.0747538;4.699699878692627;17.48006820678711;87.64642333984375
166;1673432542.1365807;47.1306425;7.2406203;39.2140007019043;1673432542.2687526;4.754229545593262;19.685197830200195;87.6943130493164
167;1673432542.3304737;47.1306425;7.2406203;39.6150016784668;1673432542.4356577;4.659180164337158;18.184186935424805;87.6868896484375
168;1673432542.5025165;47.1306425;7.2406203;40.01700210571289;1673432542.6293097;4.574392318725586;16.835681915283203;87.58782958984375
169;1673432542.7079155;47.130642599999995;7.2406201999999995;40.415000915527344;1673432542.843822;4.538055419921875;19.932289123535156;87.52197265625
170;1673432542.921143;47.130642599999995;7.2406201999999995;40.80900192260742;1673432543.0349672;4.632300853729248;18.714696884155273;87.49483489990234
171;1673432543.1140041;47.130642599999995;7.2406201;41.207000732421875;1673432543.2368977;4.508726596832275;17.02488136291504;87.6219482421875
172;1673432543.3142545;47.130642599999995;7.2406201;41.604000091552734;1673432543.4291046;4.451026439666748;19.084922790527344;87.61878204345703
173;1673432543.4984832;47.1306425;7.2406201;42.00300216674805;1673432543.6259158;4.5212202072143555;19.474458694458008;87.60953521728516
174;1673432543.7089558;47.1306425;7.2406201;42.40300369262695;1673432543.8326004;4.582584857940674;17.06012535095215;87.60584259033203
175;1673432543.9113574;47.1306425;7.2406201;42.801002502441406;1673432544.062029;4.5146660804748535;18.488311767578125;87.63570404052734
176;1673432544.1478565;47.130642599999995;7.2406201;43.19200134277344;1673432544.2598271;4.5554962158203125;19.922321319580078;87.5702133178711
177;1673432544.3307734;47.130642599999995;7.24062;43.5880012512207;1673432544.4744496;4.383665561676025;17.20090103149414;87.6226577758789
178;1673432544.55048;47.130642599999995;7.24062;43.98400115966797;1673432544.6614394;4.498178482055664;17.6220703125;87.63479614257812
179;1673432544.77885;47.1306425;7.24062;44.38200378417969;1673432544.9239612;4.680905818939209;19.527294158935547;87.56201171875
180;1673432545.0460072;47.1306425;7.24062;44.785003662109375;1673432545.1411886;4.641563415527344;17.82063102722168;87.60892486572266
181;1673432545.1942167;47.1306425;7.2406201;45.18800354003906;1673432545.3033657;4.442465782165527;17.015962600708008;87.57364654541016
182;1673432545.3710582;47.1306425;7.2406201;45.586002349853516;1673432545.5040638;4.6296844482421875;20.044828414916992;87.5537109375
183;1673432545.565702;47.130642599999995;7.2406201;45.98200225830078;1673432545.660139;4.5716633796691895;18.74757194519043;87.58646392822266
184;1673432545.7228754;47.130642599999995;7.2406201;46.380001068115234;1673432545.8439343;4.501577854156494;17.097917556762695;87.62975311279297
185;1673432545.9188144;47.130642599999995;7.24062;46.777000427246094;1673432546.0383692;4.541790008544922;19.176807403564453;87.59878540039062
186;1673432546.109308;47.1306425;7.24062;47.17400360107422;1673432546.2267907;4.496547698974609;19.400352478027344;87.59280395507812
187;1673432546.3029494;47.1306425;7.24062;47.57200241088867;1673432546.4248462;4.421339988708496;16.913042068481445;87.58792877197266
188;1673432546.4995565;47.1306425;7.24062;47.97100067138672;1673432546.6300027;4.411693096160889;18.846982955932617;87.89542388916016
189;1673432546.7147193;47.1306425;7.24062;48.33700180053711;1673432546.8559787;4.607116222381592;21.05489730834961;87.74093627929688
190;1673432546.9329028;47.130642599999995;7.24062;48.656002044677734;1673432547.0461888;4.455521583557129;17.270061492919922;87.61351013183594
191;1673432547.1151557;47.130642699999996;7.2406201;48.927001953125;1673432547.2261975;4.681953430175781;18.236846923828125;87.59943389892578
192;1673432547.3020198;47.1306428;7.2406201;49.152000427246094;1673432547.434663;4.829710006713867;20.386781692504883;87.48114776611328
193;1673432547.506205;47.1306431;7.2406201999999995;49.342002868652344;1673432547.63694;12.325907707214355;24.204545974731445;89.27871704101562
194;1673432547.713519;47.130643199999994;7.24062;49.50800323486328;1673432547.8305519;25.195476531982422;39.16044235229492;100.63973236083984
195;1673432547.915103;47.130642699999996;7.2406185;49.65500259399414;1673432548.046881;26.6805419921875;52.854732513427734;110.79936218261719
196;1673432548.118478;47.1306406;7.240614099999999;49.77100372314453;1673432548.231444;19.821138381958008;60.29500961303711;120.02178192138672
197;1673432548.3098981;47.1306367;7.240606499999999;49.84800338745117;1673432548.4360309;1.2165805101394653;53.62273025512695;129.23484802246094
198;1673432548.5129397;47.1306314;7.2405962;49.88200378417969;1673432548.6298044;-12.178383827209473;49.44377136230469;139.36659240722656
199;1673432548.703542;47.130625099999996;7.240583999999999;49.900001525878906;1673432548.8277838;-26.302940368652344;48.263362884521484;149.2643280029297
200;1673432548.9105616;47.130617799999996;7.2405702;49.922000885009766;1673432549.0419137;-40.101341247558594;42.66045379638672;162.1767578125
201;1673432549.1262434;47.130609299999996;7.240555;49.945003509521484;1673432549.255673;-50.311275482177734;37.22612762451172;175.73924255371094
202;1673432549.3330255;47.1305998;7.240538099999999;49.941001892089844;1673432549.4473505;-50.79928970336914;27.70790672302246;-174.11944580078125
203;1673432549.5268314;47.1305894;7.2405197999999995;49.906002044677734;1673432549.6503298;-46.09929275512695;20.456071853637695;-168.4052276611328
204;1673432549.7390358;47.1305786;7.2405006;49.85900115966797;1673432549.8579378;-46.2114372253418;15.278327941894531;-162.37071228027344
205;1673432549.9342005;47.1305676;7.2404809;49.816001892089844;1673432550.0443552;-47.66719436645508;10.825943946838379;-154.91232299804688
206;1673432550.1151583;47.130556399999996;7.2404608999999995;49.78400421142578;1673432550.2319734;-47.42087936401367;5.765279293060303;-147.69155883789062
207;1673432550.3123798;47.1305451;7.2404405999999994;49.7650032043457;1673432550.43467;-48.08552932739258;0.8846514821052551;-141.3475799560547
208;1673432550.5124416;47.130533799999995;7.2404199;49.75100326538086;1673432550.671873;-47.657989501953125;-6.4362335205078125;-134.36314392089844
209;1673432550.7524288;47.1305224;7.2403993;49.7400016784668;1673432550.8657258;-45.77802276611328;-14.272625923156738;-133.8605499267578
210;1673432550.9405966;47.130510799999996;7.2403787;49.72300338745117;1673432551.0634503;-40.694068908691406;-10.741220474243164;-146.02505493164062
211;1673432551.129936;47.130499;7.240359199999999;49.69300079345703;1673432551.236356;-35.776878356933594;-4.296083927154541;-158.69827270507812
212;1673432551.311023;47.1304872;7.240341399999999;49.660003662109375;1673432551.4363792;-37.173316955566406;1.152459979057312;-167.8839111328125
213;1673432551.512093;47.1304756;7.2403251;49.64600372314453;1673432551.6252146;-39.03501892089844;5.946428298950195;-176.97802734375
214;1673432551.69918;47.1304641;7.2403105;49.65200424194336;1673432551.8219738;-41.080406188964844;13.569540977478027;173.43707275390625
215;1673432551.8982332;47.130452399999996;7.2402973;49.676002502441406;1673432552.0238197;-39.90791702270508;19.773235321044922;164.3470001220703
216;1673432552.1100285;47.1304406;7.2402850999999995;49.715003967285156;1673432552.2376;-35.76142501831055;28.600038528442383;154.7058563232422
217;1673432552.3105495;47.1304284;7.2402736999999995;49.76100158691406;1673432552.4384134;-35.75322341918945;37.72428512573242;148.67984008789062
218;1673432552.5130188;47.130415899999996;7.240262599999999;49.82500076293945;1673432552.641117;-35.6964111328125;37.57487487792969;163.1951141357422
219;1673432552.7123537;47.1304029;7.2402508999999995;49.88200378417969;1673432552.8264828;-43.63593673706055;33.433834075927734;-179.0737762451172
220;1673432552.9019468;47.1303899;7.2402375999999995;49.922000885009766;1673432553.0314767;-46.331214904785156;21.84378433227539;-167.55459594726562
221;1673432553.1141202;47.1303771;7.2402226;49.948001861572266;1673432553.2421331;-45.583824157714844;19.281030654907227;-160.5631103515625
222;1673432553.3237967;47.1303644;7.2402064;49.95500183105469;1673432553.4519658;-44.92616271972656;15.964936256408691;-153.2271270751953
223;1673432553.530683;47.1303522;7.2401889;49.96200180053711;1673432553.660946;-42.8685188293457;9.275311470031738;-143.51622009277344
224;1673432553.7349901;47.1303406;7.240170399999999;49.96600341796875;1673432553.8509645;-44.471343994140625;0.5189909934997559;-135.54837036132812
225;1673432553.9233074;47.130329499999995;7.2401513;49.980003356933594;1673432554.0463989;-48.19968795776367;-10.276095390319824;-131.7849578857422
226;1673432554.1308684;47.1303184;7.2401316;50.0160026550293;1673432554.2598267;-51.69698715209961;-13.258030891418457;-134.76377868652344
227;1673432554.3317993;47.1303069;7.2401119;50.04300308227539;1673432554.4522166;-50.89217758178711;-8.948538780212402;-138.4027862548828
228;1673432554.5226731;47.1302946;7.240092499999999;50.05400085449219;1673432554.6403117;-48.75277328491211;-5.315101146697998;-140.18301391601562
229;1673432554.7237737;47.130282;7.2400731;50.05900192260742;1673432554.8505988;-48.59232711791992;-4.97865104675293;-140.04209899902344
230;1673432554.9278674;47.1302692;7.2400538;50.060001373291016;1673432555.05284;-48.58418655395508;-6.53107213973999;-139.68032836914062
231;1673432555.129039;47.1302563;7.240034499999999;50.06300354003906;1673432555.2603486;-48.11974334716797;-8.58651065826416;-139.79080200195312
232;1673432555.3353262;47.1302431;7.240015499999999;50.066001892089844;1673432555.464054;-45.98899459838867;-7.540882110595703;-147.5309295654297
233;1673432555.546853;47.130229799999995;7.2399968999999995;50.051002502441406;1673432555.6729782;-41.28689956665039;-1.0096569061279297;-158.99917602539062
234;1673432555.7526908;47.1302163;7.239979399999999;50.0260009765625;1673432555.8835835;-40.01791763305664;5.404770851135254;-167.77964782714844
235;1673432555.9667323;47.130202999999995;7.2399631;50.00400161743164;1673432556.0767517;-44.47071838378906;17.679542541503906;-170.7391815185547
236;1673432556.1465764;47.1301898;7.2399473;50.00600051879883;1673432556.264693;-46.53044891357422;13.399215698242188;-154.728515625
237;1673432556.3342547;47.1301768;7.2399309;50.00200271606445;1673432556.4580677;-45.80264663696289;7.281556606292725;-142.3181915283203
238;1673432556.5298207;47.130164199999996;7.2399135;49.992000579833984;1673432556.649046;-44.01557922363281;0.10249075293540955;-134.31602478027344
239;1673432556.724925;47.1301523;7.2398953;49.98800277709961;1673432556.8501532;-48.95124435424805;-5.867415428161621;-134.87298583984375
240;1673432556.9308803;47.130140499999996;7.239876499999999;50.00100326538086;1673432557.0551374;-51.20650100708008;-8.33268928527832;-138.1598358154297
241;1673432557.13577;47.1301284;7.2398574;50.012001037597656;1673432557.2775202;-48.983489990234375;-11.278665542602539;-143.69400024414062
242;1673432557.361847;47.1301158;7.239838499999999;50.00300216674805;1673432557.5100868;-42.564666748046875;-5.347286701202393;-155.4525146484375
243;1673432557.6019151;47.1301029;7.2398207;49.98100280761719;1673432557.7282624;-39.2395133972168;0.9374927282333374;-164.8602752685547
244;1673432557.7996292;47.130089999999996;7.2398041;49.95900344848633;1673432557.9052265;-39.606353759765625;7.766170501708984;-173.841552734375
245;1673432557.979862;47.130077299999996;7.2397887;49.94600296020508;1673432558.1026742;-39.8809928894043;15.044142723083496;176.87261962890625
246;1673432558.1717136;47.1300646;7.2397744;49.94900131225586;1673432558.3274674;-45.514190673828125;24.807044982910156;177.80921936035156
247;1673432558.4234354;47.130051599999994;7.2397602;49.970001220703125;1673432558.53082;-49.22153091430664;22.4027099609375;-164.21636962890625
248;1673432558.5995343;47.1300385;7.239745;49.97900390625;1673432558.7116086;-45.128257751464844;12.953513145446777;-151.32305908203125
249;1673432558.7807262;47.1300257;7.2397285;49.97200393676758;1673432558.9610188;-44.150936126708984;6.701213359832764;-143.71875
250;1673432559.0261884;47.1300135;7.2397111999999995;49.9630012512207;1673432559.1470654;-43.337188720703125;0.04162943363189697;-135.5427703857422
251;1673432559.2147164;47.130001799999995;7.2396932;49.96000289916992;1673432559.3422217;-47.35097885131836;-7.32729434967041;-133.02725219726562
252;1673432559.4155138;47.129990299999996;7.2396746;49.97600173950195;1673432559.512337;-51.49704360961914;-9.719930648803711;-136.15750122070312
253;1673432559.5916564;47.1299784;7.2396557999999995;49.99800109863281;1673432559.7090828;-50.98139953613281;-10.055033683776855;-139.0010986328125
254;1673432559.8110242;47.129965899999995;7.2396369;50.009002685546875;1673432559.9227233;-49.5050048828125;-8.01569938659668;-140.2484893798828
255;1673432559.9961555;47.129953;7.2396182;50.01300048828125;1673432560.1164415;-47.93056106567383;-9.044905662536621;-143.19134521484375
256;1673432560.1845276;47.129939799999995;7.2395998;50.00400161743164;1673432560.306192;-42.64661407470703;-2.7510764598846436;-155.43075561523438
257;1673432560.3833454;47.1299263;7.2395821;49.980003356933594;1673432560.5004067;-41.1815185546875;3.9551522731781006;-164.6932373046875
258;1673432560.5726795;47.1299129;7.239565499999999;49.96800231933594;1673432560.6906002;-43.94906997680664;12.090556144714355;-161.40611267089844
259;1673432560.7627187;47.129899699999996;7.2395492;49.95900344848633;1673432560.887822;-45.57411193847656;6.568261623382568;-145.45797729492188
260;1673432560.964544;47.1298867;7.2395324;49.9530029296875;1673432561.084011;-44.73410415649414;-0.38683396577835083;-135.3542022705078
261;1673432561.1567087;47.129874199999996;7.2395149;49.95100402832031;1673432561.2761111;-48.56696701049805;-4.419654369354248;-136.23777770996094
262;1673432561.4218328;47.129861899999995;7.2394967999999995;49.96600341796875;1673432561.5227795;-50.24150848388672;-6.40076208114624;-139.088134765625
263;1673432561.5938425;47.1298495;7.239478399999999;49.98600387573242;1673432561.7177176;-49.28438186645508;-7.686692714691162;-139.82687377929688
264;1673432561.790685;47.1298368;7.2394598;49.99800109863281;1673432561.9231372;-48.97562789916992;-7.51625919342041;-140.21527099609375
265;1673432561.9859097;47.129823699999996;7.2394414;50.00800323486328;1673432562.1038477;-48.44034957885742;-6.4993577003479;-140.65780639648438
266;1673432562.1707156;47.1298104;7.2394229999999995;50.018001556396484;1673432562.2901855;-47.646175384521484;-8.067377090454102;-144.03367614746094
267;1673432562.3646843;47.1297968;7.239405;50.01900100708008;1673432562.4839349;-43.81620788574219;-0.32087600231170654;-145.08236694335938
268;1673432562.5462677;47.1297831;7.2393871999999995;50.00200271606445;1673432562.6687827;-40.84976577758789;-4.101279258728027;-138.45155334472656
269;1673432562.7496712;47.1297699;7.2393696;49.996002197265625;1673432562.8776772;-47.59468078613281;-4.905688285827637;-139.2733154296875
270;1673432562.9467509;47.129756799999996;7.2393519;50.009002685546875;1673432563.06203;-51.35591506958008;-5.319719314575195;-140.22142028808594
271;1673432563.1470199;47.1297436;7.2393339999999995;50.02100372314453;1673432563.2640483;-49.60279846191406;-5.248537540435791;-140.59945678710938
272;1673432563.3436747;47.129730099999996;7.239315899999999;50.022003173828125;1673432563.4957454;-47.960906982421875;-5.170080661773682;-140.58851623535156
273;1673432563.5746055;47.1297165;7.2392975999999996;50.01900100708008;1673432563.69056;-47.04616928100586;-5.233016490936279;-140.4237823486328
274;1673432563.762353;47.1297029;7.2392793;50.018001556396484;1673432563.8743453;-47.3880500793457;-5.319283485412598;-140.33763122558594
275;1673432563.9510505;47.129689299999995;7.239261099999999;50.0160026550293;1673432564.0789328;-48.22578811645508;-5.351753234863281;-140.32864379882812
276;1673432564.1636634;47.1296756;7.2392427999999995;50.01300048828125;1673432564.2786536;-47.68495559692383;-5.357779502868652;-140.2738494873047
277;1673432564.3708951;47.129661899999995;7.2392246;50.01000213623047;1673432564.493855;-47.23823547363281;-5.261780261993408;-140.2638702392578
278;1673432564.5761843;47.1296482;7.239206299999999;50.00700378417969;1673432564.7478392;-47.4196891784668;-5.245360851287842;-140.18980407714844
279;1673432564.8154485;47.129634499999995;7.2391881;50.00400161743164;1673432564.967034;-47.309661865234375;-5.25744104385376;-140.18026733398438
280;1673432565.058329;47.1296208;7.239169899999999;50.00100326538086;1673432565.1686954;-47.31386947631836;-5.218284606933594;-140.17324829101562
281;1673432565.2302685;47.1296071;7.2391516;50.00100326538086;1673432565.3293235;-47.628074645996094;-5.206672191619873;-140.15493774414062
282;1673432565.4020402;47.1295934;7.2391334;50.00300216674805;1673432565.5199249;-47.64725875854492;-5.201735973358154;-140.16531372070312
283;1673432565.5872831;47.129579799999995;7.239115099999999;50.00400161743164;1673432565.6913846;-47.60158157348633;-5.186158657073975;-140.18968200683594
284;1673432565.7810066;47.1295661;7.2390967999999996;50.00200271606445;1673432565.8972175;-47.473636627197266;-5.103401184082031;-140.23114013671875
285;1673432565.969515;47.129552399999994;7.2390785;49.99800109863281;1673432566.084448;-47.14255905151367;-5.024117469787598;-140.2827606201172
286;1673432566.1754227;47.1295387;7.2390602;49.996002197265625;1673432566.2869773;-47.2852897644043;-5.04849910736084;-140.26832580566406
287;1673432566.3662424;47.129525099999995;7.239041899999999;49.996002197265625;1673432566.495393;-47.723392486572266;-5.01570987701416;-140.3077392578125
288;1673432566.5712087;47.1295114;7.2390235999999994;49.99700164794922;1673432566.7016158;-47.69881057739258;-4.975144386291504;-140.36761474609375
289;1673432566.7816944;47.129497799999996;7.239005199999999;49.99700164794922;1673432566.906327;-47.63364791870117;-4.8879313468933105;-140.4652099609375
290;1673432566.9836185;47.1294841;7.238986799999999;49.99400329589844;1673432567.1064734;-47.3687858581543;-4.817842960357666;-140.5301513671875
291;1673432567.181105;47.129470399999995;7.2389684;49.9900016784668;1673432567.3006103;-47.18986892700195;-4.7215070724487305;-140.61251831054688
292;1673432567.376592;47.1294568;7.23895;49.9900016784668;1673432567.5028455;-47.53322219848633;-4.952779293060303;-140.603515625
293;1673432567.5794923;47.1294432;7.2389316;49.99100112915039;1673432567.6873083;-47.57954406738281;-5.634499549865723;-140.5863494873047
294;1673432567.756432;47.1294295;7.2389133;49.993003845214844;1673432567.875976;-47.654029846191406;-5.211099147796631;-141.0455780029297
295;1673432567.948655;47.1294158;7.238894999999999;49.99500274658203;1673432568.0721033;-47.570674896240234;-5.0953688621521;-141.00318908691406
296;1673432568.1528;47.129402;7.2388768;49.996002197265625;1673432568.2803118;-47.231876373291016;-6.23242712020874;-140.97915649414062
297;1673432568.3590646;47.1293882;7.2388587;49.999000549316406;1673432568.4841542;-47.74701690673828;-5.708378791809082;-141.39781188964844
298;1673432568.552063;47.129374299999995;7.2388406;50.005001068115234;1673432568.6668334;-48.06719970703125;-5.90872049331665;-141.48907470703125
299;1673432568.7425587;47.129360399999996;7.2388227;50.01100158691406;1673432568.8658564;-48.03548812866211;-5.966914653778076;-141.6811981201172
300;1673432568.9420402;47.129346299999995;7.2388048;50.0160026550293;1673432569.0668983;-47.891075134277344;-5.944859504699707;-141.87391662597656
301;1673432569.1461987;47.1293322;7.2387871;50.018001556396484;1673432569.2899454;-47.60634994506836;-6.230856895446777;-141.97470092773438
302;1673432569.3663971;47.1293181;7.2387695;50.02000427246094;1673432569.494745;-47.496673583984375;-6.461888790130615;-142.07794189453125
303;1673432569.574545;47.1293039;7.238752099999999;50.022003173828125;1673432569.7025583;-47.45962905883789;-6.616044044494629;-142.19223022460938
304;1673432569.7703798;47.1292896;7.2387349;50.02000427246094;1673432569.8800724;-47.64638900756836;-6.102248668670654;-142.5238494873047
305;1673432569.9501226;47.129275199999995;7.2387178;50.018001556396484;1673432570.0631204;-47.17182159423828;-7.329981803894043;-142.1722412109375
306;1673432570.1416972;47.1292609;7.238700799999999;50.0150032043457;1673432570.2598124;-46.64783477783203;-8.507306098937988;-142.23760986328125
307;1673432570.3334153;47.1292464;7.2386842;50.0160026550293;1673432570.4582107;-43.73674011230469;-6.780044078826904;-142.61289978027344
308;1673432570.5356128;47.1292319;7.238667899999999;50.02700424194336;1673432570.6637735;-33.70462417602539;-7.3344292640686035;-141.75576782226562
309;1673432570.7525775;47.1292179;7.2386520999999995;50.057003021240234;1673432570.877444;-20.648334503173828;-6.428806781768799;-140.46322631835938
310;1673432570.9560666;47.129204699999995;7.238637499999999;50.077003479003906;1673432571.0815744;-9.803794860839844;-5.8347954750061035;-138.68838500976562
311;1673432571.156023;47.129193199999996;7.2386243;50.0880012512207;1673432571.2712986;-4.155649185180664;-4.771581649780273;-138.26071166992188
312;1673432571.3566825;47.1291836;7.238613;50.09100341796875;1673432571.482205;-0.27568456530570984;-4.290011405944824;-138.33770751953125
313;1673432571.5929909;47.1291759;7.2386035;50.09400177001953;1673432571.7111907;-0.8691133260726929;-1.9432536363601685;-139.91549682617188
314;1673432571.7835906;47.129169999999995;7.238595699999999;50.10200119018555;1673432571.8915532;-3.50742244720459;-6.070483684539795;-139.63145446777344
315;1673432571.975648;47.1291656;7.2385893999999995;50.11300277709961;1673432572.103612;-6.224518775939941;-11.820456504821777;-137.24258422851562
316;1673432572.1850655;47.1291625;7.2385845;50.12300109863281;1673432572.3104334;-10.028809547424316;-12.664137840270996;-137.21246337890625
317;1673432572.3905141;47.129160299999995;7.2385807;50.130001068115234;1673432572.5466866;-13.4055757522583;-13.265473365783691;-139.2852020263672
318;1673432572.6558573;47.129158499999996;7.2385778;50.134002685546875;1673432572.7586508;-25.125511169433594;-13.061309814453125;-138.3253173828125
319;1673432572.8296497;47.1291568;7.2385755;50.17000198364258;1673432572.9810095;-41.12057876586914;-6.827035427093506;-135.6110382080078
320;1673432573.046888;47.1291544;7.2385722999999995;50.27000427246094;1673432573.150967;-26.13692855834961;-3.2677762508392334;-136.60009765625
321;1673432573.2206094;47.1291513;7.2385677;50.43000411987305;1673432573.3385444;-26.394262313842773;-3.873391628265381;-137.6165313720703
322;1673432573.4101348;47.1291483;7.2385625;50.689002990722656;1673432573.5218308;-38.98600387573242;-4.747931957244873;-137.9097900390625
323;1673432573.5850985;47.1291449;7.2385563;51.038002014160156;1673432573.766464;-52.914398193359375;-10.082671165466309;-137.6858367919922
324;1673432573.8313522;47.12914;7.2385484;51.41100311279297;1673432574.0046196;-51.426849365234375;-11.325125694274902;-138.71502685546875
325;1673432574.0569456;47.1291333;7.238538999999999;51.74900436401367;1673432574.150126;-49.58794021606445;-8.735487937927246;-138.5323028564453
326;1673432574.2142355;47.1291254;7.2385285999999995;52.07200241088867;1673432574.32439;-46.252140045166016;-9.003461837768555;-138.09593200683594
327;1673432574.3899238;47.129116499999995;7.2385171999999995;52.37800216674805;1673432574.4994888;-42.75879669189453;-8.378938674926758;-138.09262084960938
328;1673432574.5708203;47.1291071;7.2385052;52.678001403808594;1673432574.7060344;-40.33162307739258;-7.66511344909668;-137.75413513183594
329;1673432574.7840972;47.1290972;7.2384927999999995;52.98100280761719;1673432574.9128606;-39.136959075927734;-7.484402179718018;-137.42335510253906
330;1673432575.0177646;47.129087299999995;7.2384802;53.2920036315918;1673432575.13357;-38.281864166259766;-7.372598648071289;-137.02890014648438
331;1673432575.1991467;47.1290773;7.238467399999999;53.61100387573242;1673432575.3118968;-37.86211013793945;-7.263869762420654;-136.90724182128906
332;1673432575.3913558;47.1290674;7.238454399999999;53.94300079345703;1673432575.51533;-37.597694396972656;-7.164488315582275;-136.84442138671875
333;1673432575.6174927;47.129057499999995;7.2384413;54.28600311279297;1673432575.718491;-37.320274353027344;-7.312839031219482;-136.75863647460938
334;1673432575.7839606;47.1290476;7.2384281999999995;54.6400032043457;1673432575.8890069;-37.437007904052734;-7.428555011749268;-136.74996948242188
335;1673432575.9796727;47.1290379;7.2384151;55.00200271606445;1673432576.1525152;-37.303340911865234;-7.611514568328857;-136.73947143554688
336;1673432576.266336;47.1290282;7.2384018999999995;55.36900329589844;1673432576.3627126;-37.485435485839844;-7.758774280548096;-136.80612182617188
337;1673432576.4244196;47.129018599999995;7.2383887;55.74100112915039;1673432576.5292192;-37.872920989990234;-7.844498157501221;-136.8092498779297
338;1673432576.5985239;47.1290091;7.2383755999999995;56.11700439453125;1673432576.726318;-37.98418426513672;-8.171537399291992;-136.80015563964844
339;1673432576.7908912;47.1289995;7.2383624;56.49500274658203;1673432576.9107924;-37.969844818115234;-8.164793968200684;-136.88902282714844
340;1673432576.9825766;47.1289899;7.2383492;56.87600326538086;1673432577.1025012;-38.05379867553711;-8.043170928955078;-136.91587829589844
341;1673432577.1844084;47.128980399999996;7.238335999999999;57.25800323486328;1673432577.3109634;-37.98314666748047;-8.126374244689941;-136.9002685546875
342;1673432577.3846393;47.1289708;7.2383228;57.63900375366211;1673432577.5049367;-38.08018493652344;-8.030513763427734;-136.93736267089844
343;1673432577.5817559;47.1289612;7.2383096;58.02400207519531;1673432577.7110255;-38.11183166503906;-7.8825764656066895;-136.951171875
344;1673432577.7857482;47.1289516;7.2382965;58.41100311279297;1673432577.8969738;-38.150306701660156;-7.831417560577393;-136.93324279785156
345;1673432577.967307;47.128941999999995;7.238283399999999;58.794002532958984;1673432578.0923395;-38.14997863769531;-7.889338493347168;-136.93856811523438
346;1673432578.1688647;47.1289324;7.2382703;59.178001403808594;1673432578.2992153;-38.338680267333984;-7.850179195404053;-136.92572021484375
347;1673432578.3730836;47.1289227;7.2382572;59.56300354003906;1673432578.5074527;-38.1988639831543;-7.850514888763428;-136.932373046875
348;1673432578.583838;47.1289131;7.238244;59.945003509521484;1673432578.7105563;-38.230438232421875;-7.816606521606445;-136.93759155273438
349;1673432578.7806413;47.1289034;7.2382307;60.32600402832031;1673432578.8938684;-38.29270553588867;-7.817141056060791;-136.96148681640625
350;1673432578.9714837;47.1288938;7.238217499999999;60.708003997802734;1673432579.0876732;-38.239891052246094;-7.789381980895996;-136.94464111328125
351;1673432579.1689517;47.1288841;7.2382043;61.090003967285156;1673432579.295636;-38.363311767578125;-7.837501525878906;-136.94773864746094
352;1673432579.3749151;47.1288744;7.238191;61.47500228881836;1673432579.490388;-38.3965950012207;-7.811206340789795;-136.9354248046875
353;1673432579.576274;47.128864799999995;7.2381778;61.862003326416016;1673432579.7084286;-38.34275436401367;-7.77281379699707;-136.9307861328125
354;1673432579.7940736;47.128855099999996;7.2381645;62.25100326538086;1673432579.9203992;-38.446746826171875;-7.8852009773254395;-136.92413330078125
355;1673432580.008886;47.128845399999996;7.2381512;62.6410026550293;1673432580.1261103;-38.34553527832031;-7.845075607299805;-136.9588165283203
356;1673432580.1879325;47.128835699999996;7.2381379;63.02700424194336;1673432580.3089836;-38.397647857666016;-7.707070827484131;-136.94241333007812
357;1673432580.3872523;47.1288261;7.2381246;63.413002014160156;1673432580.506203;-38.43647003173828;-7.710703372955322;-136.9716033935547
358;1673432580.575183;47.1288164;7.2381112;63.798004150390625;1673432580.7046466;-38.3166618347168;-7.945232391357422;-136.89642333984375
359;1673432580.7874856;47.1288067;7.238097799999999;64.18400573730469;1673432580.9040325;-38.3974723815918;-7.817160606384277;-136.9827117919922
360;1673432580.9758766;47.128797;7.238084499999999;64.57200622558594;1673432581.0976717;-38.475624084472656;-7.936563968658447;-136.93038940429688
361;1673432581.1733935;47.1287873;7.2380711;64.96000671386719;1673432581.3152819;-38.314395904541016;-7.8554768562316895;-136.9319305419922
362;1673432581.3825195;47.1287775;7.2380577;65.35200500488281;1673432581.5003498;-38.495079040527344;-7.9279890060424805;-136.9169158935547
363;1673432581.5790594;47.1287678;7.2380444;65.74200439453125;1673432581.7004416;-38.484580993652344;-7.787029266357422;-136.9808349609375
364;1673432581.7771127;47.1287581;7.238030999999999;66.12800598144531;1673432581.9115326;-38.40874099731445;-7.826228618621826;-136.92901611328125
365;1673432581.9947672;47.1287483;7.2380175;66.51399993896484;1673432582.1184356;-38.374507904052734;-7.881190299987793;-136.97059631347656
366;1673432582.193158;47.1287386;7.2380040999999995;66.89800262451172;1673432582.3300638;-38.38420486450195;-7.845160007476807;-136.9416961669922
367;1673432582.4010205;47.1287288;7.2379907;67.28300476074219;1673432582.5109737;-38.47164535522461;-7.869985103607178;-136.95852661132812
368;1673432582.5832117;47.1287191;7.2379773;67.66800689697266;1673432582.7025096;-38.427921295166016;-7.833036422729492;-136.94248962402344
369;1673432582.7841403;47.1287094;7.237964;68.0530014038086;1673432582.8999856;-38.48609924316406;-7.8175506591796875;-136.95782470703125
370;1673432582.9899082;47.1286996;7.2379506;68.43800354003906;1673432583.1081364;-38.42017364501953;-7.782736301422119;-136.94358825683594
371;1673432583.1880748;47.1286898;7.237937199999999;68.82300567626953;1673432583.3062875;-38.454444885253906;-7.815096855163574;-136.93423461914062
372;1673432583.3836677;47.1286801;7.2379237;69.21200561523438;1673432583.5152571;-38.361732482910156;-7.78125;-136.96527099609375
373;1673432583.5964723;47.128670299999996;7.237910299999999;69.6050033569336;1673432583.7119715;-38.3322868347168;-7.898756504058838;-136.9148406982422
374;1673432583.7901273;47.128660499999995;7.2378968;69.9990005493164;1673432583.9164212;-38.31331253051758;-7.898606300354004;-136.97508239746094
375;1673432583.9923499;47.128650699999994;7.2378833;70.39400482177734;1673432584.1034176;-38.276206970214844;-7.9968953132629395;-136.92364501953125
376;1673432584.1746407;47.1286409;7.2378699;70.78900146484375;1673432584.286419;-38.3626594543457;-7.9868035316467285;-136.9375762939453
377;1673432584.359034;47.1286312;7.2378564999999995;71.1830062866211;1673432584.4836383;-38.365116119384766;-7.924839019775391;-136.95297241210938
378;1673432584.5634296;47.1286214;7.237843;71.5770034790039;1673432584.6881695;-38.449378967285156;-7.955837249755859;-136.94442749023438
379;1673432584.771609;47.1286117;7.2378295999999995;71.96900177001953;1673432584.8987443;-38.376869201660156;-8.031023025512695;-136.932861328125
380;1673432584.9759185;47.1286019;7.2378161;72.36000061035156;1673432585.0941055;-38.467491149902344;-7.935649871826172;-136.96429443359375
381;1673432585.1772938;47.1285921;7.2378027;72.74700164794922;1673432585.3007896;-38.50832748413086;-7.951944828033447;-136.97067260742188
382;1673432585.3753777;47.1285823;7.237789299999999;73.13300323486328;1673432585.4875154;-38.479591369628906;-7.964881896972656;-136.9552459716797
383;1673432585.5737572;47.1285725;7.2377758;73.52200317382812;1673432585.7078452;-38.565696716308594;-7.823608875274658;-136.96253967285156
384;1673432585.7832282;47.128562599999995;7.237762399999999;73.91200256347656;1673432585.9121969;-38.5010871887207;-7.942701816558838;-136.93446350097656
385;1673432585.9895043;47.1285528;7.237749;74.302001953125;1673432586.1024957;-38.547794342041016;-7.9201459884643555;-136.94920349121094
386;1673432586.185904;47.1285429;7.2377356;74.69200134277344;1673432586.3165948;-38.57246017456055;-7.898733615875244;-136.9318389892578
387;1673432586.3960516;47.1285331;7.2377221;75.08000183105469;1673432586.5215874;-38.53551483154297;-8.00158977508545;-136.92108154296875
388;1673432586.5940151;47.1285232;7.2377085999999995;75.47200012207031;1673432586.7204065;-38.53157424926758;-7.891567707061768;-136.949951171875
389;1673432586.7957933;47.128513299999995;7.2376951;75.86500549316406;1673432586.9275444;-38.49119186401367;-7.971526145935059;-136.96868896484375
390;1673432587.001976;47.1285035;7.2376816999999996;76.26100158691406;1673432587.1130486;-38.56161880493164;-7.901795864105225;-136.9625244140625
391;1673432587.1971595;47.1284936;7.2376682;76.6570053100586;1673432587.3218598;-38.47971725463867;-7.942429542541504;-136.91615295410156
392;1673432587.3971112;47.128483599999996;7.2376548;77.05400085449219;1673432587.5224035;-38.5217170715332;-7.7183122634887695;-136.96609497070312
393;1673432587.630717;47.1284737;7.2376413;77.45000457763672;1673432587.7474117;-38.49303436279297;-7.8725056648254395;-136.87461853027344
394;1673432587.8141522;47.1284638;7.237627799999999;77.84700012207031;1673432587.9396114;-38.485076904296875;-7.73393440246582;-136.93763732910156
395;1673432588.0056608;47.1284539;7.2376144;78.24200439453125;1673432588.1118808;-38.65712356567383;-7.776810169219971;-136.9162139892578
396;1673432588.183011;47.1284439;7.2376008999999994;78.63800048828125;1673432588.3151815;-38.62650680541992;-7.768485069274902;-136.89935302734375
397;1673432588.39304;47.128434;7.2375874;79.0320053100586;1673432588.5212586;-38.651695251464844;-7.7622809410095215;-136.93467712402344
398;1673432588.5943198;47.1284241;7.2375739;79.4280014038086;1673432588.7130463;-38.59102249145508;-7.66044282913208;-136.8965301513672
399;1673432588.7839692;47.1284141;7.237560299999999;79.82400512695312;1673432588.895394;-38.48823165893555;-7.773165702819824;-136.88539123535156
400;1673432588.9646673;47.1284041;7.237546699999999;80.21600341796875;1673432589.0939991;-38.44658279418945;-7.664958477020264;-136.9054718017578
401;1673432589.1854417;47.128394199999995;7.237533099999999;80.61200714111328;1673432589.3196042;-38.44025421142578;-7.735659122467041;-136.89476013183594
402;1673432589.4062948;47.1283842;7.237519499999999;81.00700378417969;1673432589.5285323;-38.48674774169922;-7.7793073654174805;-136.8870849609375
403;1673432589.603374;47.1283743;7.2375058999999995;81.40400695800781;1673432589.7229083;-38.49593734741211;-7.884369373321533;-136.89305114746094
404;1673432589.7995386;47.128364399999995;7.2374922999999995;81.8010025024414;1673432589.9253569;-38.471378326416016;-7.819099426269531;-136.87899780273438
405;1673432590.0024529;47.1283544;7.2374787;82.20000457763672;1673432590.122865;-38.51810073852539;-7.793878078460693;-136.88246154785156
406;1673432590.1968029;47.1283445;7.2374651;82.60000610351562;1673432590.3162656;-38.48411560058594;-7.777860641479492;-136.90582275390625
407;1673432590.392387;47.1283345;7.2374515;83.00200653076172;1673432590.533059;-38.538394927978516;-7.7484130859375;-136.89022827148438
408;1673432590.6064842;47.1283246;7.2374377999999995;83.4020004272461;1673432590.7346032;-38.34784698486328;-7.831204891204834;-136.87796020507812
409;1673432590.815043;47.1283147;7.2374241999999995;83.8030014038086;1673432590.924376;-38.57201385498047;-7.940006732940674;-136.85655212402344
410;1673432591.0068154;47.128304799999995;7.237410499999999;84.2040023803711;1673432591.1334746;-38.39714431762695;-7.964113712310791;-136.91754150390625
411;1673432591.2111592;47.1282948;7.237396899999999;84.60200500488281;1673432591.3424911;-38.56417465209961;-7.81906270980835;-136.89698791503906
412;1673432591.4184978;47.1282849;7.237383299999999;84.99700164794922;1673432591.5319774;-38.510353088378906;-7.9825944900512695;-136.84371948242188
413;1673432591.614947;47.1282749;7.2373696;85.39100646972656;1673432591.7583973;-38.5169563293457;-7.845645904541016;-136.90943908691406
414;1673432591.828061;47.128265;7.2373559;85.78600311279297;1673432591.9636333;-38.48555374145508;-7.893043041229248;-136.86611938476562
415;1673432592.041927;47.1282551;7.2373423;86.18400573730469;1673432592.1437955;-38.50407791137695;-7.970499038696289;-136.86453247070312
416;1673432592.2036934;47.128245199999995;7.2373286;86.5830078125;1673432592.312667;-38.53392791748047;-7.9395341873168945;-136.9052276611328
417;1673432592.3788106;47.1282352;7.237315;86.98300170898438;1673432592.4964242;-38.576995849609375;-7.778290748596191;-136.9062042236328
418;1673432592.580138;47.128225199999996;7.2373012999999995;87.38500213623047;1673432592.7069006;-38.49362564086914;-7.833576679229736;-136.8733367919922
419;1673432592.7755644;47.1282152;7.237287599999999;87.78300476074219;1673432592.903034;-38.432498931884766;-7.721220016479492;-136.91293334960938
