;pos_time;latitude;longitude;altitude;alt_time;pitch;roll;yaw
0;1673430605.1591578;47.1306424;7.2406201999999995;-0.007000000216066837;1673430605.143476;-0.06485491991043091;0.22803615033626556;90.4567642211914
1;1673430605.3523138;47.1306424;7.2406201;-0.007000000216066837;1673430605.3367133;-0.02047838643193245;0.2491374909877777;90.4756088256836
2;1673430605.5573866;47.1306424;7.24062;-0.004000000189989805;1673430605.5406785;-0.156601220369339;-0.20649483799934387;90.41995239257812
3;1673430605.7603395;47.1306424;7.2406198999999996;-0.0020000000949949026;1673430605.742759;0.09305709600448608;-0.34370556473731995;90.59751892089844
4;1673430605.9598234;47.1306424;7.240619799999999;0.0;1673430605.9383392;-0.2969619929790497;-0.16050000488758087;90.5644760131836
5;1673430606.1489754;47.1306424;7.240619799999999;-0.0010000000474974513;1673430606.1343355;-0.29891112446784973;-0.39308419823646545;90.55784606933594
6;1673430606.3640244;47.1306424;7.240619799999999;-0.0020000000949949026;1673430606.3453302;-0.2848929166793823;-0.3673141598701477;90.6380844116211
7;1673430606.5539558;47.1306424;7.240619799999999;0.0;1673430606.5381866;-0.16120927035808563;-0.30014103651046753;90.52622985839844
8;1673430606.7442575;47.1306424;7.2406198999999996;0.0010000000474974513;1673430606.728552;-0.12887130677700043;-0.3800109326839447;90.60546112060547
9;1673430606.9407585;47.1306424;7.2406198999999996;-0.0020000000949949026;1673430606.9255729;-0.34480977058410645;-0.2577248811721802;90.52076721191406
10;1673430607.1413484;47.1306424;7.2406198999999996;-0.006000000052154064;1673430607.1242387;-0.2548867166042328;-0.3109246492385864;90.46221923828125
11;1673430607.3532279;47.1306424;7.2406198999999996;-0.007000000216066837;1673430607.337613;-0.12484212219715118;-0.28169089555740356;90.5155029296875
12;1673430607.5581224;47.1306424;7.240619799999999;-0.009000000543892384;1673430607.539552;0.047146979719400406;-0.23280920088291168;90.46078491210938
13;1673430607.7504144;47.1306424;7.240619799999999;-0.01100000087171793;1673430607.7347991;-0.32573574781417847;-0.3429983854293823;90.54241943359375
14;1673430607.9420393;47.1306424;7.240619799999999;-0.003000000026077032;1673430607.9237986;-0.19992248713970184;0.5037059783935547;90.63084411621094
15;1673430608.1363344;47.1306424;7.240619799999999;-0.005000000353902578;1673430608.1201746;0.12297030538320541;0.8675902485847473;90.52032470703125
16;1673430608.3243613;47.1306424;7.240619799999999;-0.005000000353902578;1673430608.3070643;-0.3445717394351959;0.3861769735813141;90.51304626464844
17;1673430608.5399098;47.1306423;7.2406198999999996;-0.005000000353902578;1673430608.511555;-0.1891709417104721;0.6652439832687378;90.59455108642578
18;1673430608.7412462;47.1306423;7.2406198999999996;-0.006000000052154064;1673430608.7270448;-0.2611318528652191;0.4258485734462738;90.44474792480469
19;1673430608.9248717;47.1306423;7.2406198999999996;-0.009000000543892384;1673430608.908283;-0.3204905688762665;0.7634278535842896;90.52123260498047
20;1673430609.1297686;47.1306423;7.2406198999999996;-0.013000000268220901;1673430609.1120372;-0.15384827554225922;0.7824747562408447;90.49087524414062
21;1673430609.3387382;47.1306423;7.2406198999999996;-0.018000001087784767;1673430609.3230927;0.0070227147080004215;1.4329862594604492;90.33363342285156
22;1673430609.5303211;47.1306423;7.2406198999999996;-0.0020000000949949026;1673430609.5159435;-0.03538251668214798;1.518378734588623;90.45423126220703
23;1673430609.7275376;47.1306424;7.2406198999999996;-0.007000000216066837;1673430609.7112117;-0.17407803237438202;1.7058502435684204;90.63749694824219
24;1673430609.9348104;47.1306423;7.2406198999999996;-0.00800000037997961;1673430609.916253;0.14472028613090515;1.0015789270401;90.25188446044922
25;1673430610.15398;47.1306423;7.2406198999999996;-0.006000000052154064;1673430610.1364095;0.09477972984313965;0.023751113563776016;90.46964263916016
26;1673430610.3564694;47.1306422;7.2406198999999996;-0.01100000087171793;1673430610.3398638;0.11864184588193893;0.20883773267269135;90.39310455322266
27;1673430610.5458984;47.1306422;7.2406198999999996;-0.01900000125169754;1673430610.53024;-0.032138604670763016;0.3728558421134949;90.6179428100586
28;1673430610.7350461;47.130641999999995;7.2406198999999996;-0.024000000208616257;1673430610.7203867;-0.003950437065213919;0.5140626430511475;90.70140075683594
29;1673430610.9287295;47.1306417;7.240619799999999;-0.03100000135600567;1673430610.911159;0.04810945689678192;-0.13085494935512543;92.29559326171875
30;1673430611.129192;47.1306411;7.2406197;-0.04000000283122063;1673430611.1135573;-0.15654465556144714;-1.4250916242599487;95.01519775390625
31;1673430611.3277159;47.130640299999996;7.2406196;-0.04200000315904617;1673430611.3101301;-0.1935548037290573;-3.451298952102661;100.30793762207031
32;1673430611.5280862;47.130639099999996;7.240619499999999;-0.03700000047683716;1673430611.5114923;0.32250016927719116;-8.193984031677246;105.77391815185547
33;1673430611.7434413;47.130637799999995;7.2406194;-0.027000000700354576;1673430611.7227416;2.643221139907837;-12.394543647766113;108.46171569824219
34;1673430611.9432392;47.1306363;7.2406191;-0.005000000353902578;1673430611.9275753;2.6750824451446533;-15.053420066833496;106.04753112792969
35;1673430612.127503;47.130634699999995;7.2406188;0.026000000536441803;1673430612.1118238;1.5884160995483398;-16.61190414428711;102.91673278808594
36;1673430612.3369322;47.1306332;7.2406184;0.06599999964237213;1673430612.3213143;0.9896470904350281;-18.74456787109375;100.44795227050781
37;1673430612.5664356;47.130631799999996;7.240617899999999;0.11300000548362732;1673430612.5428655;0.044999849051237106;-20.345273971557617;98.54460906982422
38;1673430612.7473137;47.130630599999996;7.2406174;0.16900001466274261;1673430612.7301815;-0.8376235365867615;-21.93870735168457;97.0232162475586
39;1673430612.937751;47.1306297;7.240616999999999;0.23000000417232513;1673430612.9220917;-1.7633618116378784;-23.864151000976562;95.79301452636719
40;1673430613.133714;47.1306292;7.2406166999999995;0.2970000207424164;1673430613.11712;-2.61084246635437;-25.761981964111328;94.79574584960938
41;1673430613.3182986;47.1306291;7.2406163999999995;0.36900001764297485;1673430613.2997518;-3.4507906436920166;-27.603574752807617;93.98245239257812
42;1673430613.5386546;47.1306296;7.2406163;0.445000022649765;1673430613.5190184;-4.59427547454834;-29.479032516479492;93.3226318359375
43;1673430613.7544973;47.1306307;7.2406163999999995;0.531000018119812;1673430613.7397003;-5.468533515930176;-31.186996459960938;92.71044158935547
44;1673430613.9367387;47.130632299999995;7.2406166999999995;0.6200000047683716;1673430613.920131;-5.705009937286377;-28.986982345581055;92.06349182128906
45;1673430614.1531844;47.1306343;7.2406172;0.7100000381469727;1673430614.1326342;-5.246650218963623;-25.737689971923828;91.60002899169922
46;1673430614.3518617;47.1306365;7.2406178;0.8060000538825989;1673430614.3371775;-4.732410907745361;-22.466432571411133;91.29768371582031
47;1673430614.5423968;47.1306386;7.2406182999999995;0.9110000729560852;1673430614.5257654;-4.116762161254883;-18.97878074645996;91.08641052246094
48;1673430614.7475882;47.1306405;7.2406188;1.0200001001358032;1673430614.7294729;-3.4797632694244385;-16.633256912231445;90.95336151123047
49;1673430614.9484406;47.130641999999995;7.2406193;1.1360000371932983;1673430614.930318;-3.1424336433410645;-14.996872901916504;90.90717315673828
50;1673430615.146014;47.130643;7.2406196;1.2660000324249268;1673430615.1308181;-3.123229503631592;-13.56626033782959;90.77513122558594
51;1673430615.3518884;47.1306436;7.2406198999999996;1.4130001068115234;1673430615.3352659;-2.881182909011841;-13.263924598693848;90.86915588378906
52;1673430615.5478106;47.1306437;7.24062;1.5760000944137573;1673430615.5314133;-2.601849317550659;-16.17919921875;91.58644104003906
53;1673430615.7435293;47.1306436;7.24062;1.7510000467300415;1673430615.728037;-2.782468318939209;-14.551454544067383;91.40181732177734
54;1673430615.9682782;47.1306431;7.2406201;1.9320000410079956;1673430615.9232566;-2.656003475189209;-17.323026657104492;91.78913879394531
55;1673430616.1574519;47.1306428;7.24062;2.118000030517578;1673430616.1378117;-2.4144108295440674;-21.338594436645508;92.23440551757812
56;1673430616.3583412;47.1306425;7.24062;2.2990000247955322;1673430616.3317897;-2.8447563648223877;-19.635822296142578;92.22785949707031
57;1673430616.608749;47.1306423;7.2406198999999996;2.4840002059936523;1673430616.5833733;-3.345682144165039;-18.436288833618164;92.37908172607422
58;1673430616.783244;47.1306422;7.240619799999999;2.6710002422332764;1673430616.767588;-3.0394046306610107;-21.992055892944336;92.71061706542969
59;1673430616.9702146;47.1306422;7.240619799999999;2.8570001125335693;1673430616.9545875;-2.997265338897705;-20.502899169921875;92.8552017211914
60;1673430617.1717541;47.1306422;7.2406197;3.0480000972747803;1673430617.1571126;-3.2851126194000244;-18.04168128967285;92.68596649169922
61;1673430617.3371115;47.1306422;7.2406196;3.2380001544952393;1673430617.3223798;-3.490626573562622;-20.261852264404297;92.79112243652344
62;1673430617.52628;47.1306422;7.2406196;3.4240002632141113;1673430617.5097003;-3.147733688354492;-21.302783966064453;92.82067108154297
63;1673430617.7483597;47.1306423;7.2406196;3.6070001125335693;1673430617.7276716;-3.3160223960876465;-16.6568660736084;92.58637237548828
64;1673430617.9390678;47.1306424;7.2406197;3.7960002422332764;1673430617.923451;-3.354330539703369;-18.58126449584961;92.68343353271484
65;1673430618.1311674;47.1306424;7.2406197;3.9880001544952393;1673430618.1144314;-3.0781612396240234;-20.677289962768555;92.96601867675781
66;1673430618.3296244;47.1306423;7.2406197;4.185000419616699;1673430618.3130453;-3.2966227531433105;-17.38852882385254;92.63026428222656
67;1673430618.532012;47.130642099999996;7.2406197;4.384000301361084;1673430618.515401;-3.354377508163452;-18.671859741210938;92.53034210205078
68;1673430618.7245529;47.130641999999995;7.2406197;4.580000400543213;1673430618.7088952;-2.8584396839141846;-21.361196517944336;92.78814697265625
69;1673430618.9287853;47.1306419;7.2406197;4.775000095367432;1673430618.9121454;-3.2691726684570312;-18.445661544799805;92.54801940917969
70;1673430619.128202;47.1306419;7.2406197;4.9730000495910645;1673430619.1118832;-3.3381245136260986;-18.10860252380371;92.56190490722656
71;1673430619.3281076;47.130641999999995;7.2406197;5.168000221252441;1673430619.3115017;-3.2856194972991943;-21.3861026763916;92.70995330810547
72;1673430619.5229926;47.130641999999995;7.2406197;5.36400032043457;1673430619.5063922;-3.176220655441284;-19.25491714477539;92.67924499511719
73;1673430619.7609947;47.1306419;7.2406197;5.559000492095947;1673430619.742185;-3.3833236694335938;-17.480361938476562;92.4481201171875
74;1673430619.9613574;47.1306418;7.2406197;5.753000259399414;1673430619.9413068;-3.2960801124572754;-20.753097534179688;92.74425506591797
75;1673430620.1719306;47.1306417;7.240619799999999;5.947000503540039;1673430620.143894;-2.925520658493042;-20.985469818115234;92.81173706054688
76;1673430620.393661;47.1306417;7.240619799999999;6.141000270843506;1673430620.3790205;-3.3155453205108643;-17.037395477294922;92.46669006347656
77;1673430620.6584349;47.1306417;7.240619799999999;6.334000110626221;1673430620.6251986;-3.2960357666015625;-20.351303100585938;92.71085357666016
78;1673430620.8175375;47.1306418;7.240619799999999;6.529000282287598;1673430620.8028986;-3.081632614135742;-20.81174659729004;92.74340057373047
79;1673430621.0065098;47.1306417;7.240619799999999;6.723000526428223;1673430620.9869814;-3.3711891174316406;-17.773923873901367;92.58161163330078
80;1673430621.196391;47.1306417;7.2406198999999996;6.9160003662109375;1673430621.179799;-3.2750802040100098;-19.105655670166016;92.57295989990234
81;1673430621.386779;47.1306417;7.2406198999999996;7.109000205993652;1673430621.3702013;-3.062882423400879;-21.289892196655273;92.78868865966797
82;1673430621.5630763;47.1306418;7.24062;7.300000190734863;1673430621.5462372;-3.380955934524536;-18.24704933166504;92.51923370361328
83;1673430621.7441728;47.1306418;7.24062;7.492000579833984;1673430621.7265942;-3.320988655090332;-18.162288665771484;92.58816528320312
84;1673430621.9521804;47.1306419;7.24062;7.683000564575195;1673430621.9335983;-3.0677754878997803;-21.72401237487793;92.86677551269531
85;1673430622.1452336;47.1306419;7.24062;7.874000549316406;1673430622.1266942;-3.2146215438842773;-18.83924102783203;92.60900115966797
86;1673430622.361895;47.1306419;7.2406201;8.065000534057617;1673430622.3442464;-3.305288791656494;-17.782041549682617;92.48604583740234
87;1673430622.5574276;47.1306419;7.2406201999999995;8.256000518798828;1673430622.5422103;-2.883788585662842;-20.76130485534668;92.80267333984375
88;1673430622.748656;47.130641999999995;7.2406203;8.442000389099121;1673430622.733053;-2.7549245357513428;-19.908498764038086;92.72390747070312
89;1673430622.9517004;47.130641999999995;7.2406203;8.630000114440918;1673430622.9340844;-3.1781179904937744;-16.941734313964844;92.50847625732422
90;1673430623.154027;47.130641999999995;7.2406203;8.819000244140625;1673430623.136788;-2.9290027618408203;-20.365554809570312;92.81747436523438
91;1673430623.356988;47.130641999999995;7.2406203;9.009000778198242;1673430623.338877;-2.7652201652526855;-20.55605697631836;92.66834259033203
92;1673430623.5677023;47.130641999999995;7.2406203;9.205000877380371;1673430623.5456994;-2.9554250240325928;-17.743806838989258;92.47734832763672
93;1673430623.7721188;47.1306419;7.2406203;9.398000717163086;1673430623.7565002;-3.038508415222168;-19.384611129760742;92.63179016113281
94;1673430623.9598258;47.1306419;7.2406203;9.588000297546387;1673430623.9435596;-2.930363893508911;-21.867578506469727;92.78047180175781
95;1673430624.1559424;47.1306419;7.2406203;9.77500057220459;1673430624.1422749;-3.1869912147521973;-17.998220443725586;92.51264953613281
96;1673430624.36054;47.130641999999995;7.2406201999999995;9.96500015258789;1673430624.3429484;-3.20041823387146;-18.16051483154297;92.54938507080078
97;1673430624.5516644;47.130641999999995;7.2406201999999995;10.160000801086426;1673430624.5350702;-3.035231351852417;-21.25571632385254;92.76213073730469
98;1673430624.7472532;47.1306422;7.2406201999999995;10.449000358581543;1673430624.731628;-2.7976837158203125;-18.134891510009766;92.53433990478516
99;1673430624.9565318;47.1306423;7.2406201999999995;10.82300090789795;1673430624.9329646;-3.3592369556427;-19.142667770385742;92.64386749267578
100;1673430625.208835;47.1306425;7.2406203;11.213000297546387;1673430625.1941936;-3.105272054672241;-20.373186111450195;92.6291275024414
101;1673430625.4415371;47.1306428;7.2406203;11.607000350952148;1673430625.4288385;-2.8387701511383057;-19.490795135498047;92.74174499511719
102;1673430625.6504335;47.1306431;7.2406204;12.004000663757324;1673430625.6284025;-3.0267860889434814;-15.492015838623047;92.54920196533203
103;1673430625.8454318;47.130643199999994;7.2406204;12.406000137329102;1673430625.8317661;-2.8453726768493652;-17.07225799560547;92.72384643554688
104;1673430626.024624;47.130643299999996;7.2406204999999995;12.807000160217285;1673430626.0088744;-2.693312168121338;-19.101160049438477;92.77406311035156
105;1673430626.2006686;47.130643299999996;7.2406204;13.210000991821289;1673430626.183101;-3.1278464794158936;-16.102087020874023;92.616455078125
106;1673430626.366714;47.1306431;7.2406204;13.613000869750977;1673430626.3525062;-2.8101565837860107;-17.235244750976562;92.56574249267578
107;1673430626.567889;47.130643;7.2406203;14.009000778198242;1673430626.5481021;-2.92232346534729;-20.513103485107422;92.74011993408203
108;1673430626.8073003;47.1306429;7.2406203;14.405000686645508;1673430626.7946115;-3.078226327896118;-17.716882705688477;92.51985168457031
109;1673430626.9783456;47.1306428;7.2406201999999995;14.805000305175781;1673430626.9636898;-3.270777940750122;-17.11967658996582;92.52532958984375
110;1673430627.1569834;47.130642699999996;7.2406201999999995;15.19800090789795;1673430627.142228;-2.9286513328552246;-20.657201766967773;92.82080078125
111;1673430627.3517158;47.130642699999996;7.2406201999999995;15.590001106262207;1673430627.3341455;-3.017740488052368;-18.59797477722168;92.72801208496094
112;1673430627.5866053;47.130642599999995;7.2406201999999995;15.985000610351562;1673430627.5709975;-3.1464953422546387;-16.976869583129883;92.36762237548828
113;1673430627.8487065;47.130642599999995;7.2406201999999995;16.381999969482422;1673430627.7774682;-3.0043749809265137;-19.729360580444336;92.70214080810547
114;1673430628.0515585;47.130642599999995;7.2406201;16.779001235961914;1673430628.0388677;-2.8603854179382324;-19.94332504272461;92.71746826171875
115;1673430628.2655053;47.130642599999995;7.2406201;17.172000885009766;1673430628.2547302;-3.3158247470855713;-16.460947036743164;92.50408172607422
116;1673430628.4239058;47.130642599999995;7.2406201;17.565000534057617;1673430628.4082892;-3.112509250640869;-18.768056869506836;92.67597961425781
117;1673430628.6094074;47.130642599999995;7.24062;17.954999923706055;1673430628.5908682;-2.9071006774902344;-20.366735458374023;92.88311004638672
118;1673430628.7953506;47.130642599999995;7.24062;18.351001739501953;1673430628.7797482;-2.932065010070801;-17.350923538208008;92.61590576171875
119;1673430628.974277;47.1306425;7.2406198999999996;18.75;1673430628.9581106;-3.2236568927764893;-17.923507690429688;92.57349395751953
120;1673430629.164694;47.1306425;7.2406198999999996;19.147001266479492;1673430629.1500041;-3.0762364864349365;-20.96636390686035;92.80125427246094
121;1673430629.3630774;47.130642599999995;7.2406198999999996;19.543001174926758;1673430629.3455093;-3.388821840286255;-17.768678665161133;92.59918975830078
122;1673430629.5584085;47.130642699999996;7.240619799999999;19.940000534057617;1673430629.543609;-3.385838031768799;-16.848474502563477;92.50335693359375
123;1673430629.7598672;47.1306428;7.240619799999999;20.34000015258789;1673430629.7442493;-3.2538270950317383;-20.210182189941406;92.7719955444336
124;1673430630.019862;47.1306428;7.240619799999999;20.735000610351562;1673430629.9786646;-3.091691732406616;-18.358781814575195;92.74516296386719
125;1673430630.2465816;47.130642699999996;7.240619799999999;21.13300132751465;1673430630.2338777;-3.2654166221618652;-16.630470275878906;92.47631072998047
126;1673430630.4258218;47.130642699999996;7.240619799999999;21.536001205444336;1673430630.4141095;-3.1273202896118164;-19.15108871459961;92.73719787597656
127;1673430630.6000252;47.130642699999996;7.240619799999999;21.93600082397461;1673430630.583406;-3.0018467903137207;-19.563282012939453;92.77863311767578
128;1673430630.7912948;47.1306428;7.240619799999999;22.338001251220703;1673430630.7756615;-3.366358518600464;-16.199983596801758;92.51171875
129;1673430630.9885497;47.1306428;7.240619799999999;22.744001388549805;1673430630.9729328;-3.2905101776123047;-18.441944122314453;92.6552963256836
130;1673430631.181209;47.1306428;7.240619799999999;23.143001556396484;1673430631.1670039;-3.0194530487060547;-19.91722297668457;92.69547271728516
131;1673430631.379367;47.1306428;7.240619799999999;23.543001174926758;1673430631.3593054;-3.138411521911621;-16.997453689575195;92.55203247070312
132;1673430631.5720122;47.130642699999996;7.240619799999999;23.94900131225586;1673430631.5519266;-3.1209425926208496;-17.942142486572266;92.53243255615234
133;1673430631.7999735;47.130642599999995;7.240619799999999;24.35300064086914;1673430631.7831442;-3.2242398262023926;-20.608938217163086;92.69865417480469
134;1673430631.9838235;47.130642699999996;7.240619799999999;24.753000259399414;1673430631.9676697;-3.3107800483703613;-17.67194366455078;92.51932525634766
135;1673430632.1814249;47.130642699999996;7.240619799999999;25.155000686645508;1673430632.1657782;-3.4087259769439697;-16.92347526550293;92.49412536621094
136;1673430632.3769395;47.130642699999996;7.240619799999999;25.559001922607422;1673430632.3564162;-3.1677331924438477;-20.178525924682617;92.76467895507812
137;1673430632.5790288;47.130642599999995;7.240619799999999;25.95600128173828;1673430632.563358;-3.0073604583740234;-18.101476669311523;92.64521026611328
138;1673430632.7711482;47.1306425;7.240619799999999;26.35700035095215;1673430632.7535384;-3.254077196121216;-16.995450973510742;92.55953216552734
139;1673430632.9677246;47.1306425;7.240619799999999;26.761001586914062;1673430632.9520807;-3.0804007053375244;-20.02839469909668;92.87328338623047
140;1673430633.2121208;47.1306425;7.240619799999999;27.16400146484375;1673430633.1889548;-3.1819846630096436;-19.56678581237793;92.78919219970703
141;1673430633.4107378;47.1306425;7.2406198999999996;27.565000534057617;1673430633.3951206;-3.386789560317993;-16.2725830078125;92.57029724121094
142;1673430633.6517935;47.1306425;7.2406198999999996;27.970001220703125;1673430633.6369967;-3.044074296951294;-19.233308792114258;92.78219604492188
143;1673430633.8628044;47.1306425;7.2406198999999996;28.36600112915039;1673430633.8501089;-3.2210023403167725;-19.607357025146484;92.77347564697266
144;1673430634.0817347;47.1306425;7.2406198999999996;28.768001556396484;1673430634.0690145;-3.2619025707244873;-16.708702087402344;92.55406188964844
145;1673430634.270301;47.1306424;7.2406198999999996;29.17500114440918;1673430634.2585855;-3.20346999168396;-18.74691390991211;92.61189270019531
146;1673430634.4781458;47.1306424;7.2406198999999996;29.57900047302246;1673430634.4668634;-3.063802480697632;-20.197601318359375;92.7779312133789
147;1673430634.6446931;47.1306425;7.2406198999999996;29.98000144958496;1673430634.6320088;-3.4354963302612305;-16.738073348999023;92.49019622802734
148;1673430634.8032372;47.1306425;7.2406198999999996;30.384000778198242;1673430634.7895603;-3.4364876747131348;-17.653745651245117;92.51811218261719
149;1673430634.9811428;47.1306425;7.2406198999999996;30.788002014160156;1673430634.9648647;-3.412386655807495;-20.27989959716797;92.77738189697266
150;1673430635.162228;47.1306425;7.2406198999999996;31.184001922607422;1673430635.1446452;-3.2928717136383057;-17.860671997070312;92.65711212158203
151;1673430635.3540988;47.1306425;7.2406198999999996;31.584001541137695;1673430635.3372066;-3.369858741760254;-17.346355438232422;92.52732849121094
152;1673430635.58267;47.1306425;7.24062;31.98400115966797;1673430635.567004;-3.088597536087036;-20.490062713623047;92.83313751220703
153;1673430635.7660444;47.130642599999995;7.24062;32.384002685546875;1673430635.7502625;-3.167850971221924;-18.58375358581543;92.77753448486328
154;1673430635.9574833;47.130642699999996;7.24062;32.78499984741211;1673430635.94278;-3.445570230484009;-16.276029586791992;92.56352996826172
155;1673430636.1684444;47.130642699999996;7.24062;33.18300247192383;1673430636.1508772;-3.1898696422576904;-19.724750518798828;92.69970703125
156;1673430636.3590865;47.130642699999996;7.24062;33.57200241088867;1673430636.3444445;-3.267552375793457;-18.592880249023438;92.7337417602539
157;1673430636.5545554;47.130642699999996;7.24062;33.96600341796875;1673430636.539915;-3.440798044204712;-16.50502586364746;92.43457794189453
158;1673430636.7565734;47.130642599999995;7.24062;34.36300277709961;1673430636.7382987;-3.129812479019165;-19.042421340942383;92.60261535644531
159;1673430636.970627;47.130642699999996;7.2406201;34.759002685546875;1673430636.9540584;-3.166501760482788;-19.83951187133789;92.61836242675781
160;1673430637.1676462;47.130642699999996;7.2406201;35.156002044677734;1673430637.1500423;-3.2501323223114014;-15.984928131103516;92.49252319335938
161;1673430637.3750715;47.130642699999996;7.24062;35.553001403808594;1673430637.3583548;-3.1979000568389893;-18.53270721435547;92.79422760009766
162;1673430637.5776877;47.130642699999996;7.24062;35.948001861572266;1673430637.559134;-3.241594076156616;-19.95827865600586;92.79759216308594
163;1673430637.7713068;47.130642699999996;7.24062;36.336002349853516;1673430637.7545662;-3.405379295349121;-17.05861473083496;92.5115966796875
164;1673430637.9865644;47.130642599999995;7.24062;36.724002838134766;1673430637.9628794;-3.4063572883605957;-17.72020721435547;92.58951568603516
165;1673430638.1758215;47.130642599999995;7.24062;37.11600112915039;1673430638.1621544;-3.073751211166382;-20.72018814086914;92.78334045410156
166;1673430638.381389;47.130642699999996;7.24062;37.512001037597656;1673430638.3578982;-3.320429801940918;-17.430601119995117;92.56538391113281
167;1673430638.5857916;47.1306428;7.24062;37.91100311279297;1673430638.5715933;-3.2970097064971924;-16.896270751953125;92.53202819824219
168;1673430638.7904732;47.1306428;7.24062;38.310001373291016;1673430638.7722647;-3.243048667907715;-20.047496795654297;92.7855224609375
169;1673430638.9883213;47.1306428;7.24062;38.69900131225586;1673430638.972654;-3.2841179370880127;-18.216520309448242;92.64156341552734
170;1673430639.1740258;47.130642699999996;7.24062;39.09300231933594;1673430639.1583986;-3.4034078121185303;-16.469188690185547;92.4745101928711
171;1673430639.37379;47.130642699999996;7.24062;39.49100112915039;1673430639.3579526;-3.139472246170044;-19.4256591796875;92.70963287353516
172;1673430639.568813;47.130642699999996;7.2406198999999996;39.88800048828125;1673430639.5512393;-3.2793235778808594;-19.486658096313477;92.73072814941406
173;1673430639.7838345;47.130642699999996;7.2406198999999996;40.285003662109375;1673430639.756453;-3.2680866718292236;-16.182294845581055;92.42514038085938
174;1673430639.9870718;47.130642699999996;7.2406198999999996;40.682003021240234;1673430639.9679976;-3.4212586879730225;-18.777427673339844;92.68888092041016
175;1673430640.1845152;47.130642699999996;7.240619799999999;41.077003479003906;1673430640.162485;-3.2749862670898438;-20.118499755859375;92.90322875976562
176;1673430640.3976474;47.130642599999995;7.240619799999999;41.46500015258789;1673430640.379944;-3.540372610092163;-16.97509002685547;92.575439453125
177;1673430640.6018765;47.130642599999995;7.240619799999999;41.855003356933594;1673430640.582077;-3.5983564853668213;-17.72237205505371;92.51956176757812
178;1673430640.7779105;47.130642599999995;7.240619799999999;42.25100326538086;1673430640.7652154;-3.42692494392395;-20.73261260986328;92.78890991210938
179;1673430640.9906754;47.130642699999996;7.240619799999999;42.64900207519531;1673430640.9774485;-3.3807597160339355;-17.675893783569336;92.63253784179688
180;1673430641.1889248;47.130642699999996;7.240619799999999;43.052001953125;1673430641.1747177;-3.582401990890503;-16.748455047607422;92.54061126708984
181;1673430641.3881507;47.130642699999996;7.240619799999999;43.45900344848633;1673430641.3710248;-3.458979606628418;-20.056215286254883;92.74016571044922
182;1673430641.5926828;47.130642699999996;7.240619799999999;43.85600280761719;1673430641.5765224;-3.452634811401367;-18.1688289642334;92.6174087524414
183;1673430641.7912242;47.130642599999995;7.240619799999999;44.25700378417969;1673430641.7731178;-3.6153640747070312;-16.665443420410156;92.48004150390625
184;1673430641.983382;47.130642599999995;7.240619799999999;44.660003662109375;1673430641.9677608;-3.328670024871826;-19.202613830566406;92.63240051269531
185;1673430642.1890757;47.130642599999995;7.240619799999999;45.060001373291016;1673430642.1742892;-3.3429856300354004;-19.84564208984375;92.66436767578125
186;1673430642.3733096;47.130642599999995;7.240619799999999;45.46200180053711;1673430642.358673;-3.540027141571045;-16.127517700195312;92.4783706665039
187;1673430642.575651;47.130642699999996;7.240619799999999;45.8640022277832;1673430642.559051;-3.3954930305480957;-18.531888961791992;92.6683349609375
188;1673430642.7705555;47.130642699999996;7.240619799999999;46.26400375366211;1673430642.7559273;-3.4309935569763184;-20.29347038269043;92.77796173095703
189;1673430642.958654;47.130642599999995;7.240619799999999;46.65700149536133;1673430642.9420524;-3.563199996948242;-16.822492599487305;92.55191802978516
190;1673430643.1481993;47.1306425;7.240619799999999;47.05600357055664;1673430643.132583;-3.4918389320373535;-17.732824325561523;92.6656723022461
191;1673430643.3521235;47.1306425;7.240619799999999;47.457000732421875;1673430643.3345559;-3.3594346046447754;-20.474061965942383;92.83496856689453
192;1673430643.5548887;47.130642599999995;7.240619799999999;47.86000061035156;1673430643.5392883;-3.4704856872558594;-17.386503219604492;92.57498931884766
193;1673430643.767568;47.130642599999995;7.240619799999999;48.25100326538086;1673430643.751846;-3.558511257171631;-17.365392684936523;92.62366485595703
194;1673430643.986901;47.130642599999995;7.240619799999999;48.592002868652344;1673430643.9656982;-3.6060118675231934;-20.95687484741211;92.76858520507812
195;1673430644.1973062;47.1306424;7.2406197;48.871002197265625;1673430644.1792672;-3.682196617126465;-17.878982543945312;92.66714477539062
196;1673430644.4064605;47.1306422;7.2406197;49.10900115966797;1673430644.384342;-3.785068988800049;-17.245338439941406;92.52397918701172
197;1673430644.6107767;47.130641999999995;7.2406196;49.310001373291016;1673430644.5940263;-3.5987863540649414;-20.773847579956055;92.84593963623047
198;1673430644.7951937;47.1306417;7.2406193;49.47900390625;1673430644.778062;10.737268447875977;-4.669248580932617;94.83502960205078
199;1673430644.9917085;47.1306404;7.2406177;49.62600326538086;1673430644.9758713;26.378623962402344;26.764549255371094;107.43321228027344
200;1673430645.1846988;47.1306369;7.240613;49.750003814697266;1673430645.169069;31.262744903564453;44.366790771484375;117.51666259765625
201;1673430645.387138;47.130630599999996;7.240604299999999;49.833003997802734;1673430645.368558;24.90134048461914;52.47566223144531;124.88818359375
202;1673430645.5825076;47.1306215;7.240591599999999;49.87200164794922;1673430645.5649073;9.610363960266113;53.47340393066406;134.9568328857422
203;1673430645.775292;47.1306097;7.240576099999999;49.897003173828125;1673430645.7596893;-6.371859073638916;50.70746612548828;145.23387145996094
204;1673430645.9675446;47.1305957;7.240558399999999;49.923004150390625;1673430645.9519188;-21.37188720703125;46.81007766723633;156.0409698486328
205;1673430646.159164;47.1305796;7.2405386;49.94700241088867;1673430646.1435611;-35.068180084228516;43.764923095703125;169.270263671875
206;1673430646.3624265;47.1305615;7.2405164;49.97100067138672;1673430646.3458426;-46.96254348754883;41.33171463012695;-178.86561584472656
207;1673430646.5774784;47.1305416;7.2404914;49.96900177001953;1673430646.5598962;-54.788414001464844;35.20380401611328;-166.49232482910156
208;1673430646.7816045;47.130520499999996;7.2404639;49.926002502441406;1673430646.7640233;-52.12383270263672;26.35242462158203;-157.0734405517578
209;1673430646.9812539;47.130498499999995;7.2404347;49.85000228881836;1673430646.9627018;-46.589752197265625;20.701021194458008;-151.86544799804688
210;1673430647.186434;47.1304758;7.2404044;49.7650032043457;1673430647.1677115;-47.29695129394531;16.27182388305664;-145.37722778320312
211;1673430647.389658;47.130452899999995;7.240373099999999;49.682003021240234;1673430647.3718653;-46.756500244140625;12.355658531188965;-138.76759338378906
212;1673430647.5958474;47.130429799999995;7.2403412;49.618003845214844;1673430647.5806143;-44.08799743652344;7.481358528137207;-131.5126190185547
213;1673430647.7705123;47.130406799999996;7.240309;49.57100296020508;1673430647.7558782;-43.955753326416016;1.5801717042922974;-128.88296508789062
214;1673430647.9873402;47.1303838;7.240277;49.5410041809082;1673430647.9697716;-42.37741470336914;2.2132978439331055;-132.56678771972656
215;1673430648.2264705;47.1303607;7.2402454;49.53900146484375;1673430648.2108548;-45.00639343261719;3.503122329711914;-134.364013671875
216;1673430648.453238;47.130337399999995;7.240213799999999;49.55900192260742;1673430648.4385989;-48.420982360839844;4.981472492218018;-135.0585174560547
217;1673430648.634905;47.1303136;7.2401819;49.592002868652344;1673430648.6153846;-48.616004943847656;6.088623046875;-135.3572998046875
218;1673430648.8224804;47.1302896;7.2401496;49.634002685546875;1673430648.8068776;-48.24529266357422;6.985662937164307;-135.52735900878906
219;1673430648.9957376;47.1302653;7.240117;49.68000411987305;1673430648.9830446;-48.24134826660156;7.602840900421143;-135.6033935546875
220;1673430649.201136;47.130241;7.2400841;49.72300338745117;1673430649.186466;-48.37831497192383;7.6091694831848145;-135.40847778320312
221;1673430649.3978515;47.1302167;7.2400511;49.75200271606445;1673430649.3789701;-48.492923736572266;7.52581262588501;-135.28125
222;1673430649.5990417;47.1301923;7.2400179;49.781002044677734;1673430649.580928;-47.7711067199707;7.1521501541137695;-135.1251678466797
223;1673430649.8018475;47.1301679;7.2399844;49.81100082397461;1673430649.7832544;-47.26141357421875;7.267506122589111;-135.17742919921875
224;1673430649.9855862;47.130143399999994;7.2399508;49.842002868652344;1673430649.9707496;-47.690528869628906;7.317245960235596;-135.20089721679688
225;1673430650.1685226;47.1301189;7.2399170999999996;49.874000549316406;1673430650.152907;-48.29318618774414;7.2411346435546875;-135.20376586914062
226;1673430650.3639774;47.1300944;7.2398833;49.90200424194336;1673430650.3473647;-48.5340461730957;7.1322174072265625;-135.17405700683594
227;1673430650.5565152;47.1300698;7.2398492999999995;49.92500305175781;1673430650.539774;-48.27558517456055;6.944522857666016;-135.1139678955078
228;1673430650.75663;47.1300453;7.2398155;49.932003021240234;1673430650.7383454;-47.93064498901367;6.779547691345215;-135.08181762695312
229;1673430651.0354066;47.130020699999996;7.239781499999999;49.939002990722656;1673430651.0171664;-47.27836227416992;6.828524112701416;-135.18380737304688
230;1673430651.2360563;47.1299961;7.239747599999999;49.95000076293945;1673430651.216542;-47.40216064453125;6.874880313873291;-135.27169799804688
231;1673430651.4324906;47.129971499999996;7.239713699999999;49.965003967285156;1673430651.4168324;-47.957523345947266;7.012718677520752;-135.34927368164062
232;1673430651.616958;47.1299469;7.2396797;49.98200225830078;1673430651.6023185;-48.54023742675781;7.045320510864258;-135.32737731933594
233;1673430651.79994;47.129922199999996;7.239645599999999;49.99100112915039;1673430651.7852354;-48.66542053222656;6.9107537269592285;-135.26966857910156
234;1673430651.988055;47.1298976;7.2396116;49.98600387573242;1673430651.973405;-48.168514251708984;6.6093902587890625;-135.20066833496094
235;1673430652.1909077;47.129872899999995;7.239577499999999;49.983001708984375;1673430652.1721404;-47.38637161254883;6.527390480041504;-135.2437744140625
236;1673430652.3919163;47.1298482;7.2395435;49.983001708984375;1673430652.3743453;-47.3116569519043;6.714748382568359;-135.35879516601562
237;1673430652.586602;47.1298235;7.2395095;49.983001708984375;1673430652.5690348;-47.80588150024414;6.787454128265381;-135.37904357910156
238;1673430652.7839015;47.129798799999996;7.239475499999999;49.98100280761719;1673430652.7663383;-48.142398834228516;6.749597549438477;-135.33456420898438
239;1673430652.9769397;47.129774;7.2394415;49.974002838134766;1673430652.960352;-47.952850341796875;6.664653301239014;-135.27598571777344
240;1673430653.1867962;47.1297493;7.2394076;49.96800231933594;1673430653.1682189;-47.36741256713867;6.739709854125977;-135.31985473632812
241;1673430653.3942358;47.129724499999995;7.2393737;49.961002349853516;1673430653.3775187;-47.37732696533203;6.650851249694824;-135.28561401367188
242;1673430653.5847368;47.1296998;7.2393398;49.95900344848633;1673430653.5679836;-47.50410461425781;6.685764312744141;-135.2830047607422
243;1673430653.788144;47.1296751;7.2393059;49.96200180053711;1673430653.7696123;-47.79405212402344;6.870567798614502;-135.33566284179688
244;1673430653.999843;47.129650399999996;7.239272;49.96600341796875;1673430653.9793293;-48.187232971191406;6.805593490600586;-135.23977661132812
245;1673430654.1832445;47.1296257;7.2392381;49.9640007019043;1673430654.165677;-48.31375503540039;6.611522197723389;-135.1460418701172
246;1673430654.4116898;47.129601;7.239204099999999;49.95600128173828;1673430654.3691661;-47.73756790161133;6.538473129272461;-135.12405395507812
247;1673430654.5832613;47.1295763;7.2391703;49.948001861572266;1673430654.5676515;-47.293739318847656;6.408106327056885;-135.06675720214844
248;1673430654.7689552;47.1295516;7.2391364;49.94300079345703;1673430654.7542796;-47.284889221191406;6.5299553871154785;-135.1421661376953
249;1673430654.9653273;47.1295268;7.2391026;49.94400405883789;1673430654.9477556;-47.62629318237305;6.720821380615234;-135.12965393066406
250;1673430655.1614761;47.129502099999996;7.2390687;49.948001861572266;1673430655.1448839;-48.09937286376953;6.60717248916626;-135.01742553710938
251;1673430655.3621948;47.1294773;7.2390349;49.9530029296875;1673430655.3454878;-48.16471862792969;6.684837818145752;-134.99070739746094
252;1673430655.5604572;47.1294526;7.2390009;49.95500183105469;1673430655.5438762;-48.00143051147461;6.4588704109191895;-134.8401641845703
253;1673430655.7641587;47.129427799999995;7.238967;49.95600128173828;1673430655.746878;-47.824642181396484;6.462955474853516;-134.80201721191406
254;1673430655.9635525;47.1294031;7.238932999999999;49.95900344848633;1673430655.9469674;-47.120296478271484;9.474160194396973;-135.49879455566406
255;1673430656.1674023;47.129378599999995;7.238898799999999;49.95900344848633;1673430656.1498272;-46.88491439819336;12.152196884155273;-135.28343200683594
256;1673430656.361176;47.1293544;7.2388644;49.9630012512207;1673430656.3455598;-46.55336380004883;9.717918395996094;-133.9375457763672
257;1673430656.5586002;47.1293304;7.2388297999999995;49.98600387573242;1673430656.5418673;-38.33264923095703;9.80799388885498;-133.2403564453125
258;1673430656.7535245;47.1293071;7.2387958999999995;50.01400375366211;1673430656.7368205;-21.424299240112305;11.311643600463867;-134.63330078125
259;1673430656.9547772;47.1292852;7.2387638999999995;50.03000259399414;1673430656.938031;-3.221137523651123;11.098769187927246;-136.00022888183594
260;1673430657.1547585;47.1292652;7.2387348;50.03300094604492;1673430657.1381655;12.036320686340332;10.185578346252441;-137.07078552246094
261;1673430657.353009;47.1292474;7.238709399999999;50.01400375366211;1673430657.3354576;21.1755428314209;11.75614070892334;-137.36776733398438
262;1673430657.5504847;47.1292319;7.238687799999999;49.952003479003906;1673430657.532923;26.26593780517578;9.256462097167969;-136.42465209960938
263;1673430657.7481654;47.1292185;7.2386697;49.874000549316406;1673430657.731572;18.765962600708008;7.38150691986084;-138.9178924560547
264;1673430657.9517834;47.129207199999996;7.238654599999999;49.823001861572266;1673430657.9341786;25.915523529052734;9.256688117980957;-138.9457244873047
265;1673430658.1830165;47.1291979;7.238642199999999;49.80000305175781;1673430658.1615484;30.616130828857422;13.39574146270752;-138.62399291992188
266;1673430658.3801835;47.1291909;7.238632099999999;49.80500411987305;1673430658.3635912;30.460268020629883;15.350991249084473;-137.51353454589844
267;1673430658.5942836;47.129185899999996;7.2386237;49.833003997802734;1673430658.5777035;23.490991592407227;16.402070999145508;-136.5446319580078
268;1673430658.889408;47.1291821;7.2386162999999994;49.875003814697266;1673430658.875743;13.73934268951416;13.494955062866211;-136.6677703857422
269;1673430659.0521703;47.1291789;7.238609599999999;49.9160041809082;1673430659.03749;5.107617378234863;9.015840530395508;-136.3184356689453
270;1673430659.2366548;47.1291757;7.238603299999999;49.952003479003906;1673430659.2200496;-0.622882068157196;6.690340995788574;-136.76718139648438
271;1673430659.4264505;47.1291721;7.2385972999999995;49.980003356933594;1673430659.4098215;-0.6613227128982544;4.5497212409973145;-138.35076904296875
272;1673430659.6432717;47.129168;7.2385915999999995;50.00200271606445;1673430659.6217847;2.9140682220458984;3.965306282043457;-139.85301208496094
273;1673430659.8759804;47.1291637;7.2385864;50.0260009765625;1673430659.8623161;8.003634452819824;3.476276397705078;-140.36978149414062
274;1673430660.07423;47.1291595;7.2385817999999995;50.048004150390625;1673430660.060579;13.130104064941406;5.855005741119385;-140.44313049316406
275;1673430660.2622852;47.129155399999995;7.2385777;50.06900405883789;1673430660.2504272;14.786189079284668;7.096926212310791;-139.76522827148438
276;1673430660.4663153;47.1291515;7.238573799999999;50.10900115966797;1673430660.454603;-9.003579139709473;14.382528305053711;-139.55030822753906
277;1673430660.6757414;47.129146999999996;7.2385687;50.17900085449219;1673430660.663066;-18.182411193847656;8.407373428344727;-137.5930938720703
278;1673430660.8581643;47.129141399999995;7.2385622;50.3280029296875;1673430660.845475;-16.122817993164062;6.19431734085083;-136.67501831054688
279;1673430661.0297513;47.1291345;7.2385547;50.59400177001953;1673430661.0170195;-16.546485900878906;8.645062446594238;-137.15115356445312
280;1673430661.1980174;47.1291266;7.2385455;50.93400192260742;1673430661.1832657;-34.54019546508789;19.375455856323242;-138.59024047851562
281;1673430661.3753152;47.129117699999995;7.2385338;51.28300094604492;1673430661.3595507;-33.48200988769531;19.010103225708008;-136.0771484375
282;1673430661.5708466;47.129107999999995;7.2385195;51.65800094604492;1673430661.5550148;-27.626075744628906;17.527996063232422;-135.77029418945312
283;1673430661.7622783;47.1290979;7.2385036;52.05900192260742;1673430661.7456887;-21.776826858520508;13.669809341430664;-135.98202514648438
284;1673430661.9596152;47.1290875;7.238487;52.47500228881836;1673430661.9430413;-14.7174072265625;8.827875137329102;-136.11056518554688
285;1673430662.1628528;47.129076999999995;7.2384704;52.897003173828125;1673430662.1462338;-8.123133659362793;5.7104411125183105;-136.35060119628906
286;1673430662.3827348;47.1290668;7.2384546;53.320003509521484;1673430662.3651822;-4.280210018157959;4.368728160858154;-137.0216827392578
287;1673430662.612783;47.1290568;7.2384395999999995;53.743003845214844;1673430662.5991094;-2.6132736206054688;5.635284423828125;-137.4031219482422
288;1673430662.803911;47.129047;7.2384255;54.16100311279297;1673430662.787332;-2.893433094024658;7.361506462097168;-137.74925231933594
289;1673430662.9986327;47.1290374;7.2384122;54.57200241088867;1673430662.9830031;-4.953388214111328;8.546242713928223;-137.80770874023438
290;1673430663.1984406;47.1290279;7.238399599999999;54.980003356933594;1673430663.1817186;-7.991262912750244;7.810562610626221;-137.56056213378906
291;1673430663.4124088;47.1290184;7.2383874;55.384002685546875;1673430663.3946197;-10.199810028076172;6.926300525665283;-137.50662231445312
292;1673430663.630396;47.129008899999995;7.2383752999999995;55.78700256347656;1673430663.61374;-11.835875511169434;7.292298793792725;-137.15614318847656
293;1673430663.8169525;47.1289993;7.2383631;56.19000244140625;1673430663.8023014;-12.736412048339844;8.213276863098145;-136.384765625
294;1673430664.0298386;47.1289897;7.2383508;56.59400177001953;1673430664.010252;-13.654343605041504;10.323222160339355;-136.64964294433594
295;1673430664.227213;47.12898;7.2383381;56.99900436401367;1673430664.2100744;-14.233321189880371;12.229110717773438;-136.85092163085938
296;1673430664.4300568;47.1289702;7.2383251;57.40200424194336;1673430664.4144034;-14.851448059082031;13.294391632080078;-136.85198974609375
297;1673430664.6256812;47.128960299999996;7.2383117;57.80400085449219;1673430664.60416;-14.787418365478516;12.932454109191895;-137.0854034423828
298;1673430664.8413572;47.1289504;7.2382979;58.204002380371094;1673430664.8237894;-14.286039352416992;10.71341609954834;-137.09144592285156
299;1673430665.0647552;47.1289404;7.2382840999999996;58.603004455566406;1673430665.0402548;-13.505278587341309;8.063966751098633;-136.74508666992188
300;1673430665.2554965;47.1289303;7.238270399999999;59.00100326538086;1673430665.2369523;-12.120084762573242;7.306146144866943;-137.0065155029297
301;1673430665.4395647;47.128920199999996;7.2382567;59.40200424194336;1673430665.4154317;-11.134772300720215;8.657049179077148;-136.94725036621094
302;1673430665.615278;47.1289101;7.2382431;59.802001953125;1673430665.598682;-10.655489921569824;10.202899932861328;-136.9469757080078
303;1673430665.824551;47.1289002;7.2382295;60.20100402832031;1673430665.808868;-10.750995635986328;12.57052230834961;-137.16552734375
304;1673430666.0176017;47.128890299999995;7.238215899999999;60.599002838134766;1673430666.000856;-11.295048713684082;12.57679557800293;-136.9340362548828
305;1673430666.227447;47.1288804;7.238202299999999;60.996002197265625;1673430666.2112913;-12.209157943725586;12.26671028137207;-137.0465850830078
306;1673430666.4272408;47.1288707;7.2381888;61.3910026550293;1673430666.4119298;-12.931306838989258;10.701618194580078;-136.88575744628906
307;1673430666.595041;47.1288608;7.2381752;61.788002014160156;1673430666.5794327;-13.161540031433105;9.179678916931152;-136.5049591064453
308;1673430666.7793121;47.128850899999996;7.2381617;62.185001373291016;1673430666.7627192;-12.9526948928833;8.542046546936035;-136.49998474121094
309;1673430666.973894;47.128841;7.2381481999999995;62.583003997802734;1673430666.9553506;-12.586091995239258;7.8434624671936035;-136.33926391601562
310;1673430667.1737995;47.128831;7.2381347;62.98100280761719;1673430667.1565528;-12.128817558288574;8.205109596252441;-136.5598602294922
311;1673430667.3859503;47.128821099999996;7.2381211;63.37900161743164;1673430667.3713114;-11.727967262268066;9.055455207824707;-136.40573120117188
312;1673430667.655489;47.1288112;7.238107599999999;63.77700424194336;1673430667.6428032;-11.855016708374023;10.537721633911133;-136.74647521972656
313;1673430667.8490107;47.1288014;7.2380939;64.177001953125;1673430667.8294952;-11.903595924377441;11.72257137298584;-136.8273468017578
314;1673430668.0697553;47.1287916;7.23808;64.57600402832031;1673430668.050234;-12.21965217590332;12.001022338867188;-136.8433074951172
315;1673430668.2846127;47.1287819;7.238066099999999;64.97200012207031;1673430668.2443812;-12.439306259155273;11.850278854370117;-136.94139099121094
316;1673430668.4870334;47.1287721;7.238052199999999;65.36800384521484;1673430668.4753227;-12.779706954956055;11.265554428100586;-136.85960388183594
317;1673430668.7422662;47.1287624;7.2380384;65.76700592041016;1673430668.7305539;-12.9270658493042;10.503886222839355;-137.0827178955078
318;1673430668.900534;47.1287525;7.2380246999999995;66.16300201416016;1673430668.8892539;-12.98987102508545;9.47287368774414;-136.90635681152344
319;1673430669.0957696;47.128742599999995;7.2380111;66.5580062866211;1673430669.0840614;-12.943385124206543;8.82026481628418;-136.59048461914062
320;1673430669.3094354;47.1287326;7.237997699999999;66.9540023803711;1673430669.287967;-13.002375602722168;8.162091255187988;-136.4575958251953
321;1673430669.467552;47.128722599999996;7.237984399999999;67.3550033569336;1673430669.4538915;-12.750516891479492;8.614550590515137;-136.38893127441406
322;1673430669.6525054;47.1287125;7.237971;67.7560043334961;1673430669.6368804;-12.821789741516113;8.594223022460938;-136.4401397705078
323;1673430669.841119;47.128702499999996;7.2379576;68.15299987792969;1673430669.8258934;-12.620147705078125;8.692233085632324;-136.5111083984375
324;1673430670.033027;47.1286924;7.2379441;68.5510025024414;1673430670.0155063;-12.45235538482666;8.845110893249512;-136.4872283935547
325;1673430670.2354176;47.1286825;7.2379305;68.95100402832031;1673430670.2173088;-12.223557472229004;8.669623374938965;-136.4853057861328
326;1673430670.4349089;47.128672599999994;7.2379166999999995;69.34700012207031;1673430670.4167979;-12.138435363769531;8.637369155883789;-136.50709533691406
327;1673430670.6300175;47.1286628;7.237902999999999;69.74200439453125;1673430670.6134357;-12.097412109375;8.597679138183594;-136.33132934570312
328;1673430670.8278353;47.1286529;7.2378893;70.13800048828125;1673430670.8102589;-12.173809051513672;8.726841926574707;-136.3770294189453
329;1673430671.0196562;47.1286431;7.2378756;70.53800201416016;1673430671.0030713;-12.354581832885742;9.736783981323242;-136.71090698242188
330;1673430671.2170193;47.128633199999996;7.237861799999999;70.94000244140625;1673430671.2004242;-12.146705627441406;9.984086990356445;-136.9025421142578
331;1673430671.4211605;47.1286232;7.2378481;71.34100341796875;1673430671.4035392;-12.29890251159668;11.040441513061523;-136.97996520996094
332;1673430671.619492;47.1286133;7.2378345;71.74200439453125;1673430671.6028907;-12.19914722442627;11.56817626953125;-136.99879455566406
333;1673430671.8114269;47.128603399999996;7.237820699999999;72.14400482177734;1673430671.7948024;-12.385401725769043;11.709281921386719;-137.0735626220703
334;1673430672.0189123;47.128593599999995;7.2378069;72.54800415039062;1673430672.0003679;-12.179452896118164;11.678446769714355;-137.16226196289062
335;1673430672.2517116;47.1285838;7.237793;72.94900512695312;1673430672.23313;-12.430054664611816;11.205182075500488;-137.10720825195312
336;1673430672.4460764;47.1285739;7.237779199999999;73.35100555419922;1673430672.4226198;-12.591084480285645;11.239805221557617;-136.9604949951172
337;1673430672.663314;47.128564;7.2377655;73.75300598144531;1673430672.6418433;-12.748679161071777;11.226571083068848;-136.8202362060547
338;1673430672.8733585;47.128554099999995;7.2377518;74.1500015258789;1673430672.8596957;-12.660656929016113;11.214441299438477;-136.905517578125
339;1673430673.0440621;47.1285442;7.237738299999999;74.55000305175781;1673430673.029316;-12.838601112365723;11.661770820617676;-137.08425903320312
340;1673430673.2314186;47.1285342;7.2377246;74.95000457763672;1673430673.2167463;-12.590188026428223;12.000038146972656;-137.2586212158203
341;1673430673.4051623;47.1285242;7.237711;75.35100555419922;1673430673.3905241;-12.399009704589844;11.918912887573242;-137.14981079101562
342;1673430673.602261;47.1285142;7.2376974;75.75100708007812;1673430673.5856702;-12.217741012573242;12.05552864074707;-137.1481170654297
343;1673430673.8042874;47.128504299999996;7.2376838;76.156005859375;1673430673.7896495;-12.26921272277832;12.110413551330566;-137.1771697998047
344;1673430674.0098734;47.1284944;7.237670199999999;76.55900573730469;1673430673.993124;-12.404321670532227;11.903461456298828;-137.12625122070312
345;1673430674.2157;47.1284845;7.237656599999999;76.95800018310547;1673430674.1981316;-12.836101531982422;11.68621826171875;-136.990478515625
346;1673430674.4105961;47.1284746;7.2376431;77.35600280761719;1673430674.3929322;-13.029745101928711;11.676920890808105;-136.87684631347656
347;1673430674.6565385;47.1284646;7.2376295;77.75300598144531;1673430674.642878;-13.175503730773926;11.88287353515625;-136.81129455566406
348;1673430674.8549933;47.1284547;7.2376159;78.14700317382812;1673430674.8368917;-12.947622299194336;11.373950004577637;-136.94569396972656
349;1673430675.0477896;47.128444699999996;7.2376021999999995;78.54200744628906;1673430675.0326304;-12.821550369262695;11.178165435791016;-137.04005432128906
350;1673430675.2415018;47.1284348;7.2375886;78.93700408935547;1673430675.2253218;-12.736676216125488;10.840130805969238;-136.95098876953125
351;1673430675.443752;47.1284249;7.237574899999999;79.33200073242188;1673430675.4256456;-12.870198249816895;10.638692855834961;-137.0298614501953
352;1673430675.6386054;47.128415;7.2375614;79.7300033569336;1673430675.6219604;-13.061079025268555;10.59229564666748;-137.00262451171875
353;1673430675.8378322;47.128405;7.2375479;80.13200378417969;1673430675.8173306;-13.35468578338623;10.45635986328125;-136.7807159423828
354;1673430676.0417235;47.128395;7.2375343;80.5320053100586;1673430676.0234346;-13.170370101928711;10.026375770568848;-136.45774841308594
355;1673430676.2435932;47.128384999999994;7.2375207999999995;80.9310073852539;1673430676.2298696;-12.834321022033691;10.049835205078125;-136.35350036621094
356;1673430676.4536552;47.1283751;7.2375072;81.3280029296875;1673430676.4345095;-12.749130249023438;9.900407791137695;-136.3089599609375
357;1673430676.6509035;47.1283652;7.237493499999999;81.72500610351562;1673430676.6352072;-12.297006607055664;9.737485885620117;-136.40283203125
358;1673430676.8533607;47.1283554;7.2374797;82.12200164794922;1673430676.8347778;-12.236357688903809;9.677679061889648;-136.52296447753906
359;1673430677.0490346;47.128345499999995;7.2374659999999995;82.52000427246094;1673430677.0332634;-12.539436340332031;9.725367546081543;-136.739990234375
360;1673430677.2484539;47.1283356;7.2374522;82.92100524902344;1673430677.2277768;-13.056212425231934;10.0875825881958;-136.97251892089844
361;1673430677.4230273;47.1283258;7.2374385;83.32400512695312;1673430677.4054575;-13.79483699798584;10.295616149902344;-137.02085876464844
362;1673430677.6281066;47.1283159;7.237424799999999;83.72700500488281;1673430677.61247;-14.108668327331543;10.241467475891113;-137.0261688232422
363;1673430677.798811;47.128305999999995;7.237411;84.12800598144531;1673430677.7826061;-13.693105697631836;10.39205265045166;-137.12359619140625
364;1673430677.9885557;47.1282961;7.2373973;84.5270004272461;1673430677.9700127;-12.201663970947266;10.226478576660156;-137.01136779785156
365;1673430678.18726;47.1282863;7.2373837;84.92400360107422;1673430678.1716452;-11.30235767364502;10.326617240905762;-137.0048370361328
366;1673430678.3874843;47.1282765;7.2373701;85.32200622558594;1673430678.3708284;-11.472342491149902;9.908870697021484;-136.89828491210938
367;1673430678.583937;47.128266599999996;7.2373565;85.72000122070312;1673430678.5673475;-12.692737579345703;9.890464782714844;-136.79588317871094
368;1673430678.807475;47.128256699999994;7.2373429;86.11600494384766;1673430678.7899075;-13.898993492126465;9.935615539550781;-136.8939666748047
369;1673430679.0135589;47.1282468;7.2373293;86.51200103759766;1673430678.9949915;-14.653949737548828;10.305222511291504;-136.9630126953125
370;1673430679.219463;47.1282369;7.2373156;86.9050064086914;1673430679.2018986;-14.390207290649414;10.595964431762695;-137.14242553710938
371;1673430679.4276233;47.1282269;7.237301899999999;87.30000305175781;1673430679.4060187;-13.13178825378418;10.68828010559082;-137.11766052246094
372;1673430679.6301177;47.1282169;7.2372882;87.69600677490234;1673430679.6125124;-12.433672904968262;10.693890571594238;-137.10760498046875
373;1673430679.8399663;47.128206999999996;7.2372745;88.09300231933594;1673430679.8233774;-11.203746795654297;10.382040977478027;-136.95111083984375
374;1673430680.0350747;47.1281971;7.2372608;88.49100494384766;1673430680.0165188;-11.445144653320312;10.150282859802246;-136.9488983154297
375;1673430680.2412426;47.1281873;7.2372472;88.88800048828125;1673430680.2255478;-12.379338264465332;10.059343338012695;-136.95852661132812
376;1673430680.443899;47.1281774;7.237233499999999;89.28600311279297;1673430680.425346;-13.794490814208984;10.104135513305664;-137.06565856933594
377;1673430680.6356287;47.128167499999996;7.2372198999999995;89.68600463867188;1673430680.619036;-14.610980987548828;10.203685760498047;-137.1653289794922
378;1673430680.8246775;47.1281575;7.2372062999999995;90.0840072631836;1673430680.810983;-13.857433319091797;10.4622163772583;-137.01132202148438
379;1673430681.0538328;47.1281475;7.237192599999999;90.48200225830078;1673430681.0389984;-12.665635108947754;10.419388771057129;-136.98358154296875
380;1673430681.2334702;47.128137599999995;7.2371789;90.87700653076172;1673430681.2139487;-11.665249824523926;10.361685752868652;-136.8768310546875
381;1673430681.4385803;47.1281276;7.2371652;91.27000427246094;1673430681.4180741;-11.218494415283203;10.216302871704102;-136.88198852539062
382;1673430681.6315784;47.128117599999996;7.2371516;91.66500091552734;1673430681.6130352;-11.733314514160156;10.328559875488281;-136.87832641601562
383;1673430681.8598201;47.1281076;7.2371379;92.06000518798828;1673430681.8436642;-12.849516868591309;10.201616287231445;-137.05795288085938
384;1673430682.0717802;47.1280977;7.2371243;92.45500183105469;1673430682.059094;-13.947477340698242;10.148183822631836;-137.1112518310547
385;1673430682.3277388;47.128087699999995;7.237110599999999;92.84700775146484;1673430682.3150625;-14.242839813232422;10.383514404296875;-137.12063598632812
386;1673430682.5067966;47.1280777;7.2370969;93.23700714111328;1673430682.4921124;-12.982587814331055;10.378432273864746;-136.93817138671875
387;1673430682.6808162;47.1280678;7.2370832;93.62800598144531;1673430682.665102;-11.77729606628418;10.288254737854004;-136.8240966796875
388;1673430682.8675299;47.1280578;7.2370696;94.0250015258789;1673430682.8523335;-10.786114692687988;10.015724182128906;-136.6959228515625
389;1673430683.0798538;47.1280478;7.237056;94.42300415039062;1673430683.0434706;-10.783370018005371;9.942495346069336;-136.8173828125
390;1673430683.28843;47.128037899999995;7.237042499999999;94.81900787353516;1673430683.2747824;-11.629642486572266;9.90460205078125;-136.88247680664062
391;1673430683.4786797;47.1280279;7.237028899999999;95.21100616455078;1673430683.4640412;-12.844634056091309;10.111044883728027;-137.05276489257812
392;1673430683.7029586;47.128017799999995;7.2370152999999995;95.60200500488281;1673430683.6902592;-13.367803573608398;10.412882804870605;-137.01864624023438
393;1673430683.8952324;47.1280078;7.2370018;95.99600219726562;1673430683.8805776;-14.028972625732422;10.481016159057617;-137.1493377685547
394;1673430684.1051118;47.127997799999996;7.2369882;96.38800811767578;1673430684.092423;-12.637577056884766;10.781586647033691;-137.08714294433594
395;1673430684.278239;47.1279879;7.236974699999999;96.7800064086914;1673430684.261646;-11.200486183166504;10.561928749084473;-136.8584442138672
396;1673430684.485382;47.127978;7.236961099999999;97.17500305175781;1673430684.4697652;-10.838724136352539;10.27939510345459;-136.7015838623047
397;1673430684.6690466;47.1279682;7.2369476;97.57400512695312;1673430684.6538672;-11.547682762145996;10.126269340515137;-136.66851806640625
398;1673430684.8782895;47.127958299999996;7.236934;97.97000122070312;1673430684.8625815;-12.595429420471191;10.111324310302734;-136.8333282470703
399;1673430685.0658722;47.1279484;7.2369204;98.36600494384766;1673430685.0482624;-13.698132514953613;10.238889694213867;-136.9438018798828
400;1673430685.2679865;47.1279384;7.2369068;98.76000213623047;1673430685.2508354;-14.07336711883545;10.43130111694336;-137.13607788085938
401;1673430685.5246208;47.127928399999995;7.2368932;99.15400695800781;1673430685.4824133;-13.81961727142334;10.551045417785645;-137.0813446044922
402;1673430685.6874428;47.1279185;7.2368796;99.55000305175781;1673430685.6698787;-12.404426574707031;10.571467399597168;-136.95309448242188
403;1673430685.8512971;47.1279086;7.236866;99.94800567626953;1673430685.8386204;-11.44355297088623;10.520795822143555;-136.92523193359375
404;1673430686.0337424;47.127898699999996;7.2368524999999995;100.34700775146484;1673430686.0073829;-10.755417823791504;10.131633758544922;-136.75587463378906
405;1673430686.2445853;47.127888899999995;7.236839;100.74800109863281;1673430686.2270088;-12.188089370727539;9.91709041595459;-136.6570587158203
406;1673430686.469706;47.127879;7.236825499999999;101.14900207519531;1673430686.4506307;-13.13359546661377;10.1464262008667;-136.6958465576172
407;1673430686.6451805;47.127869;7.236812;101.5510025024414;1673430686.6285787;-14.117608070373535;10.252269744873047;-136.9815673828125
408;1673430686.8418417;47.127859099999995;7.2367984;101.95000457763672;1673430686.8232985;-14.3875093460083;10.502927780151367;-137.01699829101562
409;1673430687.0383465;47.1278491;7.236784699999999;102.34800720214844;1673430687.0227323;-13.559601783752441;10.67529296875;-137.05206298828125
410;1673430687.2347128;47.1278392;7.2367710999999995;102.74700164794922;1673430687.2170267;-12.80204963684082;10.594429016113281;-136.94236755371094
411;1673430687.4305723;47.127829399999996;7.2367574999999995;103.14700317382812;1673430687.4108932;-11.89691162109375;10.48690414428711;-136.87747192382812
412;1673430687.6461055;47.1278195;7.236744;103.54700469970703;1673430687.6125064;-11.327759742736816;10.461677551269531;-136.80020141601562
413;1673430687.8549695;47.1278096;7.236730499999999;103.94500732421875;1673430687.834472;-12.078300476074219;10.313485145568848;-136.8636932373047
414;1673430688.0423415;47.1277997;7.236716899999999;104.34400177001953;1673430688.0266345;-13.476883888244629;10.152304649353027;-136.9414825439453
