;pos_time;latitude;longitude;altitude;alt_time;pitch;roll;yaw
0;1673435427.5041664;47.1306423;7.24062;-0.005000000353902578;1673435427.6881166;-0.18182864785194397;-0.12326531112194061;90.58717346191406
1;1673435427.7047086;47.1306424;7.2406198999999996;-0.0020000000949949026;1673435427.9014122;-0.31285977363586426;-0.0009083219338208437;90.58750915527344
2;1673435427.9200945;47.1306424;7.2406198999999996;0.0;1673435428.1883135;-0.36725544929504395;-0.3391138017177582;90.69452667236328
3;1673435428.2000203;47.1306424;7.240619799999999;0.004000000189989805;1673435428.357468;-0.06432072073221207;-0.01453227549791336;90.69792175292969
4;1673435428.3730824;47.1306424;7.2406197;0.0020000000949949026;1673435428.5481253;0.020322933793067932;-0.3745753765106201;90.8232192993164
5;1673435428.5609038;47.1306424;7.240619799999999;0.006000000052154064;1673435428.7331195;-0.31498613953590393;-0.1052011102437973;90.61437225341797
6;1673435428.7484155;47.1306424;7.2406197;0.010000000707805157;1673435428.9131987;-0.4281500577926636;-0.24694876372814178;90.71283721923828
7;1673435428.9278393;47.1306424;7.2406197;0.009000000543892384;1673435429.1099322;-0.3902623653411865;0.025783320888876915;90.51806640625
8;1673435429.1245558;47.1306424;7.2406197;0.007000000216066837;1673435429.2948866;-0.44638246297836304;0.11640661209821701;90.69332122802734
9;1673435429.3153741;47.1306424;7.240619799999999;0.0010000000474974513;1673435429.5256455;-0.3406983017921448;1.1078540086746216;90.52371215820312
10;1673435429.540376;47.1306424;7.2406198999999996;0.003000000026077032;1673435429.7807655;-0.23479656875133514;0.40501201152801514;90.8375015258789
11;1673435429.7965171;47.1306424;7.24062;0.004000000189989805;1673435429.9784777;-0.2826240658760071;0.6604652404785156;90.78187561035156
12;1673435429.9980989;47.1306424;7.2406201;0.005000000353902578;1673435430.1853063;-0.30845779180526733;0.617676854133606;90.6596450805664
13;1673435430.201899;47.1306424;7.2406201;0.00800000037997961;1673435430.3479455;-0.19901727139949799;0.5436643362045288;90.60922241210938
14;1673435430.3636134;47.1306424;7.2406201;0.009000000543892384;1673435430.5301778;-0.36478450894355774;1.0124856233596802;90.58987426757812
15;1673435430.545805;47.1306424;7.24062;0.010000000707805157;1673435430.7159288;-0.48423007130622864;1.3446815013885498;90.66744995117188
16;1673435430.7334912;47.1306424;7.24062;0.00800000037997961;1673435430.906459;-0.44455283880233765;1.4299046993255615;90.73385620117188
17;1673435430.9202678;47.1306424;7.24062;-0.0010000000474974513;1673435431.114012;-0.23873889446258545;0.6532338857650757;90.67606353759766
18;1673435431.1316588;47.1306424;7.24062;0.0;1673435431.3097892;-0.5406929850578308;1.2501615285873413;90.63131713867188
19;1673435431.3231354;47.1306424;7.24062;0.007000000216066837;1673435431.5000355;-0.5897424817085266;0.6914804577827454;90.44489288330078
20;1673435431.5176344;47.1306423;7.24062;0.013000000268220901;1673435431.704958;-0.7037400007247925;0.564413845539093;90.50765991210938
21;1673435431.7235048;47.1306423;7.24062;0.01600000075995922;1673435431.9037197;-0.6636275053024292;0.7088196277618408;90.53514862060547
22;1673435431.9203985;47.1306423;7.24062;0.015000000596046448;1673435432.1441877;-0.5941457152366638;0.4483780562877655;90.53128051757812
23;1673435432.159519;47.1306422;7.2406198999999996;0.01100000087171793;1673435432.3280602;-0.7876266241073608;0.5047556757926941;89.91735076904297
24;1673435432.3427136;47.130642099999996;7.2406198999999996;0.009000000543892384;1673435432.511839;-0.30740660429000854;0.24055202305316925;88.18750762939453
25;1673435432.528426;47.1306419;7.2406198999999996;0.003000000026077032;1673435432.7147055;-0.107972651720047;-0.6672562956809998;82.97809600830078
26;1673435432.7323754;47.130641499999996;7.2406201999999995;0.003000000026077032;1673435432.9096909;0.24334348738193512;-4.434722423553467;76.83528900146484
27;1673435432.9283822;47.130640899999996;7.2406206;0.010000000707805157;1673435433.1071806;1.776602864265442;-8.470908164978027;80.65988159179688
28;1673435433.1216674;47.13064;7.2406212;0.018000001087784767;1673435433.2968948;5.95317268371582;-12.699187278747559;84.09014892578125
29;1673435433.318509;47.130639099999996;7.2406220999999995;0.03500000014901161;1673435433.51786;7.877904891967773;-15.007530212402344;85.18383026123047
30;1673435433.5344887;47.130637899999996;7.2406232;0.0650000050663948;1673435433.714247;8.754080772399902;-16.393253326416016;86.04839324951172
31;1673435433.7300272;47.1306369;7.2406244;0.10600000619888306;1673435433.908241;9.875919342041016;-17.89032554626465;86.74024963378906
32;1673435433.924832;47.130635899999994;7.2406255999999996;0.1600000113248825;1673435434.103345;11.221546173095703;-19.0386962890625;87.37413024902344
33;1673435434.122094;47.1306352;7.2406266;0.23100000619888306;1673435434.3073075;13.002710342407227;-19.832094192504883;87.87675476074219
34;1673435434.3248625;47.130634699999995;7.240627399999999;0.32100000977516174;1673435434.514011;14.620268821716309;-21.20594024658203;88.31600952148438
35;1673435434.5296276;47.1306346;7.2406277999999995;0.42900002002716064;1673435434.7330687;16.072195053100586;-22.8564395904541;88.81664276123047
36;1673435434.748697;47.130634699999995;7.2406277999999995;0.5509999990463257;1673435434.951761;17.316213607788086;-23.829750061035156;89.28845977783203
37;1673435434.971121;47.130635299999994;7.2406273;0.6800000071525574;1673435435.1414027;16.533470153808594;-21.376014709472656;90.0693588256836
38;1673435435.1556108;47.1306363;7.2406263;0.8110000491142273;1673435435.3447313;14.832586288452148;-19.44524383544922;90.62494659423828
39;1673435435.361376;47.1306376;7.240625;0.9530000686645508;1673435435.5313962;12.795186996459961;-18.123260498046875;91.14046478271484
40;1673435435.5479982;47.130638999999995;7.2406234;1.1069999933242798;1673435435.7233152;10.566640853881836;-12.696121215820312;92.10591888427734
41;1673435435.7379558;47.1306404;7.2406219;1.2710000276565552;1673435435.9302912;9.037347793579102;-10.425189018249512;93.13658142089844
42;1673435435.948837;47.130641499999996;7.2406206;1.4470000267028809;1673435436.1333835;8.673856735229492;-13.451359748840332;97.14250946044922
43;1673435436.1509755;47.1306422;7.2406197;1.628000020980835;1673435436.3486862;9.02762222290039;-10.442415237426758;97.82295227050781
44;1673435436.3628848;47.1306425;7.2406191;1.818000078201294;1673435436.513279;9.17790412902832;-10.829867362976074;98.10008239746094
45;1673435436.5289052;47.130642599999995;7.2406188;2.008000135421753;1673435436.707249;10.058805465698242;-14.872459411621094;98.0466079711914
46;1673435436.7228644;47.130642599999995;7.240618899999999;2.195000171661377;1673435436.9078062;11.309004783630371;-13.53801155090332;98.43755340576172
47;1673435436.9272606;47.1306425;7.2406191;2.38100004196167;1673435437.1288738;12.284006118774414;-11.365748405456543;99.04569244384766
48;1673435437.1444983;47.1306424;7.2406194;2.570000171661377;1673435437.3370247;13.179129600524902;-15.051041603088379;99.17198944091797
49;1673435437.3555715;47.1306423;7.240619799999999;2.764000177383423;1673435437.544747;13.961875915527344;-14.846899032592773;99.30281066894531
50;1673435437.5611372;47.130642099999996;7.2406201;2.9560000896453857;1673435437.7353573;14.195972442626953;-12.359862327575684;99.55781555175781
51;1673435437.7500145;47.1306419;7.2406201999999995;3.1520001888275146;1673435437.9383748;14.000901222229004;-15.505925178527832;99.1856918334961
52;1673435437.9543087;47.1306417;7.2406203;3.3470001220703125;1673435438.129325;14.069385528564453;-16.12059211730957;99.0374984741211
53;1673435438.1439486;47.1306416;7.2406204;3.5410001277923584;1673435438.3084927;13.764344215393066;-12.475251197814941;99.3272933959961
54;1673435438.3250473;47.1306417;7.2406203;3.7340002059936523;1673435438.5566475;13.313236236572266;-13.667098999023438;99.25491333007812
55;1673435438.574252;47.1306417;7.2406201999999995;3.934000253677368;1673435438.7864008;13.178838729858398;-16.006540298461914;98.95952606201172
56;1673435438.8054452;47.1306417;7.2406201;4.133000373840332;1673435438.976241;13.171158790588379;-12.823638916015625;99.39583587646484
57;1673435438.991055;47.1306417;7.24062;4.338000297546387;1673435439.157578;13.081137657165527;-13.3207368850708;99.42985534667969
58;1673435439.1747453;47.1306416;7.2406198999999996;4.543000221252441;1673435439.3402734;12.991243362426758;-15.97697925567627;99.25049591064453
59;1673435439.3549645;47.1306416;7.2406198999999996;4.746000289916992;1673435439.5603642;13.250576972961426;-13.722118377685547;99.22662353515625
60;1673435439.5752008;47.1306417;7.2406198999999996;4.946000099182129;1673435439.7376292;13.06125259399414;-12.112448692321777;99.32665252685547
61;1673435439.7554734;47.1306417;7.2406198999999996;5.145000457763672;1673435439.9257693;13.044660568237305;-15.852062225341797;99.031005859375
62;1673435439.942376;47.1306417;7.240619799999999;5.345000267028809;1673435440.1444259;13.10615062713623;-14.162643432617188;99.24462890625
63;1673435440.161029;47.1306417;7.240619799999999;5.544000148773193;1673435440.363456;13.240374565124512;-11.799347877502441;99.4494857788086
64;1673435440.378256;47.1306417;7.240619799999999;5.743000507354736;1673435440.562496;13.252911567687988;-14.978090286254883;99.25704956054688
65;1673435440.5782518;47.1306417;7.2406198999999996;5.947000503540039;1673435440.7518377;13.504743576049805;-15.441417694091797;98.98956298828125
66;1673435440.7713969;47.1306417;7.2406198999999996;6.147000312805176;1673435440.9547842;13.465580940246582;-11.52282428741455;99.48734283447266
67;1673435440.9690948;47.1306418;7.2406198999999996;6.3470001220703125;1673435441.123859;13.055225372314453;-14.20773983001709;99.35137176513672
68;1673435441.1472847;47.1306418;7.2406198999999996;6.548000335693359;1673435441.3142755;13.207895278930664;-15.588951110839844;99.10660552978516
69;1673435441.3300254;47.1306418;7.2406198999999996;6.747000217437744;1673435441.5111237;13.187849044799805;-12.401841163635254;99.29039001464844
70;1673435441.5263834;47.1306417;7.240619799999999;6.950000286102295;1673435441.728211;13.042489051818848;-13.704760551452637;99.19042205810547
71;1673435441.7428775;47.1306417;7.240619799999999;7.154000282287598;1673435441.9202924;13.225150108337402;-16.266786575317383;99.0536880493164
72;1673435441.9349422;47.1306417;7.240619799999999;7.3550004959106445;1673435442.1068003;13.336215019226074;-12.9209566116333;99.32804870605469
73;1673435442.130213;47.1306417;7.240619799999999;7.553000450134277;1673435442.3307102;13.101434707641602;-12.352298736572266;99.486083984375
74;1673435442.3475564;47.1306418;7.240619799999999;7.753000259399414;1673435442.5146759;13.131207466125488;-16.05900764465332;98.97701263427734
75;1673435442.5312777;47.1306418;7.2406198999999996;7.951000213623047;1673435442.7191737;13.264711380004883;-13.936830520629883;99.19108581542969
76;1673435442.7357671;47.1306417;7.2406198999999996;8.146000862121582;1673435442.9276154;13.359323501586914;-12.606682777404785;99.35317993164062
77;1673435442.9441967;47.1306416;7.2406198999999996;8.348000526428223;1673435443.1296096;13.273309707641602;-15.321231842041016;99.23589324951172
78;1673435443.1463654;47.130641499999996;7.2406198999999996;8.550000190734863;1673435443.3277686;13.367195129394531;-15.479362487792969;99.11798858642578
79;1673435443.3414247;47.1306416;7.24062;8.747000694274902;1673435443.5213625;13.474583625793457;-11.78653621673584;99.26410675048828
80;1673435443.5419748;47.1306416;7.24062;8.943000793457031;1673435443.7288187;13.207380294799805;-14.679408073425293;99.17411041259766
81;1673435443.7435415;47.1306416;7.2406201;9.13700008392334;1673435443.9286656;13.456300735473633;-15.27376937866211;99.18109130859375
82;1673435443.9423273;47.1306417;7.2406201;9.331000328063965;1673435444.112953;13.493596076965332;-12.057690620422363;99.35313415527344
83;1673435444.1297963;47.1306417;7.2406201999999995;9.528000831604004;1673435444.3208506;13.315078735351562;-13.956583023071289;99.14100646972656
84;1673435444.3374403;47.1306416;7.2406201999999995;9.726000785827637;1673435444.5357273;13.417076110839844;-16.242860794067383;98.80528259277344
85;1673435444.5515032;47.1306416;7.2406203;9.926000595092773;1673435444.764793;13.554410934448242;-12.63293170928955;99.18195343017578
86;1673435444.7804549;47.1306417;7.2406204;10.124000549316406;1673435444.9595985;12.964317321777344;-12.891427993774414;98.9159927368164
87;1673435444.977331;47.1306418;7.2406204;10.38700008392334;1673435445.2182925;13.789451599121094;-17.50962257385254;98.41527557373047
88;1673435445.231029;47.130641999999995;7.2406203;10.755000114440918;1673435445.412816;13.808625221252441;-15.343612670898438;98.74273681640625
89;1673435445.4266293;47.1306424;7.2406201;11.142000198364258;1673435445.5821671;12.957261085510254;-12.223138809204102;98.9623031616211
90;1673435445.5935774;47.1306428;7.2406198999999996;11.539000511169434;1673435445.7584257;12.475654602050781;-13.014022827148438;98.97372436523438
91;1673435445.7764611;47.130643199999994;7.2406197;11.938000679016113;1673435445.968877;12.201981544494629;-13.149741172790527;99.10166931152344
92;1673435445.9866922;47.1306435;7.2406196;12.338000297546387;1673435446.1382985;12.268000602722168;-9.429952621459961;99.2972412109375
93;1673435446.1519516;47.1306437;7.2406196;12.737000465393066;1673435446.3184114;12.139503479003906;-11.359932899475098;99.30277252197266
94;1673435446.3369193;47.1306437;7.2406196;13.136000633239746;1673435446.518069;12.237786293029785;-13.926698684692383;99.0154800415039
95;1673435446.5347793;47.1306435;7.240619499999999;13.534000396728516;1673435446.7446463;12.554360389709473;-11.196098327636719;99.28489685058594
96;1673435446.7622347;47.130643299999996;7.240619499999999;13.93600082397461;1673435446.9558256;12.74649429321289;-12.152088165283203;99.1421127319336
97;1673435446.9730134;47.1306431;7.240619499999999;14.340001106262207;1673435447.2057297;12.764931678771973;-15.558942794799805;98.81571197509766
98;1673435447.2193882;47.1306428;7.2406196;14.744000434875488;1673435447.4060864;12.912431716918945;-13.921483993530273;98.9314956665039
99;1673435447.4217021;47.130642699999996;7.2406196;15.146000862121582;1673435447.5764043;12.974575996398926;-12.079242706298828;99.20171356201172
100;1673435447.5890913;47.130642599999995;7.2406197;15.552000999450684;1673435447.7470863;13.209299087524414;-15.032241821289062;99.0687255859375
101;1673435447.7609234;47.1306425;7.240619799999999;15.961000442504883;1673435447.9257293;13.1980562210083;-14.788591384887695;98.93608093261719
102;1673435447.9433026;47.1306425;7.240619799999999;16.368000030517578;1673435448.134806;13.38968276977539;-12.09139347076416;99.21922302246094
103;1673435448.1515515;47.1306425;7.240619799999999;16.779001235961914;1673435448.3265924;13.118915557861328;-13.886134147644043;99.02162170410156
104;1673435448.3441443;47.1306425;7.240619799999999;17.190000534057617;1673435448.5441828;13.114148139953613;-14.861348152160645;98.93183898925781
105;1673435448.5618656;47.1306425;7.240619799999999;17.597000122070312;1673435448.744619;13.239546775817871;-11.85097599029541;99.04106140136719
106;1673435448.76165;47.130642599999995;7.240619799999999;18.00200080871582;1673435448.9450562;12.86754035949707;-12.856873512268066;99.08674621582031
107;1673435448.9666731;47.130642699999996;7.2406197;18.41400146484375;1673435449.154689;12.874813079833984;-15.057185173034668;98.88638305664062
108;1673435449.1723924;47.1306428;7.2406197;18.819000244140625;1673435449.347364;12.926380157470703;-11.693093299865723;99.29119873046875
109;1673435449.3631287;47.1306428;7.2406196;19.224000930786133;1673435449.547175;12.785146713256836;-12.265910148620605;99.17902374267578
110;1673435449.5698478;47.130642699999996;7.2406196;19.636001586914062;1673435449.744607;12.920604705810547;-14.73141098022461;99.06812286376953
111;1673435449.7662077;47.130642699999996;7.2406196;20.04800033569336;1673435449.9447834;12.952736854553223;-13.706110000610352;98.92662811279297
112;1673435449.9643598;47.1306428;7.2406196;20.455001831054688;1673435450.1529791;13.048924446105957;-11.121047019958496;99.17194366455078
113;1673435450.1754487;47.1306428;7.2406196;20.860000610351562;1673435450.345048;12.864716529846191;-14.254268646240234;98.99950408935547
114;1673435450.359706;47.1306428;7.2406196;21.26300048828125;1673435450.5246246;12.982298851013184;-14.032259941101074;99.06558227539062
115;1673435450.5403492;47.1306428;7.2406196;21.66200065612793;1673435450.7167764;13.105354309082031;-11.542322158813477;99.34204864501953
116;1673435450.7335122;47.130642699999996;7.2406196;22.06800079345703;1673435450.9239435;12.819561004638672;-14.178422927856445;99.11708068847656
117;1673435450.9396598;47.130642599999995;7.240619499999999;22.46900177001953;1673435451.1305752;13.121788024902344;-14.884697914123535;98.98265838623047
118;1673435451.1442251;47.130642599999995;7.240619499999999;22.869001388549805;1673435451.3303459;13.203226089477539;-11.762518882751465;99.13587188720703
119;1673435451.3470762;47.130642699999996;7.240619499999999;23.272001266479492;1673435451.5249798;13.119867324829102;-12.805447578430176;99.24268341064453
120;1673435451.5413034;47.130642699999996;7.240619499999999;23.68000030517578;1673435451.738308;12.97378158569336;-15.008200645446777;98.9715576171875
121;1673435451.7560353;47.130642699999996;7.240619499999999;24.07900047302246;1673435451.9461308;13.116458892822266;-12.045358657836914;99.40941619873047
122;1673435451.9647083;47.1306428;7.2406194;24.48400115966797;1673435452.1537845;12.787766456604004;-12.084112167358398;99.3191909790039
123;1673435452.1723773;47.130642699999996;7.2406193;24.89200210571289;1673435452.3545854;12.78818416595459;-14.880423545837402;99.13275146484375
124;1673435452.372163;47.1306428;7.240619199999999;25.299001693725586;1673435452.5285423;12.80757999420166;-13.192564010620117;98.9176254272461
125;1673435452.5437255;47.1306428;7.2406193;25.703001022338867;1673435452.7400799;12.895716667175293;-11.283490180969238;99.13760375976562
126;1673435452.7646172;47.1306429;7.2406193;26.10300064086914;1673435452.9461572;12.780193328857422;-14.104736328125;99.07020568847656
127;1673435452.958832;47.1306429;7.2406193;26.505001068115234;1673435453.1331565;13.05931282043457;-14.03825569152832;98.9959716796875
128;1673435453.1460865;47.1306429;7.2406194;26.9010009765625;1673435453.320526;13.142513275146484;-11.504054069519043;99.14104461669922
129;1673435453.336133;47.1306428;7.2406194;27.30000114440918;1673435453.5369802;12.950818061828613;-13.787753105163574;98.97376251220703
130;1673435453.5545495;47.130642699999996;7.2406194;27.703001022338867;1673435453.744048;13.059148788452148;-14.687861442565918;98.99266815185547
131;1673435453.761712;47.1306428;7.240619499999999;28.106000900268555;1673435453.9898007;13.384278297424316;-11.55223274230957;99.19660186767578
132;1673435454.0027118;47.1306429;7.2406196;28.50800132751465;1673435454.1614254;13.168217658996582;-11.877793312072754;99.19385528564453
133;1673435454.1781783;47.1306429;7.2406196;28.911001205444336;1673435454.3486984;13.137955665588379;-14.886841773986816;98.90694427490234
134;1673435454.3712196;47.1306429;7.2406196;29.308000564575195;1673435454.5562844;13.090147018432617;-12.361244201660156;99.1920166015625
135;1673435454.5740237;47.1306429;7.2406196;29.71200180053711;1673435454.8245075;13.186397552490234;-11.271531105041504;99.2585220336914
136;1673435454.837224;47.1306429;7.2406196;30.11800193786621;1673435455.0292885;12.94257926940918;-14.353006362915039;99.1090087890625
137;1673435455.0450616;47.1306428;7.2406196;30.520002365112305;1673435455.2082434;13.169065475463867;-13.935515403747559;98.9981460571289
138;1673435455.2209313;47.1306428;7.2406196;30.922000885009766;1673435455.416512;13.35667896270752;-10.859375;99.38988494873047
139;1673435455.432129;47.1306428;7.2406196;31.32400131225586;1673435455.5936954;13.005889892578125;-13.67289924621582;99.06163024902344
140;1673435455.606595;47.130642699999996;7.2406196;31.726001739501953;1673435455.7817967;13.12832260131836;-14.269227027893066;98.97975158691406
141;1673435455.7986274;47.130642699999996;7.2406196;32.121002197265625;1673435455.980163;13.198472023010254;-11.400348663330078;99.37096405029297
142;1673435455.9967964;47.1306425;7.240619499999999;32.520999908447266;1673435456.164567;13.154729843139648;-13.395808219909668;99.0779800415039
143;1673435456.178282;47.1306424;7.2406196;32.922000885009766;1673435456.3528166;13.259509086608887;-14.962109565734863;98.87387084960938
144;1673435456.3674574;47.1306424;7.2406196;33.32200241088867;1673435456.5495205;13.259013175964355;-11.977603912353516;99.12129211425781
145;1673435456.5662677;47.1306424;7.2406197;33.72300338745117;1673435456.789082;13.144136428833008;-12.488189697265625;99.18424224853516
146;1673435456.8041227;47.1306425;7.2406197;34.12600326538086;1673435456.9779725;13.150214195251465;-15.19162368774414;98.91039276123047
147;1673435456.9952312;47.1306425;7.2406197;34.522003173828125;1673435457.205774;13.268523216247559;-12.225417137145996;99.23792266845703
148;1673435457.221424;47.130642599999995;7.2406197;34.92399978637695;1673435457.4178524;13.130486488342285;-11.943325996398926;99.10807800292969
149;1673435457.4305296;47.1306425;7.2406197;35.33000183105469;1673435457.60799;13.08291244506836;-14.83366584777832;98.87288665771484
150;1673435457.6216536;47.1306425;7.2406197;35.73800277709961;1673435457.808381;13.113749504089355;-13.166955947875977;98.91275787353516
151;1673435457.8210862;47.130642599999995;7.2406197;36.14400100708008;1673435457.990783;13.240845680236816;-11.151433944702148;99.26699829101562
152;1673435458.01029;47.130642599999995;7.2406197;36.552001953125;1673435458.1728635;13.073042869567871;-13.79719066619873;99.15471649169922
153;1673435458.1895053;47.130642599999995;7.2406197;36.95800018310547;1673435458.367788;13.290375709533691;-13.790884017944336;99.14807891845703
154;1673435458.3827121;47.130642599999995;7.2406197;37.35600280761719;1673435458.561207;13.323429107666016;-11.381250381469727;99.30238342285156
155;1673435458.5787947;47.1306425;7.2406197;37.755001068115234;1673435458.75578;13.08549976348877;-13.744527816772461;99.18445587158203
156;1673435458.7704082;47.1306425;7.2406197;38.15500259399414;1673435458.9720943;13.369721412658691;-14.361223220825195;99.05621337890625
157;1673435458.9949415;47.130642599999995;7.2406197;38.55400085449219;1673435459.1747713;13.52679443359375;-11.346240997314453;99.15144348144531
158;1673435459.1930676;47.130642699999996;7.240619799999999;38.95600128173828;1673435459.3969193;13.305094718933105;-11.698211669921875;99.26634216308594
159;1673435459.4105928;47.1306428;7.240619799999999;39.358001708984375;1673435459.6114638;13.236199378967285;-14.689196586608887;98.83072662353516
160;1673435459.626122;47.1306428;7.2406198999999996;39.75100326538086;1673435459.8011706;13.314165115356445;-11.717557907104492;99.24430847167969
161;1673435459.815811;47.1306429;7.240619799999999;40.150001525878906;1673435459.9893847;13.272113800048828;-11.722604751586914;99.24165344238281
162;1673435460.0162737;47.1306428;7.240619799999999;40.55800247192383;1673435460.1703591;13.265425682067871;-14.681352615356445;98.89622497558594
163;1673435460.184031;47.1306428;7.240619799999999;40.9630012512207;1673435460.354353;13.463712692260742;-12.877025604248047;99.09154510498047
164;1673435460.3699677;47.1306428;7.2406198999999996;41.368003845214844;1673435460.6048088;13.439811706542969;-10.798050880432129;99.26164245605469
165;1673435460.6233566;47.1306428;7.2406198999999996;41.77100372314453;1673435460.786424;13.178985595703125;-13.749218940734863;98.95028686523438
166;1673435460.8091116;47.1306428;7.2406198999999996;42.176002502441406;1673435460.9860098;13.257543563842773;-13.743494033813477;98.9464111328125
167;1673435461.00217;47.1306428;7.2406198999999996;42.57200241088867;1673435461.1804802;13.322954177856445;-11.142251014709473;99.33401489257812
168;1673435461.1956677;47.130642699999996;7.240619799999999;42.97500228881836;1673435461.376639;13.243790626525879;-13.398199081420898;99.0228271484375
169;1673435461.3971863;47.130642599999995;7.2406197;43.38200378417969;1673435461.5646281;13.222393989562988;-14.747123718261719;98.91051483154297
170;1673435461.5773075;47.130642599999995;7.2406197;43.788002014160156;1673435461.7611384;13.446196556091309;-11.390691757202148;99.09156799316406
171;1673435461.7749236;47.130642599999995;7.2406197;44.194000244140625;1673435461.9538546;13.228536605834961;-12.43510913848877;99.16839599609375
172;1673435461.9714212;47.130642599999995;7.2406197;44.60100173950195;1673435462.1575735;13.36591911315918;-14.976790428161621;98.95361328125
173;1673435462.1741521;47.130642599999995;7.2406197;44.996002197265625;1673435462.3583848;13.488633155822754;-11.970342636108398;99.3166732788086
174;1673435462.374115;47.130642599999995;7.2406197;45.397003173828125;1673435462.553112;13.448244094848633;-11.778714179992676;99.34178924560547
175;1673435462.5706735;47.1306425;7.2406196;45.80000305175781;1673435462.7637858;13.315237045288086;-14.383634567260742;98.97115325927734
176;1673435462.7813516;47.1306425;7.2406196;46.202003479003906;1673435462.9665074;13.464315414428711;-13.2271089553833;99.06452178955078
177;1673435462.9849703;47.130642599999995;7.2406196;46.60100173950195;1673435463.2015631;13.386701583862305;-10.903306007385254;99.31322479248047
178;1673435463.2172692;47.130642599999995;7.2406197;47.00200271606445;1673435463.4098551;13.257929801940918;-13.837075233459473;99.11077880859375
179;1673435463.426432;47.130642699999996;7.2406197;47.406002044677734;1673435463.601783;13.33644962310791;-13.728281021118164;99.04743957519531
180;1673435463.6164231;47.130642599999995;7.2406196;47.79900360107422;1673435463.7970474;13.528736114501953;-11.75662899017334;99.35020446777344
181;1673435463.8132567;47.130642599999995;7.2406196;48.18700408935547;1673435463.9782119;13.437809944152832;-14.347484588623047;98.9599380493164
182;1673435463.9938748;47.1306425;7.2406197;48.53400421142578;1673435464.183271;13.483719825744629;-14.783050537109375;98.56536102294922
183;1673435464.1988978;47.1306425;7.240619799999999;48.83000183105469;1673435464.3796558;13.490506172180176;-11.202864646911621;98.9968490600586
184;1673435464.399186;47.1306425;7.24062;49.08000183105469;1673435464.5832164;13.76773452758789;-12.76865005493164;99.39029693603516
185;1673435464.5998185;47.1306423;7.2406201;49.28700256347656;1673435464.7863722;22.4383487701416;-2.4299874305725098;101.90438842773438
186;1673435464.803524;47.130641999999995;7.2406201999999995;49.44900131225586;1673435465.017659;33.034175872802734;25.22878646850586;113.87989044189453
187;1673435465.03136;47.130641;7.2406191;49.59800338745117;1673435465.2091784;34.36302947998047;44.95232009887695;123.55693817138672
188;1673435465.2250412;47.1306382;7.2406155;49.73100280761719;1673435465.3845873;26.992326736450195;54.943946838378906;129.67359924316406
189;1673435465.3992682;47.1306328;7.2406082;49.829002380371094;1673435465.574209;10.442609786987305;54.98727035522461;140.3270721435547
190;1673435465.5910149;47.1306247;7.2405975;49.88900375366211;1673435465.7754204;-8.108224868774414;53.90082550048828;153.21339416503906
191;1673435465.7929974;47.1306144;7.2405842;49.93800354003906;1673435465.974659;-24.709487915039062;47.260250091552734;164.8546905517578
192;1673435465.990058;47.1306023;7.240569;49.97100067138672;1673435466.165088;-38.45718002319336;40.78120803833008;177.92201232910156
193;1673435466.1772568;47.130588499999995;7.2405523;49.983001708984375;1673435466.3650117;-47.92707824707031;37.943572998046875;-170.8145751953125
194;1673435466.3904169;47.1305729;7.240533999999999;49.98600387573242;1673435466.5624995;-52.7181282043457;32.10974884033203;-158.9207305908203
195;1673435466.582018;47.1305559;7.240513699999999;49.97300338745117;1673435466.775612;-48.72274398803711;24.58164405822754;-151.1587371826172
196;1673435466.7981632;47.1305379;7.2404918;49.93100357055664;1673435466.9876003;-46.241485595703125;20.230627059936523;-146.1662139892578
197;1673435467.0057273;47.130519299999996;7.2404687999999995;49.87300109863281;1673435467.190399;-47.8718376159668;17.36504554748535;-140.12754821777344
198;1673435467.2080088;47.1305002;7.240444999999999;49.820003509521484;1673435467.3863266;-47.875526428222656;13.345710754394531;-132.73712158203125
199;1673435467.40292;47.1304811;7.2404207;49.77400207519531;1673435467.6511323;-46.76457977294922;7.259304046630859;-127.3196792602539
200;1673435467.664795;47.1304618;7.240395899999999;49.737003326416016;1673435467.8244054;-43.19477844238281;6.068686485290527;-130.25299072265625
201;1673435467.8361065;47.1304425;7.240370899999999;49.70600128173828;1673435468.0070848;-43.386390686035156;7.4826202392578125;-133.26014709472656
202;1673435468.0256279;47.130423099999994;7.240346199999999;49.689002990722656;1673435468.187493;-47.064544677734375;9.290848731994629;-134.2176971435547
203;1673435468.202731;47.1304035;7.2403217;49.69300079345703;1673435468.3712838;-49.17793273925781;10.815580368041992;-134.54144287109375
204;1673435468.3898284;47.130383699999996;7.240297099999999;49.71000289916992;1673435468.575304;-48.856815338134766;11.594780921936035;-134.49659729003906
205;1673435468.5899394;47.1303637;7.2402722;49.73100280761719;1673435468.757748;-47.9796257019043;11.969518661499023;-134.3146209716797
206;1673435468.776291;47.130343599999996;7.2402470999999995;49.73800277709961;1673435468.977906;-46.60845184326172;12.082603454589844;-134.23570251464844
207;1673435468.996028;47.130323399999995;7.240221699999999;49.74800109863281;1673435469.1889024;-46.749752044677734;12.558082580566406;-134.33297729492188
208;1673435469.2074535;47.1303033;7.2401960999999995;49.768001556396484;1673435469.3806932;-48.0860710144043;13.080674171447754;-134.28759765625
209;1673435469.3974016;47.1302832;7.2401703;49.7910041809082;1673435469.5692835;-48.343971252441406;12.982010841369629;-134.04214477539062
210;1673435469.5829601;47.130263199999995;7.2401442;49.81100082397461;1673435469.783839;-47.35243606567383;12.636161804199219;-133.93528747558594
211;1673435469.8033695;47.1302433;7.240117799999999;49.8280029296875;1673435469.9819846;-46.692901611328125;12.448561668395996;-133.92132568359375
212;1673435469.9987373;47.1302234;7.2400914;49.832000732421875;1673435470.1800175;-46.14263916015625;12.352276802062988;-133.9856719970703
213;1673435470.1956608;47.130203599999994;7.240064899999999;49.8380012512207;1673435470.372431;-46.434513092041016;12.503246307373047;-134.08448791503906
214;1673435470.3870711;47.1301838;7.2400383999999995;49.84600067138672;1673435470.56616;-47.18458938598633;12.617046356201172;-134.0662078857422
215;1673435470.581776;47.130164099999995;7.2400117999999996;49.85300064086914;1673435470.7710268;-47.075679779052734;12.52371883392334;-133.98130798339844
216;1673435470.794535;47.1301445;7.2399852;49.86000061035156;1673435470.978363;-46.607666015625;12.306452751159668;-133.97540283203125
217;1673435470.9960036;47.1301249;7.239958499999999;49.867000579833984;1673435471.185462;-46.744102478027344;12.354262351989746;-134.0493621826172
218;1673435471.2020602;47.1301053;7.239931899999999;49.87300109863281;1673435471.3815963;-46.98442459106445;12.330699920654297;-133.9918212890625
219;1673435471.4004056;47.130085799999996;7.2399052;49.87000274658203;1673435471.5836241;-46.50650405883789;12.186310768127441;-133.95046997070312
220;1673435471.600225;47.130066199999995;7.2398785;49.86300277709961;1673435471.7817848;-46.08580017089844;12.137458801269531;-134.0341796875
221;1673435471.7999303;47.1300466;7.2398517;49.86000061035156;1673435471.9819605;-46.505977630615234;12.226163864135742;-134.07266235351562
222;1673435471.9975562;47.1300271;7.239825;49.86100387573242;1673435472.1852417;-47.08761978149414;12.319171905517578;-134.04159545898438
223;1673435472.2018588;47.1300077;7.2397982999999995;49.862003326416016;1673435472.3843346;-47.13223648071289;12.254023551940918;-133.9542999267578
224;1673435472.4218354;47.1299882;7.2397716;49.85900115966797;1673435472.6220307;-46.5322380065918;12.059038162231445;-133.90701293945312
225;1673435472.636949;47.1299687;7.2397449;49.85000228881836;1673435472.81365;-46.00325012207031;11.945723533630371;-133.95236206054688
226;1673435472.8322356;47.1299492;7.2397181999999995;49.845001220703125;1673435473.0097415;-46.4696044921875;12.068856239318848;-134.0475311279297
227;1673435473.0289445;47.1299298;7.2396916;49.84700393676758;1673435473.2142458;-47.346221923828125;12.258628845214844;-134.0006103515625
228;1673435473.2311132;47.1299104;7.239664899999999;49.849002838134766;1673435473.3953018;-47.33789825439453;12.145712852478027;-133.85943603515625
229;1673435473.411912;47.129891;7.239638299999999;49.84700393676758;1673435473.5825686;-46.66486358642578;11.959529876708984;-133.82594299316406
230;1673435473.5982935;47.1298715;7.2396116;49.842002868652344;1673435473.789843;-46.31435012817383;11.932516098022461;-133.8430938720703
231;1673435473.8073952;47.129852;7.239585;49.83500289916992;1673435473.998247;-46.548500061035156;11.962605476379395;-133.813720703125
232;1673435474.0159686;47.1298326;7.2395584;49.83000183105469;1673435474.2039962;-46.8100471496582;12.042924880981445;-133.8097381591797
233;1673435474.217661;47.1298131;7.2395317;49.83100128173828;1673435474.3864422;-47.05155563354492;12.06052017211914;-133.73245239257812
234;1673435474.401155;47.1297937;7.239504999999999;49.832000732421875;1673435474.5886874;-47.074642181396484;11.973068237304688;-133.6658935546875
235;1673435474.6043026;47.1297742;7.2394783;49.832000732421875;1673435474.8148086;-46.85379409790039;11.832462310791016;-133.6158447265625
236;1673435474.83046;47.1297547;7.2394514999999995;49.832000732421875;1673435475.0086246;-46.685462951660156;11.760732650756836;-133.59751892089844
237;1673435475.0218942;47.1297352;7.2394247;49.833003997802734;1673435475.2099833;-46.7978515625;11.749159812927246;-133.56790161132812
238;1673435475.2295954;47.1297157;7.2393979999999996;49.83700180053711;1673435475.4038098;-46.94916915893555;11.742084503173828;-133.53421020507812
239;1673435475.421889;47.1296963;7.239371299999999;49.8390007019043;1673435475.6090522;-47.05485916137695;11.697551727294922;-133.45509338378906
240;1673435475.6239321;47.1296768;7.2393445;49.84400177001953;1673435475.8005502;-47.020206451416016;11.646661758422852;-133.38482666015625
241;1673435475.8182702;47.1296574;7.239317799999999;49.84800338745117;1673435476.0019383;-46.862674713134766;11.548111915588379;-133.30511474609375
242;1673435476.0202339;47.1296379;7.2392911;49.85100173950195;1673435476.1986482;-46.69845962524414;11.465106964111328;-133.23773193359375
243;1673435476.2123144;47.1296184;7.239264299999999;49.855003356933594;1673435476.3982508;-46.7658576965332;11.465142250061035;-133.19749450683594
244;1673435476.4154546;47.1295989;7.2392376;49.86100387573242;1673435476.588886;-47.15041732788086;11.508390426635742;-133.13417053222656
245;1673435476.6046457;47.1295794;7.2392107999999995;49.871002197265625;1673435476.8000658;-47.4537239074707;11.449713706970215;-132.972900390625
246;1673435476.823697;47.1295599;7.239184099999999;49.87800216674805;1673435476.9957376;-47.14973068237305;11.264208793640137;-132.85958862304688
247;1673435477.0103965;47.129540399999996;7.239157199999999;49.880001068115234;1673435477.1897793;-46.723915100097656;11.119462966918945;-132.77627563476562
248;1673435477.2034302;47.129520799999995;7.239130299999999;49.88500213623047;1673435477.3861237;-46.897029876708984;11.101283073425293;-132.68333435058594
249;1673435477.4056954;47.1295012;7.2391035;49.89200210571289;1673435477.5953991;-47.29092025756836;11.091590881347656;-132.53282165527344
250;1673435477.6327863;47.1294816;7.2390766;49.900001525878906;1673435477.8160343;-47.67974090576172;11.008572578430176;-132.341552734375
251;1673435477.8302436;47.1294621;7.2390497;49.910003662109375;1673435478.0266123;-47.60748291015625;10.779839515686035;-132.15525817871094
252;1673435478.04224;47.129442499999996;7.2390227;49.92000198364258;1673435478.2559388;-47.41979217529297;10.684938430786133;-131.98291015625
253;1673435478.3000371;47.129422899999994;7.2389958;49.92400360107422;1673435478.4656281;-47.08007049560547;11.778133392333984;-132.01104736328125
254;1673435478.4803133;47.1294033;7.238968799999999;49.93000411987305;1673435478.6742465;-46.55055236816406;15.277731895446777;-132.18528747558594
255;1673435478.6879694;47.1293838;7.2389417;49.93600082397461;1673435478.8380105;-46.65977096557617;15.051084518432617;-130.9371337890625
256;1673435478.8516767;47.129364599999995;7.2389144;49.94200134277344;1673435479.001843;-47.34318542480469;13.827315330505371;-130.154541015625
257;1673435479.0174615;47.129345699999995;7.2388867999999995;49.94600296020508;1673435479.1909225;-46.173316955566406;15.531509399414062;-130.0864715576172
258;1673435479.2084906;47.129326999999996;7.238859;49.952003479003906;1673435479.3984458;-46.052730560302734;16.86720848083496;-129.75697326660156
259;1673435479.412714;47.129308699999996;7.2388309;49.96200180053711;1673435479.618088;-45.8323974609375;18.49138069152832;-129.31979370117188
260;1673435479.6332655;47.1292908;7.238802499999999;49.97100067138672;1673435479.8218484;-43.81892013549805;18.254549026489258;-127.95805358886719
261;1673435479.836701;47.129273399999995;7.2387738;49.98400115966797;1673435479.9953716;-32.544281005859375;18.202665328979492;-128.233642578125
262;1673435480.0112796;47.1292567;7.238745199999999;50.00700378417969;1673435480.181646;-16.198366165161133;19.043806076049805;-131.0446319580078
263;1673435480.1993482;47.1292408;7.2387177;50.038002014160156;1673435480.3829725;-0.6282486915588379;16.40194320678711;-133.8621826171875
264;1673435480.3985987;47.1292263;7.2386924;50.05900192260742;1673435480.59891;10.935641288757324;13.319965362548828;-135.69248962402344
265;1673435480.6135306;47.129213199999995;7.238670099999999;50.073001861572266;1673435480.8180618;17.857717514038086;13.887088775634766;-136.37416076660156
266;1673435480.8360205;47.1292018;7.238651399999999;50.0780029296875;1673435481.0328243;21.981037139892578;16.495731353759766;-138.70831298828125
267;1673435481.0464869;47.1291921;7.2386363;50.06700134277344;1673435481.2152796;20.808738708496094;14.633580207824707;-138.34188842773438
268;1673435481.2388067;47.1291842;7.2386246;50.05900192260742;1673435481.403658;17.46824836730957;20.744020462036133;-136.5119171142578
269;1673435481.4202588;47.1291777;7.2386156999999995;50.06200408935547;1673435481.5917976;12.712870597839355;21.87912940979004;-135.8800811767578
270;1673435481.606603;47.1291726;7.2386088;50.06100082397461;1673435481.8401206;6.229639530181885;18.132007598876953;-134.71238708496094
271;1673435481.8518357;47.1291686;7.2386032;50.06800079345703;1673435482.0052176;-0.7849810123443604;18.222658157348633;-133.5227508544922
272;1673435482.0228357;47.129165;7.238598499999999;50.08000183105469;1673435482.2103841;-4.555578708648682;17.820354461669922;-132.61695861816406
273;1673435482.2250257;47.1291618;7.238594399999999;50.092002868652344;1673435482.3945432;-6.2408013343811035;19.058101654052734;-132.17251586914062
274;1673435482.4072297;47.1291587;7.238590599999999;50.10100173950195;1673435482.5979748;-4.964914798736572;21.329605102539062;-131.28932189941406
275;1673435482.6145654;47.1291558;7.238586799999999;50.10700225830078;1673435482.7967231;-3.782865047454834;22.27044677734375;-130.08673095703125
276;1673435482.816384;47.129153099999996;7.2385832;50.11000061035156;1673435483.0078492;-23.656862258911133;20.90774154663086;-137.8187255859375
277;1673435483.0235107;47.1291503;7.2385791;50.14600372314453;1673435483.2179883;-31.795921325683594;15.719918251037598;-140.05543518066406
278;1673435483.2365916;47.1291467;7.2385737;50.22700119018555;1673435483.4239585;-20.461225509643555;6.529425144195557;-137.57081604003906
279;1673435483.439154;47.1291416;7.238567199999999;50.36900329589844;1673435483.6168222;-22.193317413330078;10.450309753417969;-135.49794006347656
280;1673435483.6335685;47.129135399999996;7.2385604;50.61000061035156;1673435483.8082502;-35.967445373535156;19.348100662231445;-136.27996826171875
281;1673435483.822031;47.1291283;7.2385525;50.958003997802734;1673435484.0062094;-36.65164566040039;21.952735900878906;-134.97288513183594
282;1673435484.02671;47.129120199999996;7.238542499999999;51.345001220703125;1673435484.2152097;-35.96993637084961;23.349504470825195;-136.0495147705078
283;1673435484.2289128;47.129111699999996;7.238530399999999;51.724002838134766;1673435484.4166431;-31.311012268066406;21.2502498626709;-135.72225952148438
284;1673435484.4322872;47.1291028;7.238516799999999;52.09300231933594;1673435484.6183612;-28.951900482177734;20.124319076538086;-136.17831420898438
285;1673435484.6351492;47.1290936;7.2385021;52.4630012512207;1673435484.824899;-26.221071243286133;18.553192138671875;-136.68963623046875
286;1673435484.8443167;47.1290841;7.2384869;52.83400344848633;1673435485.0185585;-23.659801483154297;16.367788314819336;-136.68150329589844
287;1673435485.0347269;47.129074499999994;7.238471499999999;53.21000289916992;1673435485.207578;-22.178903579711914;13.668720245361328;-136.62442016601562
288;1673435485.2261944;47.1290647;7.238456299999999;53.5880012512207;1673435485.4164164;-20.820556640625;12.741787910461426;-136.6649932861328
289;1673435485.4320414;47.1290549;7.2384416;53.96900177001953;1673435485.6052191;-20.432903289794922;12.654671669006348;-136.87364196777344
290;1673435485.6227863;47.129045;7.2384274;54.35200119018555;1673435485.8103435;-20.49614143371582;14.194170951843262;-137.12037658691406
291;1673435485.826945;47.1290352;7.2384135999999994;54.73600387573242;1673435486.0191767;-20.497440338134766;16.173234939575195;-137.4607696533203
292;1673435486.0353456;47.129025299999995;7.2384001;55.12600326538086;1673435486.2122679;-21.350557327270508;17.874963760375977;-137.66490173339844
293;1673435486.2240555;47.1290155;7.2383868;55.51700210571289;1673435486.4008646;-21.949369430541992;18.638526916503906;-137.61033630371094
294;1673435486.416623;47.1290057;7.2383736;55.90800094604492;1673435486.593197;-22.763654708862305;18.11824607849121;-137.3746795654297
295;1673435486.6107674;47.1289959;7.2383605;56.30000305175781;1673435486.8132925;-23.543468475341797;16.37514305114746;-136.94065856933594
296;1673435486.8299332;47.1289861;7.2383473;56.69400405883789;1673435487.015946;-24.083789825439453;15.232770919799805;-136.59336853027344
297;1673435487.0307555;47.1289763;7.238334099999999;57.09100341796875;1673435487.2196476;-24.127382278442383;15.51518726348877;-136.72715759277344
298;1673435487.237788;47.128966399999996;7.2383207999999994;57.48800277709961;1673435487.4027085;-23.703815460205078;16.580364227294922;-136.67674255371094
299;1673435487.4154024;47.1289564;7.2383073;57.888004302978516;1673435487.588161;-23.155540466308594;18.381494522094727;-137.03990173339844
300;1673435487.6047533;47.1289465;7.2382938;58.28900146484375;1673435487.7827368;-23.032337188720703;18.98201560974121;-137.0634765625
301;1673435487.7984872;47.128936499999995;7.2382801;58.691001892089844;1673435487.9820576;-22.981815338134766;18.915870666503906;-136.9877471923828
302;1673435488.0067725;47.1289266;7.2382664;59.08900451660156;1673435488.2255886;-22.85062026977539;18.013463973999023;-136.98348999023438
303;1673435488.243701;47.1289168;7.2382528;59.487003326416016;1673435488.4121468;-23.377607345581055;16.729238510131836;-136.8020477294922
304;1673435488.4258747;47.1289069;7.2382392;59.884002685546875;1673435488.6041186;-23.449377059936523;15.772445678710938;-136.574462890625
305;1673435488.6187558;47.1288969;7.2382257;60.281002044677734;1673435488.790019;-23.45186996459961;15.743404388427734;-136.58192443847656
306;1673435488.8137622;47.128887;7.2382121999999995;60.68300247192383;1673435489.0072668;-23.407106399536133;15.910566329956055;-136.56521606445312
307;1673435489.020925;47.1288771;7.2381986;61.08200454711914;1673435489.2064207;-23.32505989074707;17.727705001831055;-137.04042053222656
308;1673435489.223097;47.128867199999995;7.2381851;61.48500442504883;1673435489.4039345;-23.019210815429688;18.75655746459961;-137.14828491210938
309;1673435489.4224844;47.1288574;7.2381715;61.887001037597656;1673435489.6071177;-23.13727569580078;18.928733825683594;-137.07093811035156
310;1673435489.6256232;47.1288476;7.2381579;62.28700256347656;1673435489.8553605;-23.314783096313477;18.88339614868164;-137.12564086914062
311;1673435489.8700624;47.1288378;7.2381442;62.685001373291016;1673435490.0497243;-23.44740867614746;18.30613899230957;-137.07408142089844
312;1673435490.0624123;47.1288281;7.2381305;63.08200454711914;1673435490.2334924;-23.765230178833008;17.63030433654785;-136.95948791503906
313;1673435490.2520785;47.1288182;7.2381167;63.47500228881836;1673435490.4204578;-23.71047592163086;16.610105514526367;-136.80860900878906
314;1673435490.4381728;47.1288084;7.2381028;63.87200164794922;1673435490.612853;-23.80138397216797;15.681855201721191;-136.5634307861328
315;1673435490.6294432;47.128798499999995;7.2380889999999996;64.27100372314453;1673435490.7936323;-23.389514923095703;15.1600923538208;-136.5074462890625
316;1673435490.8095083;47.1287886;7.238075299999999;64.67000579833984;1673435490.9960897;-23.577844619750977;15.247788429260254;-136.63702392578125
317;1673435491.0136402;47.1287787;7.238061699999999;65.06900024414062;1673435491.2030737;-23.52561378479004;15.45041275024414;-136.5896759033203
318;1673435491.2186768;47.128768799999996;7.238048099999999;65.47000122070312;1673435491.399378;-23.370698928833008;15.903922080993652;-136.66940307617188
319;1673435491.4159775;47.1287588;7.2380344999999995;65.87100219726562;1673435491.598226;-23.23162078857422;16.539798736572266;-136.79830932617188
320;1673435491.6184216;47.1287489;7.2380208999999995;66.27400207519531;1673435491.805728;-23.246334075927734;17.33620834350586;-136.91551208496094
321;1673435491.82347;47.128738899999995;7.2380074;66.67900085449219;1673435492.0093498;-23.320205688476562;17.979188919067383;-137.08737182617188
322;1673435492.0259564;47.128729;7.237993899999999;67.08200073242188;1673435492.206139;-23.1612491607666;18.571666717529297;-137.11392211914062
323;1673435492.220779;47.1287191;7.237980299999999;67.4800033569336;1673435492.403907;-23.5384464263916;18.52045440673828;-137.11985778808594
324;1673435492.4205704;47.1287093;7.237966699999999;67.87800598144531;1673435492.600346;-23.591760635375977;18.395214080810547;-137.08682250976562
325;1673435492.6180031;47.128699399999995;7.237953;68.2760009765625;1673435492.8120635;-23.666933059692383;18.220117568969727;-137.02471923828125
326;1673435492.8307464;47.1286896;7.237939399999999;68.67400360107422;1673435493.019609;-23.98212242126465;17.80951499938965;-136.99310302734375
327;1673435493.0345175;47.1286797;7.2379256;69.07300567626953;1673435493.2425363;-23.88393783569336;17.078659057617188;-136.8665313720703
328;1673435493.2611778;47.1286698;7.237911899999999;69.47100067138672;1673435493.44128;-23.970407485961914;16.65654945373535;-136.83575439453125
329;1673435493.455493;47.1286598;7.2378981;69.86900329589844;1673435493.6302166;-24.075626373291016;16.48784828186035;-136.79873657226562
330;1673435493.6448822;47.1286499;7.2378845;70.26900482177734;1673435493.8279974;-24.164268493652344;16.567441940307617;-136.7313690185547
331;1673435493.8456273;47.128639799999995;7.2378709;70.67000579833984;1673435494.0141315;-23.999921798706055;16.59714126586914;-136.6559295654297
332;1673435494.032659;47.1286298;7.2378573;71.07200622558594;1673435494.255868;-23.965085983276367;16.808544158935547;-136.60023498535156
333;1673435494.2749262;47.128619799999996;7.2378437;71.47400665283203;1673435494.4619503;-23.860641479492188;16.87436294555664;-136.61354064941406
334;1673435494.4777076;47.1286098;7.23783;71.8740005493164;1673435494.64579;-23.88285255432129;16.74140739440918;-136.68601989746094
335;1673435494.6614308;47.1285999;7.2378162999999995;72.27300262451172;1673435494.8479245;-23.732887268066406;16.340749740600586;-136.5578155517578
336;1673435494.8656597;47.128589999999996;7.237802599999999;72.67000579833984;1673435495.0450997;-23.946229934692383;16.22843360900879;-136.62237548828125
337;1673435495.0579326;47.128580199999995;7.2377889;73.06600189208984;1673435495.2529907;-23.851985931396484;16.230945587158203;-136.6591339111328
338;1673435495.2667935;47.1285703;7.2377750999999995;73.46300506591797;1673435495.428151;-24.01068115234375;16.336824417114258;-136.8109893798828
339;1673435495.444744;47.1285604;7.2377613;73.86400604248047;1673435495.602806;-23.600011825561523;16.496700286865234;-136.81716918945312
340;1673435495.6177225;47.128550499999996;7.237747499999999;74.26600646972656;1673435495.820597;-23.49464988708496;16.92096710205078;-136.88868713378906
341;1673435495.8384776;47.1285406;7.2377337;74.66600036621094;1673435496.0334396;-23.59518051147461;17.135305404663086;-136.89625549316406
342;1673435496.0490396;47.1285307;7.2377201;75.06200408935547;1673435496.2211814;-23.769756317138672;17.463436126708984;-136.9326934814453
343;1673435496.2387998;47.1285208;7.2377063999999995;75.4590072631836;1673435496.428721;-24.03193473815918;17.598270416259766;-136.97727966308594
344;1673435496.4462771;47.128510899999995;7.237692699999999;75.85800170898438;1673435496.6227324;-24.10393714904785;17.66657066345215;-136.93658447265625
345;1673435496.647135;47.128501;7.237679;76.26200103759766;1673435496.8243182;-24.275524139404297;17.552276611328125;-136.9456024169922
346;1673435496.838958;47.1284911;7.2376651999999995;76.66600036621094;1673435497.0208747;-24.19386100769043;17.549959182739258;-136.92459106445312
347;1673435497.0384417;47.128481099999995;7.237651499999999;77.06500244140625;1673435497.2095993;-24.093046188354492;17.52698516845703;-136.92340087890625
348;1673435497.2252235;47.1284712;7.2376377;77.46300506591797;1673435497.4084888;-23.975038528442383;17.485382080078125;-136.92591857910156
349;1673435497.4249697;47.1284612;7.2376239;77.85900115966797;1673435497.600596;-24.001436233520508;17.347902297973633;-136.9058074951172
350;1673435497.618154;47.128451299999995;7.2376102;78.25;1673435497.791261;-23.901174545288086;17.332401275634766;-136.90126037597656
351;1673435497.8095188;47.1284414;7.237596399999999;78.64200592041016;1673435498.001194;-23.851791381835938;17.284969329833984;-136.9220733642578
352;1673435498.0217953;47.1284314;7.2375826;79.03600311279297;1673435498.201429;-23.86123275756836;17.22905731201172;-136.95343017578125
353;1673435498.219959;47.128421499999995;7.237568899999999;79.4330062866211;1673435498.4144874;-23.838096618652344;17.332962036132812;-136.94448852539062
354;1673435498.4300885;47.1284116;7.2375552;79.8340072631836;1673435498.6176386;-23.770610809326172;17.301565170288086;-136.93919372558594
355;1673435498.6342304;47.1284017;7.2375415;80.23600006103516;1673435498.8180964;-23.772878646850586;17.24083137512207;-136.94606018066406
356;1673435498.8328843;47.128391699999995;7.2375278;80.63500213623047;1673435499.0149622;-23.730941772460938;17.297584533691406;-136.9556884765625
357;1673435499.0385406;47.1283818;7.237514099999999;81.0320053100586;1673435499.2366836;-23.672941207885742;17.245908737182617;-136.93971252441406
358;1673435499.2513235;47.1283719;7.2375004;81.43000030517578;1673435499.4228015;-23.664608001708984;17.326536178588867;-136.9622344970703
359;1673435499.43753;47.128361899999994;7.2374867;81.8280029296875;1673435499.6157854;-23.702621459960938;17.32663917541504;-136.98094177246094
360;1673435499.633593;47.128352;7.2374731;82.22500610351562;1673435499.8030488;-23.81739044189453;17.28816795349121;-136.94488525390625
361;1673435499.8197203;47.1283421;7.237459599999999;82.6240005493164;1673435500.0101705;-23.70306968688965;17.520700454711914;-136.9532928466797
362;1673435500.0288613;47.128332199999996;7.237445999999999;83.02400207519531;1673435500.2500012;-23.885639190673828;17.429332733154297;-136.9581298828125
363;1673435500.2671382;47.1283223;7.2374325;83.4260025024414;1673435500.4568143;-24.02179527282715;17.39857292175293;-136.9545440673828
364;1673435500.473584;47.1283125;7.2374189;83.8270034790039;1673435500.6913917;-23.992128372192383;17.49135971069336;-136.9439697265625
365;1673435500.703258;47.1283026;7.2374051999999995;84.22700500488281;1673435500.8947058;-24.04293441772461;17.233774185180664;-136.9280548095703
366;1673435500.917153;47.128292699999996;7.2373916;84.62600708007812;1673435501.080142;-23.92580223083496;17.332250595092773;-136.92860412597656
367;1673435501.0938058;47.1282828;7.237377899999999;85.02300262451172;1673435501.306318;-23.993057250976562;17.394500732421875;-136.9542999267578
368;1673435501.3190353;47.1282728;7.237364299999999;85.41900634765625;1673435501.4949236;-24.017932891845703;17.42466163635254;-136.92422485351562
369;1673435501.5067658;47.128262899999996;7.2373506999999995;85.81500244140625;1673435501.6510801;-23.738554000854492;17.465539932250977;-136.92564392089844
370;1673435501.6678534;47.128253;7.2373370999999995;86.2080078125;1673435501.828825;-23.924898147583008;17.501323699951172;-136.96148681640625
371;1673435501.843497;47.1282431;7.237323399999999;86.59900665283203;1673435502.0219104;-23.898374557495117;17.441919326782227;-136.95472717285156
372;1673435502.034602;47.1282332;7.237309799999999;86.99000549316406;1673435502.211032;-23.801362991333008;17.478376388549805;-136.9635772705078
373;1673435502.225671;47.128223299999995;7.2372961;87.38300323486328;1673435502.4221282;-23.806379318237305;17.41717529296875;-136.9524383544922
374;1673435502.4418066;47.1282134;7.2372825;87.7770004272461;1673435502.621925;-23.951051712036133;17.388341903686523;-136.99221801757812
375;1673435502.6413143;47.1282035;7.2372689;88.17200469970703;1673435502.8373523;-23.95060157775879;17.420032501220703;-136.95310974121094
376;1673435502.8560658;47.128193599999996;7.237255299999999;88.56900787353516;1673435503.0328302;-24.010658264160156;17.320188522338867;-136.9475860595703
377;1673435503.0504131;47.1281837;7.237241699999999;88.96300506591797;1673435503.2219162;-24.043794631958008;17.259536743164062;-136.9559326171875
378;1673435503.2375329;47.1281738;7.237228;89.35900115966797;1673435503.4193406;-23.92373275756836;17.29193115234375;-136.9613037109375
379;1673435503.435144;47.1281639;7.2372143;89.75200653076172;1673435503.6224942;-23.78470802307129;17.397184371948242;-136.9807586669922
380;1673435503.642979;47.1281539;7.2372005999999995;90.14100646972656;1673435503.8479288;-23.87066078186035;17.355314254760742;-136.97251892089844
381;1673435503.8646796;47.128144;7.237187;90.53300476074219;1673435504.0488374;-23.885032653808594;17.37327766418457;-136.95692443847656
382;1673435504.0644631;47.128133999999996;7.2371734;90.92400360107422;1673435504.2413535;-23.985151290893555;17.350374221801758;-136.95050048828125
383;1673435504.267432;47.1281241;7.2371599;91.30900573730469;1673435504.4348385;-23.83219337463379;17.473379135131836;-136.9556121826172
384;1673435504.4553385;47.1281141;7.2371462;91.69700622558594;1673435504.6187375;-23.689802169799805;17.411136627197266;-136.92393493652344
385;1673435504.6333778;47.128104199999996;7.2371326;92.08700561523438;1673435504.8206358;-23.861406326293945;17.41864013671875;-136.98570251464844
386;1673435504.8373244;47.1280942;7.2371189;92.4780044555664;1673435505.0230381;-23.95563316345215;17.282182693481445;-136.96258544921875
387;1673435505.0383656;47.1280843;7.2371053;92.86700439453125;1673435505.2352326;-23.911026000976562;17.225055694580078;-136.95936584472656
388;1673435505.2519872;47.128074399999996;7.2370918;93.25900268554688;1673435505.426291;-24.031681060791016;17.353111267089844;-136.96852111816406
389;1673435505.4469178;47.1280645;7.2370782;93.64900207519531;1673435505.6247065;-23.979639053344727;17.2330265045166;-136.94656372070312
390;1673435505.639376;47.1280546;7.2370646999999995;94.04100799560547;1673435505.8173046;-23.960710525512695;17.316198348999023;-136.94656372070312
391;1673435505.8319447;47.128044599999996;7.2370510999999995;94.4330062866211;1673435506.0176733;-23.94234275817871;17.37945556640625;-136.94244384765625
392;1673435506.0413344;47.1280346;7.2370376;94.82400512695312;1673435506.2263916;-23.91228675842285;17.449399948120117;-136.93235778808594
393;1673435506.2449608;47.128024599999996;7.237024;95.21700286865234;1673435506.4262676;-23.99909210205078;17.40668296813965;-136.9144287109375
394;1673435506.4428494;47.1280147;7.237010499999999;95.61400604248047;1673435506.648892;-24.01869010925293;17.440929412841797;-136.95550537109375
395;1673435506.6635308;47.1280047;7.236996899999999;96.01000213623047;1673435506.832678;-23.86382484436035;17.478679656982422;-136.89476013183594
396;1673435506.8503451;47.127994799999996;7.2369834;96.406005859375;1673435507.0260096;-23.887250900268555;17.49102783203125;-136.91001892089844
397;1673435507.0446901;47.1279848;7.2369698;96.8010025024414;1673435507.21883;-23.984529495239258;17.502071380615234;-136.908447265625
398;1673435507.232494;47.1279748;7.2369562;97.19400787353516;1673435507.421143;-23.902027130126953;17.55109977722168;-136.89569091796875
399;1673435507.4387107;47.1279648;7.2369426;97.58900451660156;1673435507.673124;-23.796432495117188;17.560821533203125;-136.9031219482422
400;1673435507.6897154;47.1279549;7.236929;97.98300170898438;1673435507.9025838;-23.832134246826172;17.560468673706055;-136.90078735351562
401;1673435507.9142795;47.127945;7.2369154;98.3790054321289;1673435508.1346195;-23.83871078491211;17.41268539428711;-136.904052734375
402;1673435508.1482813;47.127935;7.2369017;98.77400207519531;1673435508.2865298;-23.76001739501953;17.43364143371582;-136.9059295654297
403;1673435508.299221;47.1279251;7.2368881;99.16900634765625;1673435508.452088;-23.73105812072754;17.3751277923584;-136.8894500732422
404;1673435508.471616;47.127915099999996;7.2368745;99.56400299072266;1673435508.6536944;-23.935867309570312;17.42535400390625;-136.90809631347656
405;1673435508.6694813;47.1279052;7.2368609;99.96000671386719;1673435508.8378356;-23.818979263305664;17.440710067749023;-136.89210510253906
406;1673435508.8554068;47.1278952;7.2368473;100.35600280761719;1673435509.0472054;-23.834787368774414;17.384822845458984;-136.872802734375
407;1673435509.0658963;47.1278854;7.2368337;100.7550048828125;1673435509.2544684;-23.75141143798828;17.359403610229492;-136.9013671875
408;1673435509.2712626;47.127875499999995;7.2368201;101.15300750732422;1673435509.4310474;-23.704727172851562;17.36851692199707;-136.89794921875
409;1673435509.4447057;47.1278655;7.2368064;101.55400848388672;1673435509.622736;-23.76033592224121;17.239286422729492;-136.8853302001953
410;1673435509.6412733;47.1278556;7.2367928;101.9530029296875;1673435509.8332717;-23.815004348754883;17.328344345092773;-136.8949737548828
411;1673435509.8490002;47.127845699999995;7.236779299999999;102.35100555419922;1673435510.0376275;-23.815284729003906;17.41080665588379;-136.87371826171875
412;1673435510.053243;47.1278358;7.236765699999999;102.75100708007812;1673435510.2341936;-23.98634147644043;17.390172958374023;-136.8712921142578
413;1673435510.2507842;47.1278258;7.2367520999999995;103.15100860595703;1673435510.4396627;-24.04779624938965;17.30570411682129;-136.85861206054688
414;1673435510.4562376;47.127815999999996;7.2367384999999995;103.55000305175781;1673435510.6411948;-23.984073638916016;17.32419204711914;-136.86019897460938
415;1673435510.65707;47.127806;7.2367249;103.95100402832031;1673435510.9043949;-23.9525203704834;17.41050148010254;-136.87344360351562
416;1673435510.930746;47.1277961;7.2367113;104.35200500488281;1673435511.0791843;-23.9075984954834;17.415307998657227;-136.85134887695312
417;1673435511.0909019;47.127786199999996;7.2366977;104.7540054321289;1673435511.3021045;-23.833690643310547;17.46047592163086;-136.86135864257812
418;1673435511.3286188;47.1277762;7.2366839999999995;105.15800476074219;1673435511.4940693;-23.829591751098633;17.39303970336914;-136.8506317138672
