;pos_time;latitude;longitude;altitude;alt_time;pitch;roll;yaw
0;1673431108.751418;47.1306424;7.2406198999999996;0.014000000432133675;1673431108.9210064;-0.060389142483472824;-0.34769290685653687;90.49842071533203
1;1673431108.9929466;47.1306424;7.2406198999999996;0.014000000432133675;1673431109.143438;0.13913774490356445;-0.1347501575946808;90.66445922851562
2;1673431109.1795857;47.1306424;7.2406198999999996;0.013000000268220901;1673431109.3197477;-0.05180453509092331;-0.3700363039970398;90.78108215332031
3;1673431109.3593254;47.1306424;7.2406198999999996;0.013000000268220901;1673431109.5181084;-0.28767669200897217;0.05691974610090256;90.55268096923828
4;1673431109.554892;47.1306424;7.24062;0.013000000268220901;1673431109.7197878;-0.18186959624290466;-0.21018388867378235;90.6610336303711
5;1673431109.7556264;47.1306424;7.24062;0.013000000268220901;1673431109.9192586;-0.19651828706264496;0.04074527323246002;90.52706909179688
6;1673431109.9588382;47.1306424;7.24062;0.014000000432133675;1673431110.1228995;-0.19169503450393677;-0.2925127148628235;90.6502914428711
7;1673431110.1544726;47.1306424;7.2406198999999996;0.013000000268220901;1673431110.3141587;0.012515227310359478;-0.09966714680194855;90.56808471679688
8;1673431110.354767;47.1306424;7.240619799999999;0.012000000104308128;1673431110.5143917;-0.08837363123893738;-0.22493788599967957;90.74779510498047
9;1673431110.553009;47.1306424;7.240619799999999;0.01100000087171793;1673431110.7069008;-0.04332960024476051;0.917641818523407;90.72919464111328
10;1673431110.743013;47.1306424;7.240619799999999;-0.0010000000474974513;1673431110.9036226;-0.2835776209831238;1.597089409828186;90.74760437011719
11;1673431110.9404428;47.1306424;7.2406198999999996;-0.0020000000949949026;1673431111.1078932;-0.3005548119544983;1.0592041015625;90.75543975830078
12;1673431111.1401014;47.1306424;7.2406198999999996;-0.003000000026077032;1673431111.2954378;-0.3694785237312317;1.2684725522994995;90.7284164428711
13;1673431111.3315418;47.1306424;7.2406198999999996;-0.003000000026077032;1673431111.5034077;-0.3949451148509979;1.1299431324005127;90.68140411376953
14;1673431111.539537;47.1306424;7.2406198999999996;-0.003000000026077032;1673431111.6989393;-0.17658600211143494;1.092868685722351;90.93316650390625
15;1673431111.73611;47.1306423;7.240619799999999;-0.0020000000949949026;1673431111.8903275;0.1068878173828125;2.0732643604278564;90.581787109375
16;1673431111.9254985;47.1306423;7.240619799999999;0.0010000000474974513;1673431112.0865088;-0.05040599778294563;1.694311261177063;90.79219818115234
17;1673431112.1256893;47.1306423;7.240619799999999;0.004000000189989805;1673431112.298647;-0.1317635327577591;2.45031476020813;90.61253356933594
18;1673431112.349607;47.1306423;7.240619799999999;0.0010000000474974513;1673431112.5063488;-0.11079271882772446;1.1838048696517944;90.7644271850586
19;1673431112.5385122;47.1306422;7.2406198999999996;0.005000000353902578;1673431112.7253902;0.048000894486904144;0.7169403433799744;91.07180786132812
20;1673431112.7616642;47.130642099999996;7.2406198999999996;0.009000000543892384;1673431112.9425397;-0.06175527349114418;0.26823189854621887;91.44300842285156
21;1673431112.974225;47.130641999999995;7.2406198999999996;0.009000000543892384;1673431113.1711457;-0.0016681668348610401;0.3348541259765625;93.2258071899414
22;1673431113.2023766;47.1306419;7.2406201;0.01100000087171793;1673431113.3676229;0.034405745565891266;1.03158438205719;93.9334487915039
23;1673431113.403879;47.1306417;7.2406201999999995;0.017000000923871994;1673431113.555351;0.021105123683810234;0.22940592467784882;97.29600524902344
24;1673431113.586582;47.1306413;7.2406203;0.01600000075995922;1673431113.7347324;0.5525060892105103;0.15371806919574738;102.51966094970703
25;1673431113.7645242;47.1306406;7.2406203;0.01600000075995922;1673431113.9025316;0.24268029630184174;0.01821143366396427;111.47101593017578
26;1673431113.9407651;47.130639599999995;7.2406198999999996;0.014000000432133675;1673431114.1088457;1.3349683284759521;-0.05593613535165787;122.46898651123047
27;1673431114.1459658;47.1306381;7.240619499999999;0.01600000075995922;1673431114.3031065;3.547635555267334;0.02315613254904747;133.0345001220703
28;1673431114.3442545;47.130635899999994;7.240618899999999;0.02500000037252903;1673431114.511245;6.733365535736084;-0.6009135842323303;143.171142578125
29;1673431114.5517738;47.1306331;7.2406182;0.032999999821186066;1673431114.7036257;8.433184623718262;-4.8094563484191895;147.6759490966797
30;1673431114.7387888;47.1306297;7.2406174;0.046000003814697266;1673431114.8970547;11.332074165344238;-9.659586906433105;146.99005126953125
31;1673431114.9321907;47.1306259;7.2406166;0.05900000408291817;1673431115.0857456;13.222147941589355;-14.537568092346191;142.82667541503906
32;1673431115.1221442;47.1306219;7.2406158;0.0690000057220459;1673431115.283142;13.530847549438477;-16.820953369140625;138.27413940429688
33;1673431115.3213465;47.130617799999996;7.2406149;0.08000000566244125;1673431115.5141718;13.652341842651367;-18.932836532592773;134.61122131347656
34;1673431115.5493097;47.1306137;7.240614;0.09300000220537186;1673431115.7006848;13.803933143615723;-20.664737701416016;131.76531982421875
35;1673431115.7367997;47.130609799999995;7.2406131;0.11000000685453415;1673431115.9001887;13.979694366455078;-22.593128204345703;129.5294647216797
36;1673431115.936301;47.1306061;7.2406121;0.1290000081062317;1673431116.1141365;14.2400484085083;-24.60584831237793;127.75858306884766
37;1673431116.1670592;47.1306027;7.2406111;0.15200001001358032;1673431116.3548732;14.666821479797363;-26.582063674926758;126.40459442138672
38;1673431116.38832;47.1305998;7.240610299999999;0.18300001323223114;1673431116.5281515;15.176923751831055;-28.58269691467285;125.4148178100586
39;1673431116.562944;47.1305974;7.240609399999999;0.21700000762939453;1673431116.7236793;15.780314445495605;-30.59027099609375;124.67789459228516
40;1673431116.7603877;47.1305955;7.240608699999999;0.25300002098083496;1673431116.9084413;16.518230438232422;-32.55057144165039;124.20591735839844
41;1673431116.9427192;47.1305942;7.2406082;0.2900000214576721;1673431117.0937488;17.475337982177734;-34.52116012573242;123.96047973632812
42;1673431117.1287227;47.1305937;7.240607799999999;0.3290000259876251;1673431117.2942123;18.536474227905273;-36.41593933105469;123.83997344970703
43;1673431117.3324683;47.130593999999995;7.2406076;0.36900001764297485;1673431117.5086422;19.75171661376953;-38.4071159362793;123.91815948486328
44;1673431117.547684;47.1305951;7.2406076;0.4140000343322754;1673431117.7167783;21.104001998901367;-40.066917419433594;124.18773651123047
45;1673431117.7563524;47.1305972;7.2406079;0.46400001645088196;1673431117.9150004;22.921621322631836;-41.84579849243164;124.63216400146484
46;1673431117.9522734;47.1306003;7.2406086;0.5170000195503235;1673431118.1066258;23.820072174072266;-42.13108825683594;125.46983337402344
47;1673431118.1408057;47.1306045;7.2406095;0.5700000524520874;1673431118.306926;21.59636116027832;-38.06267166137695;126.71781158447266
48;1673431118.3410969;47.1306096;7.2406106999999995;0.6180000305175781;1673431118.5002947;18.762128829956055;-33.121742248535156;127.72775268554688
49;1673431118.5344663;47.1306151;7.2406121;0.6630000472068787;1673431118.709546;15.647566795349121;-28.216123580932617;128.33370971679688
50;1673431118.7466574;47.1306204;7.240613499999999;0.703000009059906;1673431118.9243956;12.525537490844727;-23.792722702026367;128.64956665039062
51;1673431118.9591713;47.1306255;7.2406147999999995;0.7420000433921814;1673431119.1258452;10.230276107788086;-20.157575607299805;128.66175842285156
52;1673431119.157121;47.130629899999995;7.240615999999999;0.7780000567436218;1673431119.3052943;8.764126777648926;-18.22897720336914;128.4139404296875
53;1673431119.3414;47.1306334;7.2406169;0.812000036239624;1673431119.5080614;8.179280281066895;-17.75098991394043;128.1022186279297
54;1673431119.565706;47.130635999999996;7.240617599999999;0.8410000205039978;1673431119.7640991;8.448787689208984;-18.515586853027344;127.75885772705078
55;1673431119.8002117;47.130637799999995;7.2406181;0.8790000677108765;1673431119.9789073;9.416450500488281;-20.145551681518555;127.3425064086914
56;1673431120.012091;47.1306388;7.2406185;0.9310000538825989;1673431120.1587892;10.826064109802246;-22.550003051757812;126.85363006591797
57;1673431120.2107422;47.1306393;7.2406188;0.9940000176429749;1673431120.3634393;11.651534080505371;-23.810422897338867;126.64884185791016
58;1673431120.3966348;47.1306395;7.240618899999999;1.0700000524520874;1673431120.5487368;12.431878089904785;-24.776962280273438;126.51166534423828
59;1673431120.578539;47.1306395;7.240619;1.159000039100647;1673431120.7191942;13.148367881774902;-27.034255981445312;126.22720336914062
60;1673431120.7534475;47.130639599999995;7.2406191;1.2630000114440918;1673431120.9161308;13.649806022644043;-26.561635971069336;126.37062072753906
61;1673431120.9532819;47.130639599999995;7.240619199999999;1.377000093460083;1673431121.116513;13.48696517944336;-25.770877838134766;126.56970977783203
62;1673431121.1575565;47.1306398;7.2406193;1.503000020980835;1673431121.3129387;13.622462272644043;-26.539913177490234;127.601806640625
63;1673431121.3461263;47.1306401;7.2406193;1.6420000791549683;1673431121.5213914;13.730923652648926;-26.147781372070312;127.64759826660156
64;1673431121.5624204;47.1306404;7.2406193;1.7960001230239868;1673431121.7213843;12.94404125213623;-24.699007034301758;128.06166076660156
65;1673431121.758483;47.130640799999995;7.2406193;1.9610000848770142;1673431121.9376132;12.411579132080078;-25.612699508666992;128.0972137451172
66;1673431121.9768686;47.1306412;7.240619199999999;2.138000011444092;1673431122.169329;12.180734634399414;-25.78656005859375;128.04119873046875
67;1673431122.2054417;47.130641499999996;7.2406191;2.324000120162964;1673431122.3695538;11.877790451049805;-24.468067169189453;128.18234252929688
68;1673431122.4027636;47.1306418;7.240619;2.517000198364258;1673431122.5500226;11.550837516784668;-24.87160873413086;128.05575561523438
69;1673431122.5833824;47.130642099999996;7.2406191;2.7140002250671387;1673431122.7424686;11.761090278625488;-25.355222702026367;127.89752197265625
70;1673431122.7845097;47.1306423;7.240619199999999;2.9060001373291016;1673431122.9820187;11.820672988891602;-23.917491912841797;128.0521697998047
71;1673431123.0163436;47.1306424;7.2406193;3.0970001220703125;1673431123.1631646;11.557790756225586;-24.123497009277344;128.1158905029297
72;1673431123.206141;47.1306425;7.2406193;3.2890002727508545;1673431123.3625944;11.878496170043945;-25.616819381713867;127.87251281738281
73;1673431123.3967535;47.1306425;7.2406193;3.4820001125335693;1673431123.5538902;12.172433853149414;-24.96319007873535;128.001953125
74;1673431123.596103;47.1306425;7.2406193;3.67900013923645;1673431123.7454994;11.990921020507812;-24.162139892578125;128.09584045410156
75;1673431123.780266;47.1306424;7.2406194;3.874000072479248;1673431123.9222293;12.302895545959473;-25.774372100830078;127.99343872070312
76;1673431123.9554098;47.1306424;7.240619499999999;4.069000244140625;1673431124.1294627;12.674286842346191;-25.143964767456055;128.07460021972656
77;1673431124.1730785;47.1306423;7.240619499999999;4.265000343322754;1673431124.3434703;12.349574089050293;-24.301610946655273;128.28688049316406
78;1673431124.385979;47.1306423;7.2406196;4.462000370025635;1673431124.5485902;12.56003189086914;-26.09257698059082;127.95208740234375
79;1673431124.5832822;47.1306422;7.2406196;4.6610002517700195;1673431124.7460878;12.652139663696289;-25.71246337890625;127.94973754882812
80;1673431124.7837331;47.130642099999996;7.2406196;4.857000350952148;1673431124.946251;12.701148986816406;-24.55881690979004;128.13478088378906
81;1673431124.986089;47.130642099999996;7.2406196;5.054000377655029;1673431125.1501343;12.670316696166992;-25.624732971191406;128.1030731201172
82;1673431125.18986;47.130642099999996;7.2406196;5.248000144958496;1673431125.3512328;12.709936141967773;-25.803691864013672;128.03465270996094
83;1673431125.387882;47.130642099999996;7.2406197;5.441000461578369;1673431125.5504396;12.460822105407715;-24.36421775817871;128.2245330810547
84;1673431125.5926774;47.130642099999996;7.2406197;5.636000156402588;1673431125.7600942;12.362955093383789;-25.181678771972656;128.11424255371094
85;1673431125.798187;47.130642099999996;7.2406197;5.832000255584717;1673431125.9616387;12.584198951721191;-26.141691207885742;127.9366455078125
86;1673431126.0025907;47.130642099999996;7.2406197;6.026000499725342;1673431126.1799877;12.675633430480957;-24.737709045410156;128.0817413330078
87;1673431126.2187946;47.130641999999995;7.240619799999999;6.2220001220703125;1673431126.3887255;12.384175300598145;-24.72035026550293;128.1253662109375
88;1673431126.4228835;47.130642099999996;7.240619799999999;6.4170002937316895;1673431126.5742943;12.62905216217041;-25.95520782470703;128.02545166015625
89;1673431126.6055257;47.130642099999996;7.240619799999999;6.612000465393066;1673431126.7567875;12.604989051818848;-24.64011573791504;128.13694763183594
90;1673431126.7958794;47.130642099999996;7.240619799999999;6.808000087738037;1673431126.954902;12.405597686767578;-24.306373596191406;128.149169921875
91;1673431126.9949584;47.1306422;7.240619799999999;7.00100040435791;1673431127.1712766;12.419857025146484;-26.117361068725586;127.90277099609375
92;1673431127.2071278;47.130642099999996;7.240619799999999;7.196000576019287;1673431127.3802035;12.766334533691406;-25.35062599182129;128.07003784179688
93;1673431127.417291;47.130642099999996;7.2406197;7.395000457763672;1673431127.563255;12.475165367126465;-24.428133010864258;128.1768035888672
94;1673431127.5940454;47.130642099999996;7.2406197;7.594000339508057;1673431127.7661505;12.373495101928711;-25.60910415649414;127.9989242553711
95;1673431127.7993374;47.1306422;7.2406197;7.7900004386901855;1673431127.9611344;12.547938346862793;-25.616701126098633;127.9326171875
96;1673431127.9997342;47.1306422;7.2406197;7.988000392913818;1673431128.2249787;12.37847900390625;-24.05181884765625;128.2196807861328
97;1673431128.2622519;47.1306422;7.2406197;8.187000274658203;1673431128.4222655;12.351476669311523;-25.502397537231445;128.06610107421875
98;1673431128.455467;47.1306422;7.2406196;8.38800048828125;1673431128.599115;12.39590072631836;-25.747236251831055;127.97882080078125
99;1673431128.6353908;47.1306422;7.2406196;8.592000007629395;1673431128.8248944;12.605998039245605;-24.46844482421875;128.09478759765625
100;1673431128.8610284;47.1306422;7.2406196;8.79800033569336;1673431129.0067132;12.386214256286621;-25.204008102416992;128.0948028564453
101;1673431129.0390935;47.1306422;7.2406196;9.00200080871582;1673431129.1865904;12.600228309631348;-25.86675453186035;127.94583129882812
102;1673431129.2233925;47.1306423;7.2406196;9.20300006866455;1673431129.3752823;12.522577285766602;-24.262773513793945;128.1405792236328
103;1673431129.407741;47.1306423;7.2406196;9.407999992370605;1673431129.5913603;12.297780990600586;-24.90038299560547;128.10430908203125
104;1673431129.6274698;47.1306423;7.2406196;9.611000061035156;1673431129.7731025;12.69804859161377;-26.104154586791992;127.9487533569336
105;1673431129.8092508;47.1306422;7.240619499999999;9.814000129699707;1673431129.9764335;12.421152114868164;-24.86468505859375;128.123046875
106;1673431130.00479;47.1306422;7.240619499999999;10.016000747680664;1673431130.18263;12.352497100830078;-23.56674575805664;128.3244171142578
107;1673431130.2227025;47.1306423;7.2406194;10.238000869750977;1673431130.3835506;11.548042297363281;-24.480087280273438;128.235107421875
108;1673431130.4216495;47.1306425;7.2406194;10.571000099182129;1673431130.5828152;13.058416366577148;-26.60374641418457;127.96969604492188
109;1673431130.617947;47.1306428;7.240619499999999;10.968000411987305;1673431130.7860184;11.37455940246582;-24.246551513671875;128.30189514160156
110;1673431130.8238904;47.130643199999994;7.240619499999999;11.37700080871582;1673431130.9963446;11.358122825622559;-24.385936737060547;127.75887298583984
111;1673431131.033469;47.1306436;7.240619499999999;11.788000106811523;1673431131.1899843;10.984753608703613;-23.565969467163086;127.92990112304688
112;1673431131.2300482;47.1306438;7.2406196;12.199000358581543;1673431131.385445;10.7566556930542;-22.6259822845459;128.0135955810547
113;1673431131.4205816;47.130644;7.2406196;12.609000205993652;1673431131.5714853;10.689316749572754;-23.82969856262207;127.87456512451172
114;1673431131.623763;47.1306441;7.2406196;13.019001007080078;1673431131.767755;11.221911430358887;-23.38947105407715;127.94148254394531
115;1673431131.8044648;47.130644;7.2406197;13.42400074005127;1673431131.9544072;11.155438423156738;-22.993715286254883;128.06056213378906
116;1673431131.988169;47.130643899999995;7.2406197;13.831000328063965;1673431132.1433074;11.55795669555664;-24.540287017822266;127.92462921142578
117;1673431132.1828132;47.1306437;7.2406197;14.23900032043457;1673431132.3533323;11.862483978271484;-24.624629974365234;127.99422454833984
118;1673431132.392278;47.1306435;7.2406197;14.648000717163086;1673431132.5639288;12.008247375488281;-23.666833877563477;128.1002197265625
119;1673431132.5974529;47.1306434;7.2406197;15.054000854492188;1673431132.7515619;11.914819717407227;-24.599029541015625;128.08712768554688
120;1673431132.787761;47.130643299999996;7.2406197;15.457000732421875;1673431132.957139;12.143780708312988;-25.240345001220703;127.96070098876953
121;1673431132.989016;47.130643199999994;7.2406197;15.857000350952148;1673431133.1470184;11.928009033203125;-23.80527114868164;128.19345092773438
122;1673431133.183829;47.130643199999994;7.2406197;16.25400161743164;1673431133.3554373;11.775592803955078;-24.680036544799805;128.05181884765625
123;1673431133.3942401;47.1306431;7.2406197;16.6560001373291;1673431133.5501466;12.006078720092773;-25.092426300048828;127.953857421875
124;1673431133.5819128;47.1306431;7.2406197;17.058000564575195;1673431133.739908;11.749979019165039;-23.985225677490234;128.0477752685547
125;1673431133.7753308;47.130643199999994;7.2406197;17.464000701904297;1673431133.948646;11.557902336120605;-23.929845809936523;128.1411590576172
126;1673431133.988216;47.130643199999994;7.2406197;17.87200164794922;1673431134.1532521;11.79403018951416;-24.845094680786133;128.00567626953125
127;1673431134.1952717;47.130643199999994;7.2406197;18.2760009765625;1673431134.3606744;11.817192077636719;-23.901411056518555;128.0562286376953
128;1673431134.4003243;47.130643199999994;7.240619799999999;18.674001693725586;1673431134.5720413;11.59386157989502;-23.59895896911621;128.1135711669922
129;1673431134.6043332;47.130643199999994;7.240619799999999;19.076000213623047;1673431134.7743006;11.840965270996094;-24.723154067993164;128.01693725585938
130;1673431134.8057282;47.130643199999994;7.2406198999999996;19.481000900268555;1673431134.982497;11.829212188720703;-24.06322479248047;128.0664520263672
131;1673431135.0195687;47.130643199999994;7.2406198999999996;19.886001586914062;1673431135.2092557;11.535167694091797;-23.31941795349121;128.18768310546875
132;1673431135.2392395;47.130643199999994;7.2406198999999996;20.284000396728516;1673431135.3896964;11.730975151062012;-24.858434677124023;127.92520141601562
133;1673431135.4249115;47.130643199999994;7.2406198999999996;20.683000564575195;1673431135.5821323;11.794888496398926;-24.002912521362305;128.04090881347656
134;1673431135.6180933;47.130643199999994;7.2406198999999996;21.08300018310547;1673431135.7745438;11.606553077697754;-23.441070556640625;128.15415954589844
135;1673431135.8113742;47.1306431;7.2406198999999996;21.483001708984375;1673431135.9747162;11.74504280090332;-24.73740577697754;128.0157012939453
136;1673431136.0279675;47.1306431;7.2406198999999996;21.892000198364258;1673431136.1939094;11.894007682800293;-24.383047103881836;128.02365112304688
137;1673431136.2531683;47.1306431;7.24062;22.299001693725586;1673431136.4161892;11.887630462646484;-23.239511489868164;128.18157958984375
138;1673431136.449677;47.1306431;7.24062;22.703001022338867;1673431136.6167665;11.722556114196777;-24.5126953125;128.01564025878906
139;1673431136.6509678;47.1306431;7.24062;23.10700035095215;1673431136.8086715;11.88913345336914;-24.544557571411133;127.94062042236328
140;1673431136.8453188;47.130643;7.24062;23.510000228881836;1673431137.0070026;11.818549156188965;-23.382125854492188;128.1395721435547
141;1673431137.0440762;47.130643;7.24062;23.906002044677734;1673431137.2062073;11.739518165588379;-24.70052146911621;128.05709838867188
142;1673431137.2340515;47.1306429;7.2406198999999996;24.308000564575195;1673431137.3986163;12.083930015563965;-24.712156295776367;128.01637268066406
143;1673431137.4565277;47.1306429;7.24062;24.711000442504883;1673431137.6193883;11.655055046081543;-23.447132110595703;128.228759765625
144;1673431137.6527624;47.1306429;7.24062;25.11400032043457;1673431137.8000617;11.688477516174316;-24.28937339782715;128.04171752929688
145;1673431137.8305075;47.1306429;7.24062;25.519001007080078;1673431138.0504608;11.838769912719727;-24.918298721313477;127.89659881591797
146;1673431138.0836937;47.1306429;7.24062;25.921001434326172;1673431138.2101347;11.91854190826416;-23.67605972290039;128.1380157470703
147;1673431138.2374883;47.1306428;7.24062;26.319002151489258;1673431138.3749433;11.671980857849121;-24.153047561645508;128.0988311767578
148;1673431138.4081798;47.1306428;7.24062;26.71200180053711;1673431138.5671964;12.040531158447266;-24.927331924438477;127.9454345703125
149;1673431138.6009219;47.1306428;7.2406201;27.114002227783203;1673431138.7477503;11.79626750946045;-23.693592071533203;128.08514404296875
150;1673431138.7834792;47.1306429;7.2406201;27.519001007080078;1673431138.9628494;11.630495071411133;-23.857995986938477;128.07369995117188
151;1673431138.9982727;47.1306429;7.2406201;27.924001693725586;1673431139.173698;11.856822967529297;-24.85688591003418;127.93418884277344
152;1673431139.2122927;47.1306429;7.2406201;28.32900047302246;1673431139.3641675;11.84697151184082;-23.703676223754883;128.0511474609375
153;1673431139.4010127;47.1306429;7.2406201;28.731000900268555;1673431139.5906668;11.720352172851562;-23.737239837646484;128.14796447753906
154;1673431139.6269207;47.1306429;7.2406201;29.126001358032227;1673431139.795878;11.795315742492676;-24.83208656311035;128.019775390625
155;1673431139.8320405;47.1306428;7.2406201;29.5260009765625;1673431139.994353;11.985254287719727;-24.093400955200195;128.10006713867188
156;1673431140.0275342;47.1306429;7.2406201;29.929000854492188;1673431140.195984;11.635335922241211;-23.572141647338867;128.13412475585938
157;1673431140.2321305;47.1306429;7.2406201;30.332000732421875;1673431140.3933012;11.755281448364258;-24.65996551513672;127.96968078613281
158;1673431140.4245038;47.1306429;7.2406201;30.73200225830078;1673431140.582277;11.882847785949707;-24.12112808227539;128.04745483398438
159;1673431140.6169674;47.1306429;7.2406201999999995;31.12900161743164;1673431140.774434;11.661093711853027;-23.326725006103516;128.16526794433594
160;1673431140.8068247;47.1306429;7.2406201999999995;31.527002334594727;1673431140.9691904;11.860686302185059;-24.574220657348633;128.01348876953125
161;1673431141.00855;47.1306429;7.2406201999999995;31.922000885009766;1673431141.1671028;11.927734375;-24.20010757446289;127.95789337158203
162;1673431141.2095044;47.1306429;7.2406203;32.323001861572266;1673431141.3716173;11.773405075073242;-23.125822067260742;128.1525421142578
163;1673431141.4122238;47.1306429;7.2406203;32.72700119018555;1673431141.5783603;11.824156761169434;-24.358579635620117;128.01681518554688
164;1673431141.6145062;47.1306429;7.2406201999999995;33.13100051879883;1673431141.7782228;11.87218952178955;-24.5732421875;128.02365112304688
165;1673431141.811657;47.1306429;7.2406201999999995;33.53499984741211;1673431141.9644513;11.872201919555664;-23.202899932861328;128.1651153564453
166;1673431142.0021136;47.1306429;7.2406201999999995;33.93600082397461;1673431142.1620286;11.758586883544922;-24.1441650390625;128.08441162109375
167;1673431142.198694;47.1306428;7.2406201999999995;34.33300018310547;1673431142.3525226;12.030720710754395;-24.707000732421875;127.97042846679688
168;1673431142.3959959;47.1306428;7.2406201;34.737003326416016;1673431142.5716772;11.625383377075195;-23.058448791503906;128.21620178222656
169;1673431142.606005;47.1306428;7.2406201;35.1400032043457;1673431142.7704828;11.665210723876953;-24.3604793548584;128.05426025390625
170;1673431142.8088975;47.1306428;7.24062;35.54600143432617;1673431142.9860492;11.867356300354004;-24.951147079467773;127.92764282226562
171;1673431143.0197928;47.1306428;7.2406198999999996;35.95100021362305;1673431143.1777272;11.725781440734863;-23.556171417236328;128.16783142089844
172;1673431143.2159517;47.1306428;7.2406198999999996;36.35100173950195;1673431143.3762956;11.643684387207031;-24.10296058654785;128.1392822265625
173;1673431143.414888;47.1306428;7.2406198999999996;36.75;1673431143.5863366;11.793961524963379;-24.956621170043945;127.96235656738281
174;1673431143.6190965;47.1306428;7.2406198999999996;37.143001556396484;1673431143.7741196;11.84918212890625;-23.424739837646484;128.02932739257812
175;1673431143.811747;47.1306428;7.2406198999999996;37.5420036315918;1673431143.97656;11.502629280090332;-24.00044059753418;128.0655517578125
176;1673431144.0143478;47.1306428;7.2406198999999996;37.944000244140625;1673431144.1902766;11.761860847473145;-24.8835391998291;128.06451416015625
177;1673431144.2265942;47.1306428;7.240619799999999;38.34800338745117;1673431144.3833144;11.729199409484863;-23.874547958374023;128.10525512695312
178;1673431144.4190457;47.1306428;7.240619799999999;38.75200271606445;1673431144.5691662;11.434419631958008;-23.393962860107422;128.07894897460938
179;1673431144.6031008;47.1306428;7.240619799999999;39.15300369262695;1673431144.7715719;11.65560531616211;-24.83385467529297;127.8758773803711
180;1673431144.8078454;47.1306429;7.240619799999999;39.54600143432617;1673431144.975342;11.64714527130127;-23.89145278930664;128.07618713378906
181;1673431145.0157912;47.1306429;7.240619799999999;39.94600296020508;1673431145.1746063;11.453742980957031;-23.343196868896484;128.17811584472656
182;1673431145.214949;47.1306429;7.240619799999999;40.34800338745117;1673431145.3660915;11.485835075378418;-24.54834747314453;127.97554016113281
183;1673431145.402724;47.1306428;7.240619799999999;40.75400161743164;1673431145.5633225;11.75605583190918;-24.512434005737305;128.056640625
184;1673431145.600947;47.1306428;7.240619799999999;41.15300369262695;1673431145.778324;11.643415451049805;-23.491788864135742;128.15597534179688
185;1673431145.8180883;47.130642699999996;7.240619799999999;41.553001403808594;1673431145.9731805;11.556303977966309;-24.465042114257812;128.01513671875
186;1673431146.013909;47.130642699999996;7.240619799999999;41.952003479003906;1673431146.195176;11.744255065917969;-24.653039932250977;127.89240264892578
187;1673431146.2309763;47.130642699999996;7.240619799999999;42.34400177001953;1673431146.4148293;11.679058074951172;-23.58487319946289;128.07012939453125
188;1673431146.4597213;47.130642699999996;7.240619799999999;42.742000579833984;1673431146.618922;11.547072410583496;-24.261560440063477;128.12265014648438
189;1673431146.656008;47.130642699999996;7.2406198999999996;43.14400100708008;1673431146.8348744;11.924596786499023;-24.777149200439453;128.0199432373047
190;1673431146.900144;47.130642699999996;7.2406198999999996;43.54600143432617;1673431147.040121;11.811142921447754;-23.507356643676758;128.0829620361328
191;1673431147.0743937;47.130642699999996;7.24062;43.94900131225586;1673431147.227645;11.797355651855469;-23.788028717041016;128.03704833984375
192;1673431147.2618015;47.130642699999996;7.24062;44.35000228881836;1673431147.4244938;11.935312271118164;-24.780900955200195;128.01028442382812
193;1673431147.4596188;47.130642699999996;7.24062;44.74500274658203;1673431147.6042743;11.889723777770996;-23.53995704650879;128.1409912109375
194;1673431147.6384346;47.130642699999996;7.24062;45.14200210571289;1673431147.7866926;11.502484321594238;-23.6090030670166;128.15220642089844
195;1673431147.8247874;47.130642699999996;7.24062;45.538002014160156;1673431147.9792309;11.63268756866455;-25.006614685058594;127.93840026855469
196;1673431148.0193322;47.130642699999996;7.2406198999999996;45.93600082397461;1673431148.1722975;11.71411418914795;-23.851112365722656;128.09710693359375
197;1673431148.2053094;47.130642699999996;7.2406198999999996;46.336002349853516;1673431148.3749065;11.430322647094727;-23.433757781982422;128.15603637695312
198;1673431148.413349;47.130642699999996;7.2406198999999996;46.737003326416016;1673431148.5804734;11.65517807006836;-24.729755401611328;127.97463989257812
199;1673431148.617124;47.130642699999996;7.240619799999999;47.137001037597656;1673431148.7749076;11.648656845092773;-24.237369537353516;127.95145416259766
200;1673431148.8341217;47.130642699999996;7.240619799999999;47.53300094604492;1673431148.9899952;11.611355781555176;-23.573036193847656;128.23092651367188
201;1673431149.0318606;47.130642599999995;7.240619799999999;47.93400192260742;1673431149.172256;11.813291549682617;-25.17572593688965;128.0223846435547
202;1673431149.203488;47.1306425;7.240619799999999;48.30400085449219;1673431149.3837726;11.719705581665039;-24.137073516845703;127.97785186767578
203;1673431149.4239497;47.1306424;7.2406197;48.61900329589844;1673431149.5886257;12.030647277832031;-24.35540008544922;128.0351104736328
204;1673431149.6244078;47.130642099999996;7.2406197;48.88200378417969;1673431149.7784338;12.283748626708984;-25.45049285888672;127.9663314819336
205;1673431149.8107808;47.1306418;7.2406196;49.10200119018555;1673431149.9684613;12.69644546508789;-25.646303176879883;127.96100616455078
206;1673431150.0100038;47.130641499999996;7.240619499999999;49.27800369262695;1673431150.216107;15.203832626342773;-8.815059661865234;131.0653533935547
207;1673431150.2509823;47.1306411;7.240619199999999;49.42500305175781;1673431150.3927836;13.997699737548828;23.693470001220703;141.9203338623047
208;1673431150.4226644;47.130639699999996;7.2406175;49.55800247192383;1673431150.5752034;0.9425094723701477;45.243194580078125;151.3970947265625
209;1673431150.6109345;47.1306362;7.2406127;49.677001953125;1673431150.7725415;-20.127595901489258;46.87876892089844;161.06707763671875
210;1673431150.8092525;47.130629899999995;7.2406044;49.74700164794922;1673431150.9816036;-33.6766471862793;39.1031379699707;173.73724365234375
211;1673431151.0223958;47.1306204;7.2405924;49.794002532958984;1673431151.1911883;-42.31083297729492;31.657297134399414;-175.42161560058594
212;1673431151.2486186;47.1306078;7.2405772;49.82100296020508;1673431151.4046414;-48.81427764892578;27.422334671020508;-165.8330078125
213;1673431151.4429448;47.1305925;7.2405593999999995;49.82500076293945;1673431151.6135492;-53.26991271972656;25.689891815185547;-156.19680786132812
214;1673431151.6477127;47.1305747;7.2405390999999995;49.81200408935547;1673431151.8030381;-53.31283950805664;20.063852310180664;-145.02084350585938
215;1673431151.8392568;47.1305547;7.2405159;49.78900146484375;1673431151.991367;-54.41794204711914;13.608893394470215;-135.67864990234375
216;1673431152.0280228;47.130533299999996;7.2404899;49.77000045776367;1673431152.1786733;-56.17075729370117;9.137842178344727;-128.06793212890625
217;1673431152.214854;47.130510699999995;7.2404611999999995;49.74700164794922;1673431152.3989565;-55.06313705444336;6.18485164642334;-125.74097442626953
218;1673431152.4396214;47.1304872;7.240430099999999;49.71200180053711;1673431152.6075306;-52.6255989074707;6.542468547821045;-129.59266662597656
219;1673431152.642666;47.1304632;7.240397499999999;49.67000198364258;1673431152.805825;-50.32633590698242;8.04749584197998;-132.1374053955078
220;1673431152.8507493;47.130438399999996;7.2403635;49.60700225830078;1673431153.000638;-45.45894241333008;8.374091148376465;-133.25613403320312
221;1673431153.0383067;47.1304131;7.2403287999999995;49.53400421142578;1673431153.1884122;-42.75273132324219;8.78892707824707;-133.78109741210938
222;1673431153.2267282;47.1303875;7.2402938;49.47300338745117;1673431153.3869555;-43.616275787353516;9.86613655090332;-134.20346069335938
223;1673431153.4287574;47.1303619;7.2402587;49.43400192260742;1673431153.583142;-44.685455322265625;10.88437557220459;-134.21287536621094
224;1673431153.6296275;47.130336299999996;7.240223599999999;49.41400146484375;1673431153.7905362;-46.87443161010742;11.401518821716309;-134.20578002929688
225;1673431153.829122;47.1303106;7.2401881999999995;49.40900421142578;1673431153.9829788;-46.67491912841797;11.314292907714844;-134.1725311279297
226;1673431154.018682;47.130285099999995;7.2401529;49.42100143432617;1673431154.19543;-46.58079528808594;11.236675262451172;-134.158203125
227;1673431154.2302408;47.1302594;7.240117;49.43100357055664;1673431154.39055;-46.25361633300781;11.08307933807373;-134.33558654785156
228;1673431154.425394;47.1302336;7.2400807;49.44000244140625;1673431154.5746436;-44.96971893310547;10.599419593811035;-134.41354370117188
229;1673431154.6113706;47.1302077;7.2400443;49.44600296020508;1673431154.7664783;-45.124366760253906;10.724813461303711;-134.69236755371094
230;1673431154.8026774;47.130181799999995;7.240007899999999;49.458003997802734;1673431154.9906273;-45.703582763671875;10.606383323669434;-134.76065063476562
231;1673431155.0303135;47.1301559;7.2399716;49.47200393676758;1673431155.2070804;-45.94008255004883;10.636895179748535;-134.8182373046875
232;1673431155.2736409;47.130130099999995;7.239935399999999;49.499000549316406;1673431155.4291468;-46.953163146972656;10.767611503601074;-134.9156036376953
233;1673431155.4652603;47.1301041;7.239898999999999;49.525001525878906;1673431155.6148946;-46.66938018798828;10.555644989013672;-134.94329833984375
234;1673431155.651187;47.130078;7.2398624;49.54500198364258;1673431155.8298109;-46.27195358276367;10.346470832824707;-134.97073364257812
235;1673431155.863044;47.1300518;7.239825799999999;49.56100082397461;1673431156.0789073;-46.011329650878906;10.305304527282715;-135.0664520263672
236;1673431156.1313667;47.130025599999996;7.2397892;49.579002380371094;1673431156.265336;-46.05693054199219;10.21905517578125;-135.1163330078125
237;1673431156.2996042;47.129999299999994;7.2397526;49.59700393676758;1673431156.4512172;-46.42523956298828;10.342448234558105;-135.16941833496094
238;1673431156.4834144;47.129973;7.239716199999999;49.6140022277832;1673431156.683025;-46.66947937011719;10.464442253112793;-135.1775360107422
239;1673431156.7104008;47.1299467;7.2396799;49.634002685546875;1673431156.89055;-46.777870178222656;10.470556259155273;-135.116455078125
240;1673431156.94281;47.129920399999996;7.239643399999999;49.647003173828125;1673431157.0634928;-46.41554641723633;10.406355857849121;-135.10694885253906
241;1673431157.1025307;47.1298939;7.2396068;49.65900421142578;1673431157.2461226;-45.964988708496094;10.301002502441406;-135.11375427246094
242;1673431157.285156;47.129867399999995;7.2395703;49.669002532958984;1673431157.4871724;-46.03485870361328;10.354762077331543;-135.14599609375
243;1673431157.519426;47.1298409;7.239533799999999;49.68300247192383;1673431157.6999123;-46.640769958496094;10.469305992126465;-135.17779541015625
244;1673431157.7302063;47.1298144;7.2394973;49.702003479003906;1673431157.873156;-47.196346282958984;10.590654373168945;-135.1263427734375
245;1673431157.91577;47.1297879;7.2394609;49.72100067138672;1673431158.0912113;-47.19935989379883;10.547858238220215;-135.0360565185547
246;1673431158.1200495;47.1297613;7.2394244;49.73200225830078;1673431158.2875774;-46.3892936706543;10.331770896911621;-134.9873504638672
247;1673431158.327212;47.1297347;7.239387799999999;49.73600387573242;1673431158.4557765;-45.95895767211914;10.245746612548828;-135.0083465576172
248;1673431158.4840868;47.129708099999995;7.2393513;49.74100112915039;1673431158.6175108;-46.01274490356445;10.29452133178711;-135.03665161132812
249;1673431158.6449895;47.1296815;7.2393146999999995;49.746002197265625;1673431158.7960215;-46.394039154052734;10.388562202453613;-135.0235595703125
250;1673431158.829766;47.1296549;7.239278199999999;49.755001068115234;1673431159.0025396;-46.90340042114258;10.412057876586914;-134.97396850585938
251;1673431159.0421083;47.1296283;7.2392416;49.76700210571289;1673431159.1999197;-46.99671936035156;10.43729305267334;-134.9720001220703
252;1673431159.2400763;47.1296016;7.2392050999999995;49.78200149536133;1673431159.3913984;-46.9752082824707;10.39293384552002;-134.86453247070312
253;1673431159.427267;47.129574899999994;7.2391685;49.794002532958984;1673431159.6057541;-46.71617889404297;10.22639274597168;-134.79696655273438
254;1673431159.6430511;47.129548199999995;7.2391317;49.798004150390625;1673431159.8041024;-46.17375564575195;10.074082374572754;-134.7805633544922
255;1673431159.8433387;47.129521499999996;7.239095;49.802001953125;1673431160.0073016;-46.07499694824219;10.161117553710938;-134.80166625976562
256;1673431160.043961;47.129494799999996;7.239058399999999;49.807003021240234;1673431160.1899252;-46.49795150756836;10.1980562210083;-134.74041748046875
257;1673431160.223699;47.1294681;7.2390218;49.81500244140625;1673431160.4103098;-46.829490661621094;10.1973876953125;-134.68499755859375
258;1673431160.4523666;47.1294414;7.2389852999999995;49.8280029296875;1673431160.63009;-46.83467102050781;11.292985916137695;-134.8994903564453
259;1673431160.6634755;47.1294148;7.2389487;49.8390007019043;1673431160.8188171;-45.418148040771484;18.94662857055664;-135.91265869140625
260;1673431160.853192;47.1293882;7.2389119;49.85100173950195;1673431161.0128045;-40.71120834350586;15.41923999786377;-132.43905639648438
261;1673431161.0466778;47.129362199999996;7.238874699999999;49.874000549316406;1673431161.2131362;-28.255176544189453;16.849712371826172;-133.7208709716797
262;1673431161.2512982;47.1293368;7.2388379;49.910003662109375;1673431161.4072092;-8.733930587768555;16.86253547668457;-134.8203582763672
263;1673431161.4445894;47.1293127;7.2388023;49.94200134277344;1673431161.601084;8.300664901733398;14.438648223876953;-137.110595703125
264;1673431161.6358135;47.1292902;7.2387692999999995;49.96800231933594;1673431161.795493;20.906585693359375;12.135625839233398;-137.40469360351562
265;1673431161.8302116;47.1292699;7.23874;49.98200225830078;1673431162.0547464;29.47483253479004;13.178360939025879;-138.2444610595703
266;1673431162.0886047;47.1292518;7.2387144;49.96200180053711;1673431162.2362714;28.404827117919922;12.719520568847656;-139.9869384765625
267;1673431162.2694485;47.129236;7.238692599999999;49.89900207519531;1673431162.4430003;30.86482810974121;15.388166427612305;-140.39886474609375
268;1673431162.475195;47.129222399999996;7.2386741;49.85000228881836;1673431162.627794;37.11922073364258;17.799219131469727;-139.8856658935547
269;1673431162.6600006;47.1292112;7.2386588;49.832000732421875;1673431162.8159435;34.937904357910156;17.76202392578125;-139.71810913085938
270;1673431162.85357;47.1292025;7.2386462;49.84800338745117;1673431163.0153933;29.33380699157715;15.512312889099121;-138.86148071289062
271;1673431163.052159;47.1291959;7.238635899999999;49.893001556396484;1673431163.213806;22.885560989379883;13.45701789855957;-138.96258544921875
272;1673431163.2524502;47.1291904;7.2386272;49.932003021240234;1673431163.419944;17.06562042236328;10.889463424682617;-139.37969970703125
273;1673431163.4542353;47.1291856;7.2386194999999995;49.965003967285156;1673431163.6077585;13.138917922973633;10.8455810546875;-139.45953369140625
274;1673431163.6406434;47.129180899999994;7.2386124999999995;49.99400329589844;1673431163.795169;11.133560180664062;13.053016662597656;-139.45985412597656
275;1673431163.8294418;47.129176199999996;7.2386059;50.01700210571289;1673431163.998517;12.370491981506348;12.865959167480469;-139.1841583251953
276;1673431164.0349147;47.1291715;7.2385997;50.03200149536133;1673431164.2057676;14.09245491027832;12.0122709274292;-138.76873779296875
277;1673431164.2478168;47.1291668;7.2385939;50.04900360107422;1673431164.4152598;17.651819229125977;11.849898338317871;-137.89854431152344
278;1673431164.4528775;47.129162099999995;7.2385885;50.070003509521484;1673431164.608226;21.732213973999023;11.930235862731934;-136.9902801513672
279;1673431164.6562855;47.1291576;7.2385835;50.0880012512207;1673431164.8124614;24.031362533569336;12.93127155303955;-136.08859252929688
280;1673431164.8497424;47.129153599999995;7.2385791;50.105003356933594;1673431165.0133705;0.37630853056907654;16.912450790405273;-138.90087890625
281;1673431165.0479572;47.1291498;7.2385749;50.1670036315918;1673431165.2196567;-22.054441452026367;13.295876502990723;-137.95848083496094
282;1673431165.2556858;47.1291453;7.2385692;50.27800369262695;1673431165.4202049;-19.641544342041016;7.731963157653809;-136.17343139648438
283;1673431165.4539213;47.129139099999996;7.2385616;50.47100067138672;1673431165.6136603;-16.691484451293945;11.241512298583984;-137.3744659423828
284;1673431165.6473885;47.129131199999996;7.2385525;50.75800323486328;1673431165.81074;-20.58692169189453;26.246482849121094;-136.91249084472656
285;1673431165.8487296;47.1291225;7.238541799999999;51.121002197265625;1673431166.0026388;-17.139301300048828;22.812942504882812;-135.22708129882812
286;1673431166.0397754;47.1291133;7.2385287;51.518001556396484;1673431166.238799;-14.04682445526123;19.149707794189453;-135.75135803222656
287;1673431166.2791743;47.129103799999996;7.2385142;51.919002532958984;1673431166.425814;-10.083928108215332;16.06756591796875;-136.03823852539062
288;1673431166.463879;47.129094099999996;7.2384987999999995;52.32100296020508;1673431166.657472;-5.840368270874023;14.04703140258789;-136.6037139892578
289;1673431166.6906607;47.129084299999995;7.2384831;52.71900177001953;1673431166.8615093;-2.1478474140167236;12.712467193603516;-136.81007385253906
290;1673431166.8938885;47.1290744;7.2384675;53.11600112915039;1673431167.0556245;-0.2454516887664795;13.030866622924805;-137.00128173828125
291;1673431167.1036398;47.1290646;7.2384524;53.51400375366211;1673431167.2546678;0.08200839906930923;12.557866096496582;-137.03590393066406
292;1673431167.3065884;47.1290548;7.2384376999999995;53.913002014160156;1673431167.4592335;-0.6463969349861145;11.078042030334473;-136.96347045898438
293;1673431167.49437;47.129045;7.238423699999999;54.31200408935547;1673431167.6545656;-1.7112668752670288;10.009544372558594;-136.85861206054688
294;1673431167.7027574;47.129035099999996;7.2384102;54.711002349853516;1673431167.887733;-2.523897647857666;9.74102783203125;-136.8429412841797
295;1673431167.9468637;47.129025299999995;7.2383972;55.11100387573242;1673431168.1104872;-2.817282199859619;10.963542938232422;-136.9241180419922
296;1673431168.1389813;47.1290154;7.238384399999999;55.513004302978516;1673431168.2707446;-3.389751672744751;14.178837776184082;-136.7958221435547
297;1673431168.2990549;47.1290056;7.2383717999999995;55.915000915527344;1673431168.4614146;-4.497631549835205;16.70292091369629;-136.55706787109375
298;1673431168.497527;47.1289957;7.238359099999999;56.31900405883789;1673431168.6479256;-5.820192337036133;17.594709396362305;-136.5730438232422
299;1673431168.6840396;47.128985799999995;7.2383463;56.724002838134766;1673431168.831738;-6.993601322174072;16.938522338867188;-136.58314514160156
300;1673431168.8635402;47.1289759;7.2383332;57.12900161743164;1673431169.021889;-7.435882091522217;14.363860130310059;-136.5777130126953
301;1673431169.0537941;47.128966;7.238319799999999;57.53300094604492;1673431169.2142682;-6.37667179107666;13.128377914428711;-136.431396484375
302;1673431169.2504842;47.128956099999996;7.2383063;57.935001373291016;1673431169.4149718;-4.975208759307861;12.703597068786621;-136.4489288330078
303;1673431169.4473376;47.1289461;7.2382927;58.33200454711914;1673431169.6089888;-4.066051483154297;15.01601505279541;-136.7671356201172
304;1673431169.6427083;47.1289361;7.2382789999999995;58.72700119018555;1673431169.8082383;-3.9598169326782227;16.76894760131836;-136.82679748535156
305;1673431169.8478582;47.128926199999995;7.2382653999999995;59.12400436401367;1673431170.0068312;-4.858059883117676;17.163204193115234;-136.82557678222656
306;1673431170.0391908;47.1289162;7.2382516;59.52300262451172;1673431170.2351072;-5.213029384613037;15.457584381103516;-136.75799560546875
307;1673431170.2761989;47.1289063;7.2382379;59.91800308227539;1673431170.4349;-5.611438274383545;14.149357795715332;-136.6188507080078
308;1673431170.4692519;47.128896399999995;7.238224199999999;60.316001892089844;1673431170.62275;-4.773829936981201;12.074877738952637;-136.45455932617188
309;1673431170.6593947;47.1288865;7.2382105;60.71400451660156;1673431170.8274012;-3.9101831912994385;12.3082857131958;-136.72894287109375
310;1673431170.8617992;47.1288767;7.238196899999999;61.11300277709961;1673431171.0141323;-3.7136521339416504;14.69544792175293;-136.92132568359375
311;1673431171.0508304;47.128866699999996;7.2381834;61.512001037597656;1673431171.2123768;-4.021670818328857;16.78819465637207;-136.8690643310547
312;1673431171.250222;47.1288568;7.2381699;61.913002014160156;1673431171.4450362;-5.018142223358154;16.888219833374023;-136.77127075195312
313;1673431171.4803653;47.128847;7.2381563;62.31500244140625;1673431171.6975486;-5.811363220214844;16.34607696533203;-136.67843627929688
314;1673431171.7322412;47.1288372;7.2381427;62.720001220703125;1673431171.8743925;-6.162766456604004;15.0851469039917;-136.62454223632812
315;1673431171.9080498;47.1288273;7.238129;63.12400436401367;1673431172.0558403;-5.747469902038574;13.046135902404785;-136.57606506347656
316;1673431172.0891013;47.128817399999996;7.238115199999999;63.52400207519531;1673431172.2476017;-4.9452900886535645;12.201957702636719;-136.62960815429688
317;1673431172.2837148;47.1288075;7.2381015;63.92400360107422;1673431172.428408;-4.034956455230713;12.777315139770508;-136.6181640625
318;1673431172.4631453;47.1287975;7.2380879;64.32600402832031;1673431172.6172037;-3.517866849899292;13.952475547790527;-136.570068359375
319;1673431172.656788;47.1287875;7.2380743999999995;64.7300033569336;1673431172.8291326;-3.814674139022827;15.914703369140625;-136.79884338378906
320;1673431172.8696814;47.1287775;7.2380609;65.13600158691406;1673431173.027433;-4.630140781402588;16.968048095703125;-136.94882202148438
321;1673431173.0611649;47.128767499999995;7.238047399999999;65.53800201416016;1673431173.2233763;-5.350947380065918;16.821882247924805;-136.892333984375
322;1673431173.2771022;47.1287576;7.238033799999999;65.93500518798828;1673431173.4293678;-5.828985691070557;15.683076858520508;-136.76806640625
323;1673431173.4656935;47.1287477;7.238020199999999;66.33000183105469;1673431173.6155915;-5.849872589111328;14.31258773803711;-136.46435546875
324;1673431173.6640165;47.128737699999995;7.2380065;66.72500610351562;1673431173.8341568;-5.2831244468688965;13.462841033935547;-136.44300842285156
325;1673431173.8663652;47.1287278;7.2379926999999995;67.12200164794922;1673431174.0154226;-4.512884616851807;12.823758125305176;-136.2472381591797
326;1673431174.0552704;47.1287179;7.237978999999999;67.52400207519531;1673431174.2126467;-4.0121588706970215;12.746622085571289;-136.1869659423828
327;1673431174.2465246;47.128707999999996;7.2379653;67.927001953125;1673431174.4220622;-3.785499334335327;12.69607925415039;-136.58242797851562
328;1673431174.457023;47.1286981;7.2379516;68.3290023803711;1673431174.6263227;-3.5449259281158447;13.244953155517578;-136.6243438720703
329;1673431174.663141;47.1286882;7.2379378999999995;68.73300170898438;1673431174.82182;-3.8861656188964844;14.155244827270508;-136.60313415527344
330;1673431174.8634384;47.1286784;7.2379242999999995;69.1300048828125;1673431175.0464108;-4.479543685913086;14.433341979980469;-136.6348876953125
331;1673431175.0834982;47.1286686;7.2379107;69.52400207519531;1673431175.2479775;-5.149378776550293;15.485837936401367;-136.82305908203125
332;1673431175.2831476;47.128658699999995;7.2378971;69.92000579833984;1673431175.4427722;-5.711877822875977;16.082216262817383;-136.95362854003906
333;1673431175.4789157;47.128648899999995;7.2378835;70.31800079345703;1673431175.642537;-5.821691513061523;16.519840240478516;-137.17323303222656
334;1673431175.6806335;47.1286389;7.2378699;70.71400451660156;1673431175.8497434;-5.361321926116943;17.016742706298828;-137.37705993652344
335;1673431175.8848686;47.128629;7.2378563;71.10800170898438;1673431176.0413895;-4.542350769042969;17.323688507080078;-137.4865264892578
336;1673431176.075807;47.128619099999995;7.2378426;71.5050048828125;1673431176.2544825;-3.897676706314087;17.167661666870117;-137.29568481445312
337;1673431176.2915688;47.1286092;7.2378288;71.9050064086914;1673431176.4478734;-3.783287763595581;16.754545211791992;-137.08949279785156
338;1673431176.4908156;47.1285995;7.237814999999999;72.30500030517578;1673431176.6390324;-4.38808536529541;16.114131927490234;-136.98838806152344
339;1673431176.6751509;47.1285897;7.2378010999999995;72.7030029296875;1673431176.8282988;-5.489322185516357;15.40783405303955;-137.0018768310547
340;1673431176.868327;47.12858;7.2377873;73.1030044555664;1673431177.034799;-6.070760726928711;14.789323806762695;-136.97117614746094
341;1673431177.0782633;47.1285702;7.237773499999999;73.50700378417969;1673431177.2385292;-6.0017313957214355;13.978923797607422;-136.70904541015625
342;1673431177.27468;47.1285604;7.2377598;73.91100311279297;1673431177.4258263;-6.112792015075684;13.933135986328125;-136.56753540039062
343;1673431177.4600449;47.128550399999995;7.237746199999999;74.31500244140625;1673431177.6428957;-5.3759074211120605;14.742965698242188;-136.40521240234375
344;1673431177.6742077;47.1285403;7.2377327;74.72000122070312;1673431177.8422606;-4.320173740386963;15.111382484436035;-136.58021545410156
345;1673431177.8796222;47.1285303;7.2377192;75.11900329589844;1673431178.0614114;-3.788905620574951;15.475994110107422;-136.95120239257812
346;1673431178.0955722;47.1285202;7.2377056;75.51900482177734;1673431178.2637045;-3.9343197345733643;15.355823516845703;-137.32321166992188
347;1673431178.2978666;47.1285102;7.237692;75.91900634765625;1673431178.4414515;-4.510430812835693;15.715248107910156;-137.1964569091797
348;1673431178.4795163;47.1285003;7.2376783;76.31200408935547;1673431178.6245072;-5.705484867095947;15.214302062988281;-137.1050567626953
349;1673431178.6533554;47.1284904;7.2376647;76.7030029296875;1673431178.8132362;-5.711385250091553;15.258346557617188;-136.96031188964844
350;1673431178.8508751;47.1284804;7.237651;77.10100555419922;1673431179.014754;-5.189013957977295;14.250750541687012;-136.84376525878906
351;1673431179.0513763;47.1284705;7.237637299999999;77.50300598144531;1673431179.2210884;-4.618746757507324;13.919585227966309;-136.65711975097656
352;1673431179.2578104;47.128460499999996;7.237623699999999;77.9050064086914;1673431179.4185052;-4.152699947357178;13.943498611450195;-136.62852478027344
353;1673431179.4552295;47.1284506;7.2376100999999995;78.30400085449219;1673431179.6256251;-3.9933829307556152;14.134902000427246;-136.57444763183594
354;1673431179.6673214;47.1284407;7.2375964999999995;78.7020034790039;1673431179.8106735;-4.573325157165527;14.171099662780762;-136.8303985595703
355;1673431179.8473392;47.1284309;7.2375829;79.1030044555664;1673431180.0180492;-5.547623634338379;13.688863754272461;-137.0806121826172
356;1673431180.053728;47.128420999999996;7.237569199999999;79.50200653076172;1673431180.221812;-5.883006572723389;13.907257080078125;-136.96780395507812
357;1673431180.25578;47.1284111;7.2375557;79.89800262451172;1673431180.4181066;-5.788218975067139;13.771824836730957;-136.6934356689453
358;1673431180.4528053;47.1284011;7.2375419999999995;80.29300689697266;1673431180.617331;-4.548089027404785;13.432642936706543;-136.57933044433594
359;1673431180.6578872;47.128391199999996;7.2375283999999995;80.69200134277344;1673431180.8260472;-3.6729588508605957;13.29736614227295;-136.5906982421875
360;1673431180.8634226;47.1283813;7.237514699999999;81.09500122070312;1673431181.021055;-3.4263370037078857;13.448996543884277;-136.45095825195312
361;1673431181.0519707;47.1283714;7.237501099999999;81.49300384521484;1673431181.220551;-3.9946908950805664;14.078790664672852;-136.46084594726562
362;1673431181.260809;47.1283616;7.2374876;81.89100646972656;1673431181.4304078;-5.339998722076416;14.373991012573242;-136.65304565429688
363;1673431181.4680352;47.1283518;7.237474;82.28900146484375;1673431181.6267197;-6.533812046051025;14.825392723083496;-136.9412078857422
364;1673431181.6614053;47.128341899999995;7.2374604;82.68800354003906;1673431181.8267105;-6.77333927154541;14.541070938110352;-137.1924591064453
365;1673431181.8639083;47.128332;7.2374468;83.08500671386719;1673431182.0267284;-5.910476207733154;15.075433731079102;-137.2254638671875
366;1673431182.0643563;47.1283221;7.2374331;83.48200225830078;1673431182.224936;-4.959591865539551;15.313814163208008;-137.0746307373047
367;1673431182.2617095;47.128312199999996;7.2374193;83.87700653076172;1673431182.434417;-3.9450581073760986;15.713093757629395;-136.92689514160156
368;1673431182.4711857;47.128302299999994;7.2374056;84.26900482177734;1673431182.6410434;-3.7192165851593018;15.777058601379395;-136.79730224609375
369;1673431182.6796396;47.1282924;7.2373918999999995;84.6570053100586;1673431182.8295076;-4.700845718383789;15.35844612121582;-136.91563415527344
370;1673431182.8622665;47.1282826;7.237378199999999;85.04300689697266;1673431183.0262282;-5.414892196655273;14.819262504577637;-136.9934844970703
371;1673431183.0650504;47.1282727;7.2373644;85.42900085449219;1673431183.2281363;-6.588253498077393;14.693462371826172;-137.19442749023438
372;1673431183.2615502;47.128262899999996;7.2373506999999995;85.82000732421875;1673431183.4164305;-6.17358922958374;14.856046676635742;-137.02552795410156
373;1673431183.453245;47.128253;7.237336999999999;86.21300506591797;1673431183.6031165;-5.230601787567139;14.579944610595703;-136.91445922851562
374;1673431183.6402056;47.1282431;7.2373232;86.60700225830078;1673431183.7946744;-4.126263618469238;14.54735279083252;-136.85813903808594
375;1673431183.8339684;47.1282332;7.2373096;87.00300598144531;1673431184.026096;-3.543212413787842;14.601686477661133;-136.76788330078125
376;1673431184.0598552;47.128223299999995;7.237296;87.39800262451172;1673431184.2194855;-3.9653966426849365;14.73809814453125;-136.87586975097656
377;1673431184.2590857;47.1282134;7.2372824;87.79300689697266;1673431184.419039;-5.400763511657715;14.746060371398926;-137.00735473632812
378;1673431184.4592412;47.1282035;7.2372689;88.18800354003906;1673431184.6277673;-6.523735046386719;14.73395824432373;-137.12962341308594
379;1673431184.6625197;47.128193599999996;7.2372552;88.58100128173828;1673431184.8299563;-6.808325290679932;15.009042739868164;-137.12611389160156
380;1673431184.8617783;47.1281836;7.2372416;88.97300720214844;1673431185.020814;-5.811789035797119;14.735936164855957;-136.88815307617188
381;1673431185.054553;47.1281736;7.2372279;89.37000274658203;1673431185.225139;-4.761096954345703;14.81252670288086;-136.85958862304688
382;1673431185.270587;47.1281636;7.2372143;89.76700592041016;1673431185.4347613;-3.5664305686950684;14.991910934448242;-136.83900451660156
383;1673431185.4670198;47.1281536;7.2372007;90.15900421142578;1673431185.6151273;-3.2570338249206543;14.869662284851074;-136.84445190429688
384;1673431185.6502635;47.1281436;7.237187;90.54600524902344;1673431185.8074934;-3.8599839210510254;14.821541786193848;-136.94656372070312
385;1673431185.8436184;47.1281337;7.2371734;90.9330062866211;1673431186.0074596;-4.583755970001221;14.751806259155273;-136.93341064453125
386;1673431186.0426054;47.1281238;7.237159699999999;91.31800079345703;1673431186.203077;-6.3545074462890625;14.596048355102539;-137.05111694335938
387;1673431186.240723;47.1281138;7.2371460999999995;91.70700073242188;1673431186.402115;-6.625434875488281;14.743175506591797;-137.09608459472656
388;1673431186.4401808;47.1281039;7.2371324999999995;92.09800720214844;1673431186.6104426;-5.278065204620361;14.676190376281738;-136.90052795410156
389;1673431186.6461322;47.128093899999996;7.237118799999999;92.49000549316406;1673431186.8106804;-3.890667200088501;14.832181930541992;-136.85496520996094
390;1673431186.8571002;47.1280838;7.2371051;92.88300323486328;1673431187.0189884;-3.013829231262207;14.628274917602539;-136.72900390625
391;1673431187.0565372;47.128073799999996;7.2370915;93.2800064086914;1673431187.2276504;-3.054997444152832;14.57795524597168;-136.73951721191406
392;1673431187.2616205;47.1280638;7.2370779;93.6760025024414;1673431187.410225;-4.064881801605225;14.798237800598145;-136.92127990722656
393;1673431187.4434025;47.1280539;7.2370643999999995;94.07300567626953;1673431187.6141524;-5.5786452293396;14.72204875946045;-137.14915466308594
394;1673431187.6553226;47.128043999999996;7.2370509;94.47100830078125;1673431187.8139062;-6.500807285308838;14.791332244873047;-137.20176696777344
395;1673431187.851972;47.1280341;7.237037399999999;94.87000274658203;1673431188.0326734;-6.060675621032715;14.853970527648926;-137.16136169433594
396;1673431188.0713065;47.1280241;7.237023799999999;95.26700592041016;1673431188.2312887;-4.743447780609131;15.133551597595215;-136.89695739746094
397;1673431188.2666886;47.128014;7.2370103;95.66400146484375;1673431188.4333744;-3.464197874069214;15.2587890625;-136.65292358398438
398;1673431188.467093;47.128004;7.2369967;96.06300354003906;1673431188.614812;-3.1071882247924805;15.042472839355469;-136.5528106689453
399;1673431188.648981;47.127994;7.2369831;96.46000671386719;1673431188.8068187;-3.46622633934021;15.011228561401367;-136.61651611328125
400;1673431188.8439116;47.127984;7.2369695;96.85400390625;1673431189.004156;-4.878948211669922;14.978516578674316;-136.85208129882812
401;1673431189.0383327;47.127974099999996;7.2369559;97.25000762939453;1673431189.2143312;-6.015738487243652;14.915008544921875;-136.9996795654297
402;1673431189.247769;47.1279642;7.2369423;97.64600372314453;1673431189.4259412;-6.158895492553711;15.100133895874023;-137.0829315185547
403;1673431189.466483;47.1279543;7.236928799999999;98.04300689697266;1673431189.6378794;-5.5059709548950195;15.051176071166992;-137.05892944335938
404;1673431189.6711156;47.127944299999996;7.236915199999999;98.44000244140625;1673431189.8307734;-3.99214506149292;15.133190155029297;-136.94384765625
405;1673431189.8674273;47.1279344;7.2369015999999995;98.83600616455078;1673431190.013477;-3.235607385635376;15.075055122375488;-136.84951782226562
406;1673431190.0525792;47.1279245;7.2368879999999995;99.23400115966797;1673431190.2186856;-3.4205644130706787;14.791094779968262;-136.7066650390625
407;1673431190.2548516;47.1279146;7.2368744;99.63400268554688;1673431190.4204018;-4.931792259216309;14.735783576965332;-136.67742919921875
408;1673431190.4594429;47.127904799999996;7.2368608;100.03300476074219;1673431190.6271977;-6.125613689422607;14.65861988067627;-136.88552856445312
409;1673431190.6667957;47.1278949;7.2368472;100.4320068359375;1673431190.830874;-6.5421857833862305;14.752593040466309;-137.03311157226562
410;1673431190.8690095;47.127885;7.2368336;100.8290023803711;1673431191.0298593;-6.254955768585205;15.123154640197754;-137.0712890625
411;1673431191.0684726;47.1278751;7.2368201;101.23100280761719;1673431191.2363102;-4.916825771331787;15.23751449584961;-136.9014892578125
412;1673431191.2717166;47.1278651;7.236806499999999;101.63600158691406;1673431191.434246;-3.7991631031036377;15.16770076751709;-136.8055877685547
413;1673431191.47385;47.1278552;7.236792899999999;102.03900146484375;1673431191.634303;-3.414649486541748;14.949458122253418;-136.73260498046875
414;1673431191.672299;47.1278453;7.236779299999999;102.44000244140625;1673431191.8349066;-4.4222412109375;14.991997718811035;-136.804931640625
415;1673431191.8711922;47.127835499999996;7.2367658;102.84100341796875;1673431192.0300417;-5.977414131164551;14.885050773620605;-137.01866149902344
416;1673431192.0725276;47.127825699999995;7.2367523;103.24400329589844;1673431192.2449424;-6.982107162475586;14.874682426452637;-137.0546417236328
