;pos_time;latitude;longitude;altitude;alt_time;pitch;roll;yaw
0;1673433914.8590343;47.1306425;7.2406197;-0.017000000923871994;1673433914.975833;-0.06829989701509476;-0.8439117074012756;90.45124816894531
1;1673433915.0623314;47.1306425;7.2406197;-0.021000001579523087;1673433915.1852145;-0.00019975633767899126;-0.7787662148475647;90.53337860107422
2;1673433915.272617;47.1306425;7.2406196;-0.023000001907348633;1673433915.37781;0.11432330310344696;-0.711725115776062;90.61868286132812
3;1673433915.4594038;47.1306424;7.2406197;-0.02800000086426735;1673433915.5790324;-0.029992960393428802;-0.43924546241760254;90.45037078857422
4;1673433915.6714747;47.1306424;7.2406197;-0.029000001028180122;1673433915.786461;-0.024164661765098572;-0.4540267288684845;90.39064025878906
5;1673433915.8710704;47.1306424;7.2406197;-0.03100000135600567;1673433915.9921732;0.00491709541529417;-0.7021216154098511;90.42529296875
6;1673433916.0836382;47.1306423;7.2406197;-0.03400000184774399;1673433916.1874688;-0.009940908290445805;-0.05344494432210922;90.32481384277344
7;1673433916.2638419;47.1306423;7.2406197;-0.039000000804662704;1673433916.4119413;-0.0066648367792367935;-0.30175313353538513;90.59447479248047
8;1673433916.5143237;47.1306423;7.2406197;-0.04500000178813934;1673433916.647589;-0.15394632518291473;-0.16085614264011383;90.39777374267578
9;1673433916.7458954;47.1306423;7.2406197;-0.046000003814697266;1673433916.8426924;-0.10802394151687622;-0.433556467294693;90.46427154541016
10;1673433916.9201562;47.1306424;7.2406197;-0.046000003814697266;1673433917.0259185;0.23780012130737305;-0.2091190665960312;90.4324951171875
11;1673433917.1076105;47.1306424;7.2406196;-0.04700000211596489;1673433917.2268605;-0.1714186668395996;-0.46619847416877747;90.6214599609375
12;1673433917.3129523;47.1306425;7.2406196;-0.04700000211596489;1673433917.424747;-0.19431906938552856;-0.14633920788764954;90.50452423095703
13;1673433917.5131202;47.1306425;7.2406196;-0.0430000014603138;1673433917.625523;-0.1564052402973175;-0.4250319302082062;90.40811157226562
14;1673433917.7072437;47.1306425;7.2406196;0.0020000000949949026;1673433917.8124497;-0.054085444658994675;-1.3603007793426514;90.41399383544922
15;1673433917.8893187;47.130642599999995;7.2406196;0.004000000189989805;1673433918.0219526;-0.2942221462726593;-1.0077048540115356;90.58610534667969
16;1673433918.1060445;47.130642599999995;7.2406196;0.006000000052154064;1673433918.2162263;-0.32287299633026123;-1.0346670150756836;90.55303955078125
17;1673433918.2949877;47.130642599999995;7.2406197;0.00800000037997961;1673433918.4066944;-0.20415794849395752;-1.0101816654205322;90.63677215576172
18;1673433918.5006382;47.1306425;7.2406197;0.010000000707805157;1673433918.5997717;-0.24866415560245514;-0.9455586075782776;90.58428955078125
19;1673433918.690782;47.1306425;7.2406197;0.009000000543892384;1673433918.801885;0.023914998397231102;-1.7017771005630493;90.53800201416016
20;1673433918.8786042;47.1306425;7.2406197;0.006000000052154064;1673433918.9973898;0.09245763719081879;-1.662075400352478;90.59176635742188
21;1673433919.0788813;47.1306425;7.2406197;-0.0020000000949949026;1673433919.1974244;0.2237885594367981;-1.7555419206619263;90.88914489746094
22;1673433919.2810993;47.1306425;7.2406197;-0.005000000353902578;1673433919.3930442;0.26015132665634155;-1.4006212949752808;90.43397521972656
23;1673433919.4821742;47.130642599999995;7.2406197;-0.007000000216066837;1673433919.5960546;-0.17284715175628662;-1.1470916271209717;90.35516357421875
24;1673433919.6792362;47.1306425;7.2406197;-0.009000000543892384;1673433919.7988253;-0.12493857741355896;-0.897493302822113;90.2036361694336
25;1673433919.8898485;47.1306425;7.2406197;-0.00800000037997961;1673433920.00796;0.2002386599779129;-0.3447510302066803;90.57947540283203
26;1673433920.0844038;47.130642599999995;7.2406197;-0.0010000000474974513;1673433920.194006;0.31504786014556885;-0.7336276769638062;89.7086181640625
27;1673433920.2804234;47.130642699999996;7.2406197;-0.0010000000474974513;1673433920.3951063;0.24664700031280518;-0.7183239459991455;89.29630279541016
28;1673433920.4824035;47.1306428;7.2406197;-0.005000000353902578;1673433920.598159;0.29359784722328186;-0.4524691104888916;88.4056167602539
29;1673433920.68759;47.1306429;7.2406197;-0.00800000037997961;1673433920.8022408;-0.16784565150737762;-0.07746317982673645;85.08893585205078
30;1673433920.8878522;47.1306431;7.2406196;-0.009000000543892384;1673433921.000672;-0.3168387711048126;0.7652121186256409;78.1873779296875
31;1673433921.0833967;47.1306436;7.2406191;-0.00800000037997961;1673433921.2042549;-0.06253039091825485;5.410281658172607;72.93260192871094
32;1673433921.2815702;47.1306443;7.2406185;0.0;1673433921.4063227;-1.5105189085006714;9.502132415771484;76.84684753417969
33;1673433921.4926095;47.1306453;7.240617599999999;0.009000000543892384;1673433921.6063273;-5.491098880767822;12.972939491271973;79.53124237060547
34;1673433921.6916366;47.130646399999996;7.2406165;0.023000001907348633;1673433921.7989964;-6.5447845458984375;14.704800605773926;80.37744140625
35;1673433921.8788626;47.130647599999996;7.2406152;0.04800000041723251;1673433921.9965453;-7.27834415435791;16.129716873168945;81.05670166015625
36;1673433922.0773659;47.130648799999996;7.2406139;0.08700000494718552;1673433922.1958203;-8.3290433883667;17.6507568359375;81.60121154785156
37;1673433922.2838874;47.130649899999995;7.2406125999999995;0.1380000114440918;1673433922.4007168;-9.597421646118164;19.055320739746094;82.03518676757812
38;1673433922.4941387;47.1306507;7.2406115;0.20000000298023224;1673433922.6079443;-10.986191749572754;20.415185928344727;82.44257354736328
39;1673433922.6857;47.1306513;7.240610599999999;0.2710000276565552;1673433922.801583;-12.367530822753906;21.829740524291992;82.83146667480469
40;1673433922.8898914;47.1306516;7.240609999999999;0.3490000069141388;1673433923.0150678;-13.712198257446289;23.50670051574707;83.19804382324219
41;1673433923.1070344;47.1306515;7.240609999999999;0.43700000643730164;1673433923.2198467;-15.146280288696289;25.037736892700195;83.54092407226562
42;1673433923.317189;47.130651;7.2406104;0.5370000004768372;1673433923.4353518;-16.077049255371094;25.32517433166504;84.06285095214844
43;1673433923.5040348;47.1306501;7.2406114;0.6460000276565552;1673433923.6264238;-14.669228553771973;23.26814079284668;84.66864013671875
44;1673433923.7159705;47.130648699999995;7.2406128;0.7600000500679016;1673433923.8281615;-13.030691146850586;21.035110473632812;84.9752197265625
45;1673433923.912643;47.1306472;7.240614399999999;0.8820000290870667;1673433924.0274532;-11.014226913452148;17.181827545166016;85.41460418701172
46;1673433924.1105232;47.130645699999995;7.2406162;1.0130000114440918;1673433924.22647;-8.931604385375977;12.354604721069336;85.7685317993164
47;1673433924.3168643;47.1306443;7.2406177;1.1540000438690186;1673433924.4354413;-7.197815895080566;13.98228931427002;84.7850112915039
48;1673433924.5264833;47.130643299999996;7.240619;1.311000108718872;1673433924.6452544;-6.077378749847412;11.812155723571777;84.53089904785156
49;1673433924.7530503;47.130642599999995;7.2406198999999996;1.4810000658035278;1673433924.8627245;-6.181412220001221;10.105619430541992;84.61552429199219
50;1673433924.9667287;47.1306423;7.2406204;1.665000081062317;1673433925.1005301;-6.1759419441223145;14.41961669921875;79.60174560546875
51;1673433925.1798875;47.1306422;7.2406204999999995;1.8620001077651978;1673433925.2873063;-6.489972114562988;16.1614990234375;80.08185577392578
52;1673433925.3697371;47.1306422;7.2406204;2.064000129699707;1673433925.4677742;-7.663739204406738;13.193500518798828;80.84623718261719
53;1673433925.541189;47.1306423;7.2406201;2.263000011444092;1673433925.6576624;-8.742395401000977;15.73563003540039;80.72010803222656
54;1673433925.7336264;47.1306424;7.2406197;2.4610002040863037;1673433925.8551128;-8.921076774597168;18.83636474609375;80.48292541503906
55;1673433925.9325926;47.130642599999995;7.2406194;2.6640000343322754;1673433926.0586615;-9.381331443786621;16.32854461669922;81.04786682128906
56;1673433926.1481726;47.1306428;7.240619199999999;2.869000196456909;1673433926.2577534;-9.904501914978027;16.232690811157227;81.1148681640625
57;1673433926.332615;47.130643;7.2406191;3.073000192642212;1673433926.4484608;-9.286357879638672;20.2492733001709;80.62242126464844
58;1673433926.5300548;47.130643;7.2406191;3.2750000953674316;1673433926.6784723;-9.035054206848145;17.881515502929688;80.97579193115234
59;1673433926.7670748;47.130643;7.240619199999999;3.4760000705718994;1673433926.8730717;-9.339448928833008;15.619369506835938;80.94754028320312
60;1673433926.949226;47.1306429;7.2406193;3.6730000972747803;1673433927.0540473;-8.7654447555542;19.169513702392578;80.7523422241211
61;1673433927.1394148;47.1306428;7.240619499999999;3.875000238418579;1673433927.2554195;-8.333884239196777;17.290414810180664;80.64802551269531
62;1673433927.3441992;47.130642699999996;7.2406197;4.082000255584717;1673433927.4390926;-8.302179336547852;15.298101425170898;81.13201904296875
63;1673433927.5172205;47.130642699999996;7.240619799999999;4.2900004386901855;1673433927.6262794;-8.137482643127441;17.39772605895996;80.83224487304688
64;1673433927.7067873;47.130642699999996;7.2406198999999996;4.49500036239624;1673433927.8103805;-7.768106937408447;18.88360595703125;80.52234649658203
65;1673433927.9110994;47.130642599999995;7.24062;4.697000026702881;1673433928.0262268;-8.152207374572754;14.5636568069458;81.09349060058594
66;1673433928.1127775;47.1306425;7.24062;4.895000457763672;1673433928.2303503;-8.628802299499512;16.447084426879883;80.84452819824219
67;1673433928.31262;47.1306424;7.24062;5.088000297546387;1673433928.4347737;-8.005668640136719;18.411394119262695;80.52628326416016
68;1673433928.5152853;47.1306424;7.24062;5.283000469207764;1673433928.632839;-8.2217435836792;15.25160026550293;81.00989532470703
69;1673433928.716433;47.1306425;7.2406198999999996;5.482000350952148;1673433928.830273;-8.687414169311523;15.990303993225098;80.98978424072266
70;1673433928.915786;47.130642599999995;7.2406198999999996;5.681000232696533;1673433929.0230029;-8.14141845703125;19.59978675842285;80.57027435302734
71;1673433929.0979755;47.130642699999996;7.2406198999999996;5.879000186920166;1673433929.2049215;-7.965096473693848;16.79726219177246;80.86063385009766
72;1673433929.2814949;47.130642699999996;7.2406198999999996;6.074000358581543;1673433929.3916628;-8.64122486114502;15.147634506225586;81.03935241699219
73;1673433929.4829013;47.130642699999996;7.2406198999999996;6.26800012588501;1673433929.606405;-8.497053146362305;18.36224937438965;80.66323852539062
74;1673433929.6986916;47.130642699999996;7.2406198999999996;6.460000514984131;1673433929.8143408;-8.10002326965332;18.19243621826172;80.5544204711914
75;1673433929.9010277;47.130642699999996;7.240619799999999;6.653000354766846;1673433930.0231822;-8.290570259094238;15.398805618286133;81.1266860961914
76;1673433930.111198;47.1306428;7.240619799999999;6.849000453948975;1673433930.2262218;-8.4517183303833;17.594449996948242;80.79887390136719
77;1673433930.3143632;47.1306429;7.240619799999999;7.0450005531311035;1673433930.4235234;-8.159995079040527;20.01911735534668;80.62646484375
78;1673433930.5101194;47.1306429;7.2406198999999996;7.242000579833984;1673433930.6386957;-8.24842643737793;15.319788932800293;81.1277847290039
79;1673433930.7265975;47.1306429;7.2406198999999996;7.439000129699707;1673433930.8451612;-8.748848915100098;16.471923828125;80.95870208740234
80;1673433930.9422882;47.1306428;7.2406198999999996;7.63800048828125;1673433931.0673716;-7.939880847930908;19.353670120239258;80.4300537109375
81;1673433931.183095;47.130642699999996;7.2406198999999996;7.840000152587891;1673433931.29304;-7.93734884262085;16.323333740234375;80.75118255615234
82;1673433931.3786206;47.130642699999996;7.2406198999999996;8.041000366210938;1673433931.5063004;-8.510334014892578;15.13415813446045;81.11385345458984
83;1673433931.5767705;47.1306428;7.2406198999999996;8.23900032043457;1673433931.6694143;-8.149605751037598;19.016767501831055;80.48599243164062
84;1673433931.7507849;47.1306429;7.2406198999999996;8.4350004196167;1673433931.8669794;-8.050775527954102;18.58307647705078;80.90119171142578
85;1673433931.9411914;47.1306429;7.2406198999999996;8.62700080871582;1673433932.0498369;-8.429743766784668;14.65749454498291;81.13079833984375
86;1673433932.1272128;47.1306428;7.2406198999999996;8.818000793457031;1673433932.2320786;-8.456852912902832;18.21324920654297;80.68974304199219
87;1673433932.3167338;47.1306428;7.24062;9.011000633239746;1673433932.4273632;-7.746703624725342;18.2085018157959;80.6266098022461
88;1673433932.510016;47.1306428;7.24062;9.208000183105469;1673433932.6259282;-8.009659767150879;15.537181854248047;81.027587890625
89;1673433932.733368;47.1306429;7.24062;9.406000137329102;1673433932.8416274;-8.383033752441406;16.84377670288086;80.91949462890625
90;1673433932.9257088;47.130643;7.24062;9.60300064086914;1673433933.0405629;-7.623678207397461;20.048343658447266;80.4542236328125
91;1673433933.122794;47.130643;7.24062;9.79900074005127;1673433933.2465832;-7.901917934417725;16.799827575683594;80.89104461669922
92;1673433933.3325229;47.1306429;7.24062;9.994000434875488;1673433933.449431;-8.277283668518066;15.140437126159668;80.9599609375
93;1673433933.537482;47.1306429;7.2406198999999996;10.201000213623047;1673433933.6562135;-7.913942337036133;17.591838836669922;80.66058349609375
94;1673433933.7408679;47.130642699999996;7.24062;10.506000518798828;1673433933.8616507;-8.70704460144043;19.564132690429688;80.53195190429688
95;1673433933.9419165;47.1306425;7.2406201999999995;10.878000259399414;1673433934.0617814;-8.569167137145996;16.25811004638672;81.26896667480469
96;1673433934.1779912;47.1306423;7.2406204;11.267000198364258;1673433934.3054857;-7.917715549468994;16.65583038330078;81.00543212890625
97;1673433934.3759031;47.130642099999996;7.2406207;11.664000511169434;1673433934.4819;-6.8658552169799805;17.735597610473633;80.65968322753906
98;1673433934.5634677;47.1306419;7.2406209;12.065000534057617;1673433934.665632;-7.265089988708496;13.86430835723877;80.92552185058594
99;1673433934.746372;47.1306417;7.2406209;12.464000701904297;1673433934.8499362;-7.39693546295166;14.218401908874512;80.85417938232422
100;1673433934.9293165;47.1306416;7.240621;12.86400032043457;1673433935.0384445;-7.133431911468506;17.65244483947754;80.6717529296875
101;1673433935.12043;47.1306416;7.2406209;13.267000198364258;1673433935.2422833;-7.284183979034424;16.238447189331055;80.81043243408203
102;1673433935.3232713;47.1306416;7.240620799999999;13.667000770568848;1673433935.4469686;-7.862272262573242;14.193415641784668;81.08650207519531
103;1673433935.5319612;47.1306418;7.2406206;14.063000679016113;1673433935.642245;-8.019386291503906;17.481212615966797;80.7134780883789
104;1673433935.7661386;47.130641999999995;7.2406204;14.454000473022461;1673433935.8999362;-7.611009120941162;18.455385208129883;80.64153289794922
105;1673433935.984939;47.130642099999996;7.2406203;14.840001106262207;1673433936.1287923;-8.114706993103027;15.153508186340332;80.98162841796875
106;1673433936.193338;47.1306422;7.2406201999999995;15.230000495910645;1673433936.3190415;-8.369836807250977;16.933534622192383;80.68770599365234
107;1673433936.39044;47.1306423;7.2406201;15.618000984191895;1673433936.4985;-8.034414291381836;19.35552406311035;80.62812042236328
108;1673433936.5708969;47.1306422;7.24062;16.011001586914062;1673433936.6706629;-7.977256774902344;16.291643142700195;80.91706085205078
109;1673433936.7761216;47.1306422;7.24062;16.407001495361328;1673433936.8792417;-8.473691940307617;15.361040115356445;81.01119232177734
110;1673433936.9625103;47.1306422;7.24062;16.801000595092773;1673433937.0702586;-7.691684722900391;18.636526107788086;80.48998260498047
111;1673433937.1511369;47.1306422;7.2406201;17.19700050354004;1673433937.248217;-7.445337772369385;17.117647171020508;80.8107681274414
112;1673433937.3284883;47.1306422;7.2406201999999995;17.59000015258789;1673433937.4492893;-7.79986572265625;14.458456039428711;81.07328796386719
113;1673433937.5283003;47.1306422;7.2406201999999995;17.98000144958496;1673433937.6509056;-7.886557102203369;17.73227882385254;80.60860443115234
114;1673433937.7272232;47.1306422;7.2406201999999995;18.3700008392334;1673433937.855957;-7.237298965454102;18.192670822143555;80.62980651855469
115;1673433937.9586396;47.130642099999996;7.2406201999999995;18.763999938964844;1673433938.0696852;-7.777381420135498;14.783702850341797;80.98798370361328
116;1673433938.1543643;47.130642099999996;7.2406201;19.160001754760742;1673433938.2716691;-7.9597039222717285;15.849031448364258;80.94651794433594
117;1673433938.3501914;47.130642099999996;7.2406201;19.556001663208008;1673433938.4633756;-7.594522953033447;18.69332504272461;80.55257415771484
118;1673433938.5474284;47.1306422;7.24062;19.946001052856445;1673433938.6691616;-7.567605018615723;16.250289916992188;80.8942642211914
119;1673433938.7520442;47.1306423;7.24062;20.34200096130371;1673433938.8539479;-8.127978324890137;15.197304725646973;81.02742767333984
120;1673433938.9367967;47.1306423;7.24062;20.737001419067383;1673433939.0917366;-7.6225762367248535;18.760643005371094;80.66242218017578
121;1673433939.1669233;47.1306423;7.24062;21.132001876831055;1673433939.2697957;-7.548323154449463;17.13041877746582;80.68035888671875
122;1673433939.343213;47.1306423;7.2406198999999996;21.527000427246094;1673433939.446239;-8.080119132995605;15.055802345275879;81.05536651611328
123;1673433939.5382252;47.1306423;7.240619799999999;21.92300033569336;1673433939.6483355;-8.03718376159668;17.549379348754883;80.70924377441406
124;1673433939.7382767;47.1306424;7.2406197;22.317001342773438;1673433939.8467846;-7.499284267425537;18.949668884277344;80.54561614990234
125;1673433939.9418275;47.1306425;7.2406197;22.70800018310547;1673433940.0515914;-7.864864349365234;14.850914001464844;81.12181091308594
126;1673433940.1398234;47.1306425;7.2406197;23.10300064086914;1673433940.2495673;-8.13955020904541;16.47270965576172;80.90361022949219
127;1673433940.3311343;47.1306425;7.2406197;23.503000259399414;1673433940.4423792;-7.50713586807251;19.305377960205078;80.59369659423828
128;1673433940.5216725;47.1306424;7.2406197;23.904001235961914;1673433940.63776;-7.519016742706299;16.015779495239258;80.74974822998047
129;1673433940.7276425;47.1306424;7.2406197;24.30500030517578;1673433940.8438413;-8.127837181091309;15.475194931030273;81.05862426757812
130;1673433940.9388075;47.1306424;7.2406196;24.7080020904541;1673433941.0477276;-7.835642337799072;18.374534606933594;80.6333999633789
131;1673433941.1393447;47.1306424;7.2406196;25.10500144958496;1673433941.2595892;-7.435217380523682;17.495988845825195;80.68185424804688
132;1673433941.3353865;47.1306425;7.2406196;25.503000259399414;1673433941.4453819;-7.95062255859375;14.891753196716309;81.1092300415039
133;1673433941.5231001;47.1306425;7.240619499999999;25.90300178527832;1673433941.6314855;-8.068232536315918;17.663808822631836;80.74934387207031
134;1673433941.7207558;47.1306425;7.240619499999999;26.304000854492188;1673433941.8422785;-7.472754955291748;19.065393447875977;80.56839752197266
135;1673433941.931682;47.1306424;7.240619499999999;26.707000732421875;1673433942.0663722;-7.726758003234863;15.501481056213379;80.75188446044922
136;1673433942.153522;47.1306423;7.2406196;27.108001708984375;1673433942.2572498;-8.194546699523926;15.613456726074219;81.05928039550781
137;1673433942.3466554;47.1306423;7.2406196;27.50800132751465;1673433942.4602728;-7.544391632080078;18.638154983520508;80.59559631347656
138;1673433942.53807;47.1306424;7.2406196;27.902000427246094;1673433942.637373;-7.310055732727051;17.254425048828125;80.7204360961914
139;1673433942.7170117;47.1306425;7.2406196;28.30000114440918;1673433942.8229802;-8.043978691101074;14.97021484375;81.19837188720703
140;1673433942.9035609;47.1306425;7.2406196;28.70400047302246;1673433943.0232587;-7.909335613250732;18.400442123413086;80.76319885253906
141;1673433943.114368;47.1306425;7.240619499999999;29.104001998901367;1673433943.274806;-7.422997951507568;18.793161392211914;80.62519836425781
142;1673433943.3540683;47.1306424;7.2406196;29.506000518798828;1673433943.467707;-7.7284464836120605;15.069206237792969;80.97467803955078
143;1673433943.546398;47.1306423;7.240619499999999;29.904001235961914;1673433943.6514876;-8.375287055969238;16.43073081970215;80.9020767211914
144;1673433943.7388148;47.1306423;7.240619499999999;30.298002243041992;1673433943.8601203;-7.611972332000732;18.67569923400879;80.59469604492188
145;1673433943.9445887;47.1306423;7.240619499999999;30.700000762939453;1673433944.0521;-7.65977144241333;16.027481079101562;80.8089599609375
146;1673433944.1326206;47.1306423;7.240619499999999;31.10500144958496;1673433944.252231;-8.087928771972656;15.440154075622559;80.98929595947266
147;1673433944.334358;47.1306423;7.240619499999999;31.507001876831055;1673433944.450986;-7.793595314025879;19.08970069885254;80.58614349365234
148;1673433944.5278604;47.1306423;7.2406196;31.908000946044922;1673433944.6601467;-7.4653120040893555;16.767295837402344;80.76272583007812
149;1673433944.7781358;47.1306422;7.2406196;32.31100082397461;1673433944.8818245;-7.965797424316406;15.327471733093262;80.92608642578125
150;1673433944.9583504;47.1306422;7.2406196;32.7140007019043;1673433945.1069417;-7.975621700286865;17.383901596069336;80.8581314086914
151;1673433945.2072134;47.1306423;7.2406196;33.1140022277832;1673433945.3056483;-7.4351019859313965;18.385955810546875;80.57222747802734
152;1673433945.3726447;47.1306423;7.2406196;33.51700210571289;1673433945.4722552;-7.677358627319336;15.529979705810547;81.01213836669922
153;1673433945.5539405;47.1306424;7.2406196;33.92100143432617;1673433945.6969135;-8.075716018676758;15.885213851928711;80.97208404541016
154;1673433945.7638056;47.1306425;7.2406197;34.32400131225586;1673433945.8616743;-7.621946811676025;19.303613662719727;80.6123275756836
155;1673433945.946411;47.1306425;7.2406197;34.72800064086914;1673433946.0611546;-7.488535404205322;16.392757415771484;80.8239974975586
156;1673433946.1454778;47.1306424;7.2406197;35.130001068115234;1673433946.2576215;-7.97149133682251;15.256867408752441;80.95513916015625
157;1673433946.3517783;47.1306424;7.2406197;35.52400207519531;1673433946.4615266;-7.95807409286499;18.503150939941406;80.62283325195312
158;1673433946.5434191;47.1306424;7.2406197;35.92100143432617;1673433946.6544375;-7.362842082977295;17.470592498779297;80.68258666992188
159;1673433946.7535546;47.1306424;7.2406197;36.32500076293945;1673433946.8703094;-7.876870632171631;14.997076034545898;81.01753997802734
160;1673433946.958314;47.1306425;7.2406197;36.730003356933594;1673433947.0760174;-7.89335823059082;17.1837158203125;80.7110366821289
161;1673433947.154827;47.130642599999995;7.240619799999999;37.13199996948242;1673433947.266902;-7.285720348358154;19.465755462646484;80.62472534179688
162;1673433947.35816;47.130642599999995;7.240619799999999;37.534000396728516;1673433947.4722078;-7.446934223175049;15.919073104858398;80.89556121826172
163;1673433947.5594518;47.130642599999995;7.240619799999999;37.93400192260742;1673433947.7174675;-7.9645586013793945;15.972758293151855;80.8499984741211
164;1673433947.8098543;47.130642599999995;7.240619799999999;38.327003479003906;1673433947.9137743;-7.683326244354248;19.043350219726562;80.634033203125
165;1673433947.992181;47.130642599999995;7.240619799999999;38.720001220703125;1673433948.0951412;-7.259825706481934;16.964092254638672;80.80110931396484
166;1673433948.167318;47.130642599999995;7.2406197;39.11900329589844;1673433948.3146243;-8.0023193359375;15.052251815795898;81.02579498291016
167;1673433948.4059398;47.130642699999996;7.2406197;39.51900100708008;1673433948.5092103;-7.732605934143066;18.667970657348633;80.60913848876953
168;1673433948.5833843;47.1306428;7.2406196;39.92100143432617;1673433948.7372265;-7.4716620445251465;19.31003761291504;80.7299575805664
169;1673433948.8127446;47.130642699999996;7.2406196;40.323001861572266;1673433948.9474223;-7.70927095413208;15.098315238952637;80.97187805175781
170;1673433949.0171285;47.130642599999995;7.2406196;40.717002868652344;1673433949.1183167;-8.01991081237793;16.496559143066406;80.84367370605469
171;1673433949.211709;47.1306425;7.2406196;41.112003326416016;1673433949.3129487;-7.579202651977539;18.781585693359375;80.51960754394531
172;1673433949.3838263;47.1306425;7.2406196;41.51100158691406;1673433949.4927084;-7.628920555114746;16.087862014770508;80.89078521728516
173;1673433949.569864;47.130642599999995;7.2406196;41.913002014160156;1673433949.6810644;-7.982968330383301;15.512649536132812;81.08943939208984
174;1673433949.7714157;47.130642699999996;7.2406197;42.31500244140625;1673433949.8780959;-7.3687944412231445;19.0865478515625;80.51677703857422
175;1673433949.965446;47.1306428;7.2406196;42.717002868652344;1673433950.073627;-7.231139659881592;18.0369930267334;80.79096984863281
176;1673433950.1474593;47.1306428;7.2406196;43.11600112915039;1673433950.2693865;-7.8012189865112305;15.064920425415039;81.03987884521484
177;1673433950.3497317;47.130642699999996;7.2406196;43.50600051879883;1673433950.4568627;-7.943215847015381;17.803770065307617;80.78289794921875
178;1673433950.5372992;47.130642699999996;7.240619499999999;43.900001525878906;1673433950.6523438;-7.396318435668945;18.696043014526367;80.4859619140625
179;1673433950.7476661;47.130642699999996;7.240619499999999;44.30000305175781;1673433950.8622763;-7.635619163513184;15.747841835021973;81.03781127929688
180;1673433950.9400415;47.1306428;7.240619499999999;44.702003479003906;1673433951.0674114;-8.022536277770996;16.745882034301758;80.92324829101562
181;1673433951.1545508;47.1306429;7.240619499999999;45.10600280761719;1673433951.25992;-7.3187575340271;19.706857681274414;80.52610778808594
182;1673433951.3517988;47.1306429;7.240619499999999;45.509002685546875;1673433951.4646535;-7.4878315925598145;16.99774742126465;80.88294219970703
183;1673433951.5462456;47.1306429;7.240619499999999;45.90300369262695;1673433951.6578052;-7.963726043701172;15.380032539367676;81.03089904785156
184;1673433951.7431548;47.1306429;7.240619499999999;46.29600143432617;1673433951.868395;-7.7458577156066895;18.988811492919922;80.55106353759766
185;1673433951.9606278;47.1306428;7.2406194;46.69300079345703;1673433952.0782561;-7.502082347869873;17.596019744873047;80.56768798828125
186;1673433952.1601114;47.130642699999996;7.2406194;47.09300231933594;1673433952.2769444;-8.137979507446289;15.566878318786621;81.09840393066406
187;1673433952.362398;47.130642699999996;7.2406193;47.49500274658203;1673433952.4726114;-8.012970924377441;17.348400115966797;80.79483795166016
188;1673433952.5700214;47.130642699999996;7.2406193;47.900001525878906;1673433952.7023435;-7.237946033477783;19.00857162475586;80.70537567138672
189;1673433952.775563;47.1306428;7.2406193;48.28200149536133;1673433952.8741772;-8.100865364074707;15.794696807861328;81.26760864257812
190;1673433952.9499598;47.1306428;7.2406193;48.60300064086914;1673433953.0689774;-8.015257835388184;17.144611358642578;80.96209716796875
191;1673433953.1582887;47.1306428;7.240619199999999;48.87200164794922;1673433953.27874;-7.4866132736206055;18.971837997436523;80.65092468261719
192;1673433953.358802;47.1306429;7.2406191;49.10000228881836;1673433953.4789894;-7.902116775512695;16.2824764251709;80.82894897460938
193;1673433953.5549505;47.130643199999994;7.240618899999999;49.2920036315918;1673433953.6754975;-2.291175127029419;21.07744598388672;82.09729766845703
194;1673433953.758353;47.130643299999996;7.2406185;49.454002380371094;1673433953.8800812;14.714144706726074;37.637786865234375;92.9885025024414
195;1673433953.9636352;47.1306428;7.2406169;49.599002838134766;1673433954.0781472;21.544645309448242;50.55106735229492;104.1939926147461
196;1673433954.1507962;47.1306406;7.240612199999999;49.717002868652344;1673433954.2706156;19.522361755371094;57.76947784423828;112.8570556640625
197;1673433954.3628473;47.1306363;7.2406039;49.80800247192383;1673433954.4844654;4.147614479064941;56.86467361450195;121.68624877929688
198;1673433954.572564;47.130629899999995;7.2405922;49.85000228881836;1673433954.7011302;-9.885758399963379;55.14264678955078;130.70297241210938
199;1673433954.7802463;47.1306219;7.2405778;49.87600326538086;1673433954.8917892;-23.560897827148438;50.01017761230469;141.43899536132812
200;1673433954.970581;47.1306124;7.240561199999999;49.89800262451172;1673433955.0898263;-37.793907165527344;45.69940185546875;153.82090759277344
201;1673433955.1757398;47.1306015;7.2405424;49.91200256347656;1673433955.2910101;-49.144222259521484;43.40373611450195;166.09194946289062
202;1673433955.3664997;47.130589199999996;7.2405215;49.89400100708008;1673433955.4669807;-47.447689056396484;30.232830047607422;177.3538360595703
203;1673433955.5397742;47.1305762;7.2404987;49.832000732421875;1673433955.650685;-42.45290756225586;21.658966064453125;-177.09817504882812
204;1673433955.7428932;47.1305628;7.2404747;49.75600051879883;1673433955.8633265;-45.606449127197266;16.983383178710938;-170.65390014648438
205;1673433955.943286;47.130548999999995;7.24045;49.689002990722656;1673433956.059663;-46.688514709472656;9.53164291381836;-161.62245178222656
206;1673433956.1493988;47.1305349;7.2404246;49.64200210571289;1673433956.2687073;-45.499473571777344;4.993264675140381;-154.98838806152344
207;1673433956.3533845;47.1305207;7.2403989;49.61600112915039;1673433956.4766562;-47.022743225097656;-1.4220638275146484;-148.19528198242188
208;1673433956.5721352;47.130506399999994;7.2403729;49.61300277709961;1673433956.6818135;-46.10682678222656;-8.955979347229004;-148.8508758544922
209;1673433956.761714;47.130491899999996;7.2403474999999995;49.59300231933594;1673433956.8663032;-38.90300750732422;-4.898041248321533;-163.94747924804688
210;1673433956.950805;47.1304774;7.2403233;49.55800247192383;1673433957.072587;-33.36576843261719;-1.002367615699768;-176.2545166015625
211;1673433957.157117;47.130463299999995;7.240300599999999;49.531002044677734;1673433957.2752619;-34.790283203125;2.2047243118286133;174.395751953125
212;1673433957.364692;47.1304496;7.2402798;49.52100372314453;1673433957.4831455;-38.06676483154297;2.7485148906707764;165.37399291992188
213;1673433957.5559602;47.1304362;7.240260999999999;49.5410041809082;1673433957.6610122;-41.72176742553711;11.073776245117188;154.7158966064453
214;1673433957.7495306;47.1304228;7.2402443;49.59800338745117;1673433957.866758;-46.04643249511719;13.903839111328125;146.71823120117188
215;1673433957.9574237;47.1304091;7.2402299999999995;49.678001403808594;1673433958.0665655;-44.55891036987305;14.829171180725098;137.316650390625
216;1673433958.1468813;47.130395;7.2402184;49.76700210571289;1673433958.2739737;-35.210052490234375;-5.183051586151123;127.21188354492188
217;1673433958.3603244;47.1303815;7.240209699999999;49.86300277709961;1673433958.4783876;-33.732513427734375;-25.875349044799805;128.89659118652344
218;1673433958.557663;47.1303701;7.2402045;49.941001892089844;1673433958.7031987;-19.768226623535156;-42.96512985229492;140.05615234375
219;1673433958.787385;47.130361799999996;7.2402028;49.98100280761719;1673433958.8985782;-2.1463570594787598;-39.01401138305664;152.554443359375
220;1673433959.0260305;47.1303568;7.240203999999999;50.01700210571289;1673433959.1342306;5.227695941925049;-20.135257720947266;166.0305938720703
221;1673433959.2076066;47.1303543;7.240206799999999;50.06100082397461;1673433959.3161793;-17.911100387573242;19.9278507232666;171.8566131591797
222;1673433959.3890035;47.130353;7.240208699999999;50.105003356933594;1673433959.496285;-45.99238586425781;44.13274002075195;177.4546356201172
223;1673433959.573893;47.1303512;7.2402069;50.112003326416016;1673433959.6865325;-41.80487060546875;22.83738136291504;-159.39300537109375
224;1673433959.767311;47.130348399999995;7.240200499999999;50.066001892089844;1673433959.883769;-39.92713165283203;18.994970321655273;-158.01243591308594
225;1673433959.9715068;47.1303452;7.2401905;50.04500198364258;1673433960.0869448;-51.47964859008789;7.921125411987305;-148.9281768798828
226;1673433960.1798246;47.130341;7.2401772;50.07100296020508;1673433960.2924852;-59.962364196777344;-6.3405442237854;-138.60989379882812
227;1673433960.3747122;47.1303349;7.2401605;50.108001708984375;1673433960.4907804;-55.79533386230469;-15.72751235961914;-134.5597686767578
228;1673433960.570618;47.1303268;7.2401414;50.1400032043457;1673433960.6813347;-53.048213958740234;-16.512338638305664;-136.98684692382812
229;1673433960.7678337;47.130316699999995;7.2401212;50.1670036315918;1673433960.8773072;-55.823883056640625;-14.158416748046875;-138.7801971435547
230;1673433960.9596283;47.130305;7.240100099999999;50.19000244140625;1673433961.082213;-54.328330993652344;-14.591257095336914;-141.3134765625
231;1673433961.173938;47.130291899999996;7.2400785;50.211002349853516;1673433961.2893403;-53.749481201171875;-11.256455421447754;-150.51864624023438
232;1673433961.3837693;47.1302776;7.2400568;50.211002349853516;1673433961.4891458;-51.24232482910156;-3.580916404724121;-160.5581512451172
233;1673433961.5640285;47.1302625;7.2400356;50.19400405883789;1673433961.6718287;-47.11448287963867;3.305605173110962;-169.47128295898438
234;1673433961.7511141;47.130246799999995;7.240014899999999;50.16800308227539;1673433961.8658988;-44.4055061340332;9.744467735290527;-178.16175842285156
235;1673433961.9470372;47.1302309;7.2399948;50.137001037597656;1673433962.0632045;-40.363948822021484;15.630011558532715;172.81610107421875
236;1673433962.1521842;47.130215;7.239975299999999;50.10400390625;1673433962.279679;-36.3182373046875;20.10568618774414;163.97291564941406
237;1673433962.3622057;47.1301993;7.2399561;50.064002990722656;1673433962.4761815;-31.19875144958496;23.057374954223633;154.25306701660156
238;1673433962.547649;47.1301838;7.2399375;50.025001525878906;1673433962.6638052;-32.60805130004883;29.19785499572754;150.22097778320312
239;1673433962.7543237;47.1301686;7.2399192999999995;50.00600051879883;1673433962.8800333;-35.10738754272461;32.05887985229492;163.7366943359375
240;1673433962.9674687;47.1301534;7.239900899999999;50.00200271606445;1673433963.07724;-44.236724853515625;27.899707794189453;-176.74737548828125
241;1673433963.1645155;47.1301384;7.239881;50.00100326538086;1673433963.2706373;-46.03931427001953;20.817461013793945;-165.61181640625
242;1673433963.3482356;47.1301237;7.239859399999999;49.999000549316406;1673433963.4660227;-46.70683670043945;14.456060409545898;-158.10409545898438
243;1673433963.5466154;47.1301093;7.2398362;49.99400329589844;1673433963.6643157;-46.46794128417969;6.441641330718994;-149.83969116210938
244;1673433963.7508821;47.130095;7.239811899999999;50.000003814697266;1673433963.8691628;-47.31715774536133;-5.554414749145508;-142.71926879882812
245;1673433963.9561646;47.130080799999995;7.2397868999999995;50.0150032043457;1673433964.088946;-47.56037521362305;-8.790495872497559;-152.2920684814453
246;1673433964.1644459;47.1300664;7.2397621999999995;50.01000213623047;1673433964.269067;-43.07341003417969;-3.090528726577759;-167.8539276123047
247;1673433964.3589087;47.130051599999994;7.2397386;50.000003814697266;1673433964.4746263;-42.962276458740234;2.408231019973755;-178.01617431640625
248;1673433964.558983;47.1300367;7.2397168;49.992000579833984;1673433964.672735;-41.7912483215332;8.29132080078125;172.6192626953125
249;1673433964.7687354;47.130021799999994;7.2396964;49.980003356933594;1673433964.89225;-40.4770393371582;14.274662971496582;162.9813690185547
250;1673433964.9842558;47.1300069;7.2396774;49.965003967285156;1673433965.1069865;-39.42551040649414;20.44557762145996;153.11045837402344
251;1673433965.1834393;47.1299919;7.239659499999999;49.954002380371094;1673433965.2855134;-36.05595016479492;25.49529457092285;143.30921936035156
252;1673433965.364218;47.129976799999994;7.239643;49.95100402832031;1673433965.4746447;-31.003124237060547;33.47699737548828;133.4059295654297
253;1673433965.5523403;47.129961599999994;7.2396274;49.95900344848633;1673433965.6573138;-28.956544876098633;41.86141586303711;124.3974380493164
254;1673433965.7436786;47.1299461;7.2396126;49.98600387573242;1673433965.8595912;-23.189685821533203;45.033958435058594;126.52384948730469
255;1673433965.9430418;47.129930099999996;7.239598;49.987003326416016;1673433966.062832;-20.46750831604004;40.14012908935547;144.99314880371094
256;1673433966.1482456;47.129914199999995;7.239582599999999;49.98500061035156;1673433966.2642891;-25.35392951965332;39.150169372558594;162.6805877685547
257;1673433966.3475945;47.1298987;7.2395653;50.009002685546875;1673433966.464286;-27.0939884185791;44.43326187133789;171.82839965820312
258;1673433966.5505853;47.129884;7.239545799999999;50.01900100708008;1673433966.657801;-36.73005294799805;38.33457565307617;179.7849884033203
259;1673433966.739363;47.1298701;7.2395236;50.00100326538086;1673433966.8563178;-42.83055114746094;23.1306209564209;-169.70176696777344
260;1673433966.9396756;47.1298567;7.239499599999999;49.99100112915039;1673433967.0671117;-47.806922912597656;18.574045181274414;-163.39657592773438
261;1673433967.1665354;47.1298435;7.2394742;49.99700164794922;1673433967.2717986;-49.92855453491211;8.063847541809082;-153.77505493164062
262;1673433967.3598945;47.1298301;7.2394476;50.009002685546875;1673433967.4867523;-52.362972259521484;-4.185495853424072;-145.96026611328125
263;1673433967.579684;47.129816299999995;7.2394205;50.012001037597656;1673433967.6904736;-44.16535949707031;-5.687684535980225;-158.5203399658203
264;1673433967.7748644;47.1298021;7.239394;49.98100280761719;1673433967.882841;-36.185089111328125;-2.2153804302215576;-173.23782348632812
265;1673433967.9555614;47.129788;7.239369099999999;49.939002990722656;1673433968.0754921;-34.29351806640625;1.1280001401901245;176.3237762451172
266;1673433968.1796095;47.1297741;7.239346299999999;49.90700149536133;1673433968.2943785;-37.59737014770508;6.2726263999938965;166.35777282714844
267;1673433968.3770149;47.1297606;7.2393256;49.897003173828125;1673433968.486595;-44.187957763671875;11.078110694885254;157.28924560546875
268;1673433968.5603507;47.1297469;7.2393073;49.91400146484375;1673433968.6724339;-45.03827667236328;19.0352725982666;146.97036743164062
269;1673433968.772887;47.1297327;7.2392911;49.93800354003906;1673433968.8818128;-44.89752197265625;25.472055435180664;137.80897521972656
270;1673433968.9689984;47.129717899999996;7.239276899999999;49.96200180053711;1673433969.0937276;-40.335411071777344;28.712017059326172;129.60923767089844
271;1673433969.175162;47.129702599999995;7.239264599999999;49.9890022277832;1673433969.320596;-42.60200881958008;36.65147399902344;123.69727325439453
272;1673433969.412336;47.1296867;7.239254;50.02000427246094;1673433969.5350375;-41.11893081665039;36.69779586791992;127.85076904296875
273;1673433969.611203;47.12967;7.2392446999999995;50.03400421142578;1673433969.7199717;-42.79228591918945;32.620540618896484;141.20704650878906
274;1673433969.7981188;47.1296526;7.239235799999999;50.04300308227539;1673433969.9099855;-48.361236572265625;22.60598373413086;158.7251434326172
275;1673433969.9955318;47.1296347;7.2392267;50.04500198364258;1673433970.1096337;-47.3951416015625;13.765225410461426;169.1233367919922
276;1673433970.2307851;47.1296165;7.2392173;50.04300308227539;1673433970.3312743;-24.19887351989746;21.118831634521484;175.67129516601562
277;1673433970.4159474;47.129598699999995;7.2392071;50.05400085449219;1673433970.5378277;1.0409975051879883;30.679590225219727;-176.1553192138672
278;1673433970.6567633;47.1295833;7.2391951;50.06300354003906;1673433970.7521334;1.5947680473327637;42.2873649597168;-170.79177856445312
279;1673433970.825382;47.1295711;7.2391805;50.07100296020508;1673433970.935835;-11.83800983428955;50.95425033569336;-161.51785278320312
280;1673433971.0156024;47.1295621;7.239162599999999;50.03600311279297;1673433971.1237226;-24.310909271240234;40.47990417480469;-150.58682250976562
281;1673433971.2067237;47.1295559;7.239141399999999;50.01000213623047;1673433971.3132782;-38.359375;33.13743209838867;-142.47979736328125
282;1673433971.393917;47.1295517;7.2391169;50.000003814697266;1673433971.5058916;-47.14228439331055;19.155237197875977;-131.2275848388672
283;1673433971.5908577;47.1295486;7.2390892;50.012001037597656;1673433971.707259;-55.136199951171875;2.450833559036255;-129.47520446777344
284;1673433971.7884655;47.1295454;7.2390589;50.031002044677734;1673433971.9258957;-57.66319274902344;-6.740091323852539;-134.1470489501953
285;1673433972.0283883;47.1295407;7.239027;50.02900314331055;1673433972.1336372;-49.155330657958984;-5.607371807098389;-146.88934326171875
286;1673433972.213707;47.1295344;7.2389953;50.000003814697266;1673433972.3265455;-44.50626754760742;-3.000183343887329;-158.21229553222656
287;1673433972.4064689;47.1295267;7.238964999999999;49.97100067138672;1673433972.5033307;-43.93760299682617;-3.058394193649292;-166.37171936035156
288;1673433972.5795403;47.129518;7.2389366;49.958003997802734;1673433972.6955128;-45.08983612060547;2.6728508472442627;-176.7252960205078
289;1673433972.777834;47.1295083;7.2389101;49.95000076293945;1673433972.8897822;-48.805416107177734;3.110764265060425;175.30999755859375
290;1673433972.9753559;47.1294976;7.2388859;49.948001861572266;1673433973.0888612;-46.43042755126953;5.362771511077881;164.97036743164062
291;1673433973.1787276;47.1294858;7.2388642999999995;49.952003479003906;1673433973.2864852;-47.45265579223633;6.758937358856201;156.64906311035156
292;1673433973.3673244;47.1294733;7.2388457;49.96000289916992;1673433973.4779923;-47.26788330078125;8.97579574584961;147.7605438232422
293;1673433973.5663545;47.129460099999996;7.2388302;49.97100067138672;1673433973.6851795;-48.63164138793945;6.646270275115967;139.39859008789062
294;1673433973.7862878;47.1294465;7.2388182;49.98800277709961;1673433973.9061916;-48.590965270996094;6.2441020011901855;129.34295654296875
295;1673433973.9934833;47.1294329;7.23881;49.99500274658203;1673433974.1030512;-52.86370086669922;-0.6230342984199524;127.23538970947266
296;1673433974.1871026;47.1294197;7.2388062;50.000003814697266;1673433974.3018277;-48.96702194213867;-9.267577171325684;127.1611099243164
297;1673433974.3753061;47.1294074;7.2388068;49.996002197265625;1673433974.481709;-46.80235290527344;-12.1568603515625;130.1653594970703
298;1673433974.5633237;47.1293964;7.2388112;49.99100112915039;1673433974.6809938;-44.00836181640625;-15.273287773132324;132.8906707763672
299;1673433974.778029;47.1293867;7.2388186999999995;49.983001708984375;1673433974.8999116;-45.6452751159668;-4.859456539154053;131.3711395263672
300;1673433974.9836152;47.1293778;7.238828499999999;49.99100112915039;1673433975.0995018;-44.74209976196289;8.975586891174316;130.4873504638672
301;1673433975.1791842;47.1293691;7.2388398;50.0150032043457;1673433975.2967913;-29.918716430664062;19.570682525634766;141.24940490722656
302;1673433975.3847756;47.1293602;7.238850599999999;50.025001525878906;1673433975.497661;-12.997430801391602;36.223228454589844;152.81942749023438
303;1673433975.5886953;47.1293515;7.2388582999999995;50.03000259399414;1673433975.7039037;-8.01981258392334;52.513912200927734;162.7010040283203
304;1673433975.7876515;47.1293435;7.238860799999999;50.00700378417969;1673433975.9013007;-9.444544792175293;45.06753921508789;172.25950622558594
305;1673433975.9916334;47.1293364;7.2388578;49.93800354003906;1673433976.092988;-16.384599685668945;34.9609375;177.96961975097656
306;1673433976.172226;47.1293303;7.2388504;49.88800048828125;1673433976.2856185;-28.802011489868164;33.484336853027344;-172.4598846435547
307;1673433976.3733146;47.129324999999994;7.2388391;49.86900329589844;1673433976.4942107;-41.914390563964844;25.4002628326416;-161.14048767089844
308;1673433976.5797777;47.1293198;7.238823999999999;49.88900375366211;1673433976.6991374;-51.17374801635742;12.65395736694336;-150.00930786132812
309;1673433976.7888472;47.129314;7.2388055;49.93300247192383;1673433976.9144266;-55.57179641723633;0.029359489679336548;-142.12059020996094
310;1673433977.00079;47.129306899999996;7.238784099999999;49.987003326416016;1673433977.1258469;-56.44538497924805;-13.212767601013184;-134.9866943359375
311;1673433977.2107081;47.129298;7.2387608;50.03400421142578;1673433977.3299239;-54.33717727661133;-24.59956169128418;-133.2125244140625
312;1673433977.4149652;47.129287399999996;7.2387369999999995;50.05800247192383;1673433977.5304275;-48.09284210205078;-22.48443603515625;-140.86874389648438
313;1673433977.6114776;47.129275199999995;7.238714;50.060001373291016;1673433977.7273436;-46.54213333129883;-24.685100555419922;-142.4541015625
314;1673433977.8093953;47.129261899999996;7.238692299999999;50.052001953125;1673433977.9154472;-45.31170654296875;-23.377241134643555;-144.9287872314453
315;1673433978.003115;47.1292475;7.2386721;50.051002502441406;1673433978.1198344;-44.564842224121094;-23.864070892333984;-147.123046875
316;1673433978.2034297;47.1292323;7.2386534;50.066001892089844;1673433978.3026037;-27.709779739379883;-24.96421241760254;-148.20623779296875
317;1673433978.3821204;47.129217;7.238636499999999;50.090003967285156;1673433978.4960146;-11.732010841369629;-26.881202697753906;-146.7463836669922
318;1673433978.578688;47.1292024;7.2386219999999994;50.10900115966797;1673433978.7018971;2.0505359172821045;-21.453205108642578;-144.1199493408203
319;1673433978.7875497;47.1291894;7.2386098;50.11900329589844;1673433978.8930466;10.76689624786377;-16.433372497558594;-142.08657836914062
320;1673433978.9795213;47.129178599999996;7.2386;50.124000549316406;1673433979.0970893;14.468658447265625;-11.932327270507812;-141.52267456054688
321;1673433979.1835327;47.129170099999996;7.238592199999999;50.124000549316406;1673433979.2976882;15.676592826843262;-11.660553932189941;-139.9988555908203
322;1673433979.3796625;47.129163899999995;7.2385861;50.11600112915039;1673433979.4968216;13.651712417602539;-14.537768363952637;-137.6901092529297
323;1673433979.5836515;47.129159699999995;7.2385816;50.108001708984375;1673433979.6987364;9.592280387878418;-15.120412826538086;-137.10342407226562
324;1673433979.787005;47.129157;7.2385784;50.10600280761719;1673433979.909172;-8.560506820678711;-17.23431396484375;-134.86642456054688
325;1673433979.992694;47.1291553;7.2385756;50.13600158691406;1673433980.1143398;-30.3004207611084;-11.899235725402832;-133.6609344482422
326;1673433980.2027898;47.1291532;7.2385718;50.22900390625;1673433980.324582;-19.826982498168945;-2.9256653785705566;-136.28500366210938
327;1673433980.4075453;47.1291509;7.2385661;50.427001953125;1673433980.5183237;-19.138290405273438;-5.04932975769043;-137.78355407714844
328;1673433980.6023612;47.1291486;7.2385589999999995;50.72500228881836;1673433980.7085125;-33.00286102294922;-10.461408615112305;-137.93736267089844
329;1673433980.7910492;47.1291459;7.2385506;51.08400344848633;1673433980.9039497;-48.279483795166016;-24.385263442993164;-136.8548583984375
330;1673433980.9940333;47.129141499999996;7.2385408;51.467002868652344;1673433981.1043863;-47.48056411743164;-21.548294067382812;-139.30039978027344
331;1673433981.19103;47.1291346;7.2385302;51.83000183105469;1673433981.3044922;-42.679386138916016;-22.758790969848633;-139.14639282226562
332;1673433981.3853128;47.129126;7.2385190999999995;52.169002532958984;1673433981.5103168;-39.83159255981445;-19.992042541503906;-138.9845428466797
333;1673433981.5909173;47.1291162;7.2385076999999995;52.49500274658203;1673433981.7079916;-36.46532440185547;-18.68195343017578;-138.46475219726562
334;1673433981.7870111;47.129105499999994;7.238495899999999;52.823001861572266;1673433981.9055135;-34.00607681274414;-16.317657470703125;-137.8228759765625
335;1673433981.9907663;47.1290944;7.2384838;53.15900421142578;1673433982.10946;-31.848712921142578;-14.76247787475586;-137.37948608398438
336;1673433982.2029972;47.1290832;7.2384714;53.506004333496094;1673433982.3226795;-30.21613311767578;-13.127260208129883;-137.11341857910156
337;1673433982.3917797;47.129072199999996;7.2384587;53.86300277709961;1673433982.5288067;-28.984800338745117;-12.564833641052246;-136.92881774902344
338;1673433982.6058233;47.1290614;7.2384455999999995;54.22600173950195;1673433982.71923;-28.28327751159668;-12.6011962890625;-136.82752990722656
339;1673433982.7937288;47.129051;7.2384324;54.590003967285156;1673433982.914633;-28.205427169799805;-13.18824291229248;-136.76739501953125
340;1673433983.0150697;47.1290408;7.2384191;54.96200180053711;1673433983.1358113;-28.49095344543457;-13.722402572631836;-136.74441528320312
341;1673433983.2187622;47.1290309;7.2384056;55.342002868652344;1673433983.3302855;-28.916946411132812;-14.55045223236084;-136.72445678710938
342;1673433983.4154506;47.129021099999996;7.2383920999999996;55.728004455566406;1673433983.5211725;-29.417776107788086;-15.152235984802246;-136.7549285888672
343;1673433983.605112;47.129011399999996;7.238378699999999;56.12200164794922;1673433983.7276173;-29.947294235229492;-15.483786582946777;-136.7959442138672
344;1673433983.831174;47.1290018;7.2383652;56.51700210571289;1673433983.9312274;-30.59517478942871;-15.766491889953613;-136.83236694335938
345;1673433984.0030756;47.1289921;7.238351799999999;56.913002014160156;1673433984.1090286;-30.874492645263672;-15.77275562286377;-136.92730712890625
346;1673433984.184811;47.1289824;7.2383384;57.30500411987305;1673433984.2978094;-30.994922637939453;-15.571090698242188;-137.00929260253906
347;1673433984.3815382;47.1289726;7.238324899999999;57.70000457763672;1673433984.4999187;-30.78313446044922;-15.376643180847168;-137.07791137695312
348;1673433984.579443;47.1289628;7.2383114;58.10000228881836;1673433984.6843507;-30.6207275390625;-15.311556816101074;-137.0319366455078
349;1673433984.7717133;47.128952899999994;7.2382979;58.49800109863281;1673433984.8992026;-30.499914169311523;-15.30010986328125;-137.0154266357422
350;1673433984.9939454;47.1289429;7.2382843999999995;58.89600372314453;1673433985.1124506;-30.441503524780273;-15.387846946716309;-136.90386962890625
351;1673433985.2071934;47.128932999999996;7.2382709;59.294002532958984;1673433985.3148608;-30.418258666992188;-15.435632705688477;-136.9042510986328
352;1673433985.3868334;47.128923099999994;7.238257399999999;59.68400192260742;1673433985.5102088;-30.310527801513672;-15.32284927368164;-136.91799926757812
353;1673433985.5937665;47.1289132;7.2382439;60.0780029296875;1673433985.7074742;-30.428743362426758;-15.256539344787598;-136.91656494140625
354;1673433985.8005729;47.1289033;7.2382303;60.478004455566406;1673433985.9181824;-30.402528762817383;-15.194271087646484;-136.9784698486328
355;1673433986.0455902;47.128893399999995;7.2382167;60.875003814697266;1673433986.2121153;-30.449419021606445;-15.088547706604004;-136.9856414794922
356;1673433986.2729073;47.128883599999995;7.2382032;61.27400207519531;1673433986.3840873;-30.499135971069336;-15.236491203308105;-136.93435668945312
357;1673433986.485326;47.1288737;7.2381896;61.67200469970703;1673433986.5813208;-30.427255630493164;-15.259889602661133;-136.95144653320312
358;1673433986.6941116;47.1288638;7.238175999999999;62.066001892089844;1673433986.7871592;-30.381690979003906;-15.469419479370117;-136.93507385253906
359;1673433986.8629954;47.128854;7.2381625;62.45500183105469;1673433987.0506701;-30.47479248046875;-15.45260238647461;-136.90151977539062
360;1673433987.1055472;47.128844099999995;7.2381489;62.84400177001953;1673433987.1959813;-30.45029640197754;-15.4627685546875;-136.9397735595703
361;1673433987.2665322;47.1288342;7.2381353;63.2390022277832;1673433987.3645747;-30.406736373901367;-15.421786308288574;-136.92843627929688
362;1673433987.4293988;47.1288244;7.2381217;63.63600158691406;1673433987.535878;-30.58268928527832;-15.349213600158691;-136.97291564941406
363;1673433987.6200953;47.1288145;7.2381081;64.03300476074219;1673433987.7618983;-30.452939987182617;-15.19267749786377;-137.0216827392578
364;1673433987.8873227;47.128804599999995;7.2380945;64.427001953125;1673433987.994665;-30.41581153869629;-15.299216270446777;-136.97738647460938
365;1673433988.0738897;47.1287947;7.2380809;64.81400299072266;1673433988.198646;-30.40106773376465;-15.247146606445312;-136.96762084960938
366;1673433988.284989;47.1287848;7.2380673;65.20000457763672;1673433988.3917134;-30.508291244506836;-15.463359832763672;-136.89651489257812
367;1673433988.4677951;47.128774899999996;7.2380537;65.58800506591797;1673433988.5817232;-30.564910888671875;-15.557771682739258;-136.88511657714844
368;1673433988.6719518;47.128765099999995;7.2380401999999995;65.97700500488281;1673433988.7641034;-30.509462356567383;-15.533833503723145;-136.89259338378906
369;1673433988.8434107;47.1287552;7.2380265999999995;66.36600494384766;1673433988.9554687;-30.559200286865234;-15.588642120361328;-136.9124298095703
370;1673433989.0314968;47.1287453;7.238012899999999;66.7540054321289;1673433989.1426384;-30.36553382873535;-15.425990104675293;-136.96961975097656
371;1673433989.2209282;47.1287355;7.237999299999999;67.14500427246094;1673433989.3434935;-30.50229835510254;-15.379891395568848;-136.96849060058594
372;1673433989.4232554;47.128725599999996;7.2379858;67.53600311279297;1673433989.5361056;-30.499853134155273;-15.059640884399414;-137.02212524414062
373;1673433989.614056;47.1287156;7.2379722;67.93099975585938;1673433989.7185185;-30.4379825592041;-15.272614479064941;-136.9854736328125
374;1673433989.805417;47.1287057;7.2379584999999995;68.3270034790039;1673433989.9174516;-30.485742568969727;-15.258201599121094;-137.00250244140625
375;1673433989.9941394;47.128695799999996;7.2379449;68.72700500488281;1673433990.1243405;-30.538423538208008;-15.350767135620117;-136.9644012451172
376;1673433990.2126079;47.1286858;7.237931199999999;69.12300109863281;1673433990.3272474;-30.51534080505371;-15.43583869934082;-136.9738006591797
377;1673433990.4040647;47.1286759;7.237917599999999;69.52000427246094;1673433990.5129037;-30.56822395324707;-15.436677932739258;-136.94935607910156
378;1673433990.594288;47.128665999999996;7.2379039999999994;69.91400146484375;1673433990.7109332;-30.477201461791992;-15.40883731842041;-136.9478759765625
379;1673433990.7955396;47.128656;7.2378903999999995;70.3080062866211;1673433990.9092743;-30.497346878051758;-15.532511711120605;-136.911865234375
380;1673433990.9929605;47.1286461;7.2378767999999996;70.7030029296875;1673433991.1137803;-30.48817253112793;-15.515379905700684;-136.9245147705078
381;1673433991.2007604;47.128636199999995;7.237863099999999;71.09400177001953;1673433991.3259542;-30.588470458984375;-15.494264602661133;-136.93714904785156
382;1673433991.4161363;47.1286262;7.237849499999999;71.48600006103516;1673433991.5286808;-30.578536987304688;-15.381759643554688;-136.96640014648438
383;1673433991.6016476;47.128616199999996;7.237835899999999;71.87800598144531;1673433991.7065887;-30.55143165588379;-15.309377670288086;-136.96128845214844
384;1673433991.8131483;47.1286062;7.2378222;72.26800537109375;1673433991.9285042;-30.53742218017578;-15.401307106018066;-136.9681396484375
385;1673433992.0356646;47.1285963;7.237808599999999;72.66000366210938;1673433992.141977;-30.558866500854492;-15.440666198730469;-136.9445343017578
386;1673433992.2221842;47.128586299999995;7.237794999999999;73.05000305175781;1673433992.3281755;-30.59783172607422;-15.459563255310059;-136.94073486328125
387;1673433992.4049563;47.1285763;7.2377813;73.44700622558594;1673433992.5098052;-30.65085792541504;-15.477001190185547;-136.93601989746094
388;1673433992.591005;47.128566299999996;7.2377677;73.84400177001953;1673433992.7145116;-30.49379539489746;-15.54193115234375;-136.92953491210938
389;1673433992.804007;47.1285563;7.237754;74.24400329589844;1673433992.928547;-30.462778091430664;-15.480010032653809;-136.9577178955078
390;1673433993.016562;47.1285463;7.2377404;74.64600372314453;1673433993.139385;-30.447431564331055;-15.47205924987793;-136.9439697265625
391;1673433993.2243803;47.1285363;7.2377268;75.04600524902344;1673433993.335471;-30.437410354614258;-15.476109504699707;-136.9599609375
392;1673433993.4076953;47.1285263;7.2377132;75.44200134277344;1673433993.5124562;-30.31155776977539;-15.313614845275879;-136.94993591308594
393;1673433993.5943966;47.1285162;7.2376996;75.84000396728516;1673433993.7131262;-30.379655838012695;-15.465582847595215;-136.898681640625
394;1673433993.8092947;47.1285062;7.237686;76.23900604248047;1673433993.9181252;-30.37236785888672;-15.283483505249023;-136.90025329589844
395;1673433993.9925363;47.1284961;7.237672399999999;76.63700103759766;1673433994.1095932;-30.359445571899414;-15.262898445129395;-136.91244506835938
396;1673433994.202881;47.128486099999996;7.237658799999999;77.0320053100586;1673433994.3284729;-30.38730239868164;-15.196615219116211;-136.8930206298828
397;1673433994.4150352;47.1284761;7.237645199999999;77.42900085449219;1673433994.5286684;-30.346603393554688;-15.116220474243164;-136.91049194335938
398;1673433994.6179554;47.1284661;7.237631599999999;77.82600402832031;1673433994.7442625;-30.27037811279297;-15.38115119934082;-136.87774658203125
399;1673433994.8227339;47.1284561;7.2376179;78.22300720214844;1673433994.9335377;-30.479427337646484;-15.314131736755371;-136.89634704589844
400;1673433995.0235434;47.1284462;7.2376043;78.62300109863281;1673433995.1389086;-30.31519889831543;-15.326062202453613;-136.88815307617188
401;1673433995.2327476;47.128436199999996;7.237590699999999;79.0260009765625;1673433995.3555698;-30.433435440063477;-15.287698745727539;-136.8895721435547
402;1673433995.4432685;47.1284262;7.237577099999999;79.427001953125;1673433995.5550485;-30.424440383911133;-15.257070541381836;-136.8718719482422
403;1673433995.631275;47.1284162;7.2375634;79.8280029296875;1673433995.7559283;-30.36387062072754;-15.255918502807617;-136.9115447998047
404;1673433995.85273;47.1284062;7.2375497;80.22700500488281;1673433995.9774113;-30.18815803527832;-15.454080581665039;-136.888916015625
405;1673433996.0510204;47.1283962;7.2375359999999995;80.62200164794922;1673433996.1596344;-30.33050537109375;-15.412666320800781;-136.8711700439453
406;1673433996.243539;47.128386299999995;7.2375224;81.01800537109375;1673433996.4140854;-30.22599220275879;-15.420564651489258;-136.87237548828125
407;1673433996.4846854;47.1283763;7.237508699999999;81.41400146484375;1673433996.5974734;-30.127208709716797;-15.355386734008789;-136.88510131835938
408;1673433996.6789706;47.128366299999996;7.237495;81.81100463867188;1673433996.7851806;-30.211454391479492;-15.343232154846191;-136.8756866455078
409;1673433996.8894768;47.1283563;7.2374814;82.20700073242188;1673433996.99377;-30.23118782043457;-15.330669403076172;-136.88902282714844
410;1673433997.0785966;47.1283463;7.2374677;82.6030044555664;1673433997.1878142;-30.259628295898438;-15.401263236999512;-136.88502502441406
411;1673433997.2821755;47.128336399999995;7.237454;83.00000762939453;1673433997.4063356;-30.239206314086914;-15.572188377380371;-136.85128784179688
412;1673433997.4786975;47.1283265;7.237440299999999;83.4000015258789;1673433997.5947602;-30.38792610168457;-15.622897148132324;-136.87728881835938
413;1673433997.7434533;47.1283166;7.2374266;83.79400634765625;1673433997.8214273;-30.338830947875977;-15.454901695251465;-136.9069061279297
414;1673433997.895295;47.128306599999995;7.237413;84.18800354003906;1673433998.0043602;-30.40831184387207;-15.389791488647461;-136.91554260253906
415;1673433998.0949109;47.1282966;7.2373993;84.58600616455078;1673433998.1939313;-30.422487258911133;-15.33066463470459;-136.8906707763672
416;1673433998.2771416;47.1282867;7.2373857;84.98500061035156;1673433998.377865;-30.430025100708008;-15.309683799743652;-136.8900909423828
417;1673433998.4537058;47.1282767;7.237372;85.38600158691406;1673433998.5648878;-30.454111099243164;-15.48487663269043;-136.84271240234375
418;1673433998.6402586;47.1282668;7.2373582999999995;85.78400421142578;1673433998.7504804;-30.38210105895996;-15.495895385742188;-136.881103515625
419;1673433998.8313022;47.128256799999996;7.237344599999999;86.17500305175781;1673433998.9496734;-30.42125129699707;-15.35684585571289;-136.8874969482422
