;pos_time;latitude;longitude;altitude;alt_time;pitch;roll;yaw
0;1673435598.8039615;47.1306424;7.2406201;-0.03400000184774399;1673435598.8526688;-0.42608407139778137;0.2817315459251404;90.66134643554688
1;1673435599.0162644;47.1306424;7.2406201;-0.030000001192092896;1673435599.0583875;-0.3203068971633911;0.26643335819244385;90.66975402832031
2;1673435599.2121837;47.1306423;7.2406201999999995;-0.027000000700354576;1673435599.2556703;-0.21162398159503937;0.033885493874549866;90.73457336425781
3;1673435599.40684;47.1306423;7.2406201999999995;-0.026000000536441803;1673435599.4454792;-0.1950172483921051;-0.11525223404169083;90.74398803710938
4;1673435599.600892;47.1306423;7.2406201999999995;-0.026000000536441803;1673435599.6429107;-0.418636292219162;0.0735296756029129;90.75092315673828
5;1673435599.801148;47.1306423;7.2406201999999995;-0.02500000037252903;1673435599.8462;-0.41248172521591187;-0.10895679146051407;90.79391479492188
6;1673435600.001962;47.1306423;7.2406201999999995;-0.026000000536441803;1673435600.045131;-0.3530369699001312;-0.06382792443037033;90.7950210571289
7;1673435600.203489;47.1306423;7.2406201999999995;-0.030000001192092896;1673435600.2479641;-0.4213330149650574;-0.07701626420021057;90.72290802001953
8;1673435600.3941016;47.1306423;7.2406201999999995;-0.030000001192092896;1673435600.4386182;-0.3840201199054718;-0.12567570805549622;90.75498962402344
9;1673435600.5922947;47.1306424;7.2406201999999995;-0.026000000536441803;1673435600.636162;-0.23043292760849;-0.069556824862957;90.69732666015625
10;1673435600.7916434;47.1306424;7.2406201999999995;-0.02200000174343586;1673435600.8354506;-0.16916947066783905;-0.18068979680538177;90.81693267822266
11;1673435600.986443;47.1306424;7.2406201999999995;-0.020000001415610313;1673435601.0305066;-0.2239912450313568;-0.028902923688292503;90.69039916992188
12;1673435601.205851;47.1306425;7.2406201;-0.01900000125169754;1673435601.2522638;-0.3739766776561737;-0.12584353983402252;90.7419204711914
13;1673435601.4147258;47.1306425;7.2406201;-0.020000001415610313;1673435601.4567597;-0.46356746554374695;-0.08862319588661194;90.84542846679688
14;1673435601.6145205;47.1306425;7.2406201;-0.0020000000949949026;1673435601.6550748;-0.5514158010482788;1.0947024822235107;90.73892974853516
15;1673435601.8111115;47.1306425;7.2406201;-0.006000000052154064;1673435601.8497233;-0.4384996294975281;0.526467502117157;90.90065002441406
16;1673435602.0049286;47.1306425;7.2406201999999995;-0.00800000037997961;1673435602.0620637;-0.4266393184661865;0.7181209921836853;90.86245727539062
17;1673435602.2185035;47.1306425;7.2406201999999995;-0.00800000037997961;1673435602.2585843;-0.4448217451572418;0.6159542798995972;90.76212310791016
18;1673435602.4069588;47.1306424;7.2406201999999995;-0.00800000037997961;1673435602.446203;-0.3923932909965515;0.616448163986206;90.86336517333984
19;1673435602.6048439;47.1306424;7.2406203;-0.00800000037997961;1673435602.6478376;-0.33713287115097046;0.7585638761520386;90.95407104492188
20;1673435602.8035975;47.1306424;7.2406203;-0.012000000104308128;1673435602.850197;-0.4426829218864441;1.3731673955917358;90.87358856201172
21;1673435603.0033512;47.1306424;7.2406203;-0.0010000000474974513;1673435603.0488567;-0.6037887334823608;1.1849803924560547;90.82660675048828
22;1673435603.2096283;47.1306424;7.2406203;-0.004000000189989805;1673435603.2542017;-0.34523043036460876;0.5390910506248474;90.61537170410156
23;1673435603.4021213;47.1306424;7.2406203;-0.007000000216066837;1673435603.4456186;-0.4653845727443695;0.40296998620033264;90.91450500488281
24;1673435603.6003768;47.1306424;7.2406201999999995;-0.00800000037997961;1673435603.6389813;-0.5801188349723816;0.5551809072494507;90.65811920166016
25;1673435603.7832835;47.1306424;7.2406201999999995;-0.010000000707805157;1673435603.826371;-0.4448501169681549;0.6452516913414001;90.7874526977539
26;1673435604.0078177;47.1306424;7.2406201;-0.01100000087171793;1673435604.0531003;-0.6931275725364685;0.7150561213493347;90.79203796386719
27;1673435604.215627;47.1306423;7.2406201;-0.013000000268220901;1673435604.2563195;-0.6573430299758911;0.8549991250038147;90.93740844726562
28;1673435604.4203377;47.1306422;7.2406201;-0.01600000075995922;1673435604.4584363;-0.7258189916610718;0.8754698038101196;90.42568969726562
29;1673435604.5966547;47.130642099999996;7.2406201;-0.017000000923871994;1673435604.646029;-0.33936500549316406;0.17871522903442383;89.59601593017578
30;1673435604.8103778;47.1306418;7.2406203;-0.027000000700354576;1673435604.8510494;0.11054453998804092;-1.1016885042190552;84.7092514038086
31;1673435605.0019028;47.1306413;7.2406206;-0.030000001192092896;1673435605.0415592;-0.01991320215165615;-4.242802619934082;81.9704360961914
32;1673435605.189391;47.1306407;7.240621099999999;-0.023000001907348633;1673435605.246187;1.5321670770645142;-7.194001197814941;84.84146881103516
33;1673435605.4072337;47.1306399;7.2406217999999996;-0.013000000268220901;1673435605.4494598;5.415843486785889;-10.494074821472168;87.83450317382812
34;1673435605.6059158;47.130638999999995;7.2406226;0.007000000216066837;1673435605.6446915;8.351181983947754;-13.618860244750977;88.17568969726562
35;1673435605.8111684;47.130638;7.240623599999999;0.04200000315904617;1673435605.8542411;8.925840377807617;-16.00887107849121;88.18386840820312
36;1673435606.0088344;47.130637199999995;7.240624599999999;0.08800000697374344;1673435606.046732;9.550437927246094;-17.252975463867188;88.26699829101562
37;1673435606.2199395;47.1306365;7.2406255999999996;0.14300000667572021;1673435606.264845;11.171287536621094;-17.574480056762695;88.43235778808594
38;1673435606.4231882;47.130635899999994;7.240626499999999;0.20500001311302185;1673435606.4614294;12.561309814453125;-19.04417610168457;88.51641845703125
39;1673435606.6095045;47.1306356;7.240627099999999;0.2770000100135803;1673435606.6520956;13.711466789245605;-21.043434143066406;88.66082763671875
40;1673435606.8376179;47.1306356;7.240627399999999;0.36100003123283386;1673435606.880565;15.017117500305176;-22.17339515686035;88.87396240234375
41;1673435607.0500317;47.130635999999996;7.240627399999999;0.45600003004074097;1673435607.0947387;17.099458694458008;-22.741634368896484;89.02888488769531
42;1673435607.2950165;47.1306367;7.240626799999999;0.5610000491142273;1673435607.3302345;16.917081832885742;-21.281492233276367;89.54463195800781
43;1673435607.469584;47.130637799999995;7.2406258;0.6740000247955322;1673435607.5144882;14.971847534179688;-20.962646484375;89.9465560913086
44;1673435607.6643658;47.130638999999995;7.240624599999999;0.7970000505447388;1673435607.7092693;13.07684326171875;-16.364221572875977;90.92259216308594
45;1673435607.8463914;47.130640199999995;7.2406232;0.9290000200271606;1673435607.8805423;11.281789779663086;-12.68948745727539;92.0133285522461
46;1673435608.0708706;47.1306411;7.240622;1.0700000524520874;1673435608.1050415;10.39897346496582;-14.75938606262207;92.66471099853516
47;1673435608.261873;47.1306418;7.2406209;1.2230000495910645;1673435608.3018909;9.680266380310059;-13.395377159118652;93.70309448242188
48;1673435608.4578724;47.1306425;7.2406201999999995;1.3870000839233398;1673435608.5027692;9.56968879699707;-9.512456893920898;94.87445068359375
49;1673435608.6512978;47.1306429;7.2406197;1.564000129699707;1673435608.6895568;9.718423843383789;-13.816539764404297;95.54734802246094
50;1673435608.8379478;47.130643;7.240619499999999;1.752000093460083;1673435608.877009;10.456315994262695;-13.492433547973633;96.0853500366211
51;1673435609.0234535;47.1306429;7.240619499999999;1.936000108718872;1673435609.0622413;11.083329200744629;-11.703153610229492;96.92459869384766
52;1673435609.2158415;47.130642699999996;7.2406197;2.123000144958496;1673435609.256751;12.03470516204834;-15.090861320495605;97.24108123779297
53;1673435609.4224615;47.1306425;7.24062;2.311000108718872;1673435609.4659572;12.827431678771973;-15.72245979309082;97.62449645996094
54;1673435609.6132967;47.1306425;7.2406201999999995;2.5;1673435609.6538627;13.638309478759766;-11.892921447753906;98.29784393310547
55;1673435609.801894;47.1306424;7.2406204999999995;2.694000244140625;1673435609.8465006;14.113837242126465;-13.934249877929688;98.72256469726562
56;1673435609.9996502;47.1306424;7.2406206;2.8910000324249268;1673435610.0434742;14.203551292419434;-15.60689926147461;98.65182495117188
57;1673435610.2150578;47.1306423;7.2406206;3.0840001106262207;1673435610.2598078;14.116662979125977;-12.094098091125488;99.16920471191406
58;1673435610.4237142;47.1306422;7.2406204999999995;3.2740001678466797;1673435610.465732;13.70418643951416;-14.078917503356934;98.91191101074219
59;1673435610.6189218;47.1306422;7.2406204999999995;3.4620001316070557;1673435610.6620662;13.729561805725098;-15.683107376098633;98.81085968017578
60;1673435610.8378665;47.1306422;7.2406204999999995;3.6470000743865967;1673435610.8818939;13.901243209838867;-12.352657318115234;98.82081604003906
61;1673435611.0557299;47.1306423;7.2406204;3.8350002765655518;1673435611.097707;13.476351737976074;-12.71248722076416;98.76826477050781
62;1673435611.2626002;47.1306422;7.2406203;4.031000137329102;1673435611.2948616;13.304948806762695;-16.43140411376953;98.43419647216797
63;1673435611.416699;47.130642099999996;7.2406201999999995;4.2330002784729;1673435611.4543622;13.287914276123047;-12.971900939941406;98.81884765625
64;1673435611.6103156;47.130642099999996;7.2406201;4.432000160217285;1673435611.6553493;13.1100492477417;-12.651054382324219;98.8288803100586
65;1673435611.8094797;47.130641999999995;7.24062;4.630000114440918;1673435611.8530164;13.052377700805664;-16.22397232055664;98.58702087402344
66;1673435612.0099351;47.1306419;7.24062;4.827000141143799;1673435612.053085;13.112713813781738;-14.434724807739258;98.72537994384766
67;1673435612.2161;47.1306419;7.2406198999999996;5.021000385284424;1673435612.2577457;12.984804153442383;-12.182649612426758;98.96373748779297
68;1673435612.423243;47.1306418;7.2406198999999996;5.218000411987305;1673435612.4657462;12.987427711486816;-15.651202201843262;98.64078521728516
69;1673435612.6284623;47.1306417;7.2406198999999996;5.419000148773193;1673435612.6710038;13.241846084594727;-15.64459228515625;98.50013732910156
70;1673435612.8331068;47.1306417;7.2406198999999996;5.616000175476074;1673435612.8779526;13.195577621459961;-12.775849342346191;98.83123016357422
71;1673435613.0409822;47.1306417;7.2406198999999996;5.813000202178955;1673435613.081047;13.093624114990234;-14.83629035949707;98.45061492919922
72;1673435613.2324483;47.1306418;7.24062;6.008000373840332;1673435613.2734861;13.164880752563477;-15.756814956665039;98.46805572509766
73;1673435613.4342034;47.1306419;7.24062;6.203000068664551;1673435613.4757304;13.23471736907959;-11.928117752075195;98.80046844482422
74;1673435613.6330223;47.130641999999995;7.24062;6.400000095367432;1673435613.6742442;13.189006805419922;-13.105294227600098;98.78370666503906
75;1673435613.8088133;47.1306419;7.24062;6.598000526428223;1673435613.8510034;13.047736167907715;-15.899518013000488;98.45944213867188
76;1673435614.0168822;47.1306418;7.24062;6.7950005531311035;1673435614.0632763;13.346391677856445;-13.168423652648926;98.84050750732422
77;1673435614.2287066;47.1306418;7.2406201;6.992000102996826;1673435614.2909136;13.247374534606934;-12.984981536865234;98.7847671508789
78;1673435614.4592612;47.1306418;7.2406201;7.188000202178955;1673435614.5267043;13.176091194152832;-16.182212829589844;98.52725982666016
79;1673435614.6850045;47.1306418;7.2406201;7.383000373840332;1673435614.7251315;13.491247177124023;-14.036733627319336;98.58760833740234
80;1673435614.8693533;47.1306418;7.2406201;7.575000286102295;1673435614.913273;13.243896484375;-11.995697021484375;98.92784118652344
81;1673435615.0588057;47.1306418;7.2406201999999995;7.771000385284424;1673435615.1636014;13.308300018310547;-15.84957218170166;98.58116149902344
82;1673435615.3328676;47.1306417;7.2406201999999995;7.970000267028809;1673435615.3641386;13.279500007629395;-15.11306095123291;98.57185363769531
83;1673435615.4984655;47.1306417;7.2406201999999995;8.169000625610352;1673435615.5355875;13.311019897460938;-12.192963600158691;99.07831573486328
84;1673435615.6668506;47.1306417;7.2406203;8.366000175476074;1673435615.7117558;13.238059997558594;-14.884307861328125;98.72107696533203
85;1673435615.8659484;47.1306418;7.2406203;8.565000534057617;1673435615.9070358;13.350333213806152;-16.140687942504883;98.51065063476562
86;1673435616.0593824;47.1306419;7.2406203;8.76400089263916;1673435616.0985363;13.359521865844727;-12.374545097351074;98.61180877685547
87;1673435616.2529025;47.1306419;7.2406204;8.964000701904297;1673435616.2899904;13.20438289642334;-13.251653671264648;98.57677459716797
88;1673435616.4414067;47.1306419;7.2406204999999995;9.166000366210938;1673435616.481455;13.354435920715332;-16.16465187072754;98.43827819824219
89;1673435616.6337764;47.1306418;7.2406206;9.366000175476074;1673435616.6738355;13.548152923583984;-13.090490341186523;98.89448547363281
90;1673435616.832123;47.1306417;7.2406206;9.564000129699707;1673435616.8731444;13.549623489379883;-12.961042404174805;98.91222381591797
91;1673435617.0361602;47.1306417;7.2406206;9.760000228881836;1673435617.0763216;13.471843719482422;-16.077367782592773;98.57600402832031
92;1673435617.2339933;47.1306417;7.2406206;9.955000877380371;1673435617.2740533;13.699174880981445;-14.459424018859863;98.64352416992188
93;1673435617.4310505;47.1306418;7.2406206;10.152000427246094;1673435617.4740405;13.705496788024902;-11.705123901367188;98.70748138427734
94;1673435617.6389868;47.1306419;7.2406204999999995;10.431000709533691;1673435617.6791933;13.209263801574707;-15.554179191589355;98.0572280883789
95;1673435617.834923;47.130642099999996;7.2406203;10.808000564575195;1673435617.8784087;13.874445915222168;-17.949851989746094;97.88516998291016
96;1673435618.0422764;47.1306424;7.24062;11.197000503540039;1673435618.0855663;13.068527221679688;-13.776471138000488;98.3812026977539
97;1673435618.2328973;47.1306428;7.240619799999999;11.592000961303711;1673435618.2719955;12.578065872192383;-13.281949996948242;98.31295776367188
98;1673435618.4347217;47.130643299999996;7.2406196;11.988000869750977;1673435618.4746034;11.981632232666016;-14.001912117004395;98.35889434814453
99;1673435618.625281;47.1306436;7.240619499999999;12.385000228881836;1673435618.6669872;11.96325969696045;-10.7559814453125;98.67224884033203
100;1673435618.8266795;47.1306437;7.2406194;12.789000511169434;1673435618.8703403;11.915935516357422;-10.1288423538208;98.87041473388672
101;1673435619.0245485;47.1306437;7.240619499999999;13.196001052856445;1673435619.0666091;12.0662260055542;-14.009065628051758;98.44125366210938
102;1673435619.2475867;47.1306435;7.240619499999999;13.606000900268555;1673435619.2956355;12.448040008544922;-12.107280731201172;98.7034683227539
103;1673435619.4497;47.130643299999996;7.2406196;14.01400089263916;1673435619.4858465;12.781623840332031;-11.53409481048584;98.7611312866211
104;1673435619.636696;47.1306431;7.2406197;14.419000625610352;1673435619.686058;12.774564743041992;-14.56652545928955;98.4095230102539
105;1673435619.8460696;47.1306428;7.240619799999999;14.825000762939453;1673435619.8862464;12.957715034484863;-14.938362121582031;98.31189727783203
106;1673435620.1037898;47.130642699999996;7.2406198999999996;15.231000900268555;1673435620.1350574;13.091782569885254;-12.130607604980469;98.60778045654297
107;1673435620.2713928;47.130642699999996;7.2406198999999996;15.641000747680664;1673435620.3154514;13.124951362609863;-14.456412315368652;98.6613998413086
108;1673435620.4787474;47.130642599999995;7.2406198999999996;16.051000595092773;1673435620.5168161;12.98029899597168;-15.556903839111328;98.32654571533203
109;1673435620.6978312;47.130642599999995;7.2406198999999996;16.46000099182129;1673435620.7388306;12.998380661010742;-12.713299751281738;98.55517578125
110;1673435620.9217343;47.130642599999995;7.2406198999999996;16.86600112915039;1673435620.9544942;12.936468124389648;-13.719193458557129;98.33198547363281
111;1673435621.0929937;47.130642699999996;7.240619799999999;17.269001007080078;1673435621.1272385;12.760834693908691;-15.608622550964355;98.29336547851562
112;1673435621.2671506;47.1306428;7.2406198999999996;17.672000885009766;1673435621.3038082;12.940424919128418;-12.424389839172363;98.58910369873047
113;1673435621.4517806;47.1306429;7.2406198999999996;18.076000213623047;1673435621.4947243;12.828938484191895;-11.64592456817627;98.66449737548828
114;1673435621.6408918;47.130643;7.2406198999999996;18.485000610351562;1673435621.6824818;12.530984878540039;-14.794758796691895;98.37318420410156
115;1673435621.8415716;47.1306429;7.2406198999999996;18.894001007080078;1673435621.8827546;12.845430374145508;-13.700968742370605;98.39554595947266
116;1673435622.0465057;47.1306429;7.2406198999999996;19.302000045776367;1673435622.0896692;12.875875473022461;-11.757729530334473;98.66295623779297
117;1673435622.2450376;47.1306428;7.2406198999999996;19.705001831054688;1673435622.2838871;12.717551231384277;-14.542675971984863;98.35159301757812
118;1673435622.4365358;47.1306428;7.2406198999999996;20.110000610351562;1673435622.4776006;13.014256477355957;-14.393389701843262;98.53865814208984
119;1673435622.6366997;47.1306428;7.2406198999999996;20.51500129699707;1673435622.6822386;13.080790519714355;-11.682101249694824;98.6837387084961
120;1673435622.8349476;47.1306428;7.2406198999999996;20.92300033569336;1673435622.8742418;12.817855834960938;-13.417494773864746;98.52811431884766
121;1673435623.0671725;47.1306428;7.2406198999999996;21.33100128173828;1673435623.107302;12.890357971191406;-15.360154151916504;98.40000915527344
122;1673435623.2706125;47.1306428;7.2406198999999996;21.73400115966797;1673435623.3098745;12.921503067016602;-12.186017036437988;98.80352020263672
123;1673435623.4660065;47.1306428;7.240619799999999;22.134000778198242;1673435623.504066;12.888740539550781;-13.034799575805664;98.63822937011719
124;1673435623.651406;47.1306428;7.240619799999999;22.530000686645508;1673435623.6955128;12.78516674041748;-15.019549369812012;98.53886413574219
125;1673435623.8367097;47.1306428;7.240619799999999;22.928001403808594;1673435623.8725302;13.019579887390137;-12.789336204528809;98.56819915771484
126;1673435624.0262513;47.1306429;7.240619799999999;23.328001022338867;1673435624.068704;12.888917922973633;-12.07353401184082;98.76348114013672
127;1673435624.2303977;47.1306429;7.240619799999999;23.73400115966797;1673435624.274588;12.849786758422852;-15.09333610534668;98.50572967529297
128;1673435624.43064;47.1306428;7.240619799999999;24.139001846313477;1673435624.473233;12.932597160339355;-13.759540557861328;98.53491973876953
129;1673435624.6485333;47.1306428;7.240619799999999;24.53900146484375;1673435624.6984828;12.809802055358887;-11.776801109313965;98.68404388427734
130;1673435624.8463213;47.1306428;7.240619799999999;24.93600082397461;1673435624.8903785;12.773513793945312;-14.708589553833008;98.31307983398438
131;1673435625.0557835;47.1306428;7.240619799999999;25.33700180053711;1673435625.0919383;12.998754501342773;-14.727829933166504;98.35311889648438
132;1673435625.2358875;47.1306429;7.240619799999999;25.738000869750977;1673435625.278525;13.069576263427734;-11.516766548156738;98.68570709228516
133;1673435625.4501998;47.1306429;7.240619799999999;26.14200210571289;1673435625.4938264;13.039480209350586;-12.835753440856934;98.67967987060547
134;1673435625.6635835;47.1306429;7.240619799999999;26.547000885009766;1673435625.7046895;12.828665733337402;-15.066030502319336;98.22132873535156
135;1673435625.8771622;47.1306429;7.240619799999999;26.952001571655273;1673435625.9152389;12.865486145019531;-11.792089462280273;98.62590026855469
136;1673435626.063895;47.1306429;7.240619799999999;27.35900115966797;1673435626.103251;12.72214412689209;-12.589094161987305;98.55897521972656
137;1673435626.2497098;47.1306429;7.240619799999999;27.757001876831055;1673435626.2893474;12.805699348449707;-14.8873872756958;98.45463562011719
138;1673435626.4385142;47.1306428;7.240619799999999;28.158000946044922;1673435626.4869184;13.111220359802246;-12.567553520202637;98.61358642578125
139;1673435626.6474628;47.1306428;7.240619799999999;28.558000564575195;1673435626.6882374;12.883907318115234;-11.860050201416016;98.74080657958984
140;1673435626.8543098;47.1306428;7.240619799999999;28.96200180053711;1673435626.893588;12.809595108032227;-15.325407028198242;98.3916015625
141;1673435627.0641553;47.130642699999996;7.240619799999999;29.367000579833984;1673435627.1030583;12.993244171142578;-13.54640007019043;98.45735931396484
142;1673435627.266016;47.130642699999996;7.240619799999999;29.76700210571289;1673435627.3119116;13.091226577758789;-11.761636734008789;98.84909057617188
143;1673435627.4635718;47.130642599999995;7.240619799999999;30.165000915527344;1673435627.507493;12.838154792785645;-14.907256126403809;98.424560546875
144;1673435627.655584;47.130642599999995;7.2406198999999996;30.565000534057617;1673435627.699067;12.947796821594238;-14.77503490447998;98.4090576171875
145;1673435627.8472092;47.130642599999995;7.2406198999999996;30.965002059936523;1673435627.8923602;13.197749137878418;-11.622035026550293;98.69164276123047
146;1673435628.0318816;47.130642599999995;7.24062;31.369001388549805;1673435628.074215;13.093538284301758;-13.61931324005127;98.56208038330078
147;1673435628.2308006;47.130642599999995;7.24062;31.777002334594727;1673435628.2792542;13.022669792175293;-14.94368839263916;98.4518814086914
148;1673435628.4375331;47.130642599999995;7.24062;32.182003021240234;1673435628.4777305;13.026333808898926;-11.63553524017334;98.74607849121094
149;1673435628.6381037;47.130642599999995;7.24062;32.58400344848633;1673435628.6817117;12.969630241394043;-13.031269073486328;98.58238983154297
150;1673435628.848813;47.130642599999995;7.24062;32.98100280761719;1673435628.8868887;12.721040725708008;-15.12944507598877;98.3924789428711
151;1673435629.04945;47.130642599999995;7.24062;33.38100051879883;1673435629.0941086;13.109825134277344;-12.494178771972656;98.50250244140625
152;1673435629.265455;47.130642599999995;7.24062;33.78600311279297;1673435629.3036425;13.034049987792969;-11.994330406188965;98.65528106689453
153;1673435629.4426568;47.130642599999995;7.24062;34.194000244140625;1673435629.486137;12.851189613342285;-15.337015151977539;98.40027618408203
154;1673435629.6351323;47.130642599999995;7.24062;34.60100173950195;1673435629.677641;13.025283813476562;-13.190929412841797;98.66427612304688
155;1673435629.8364658;47.130642599999995;7.24062;35.00200271606445;1673435629.876069;12.839578628540039;-12.077107429504395;98.62103271484375
156;1673435630.0396926;47.130642599999995;7.24062;35.39800262451172;1673435630.0814924;12.945090293884277;-14.896860122680664;98.2210464477539
157;1673435630.2467735;47.130642699999996;7.2406201;35.797000885009766;1673435630.2884183;13.133269309997559;-13.954752922058105;98.41615295410156
158;1673435630.4424593;47.1306428;7.2406201;36.19700241088867;1673435630.4812057;13.11110782623291;-11.246970176696777;98.70795440673828
159;1673435630.6416192;47.1306429;7.2406201999999995;36.60000228881836;1673435630.6802535;13.010147094726562;-13.319143295288086;98.68057250976562
160;1673435630.8515232;47.1306429;7.2406201999999995;37.00800323486328;1673435630.8891487;12.995387077331543;-14.725105285644531;98.51554107666016
161;1673435631.043845;47.1306429;7.2406201999999995;37.415000915527344;1673435631.080812;13.155707359313965;-11.259659767150879;98.83120727539062
162;1673435631.2415924;47.1306429;7.2406201999999995;37.819000244140625;1673435631.285134;13.038098335266113;-12.858369827270508;98.52661895751953
163;1673435631.4328187;47.1306428;7.2406201;38.2140007019043;1673435631.476794;13.050065994262695;-14.84398078918457;98.447509765625
164;1673435631.6306694;47.1306428;7.2406201999999995;38.6140022277832;1673435631.6740415;13.27797794342041;-12.036053657531738;98.66678619384766
165;1673435631.8428867;47.1306428;7.2406201999999995;39.01400375366211;1673435631.8898165;13.110315322875977;-11.914497375488281;98.8479232788086
166;1673435632.0330093;47.1306428;7.2406201;39.419002532958984;1673435632.0764885;13.040425300598145;-15.240195274353027;98.48104095458984
167;1673435632.2410138;47.130642699999996;7.2406201;39.823001861572266;1673435632.285563;13.228108406066895;-12.981413841247559;98.51729583740234
168;1673435632.4463408;47.130642599999995;7.2406201;40.22200012207031;1673435632.4830544;13.18781566619873;-12.037623405456543;98.72477722167969
169;1673435632.63985;47.1306425;7.24062;40.61600112915039;1673435632.6823745;12.809381484985352;-15.055057525634766;98.39835357666016
170;1673435632.8371375;47.1306425;7.2406198999999996;41.01700210571289;1673435632.8787107;13.002811431884766;-13.876123428344727;98.5076904296875
171;1673435633.044743;47.130642599999995;7.2406198999999996;41.422000885009766;1673435633.0849085;13.009260177612305;-11.537919998168945;98.66370391845703
172;1673435633.3107285;47.130642699999996;7.2406198999999996;41.83000183105469;1673435633.349925;12.952719688415527;-13.990633010864258;98.55917358398438
173;1673435633.4976277;47.130642599999995;7.2406198999999996;42.2390022277832;1673435633.5356934;12.947920799255371;-14.486003875732422;98.45030975341797
174;1673435633.7038684;47.130642599999995;7.2406198999999996;42.64600372314453;1673435633.744079;13.085649490356445;-11.783594131469727;98.6863021850586
175;1673435633.8978345;47.130642599999995;7.2406198999999996;43.04300308227539;1673435633.9337924;12.927925109863281;-13.085453987121582;98.45103454589844
176;1673435634.085167;47.130642699999996;7.2406198999999996;43.435001373291016;1673435634.1252778;13.0447416305542;-14.927621841430664;98.40147399902344
177;1673435634.2766228;47.130642699999996;7.24062;43.83100128173828;1673435634.3179188;13.172419548034668;-11.891671180725098;98.57730865478516
178;1673435634.4559498;47.130642699999996;7.24062;44.23400115966797;1673435634.4931085;13.034914016723633;-12.299235343933105;98.70423126220703
179;1673435634.6432898;47.130642699999996;7.24062;44.6400032043457;1673435634.6864886;12.989455223083496;-15.210005760192871;98.44699096679688
180;1673435634.8418384;47.130642599999995;7.24062;45.04300308227539;1673435634.8854792;13.341282844543457;-12.818403244018555;98.66552734375
181;1673435635.0461295;47.130642599999995;7.24062;45.43800354003906;1673435635.0906563;13.13032341003418;-11.882781982421875;98.81326293945312
182;1673435635.252726;47.130642599999995;7.24062;45.833003997802734;1673435635.2932887;13.005496978759766;-14.8248291015625;98.47842407226562
183;1673435635.449196;47.130642599999995;7.24062;46.23500061035156;1673435635.4926782;13.16565227508545;-13.801761627197266;98.52703857421875
184;1673435635.6745532;47.130642699999996;7.24062;46.637001037597656;1673435635.7244868;13.216514587402344;-11.210820198059082;98.80523681640625
185;1673435635.872804;47.130642699999996;7.24062;47.04100036621094;1673435635.910885;12.92004108428955;-13.279763221740723;98.70770263671875
186;1673435636.0648878;47.130642699999996;7.2406198999999996;47.44700241088867;1673435636.0997598;12.909347534179688;-14.438563346862793;98.4684066772461
187;1673435636.2816465;47.130642699999996;7.2406198999999996;47.84800338745117;1673435636.3216805;13.069201469421387;-11.632678985595703;98.70787048339844
188;1673435636.4733698;47.130642599999995;7.2406198999999996;48.237003326416016;1673435636.5085235;12.98921012878418;-14.14970588684082;98.36878967285156
189;1673435636.673565;47.130642599999995;7.24062;48.57100296020508;1673435636.7136357;13.194464683532715;-14.928096771240234;98.22171783447266
190;1673435636.8638604;47.1306425;7.2406201;48.86000061035156;1673435636.9118853;13.0957612991333;-11.828723907470703;98.52469635009766
191;1673435637.1024368;47.1306424;7.2406203;49.11100387573242;1673435637.1395597;13.295348167419434;-12.772294044494629;98.71537780761719
192;1673435637.2800908;47.1306422;7.2406204999999995;49.31900405883789;1673435637.3220584;14.926589965820312;-13.862248420715332;98.5530014038086
193;1673435637.4737248;47.1306419;7.2406204999999995;49.49700164794922;1673435637.5108137;28.369129180908203;9.484397888183594;105.77544403076172
194;1673435637.6534894;47.1306407;7.2406193;49.64900207519531;1673435637.6906338;34.46114730834961;35.4154052734375;117.9719467163086
195;1673435637.8502986;47.1306376;7.2406152;49.77100372314453;1673435637.892765;33.21856689453125;50.263885498046875;125.3285140991211
196;1673435638.03641;47.130631799999996;7.240607499999999;49.868003845214844;1673435638.0781898;21.77778434753418;57.55617904663086;133.21865844726562
197;1673435638.2419133;47.1306234;7.2405965;49.93100357055664;1673435638.2899764;5.169467926025391;56.74341583251953;145.4225616455078
198;1673435638.4458866;47.1306127;7.240582799999999;49.97600173950195;1673435638.4864616;-14.23063850402832;50.44401931762695;157.3661346435547
199;1673435638.6345484;47.130600199999996;7.2405672;50.00100326538086;1673435638.6726496;-30.122314453125;43.350894927978516;169.9490203857422
200;1673435638.8261645;47.130586099999995;7.2405501999999995;50.012001037597656;1673435638.8692653;-42.544189453125;41.06861877441406;-178.62103271484375
201;1673435639.0307105;47.1305702;7.2405314999999995;50.01000213623047;1673435639.0734003;-50.2899284362793;36.731651306152344;-166.47705078125
202;1673435639.2430935;47.1305529;7.240510899999999;49.98500061035156;1673435639.28523;-50.709068298339844;28.82786750793457;-155.3036651611328
203;1673435639.4392009;47.1305347;7.240488699999999;49.92900085449219;1673435639.4867277;-45.61693572998047;22.811443328857422;-149.67446899414062
204;1673435639.6511433;47.130516;7.2404657;49.8650016784668;1673435639.692408;-45.80681228637695;19.67803192138672;-144.61741638183594
205;1673435639.8594325;47.1304969;7.240442;49.810001373291016;1673435639.9024165;-47.930049896240234;16.658348083496094;-137.73635864257812
206;1673435640.0619783;47.1304776;7.2404176;49.768001556396484;1673435640.1016972;-47.06584930419922;11.528155326843262;-130.16830444335938
207;1673435640.2634945;47.130458399999995;7.240392699999999;49.733001708984375;1673435640.3092136;-45.505069732666016;6.721100330352783;-127.82042694091797
208;1673435640.4584174;47.1304392;7.2403678;49.69400405883789;1673435640.4970183;-42.125736236572266;6.580456256866455;-131.6321563720703
209;1673435640.6676812;47.1304199;7.2403431;49.673004150390625;1673435640.7112942;-43.741825103759766;8.130656242370605;-133.83126831054688
210;1673435640.8744504;47.1304004;7.240318599999999;49.676002502441406;1673435640.9108117;-47.22748947143555;9.853214263916016;-134.46849060058594
211;1673435641.0673957;47.130380599999995;7.240294;49.698001861572266;1673435641.1108928;-48.88433837890625;11.214827537536621;-134.64163208007812
212;1673435641.2457232;47.1303607;7.240269199999999;49.72800064086914;1673435641.2906828;-48.90861892700195;12.02401351928711;-134.58738708496094
213;1673435641.4468195;47.1303406;7.2402441;49.75600051879883;1673435641.4897842;-48.23118591308594;12.406671524047852;-134.3851318359375
214;1673435641.6486568;47.130320499999996;7.2402187;49.78000259399414;1673435641.692159;-47.85270309448242;12.630721092224121;-134.26548767089844
215;1673435641.8402698;47.1303005;7.2401931;49.790000915527344;1673435641.8877;-46.76583480834961;12.60772705078125;-134.13223266601562
216;1673435642.054485;47.1302804;7.240167199999999;49.803001403808594;1673435642.1004107;-46.168609619140625;12.576743125915527;-134.15545654296875
217;1673435642.2635796;47.1302605;7.2401411;49.81900405883789;1673435642.30595;-46.70359802246094;12.84341049194336;-134.203369140625
218;1673435642.4565358;47.1302406;7.2401149;49.8380012512207;1673435642.5000215;-47.40595245361328;12.968860626220703;-134.12319946289062
219;1673435642.655789;47.130220699999995;7.2400885;49.858001708984375;1673435642.696633;-47.567745208740234;12.893160820007324;-134.0187225341797
220;1673435642.8566523;47.1302009;7.2400619;49.86900329589844;1673435642.9020982;-47.09846496582031;12.668639183044434;-133.9362335205078
221;1673435643.066386;47.130181199999996;7.2400353;49.867000579833984;1673435643.1128356;-45.869529724121094;12.282726287841797;-133.9200897216797
222;1673435643.2729838;47.1301615;7.2400087;49.871002197265625;1673435643.3101301;-45.64240264892578;12.290730476379395;-134.0979461669922
223;1673435643.4728718;47.1301419;7.2399821;49.87700271606445;1673435643.5154028;-46.660560607910156;12.584150314331055;-134.1466064453125
224;1673435643.6715941;47.1301223;7.2399555;49.88200378417969;1673435643.7185006;-47.183082580566406;12.610713958740234;-134.04135131835938
225;1673435643.876635;47.130102799999996;7.2399289;49.88600158691406;1673435643.9187543;-46.8120002746582;12.409126281738281;-133.97366333007812
226;1673435644.0932188;47.130083299999995;7.2399021999999995;49.89500427246094;1673435644.130345;-46.80200958251953;12.360369682312012;-134.03890991210938
227;1673435644.2667081;47.130063799999995;7.239875499999999;49.900001525878906;1673435644.3021262;-47.18314743041992;12.415520668029785;-134.0103759765625
228;1673435644.4618695;47.130044299999994;7.2398488;49.89500427246094;1673435644.5053718;-46.77463912963867;12.244959831237793;-133.91281127929688
229;1673435644.6584423;47.1300248;7.239821999999999;49.88900375366211;1673435644.7025647;-46.221290588378906;12.116415023803711;-133.97769165039062
230;1673435644.871271;47.1300053;7.2397953;49.88300323486328;1673435644.9154232;-46.33351135253906;12.203897476196289;-134.0361328125
231;1673435645.064168;47.1299858;7.2397686;49.87800216674805;1673435645.106432;-46.85895919799805;12.237587928771973;-133.98707580566406
232;1673435645.256541;47.1299664;7.239741899999999;49.875003814697266;1673435645.2983444;-46.99641799926758;12.266547203063965;-133.9654998779297
233;1673435645.4574428;47.1299469;7.2397152;49.86900329589844;1673435645.5073903;-46.738338470458984;12.128986358642578;-133.8986358642578
234;1673435645.6781433;47.1299275;7.2396883999999995;49.85900115966797;1673435645.7140179;-46.393978118896484;12.038326263427734;-133.90821838378906
235;1673435645.8882546;47.129908099999994;7.2396617;49.85100173950195;1673435645.9302402;-46.338096618652344;11.969513893127441;-133.9412384033203
236;1673435646.0895667;47.129888699999995;7.2396351;49.84800338745117;1673435646.1346548;-46.62458801269531;12.002777099609375;-133.9411163330078
237;1673435646.2800226;47.129869299999996;7.2396084;49.845001220703125;1673435646.3225684;-46.858306884765625;12.01651668548584;-133.89215087890625
238;1673435646.4698524;47.129849799999995;7.2395818;49.842002868652344;1673435646.5113654;-46.74642562866211;11.993902206420898;-133.8564910888672
239;1673435646.6682904;47.129830299999995;7.2395551;49.8380012512207;1673435646.721661;-46.64600372314453;11.984087944030762;-133.82452392578125
240;1673435646.886814;47.129810899999995;7.239528399999999;49.8380012512207;1673435646.9258761;-46.725311279296875;11.978276252746582;-133.7955780029297
241;1673435647.0788782;47.129791399999995;7.239501799999999;49.8390007019043;1673435647.156854;-46.838768005371094;11.95063304901123;-133.7408905029297
242;1673435647.2930126;47.129771899999994;7.2394751;49.842002868652344;1673435647.3344996;-46.883995056152344;11.910199165344238;-133.67404174804688
243;1673435647.4829543;47.129752499999995;7.239448299999999;49.842002868652344;1673435647.5225806;-46.65827941894531;11.815230369567871;-133.62437438964844
244;1673435647.6898363;47.129732999999995;7.2394216;49.84300231933594;1673435647.735844;-46.566436767578125;11.79118824005127;-133.62855529785156
245;1673435647.889859;47.129713599999995;7.2393949;49.84400177001953;1673435647.9319475;-46.769012451171875;11.796526908874512;-133.56884765625
246;1673435648.0811665;47.129694099999995;7.2393681999999995;49.84700393676758;1673435648.1169806;-46.87358856201172;11.744254112243652;-133.52256774902344
247;1673435648.3113344;47.129674699999995;7.2393415;49.85100173950195;1673435648.349544;-46.93022537231445;11.74239444732666;-133.46755981445312
248;1673435648.494133;47.129655199999995;7.2393148;49.85600280761719;1673435648.531217;-47.00951385498047;11.677892684936523;-133.3721160888672
249;1673435648.674402;47.129635699999994;7.2392881;49.855003356933594;1673435648.71497;-46.73126983642578;11.568060874938965;-133.27810668945312
250;1673435648.8534195;47.1296162;7.239261399999999;49.85600280761719;1673435648.8959408;-46.64303970336914;11.510201454162598;-133.2185821533203
251;1673435649.047392;47.1295967;7.239234799999999;49.858001708984375;1673435649.090547;-46.839134216308594;11.4983491897583;-133.15841674804688
252;1673435649.258528;47.1295773;7.2392081;49.85900115966797;1673435649.3018746;-46.862449645996094;11.459498405456543;-133.0379180908203
253;1673435649.4645846;47.1295578;7.239181299999999;49.862003326416016;1673435649.522712;-46.764320373535156;11.362610816955566;-132.9479522705078
254;1673435649.736534;47.1295383;7.2391546;49.868003845214844;1673435649.796614;-46.83643341064453;11.253528594970703;-132.8506317138672
255;1673435649.957919;47.1295188;7.2391277999999994;49.875003814697266;1673435649.9903789;-46.902523040771484;11.195358276367188;-132.7460479736328
256;1673435650.1275432;47.1294993;7.239101;49.88200378417969;1673435650.1646285;-47.102359771728516;11.145821571350098;-132.603759765625
257;1673435650.3142211;47.1294797;7.2390741;49.88900375366211;1673435650.3553882;-47.15597915649414;11.030101776123047;-132.43492126464844
258;1673435650.491686;47.1294602;7.2390472;49.89500427246094;1673435650.5334153;-47.06513977050781;10.858484268188477;-132.26873779296875
259;1673435650.687058;47.129440599999995;7.239020399999999;49.9010009765625;1673435650.7227395;-47.028804779052734;10.752222061157227;-132.13400268554688
260;1673435650.8662324;47.129421099999995;7.2389934;49.90800094604492;1673435650.9082658;-46.972328186035156;11.020148277282715;-132.0579376220703
261;1673435651.0743768;47.1294015;7.2389665;49.9170036315918;1673435651.1145694;-47.00437545776367;13.171144485473633;-132.1328125
262;1673435651.282269;47.1293821;7.2389394;49.926002502441406;1673435651.324294;-46.618873596191406;15.413208961486816;-131.6569061279297
263;1673435651.4841757;47.129363;7.238912099999999;49.93400192260742;1673435651.5287545;-47.15523147583008;14.260401725769043;-130.52745056152344
264;1673435651.6821291;47.1293441;7.238884499999999;49.945003509521484;1673435651.7173023;-47.053314208984375;14.98910903930664;-130.3603057861328
265;1673435651.8625987;47.1293254;7.2388566;49.95900344848633;1673435651.8998864;-46.66159439086914;15.900399208068848;-129.95957946777344
266;1673435652.06496;47.1293072;7.2388284;49.97700119018555;1673435652.1059945;-46.245697021484375;17.747968673706055;-129.81178283691406
267;1673435652.2583818;47.129289299999996;7.2387999;49.993003845214844;1673435652.3043017;-46.32856750488281;18.8509578704834;-129.09161376953125
268;1673435652.4574075;47.129272;7.238771099999999;50.00800323486328;1673435652.503377;-40.3574104309082;18.021690368652344;-127.8376235961914
269;1673435652.6649656;47.1292553;7.2387424;50.02800369262695;1673435652.708457;-25.518775939941406;18.808631896972656;-129.07559204101562
270;1673435652.8891814;47.1292396;7.2387149;50.05600357055664;1673435652.965026;-9.270548820495605;17.950332641601562;-132.00840759277344
271;1673435653.116796;47.1292252;7.2386897999999995;50.07500076293945;1673435653.170136;4.969496726989746;14.796149253845215;-135.02926635742188
272;1673435653.3341157;47.1292123;7.238667899999999;50.082000732421875;1673435653.370474;14.051407814025879;12.056621551513672;-136.06028747558594
273;1673435653.508227;47.1292012;7.238649799999999;50.082000732421875;1673435653.5444083;18.255300521850586;11.716529846191406;-136.54164123535156
274;1673435653.6950839;47.1291916;7.238635299999999;50.07200241088867;1673435653.738139;20.04255485534668;16.082504272460938;-138.5084228515625
275;1673435653.8851879;47.1291837;7.2386241;50.06300354003906;1673435653.9302464;17.7645206451416;17.570777893066406;-137.39686584472656
276;1673435654.0792055;47.1291772;7.2386154;50.05900192260742;1673435654.119016;14.215460777282715;23.391815185546875;-137.14431762695312
277;1673435654.2722259;47.1291721;7.2386085;50.06500244140625;1673435654.3156867;9.669913291931152;21.79119873046875;-135.84266662597656
278;1673435654.4784873;47.1291678;7.2386029;50.07400131225586;1673435654.5197992;4.565708637237549;20.707523345947266;-134.1338653564453
279;1673435654.6841333;47.1291643;7.238598;50.08400344848633;1673435654.7217567;-0.7069377899169922;18.684106826782227;-132.94204711914062
280;1673435654.8770754;47.1291612;7.2385936;50.09300231933594;1673435654.9181237;-4.125284194946289;18.083297729492188;-132.24876403808594
281;1673435655.0720162;47.1291583;7.2385896999999995;50.09600067138672;1673435655.1141918;-5.621531963348389;18.610950469970703;-131.73922729492188
282;1673435655.26785;47.1291556;7.238586;50.09700393676758;1673435655.3159158;-5.236805438995361;20.624248504638672;-131.08511352539062
283;1673435655.4774563;47.1291529;7.2385823;50.10000228881836;1673435655.5187252;-10.37369441986084;21.549606323242188;-132.8670654296875
284;1673435655.6851597;47.1291502;7.2385782999999995;50.143001556396484;1673435655.7223225;-33.30479431152344;20.958953857421875;-140.99960327148438
285;1673435655.87433;47.129146299999995;7.2385725999999995;50.2390022277832;1673435655.91686;-29.97295570373535;11.760000228881836;-138.6488037109375
286;1673435656.0796452;47.129140899999996;7.2385654;50.393001556396484;1673435656.1351302;-18.55056381225586;5.418890476226807;-137.0201416015625
287;1673435656.312084;47.1291344;7.2385582;50.63900375366211;1673435656.353448;-22.441776275634766;10.072998046875;-135.70953369140625
288;1673435656.5068223;47.1291272;7.2385509;50.94700241088867;1673435656.543911;-29.47150230407715;15.571078300476074;-135.7220458984375
289;1673435656.6808188;47.1291193;7.238542499999999;51.298004150390625;1673435656.7169683;-40.93037796020508;25.494375228881836;-135.9026641845703
290;1673435656.8737159;47.1291107;7.238531099999999;51.677001953125;1673435656.9174414;-35.90193557739258;23.049060821533203;-134.2165069580078
291;1673435657.0733438;47.1291018;7.2385174999999995;52.06100082397461;1673435657.1139205;-33.71978759765625;22.30022430419922;-135.05906677246094
292;1673435657.2574108;47.1290927;7.2385025999999995;52.44700241088867;1673435657.2984126;-29.370290756225586;20.334571838378906;-135.66233825683594
293;1673435657.4573877;47.1290833;7.2384869;52.83400344848633;1673435657.5063877;-25.983671188354492;18.413236618041992;-136.36526489257812
294;1673435657.6564019;47.1290738;7.2384711;53.22100067138672;1673435657.7013965;-22.913515090942383;16.31847381591797;-136.8498077392578
295;1673435657.8590581;47.1290641;7.2384555;53.60700225830078;1673435657.9001377;-20.868436813354492;14.580168724060059;-137.0543975830078
296;1673435658.0540745;47.1290544;7.2384404;53.993003845214844;1673435658.0948613;-19.846994400024414;12.745089530944824;-136.95059204101562
297;1673435658.2663832;47.129044699999994;7.238426;54.381004333496094;1673435658.3095422;-19.496694564819336;11.567654609680176;-136.8174591064453
298;1673435658.4991107;47.1290348;7.2384122;54.77100372314453;1673435658.5325768;-19.70954704284668;12.47828483581543;-136.99293518066406
299;1673435658.701133;47.129025;7.238398999999999;55.165000915527344;1673435658.741833;-20.373350143432617;15.443798065185547;-137.46775817871094
300;1673435658.9057987;47.1290151;7.2383861;55.56300354003906;1673435658.9451177;-21.124704360961914;17.76503562927246;-137.660888671875
301;1673435659.0882008;47.129005299999996;7.238373299999999;55.96000289916992;1673435659.1302333;-22.221975326538086;19.40287971496582;-137.52133178710938
302;1673435659.2821808;47.128995499999995;7.2383605;56.358001708984375;1673435659.3203785;-23.147174835205078;19.522125244140625;-137.42312622070312
303;1673435659.4628346;47.1289857;7.2383475;56.755001068115234;1673435659.5029714;-24.257801055908203;18.13480567932129;-137.0963897705078
304;1673435659.6540709;47.128975999999994;7.238334399999999;57.1510009765625;1673435659.7002442;-24.8196964263916;16.860984802246094;-136.6998291015625
305;1673435659.8736784;47.128966299999995;7.238321;57.548004150390625;1673435659.9171746;-24.754602432250977;15.814231872558594;-136.49574279785156
306;1673435660.086565;47.1289564;7.2383076;57.94400405883789;1673435660.1311495;-24.660079956054688;16.38951873779297;-136.69461059570312
307;1673435660.291434;47.1289465;7.2382941;58.340003967285156;1673435660.335406;-23.88629150390625;18.31939697265625;-137.01161193847656
308;1673435660.494202;47.128936499999995;7.238280499999999;58.73500442504883;1673435660.534915;-23.504154205322266;19.202224731445312;-137.1556396484375
309;1673435660.6942458;47.1289266;7.2382668;59.12900161743164;1673435660.737739;-23.510074615478516;19.298688888549805;-137.15573120117188
310;1673435660.8904579;47.1289167;7.238252999999999;59.52300262451172;1673435660.9262435;-23.35968780517578;18.697107315063477;-137.09141540527344
311;1673435661.0908487;47.128906799999996;7.2382392;59.92200469970703;1673435661.1316683;-23.4376163482666;17.293394088745117;-136.86192321777344
312;1673435661.284326;47.128896999999995;7.238225399999999;60.3180046081543;1673435661.3268595;-23.57703399658203;16.700960159301758;-136.756591796875
313;1673435661.478815;47.1288871;7.238211499999999;60.71400451660156;1673435661.5222156;-23.337186813354492;15.42029857635498;-136.43614196777344
314;1673435661.6811523;47.1288772;7.2381977;61.11000442504883;1673435661.7204428;-23.350269317626953;15.354911804199219;-136.51702880859375
315;1673435661.8722382;47.128867299999996;7.2381839999999995;61.506004333496094;1673435661.9113235;-23.198688507080078;15.334038734436035;-136.58680725097656
316;1673435662.084496;47.1288574;7.2381704;61.90500259399414;1673435662.1266792;-22.766597747802734;16.467483520507812;-136.81471252441406
317;1673435662.2763467;47.1288475;7.2381568;62.30600357055664;1673435662.3178809;-22.927453994750977;17.246315002441406;-137.00369262695312
318;1673435662.5018997;47.1288377;7.2381432;62.70500183105469;1673435662.5455892;-22.763011932373047;17.94062042236328;-137.0790252685547
319;1673435662.7022638;47.128827799999996;7.2381297;63.105003356933594;1673435662.7457569;-23.09146499633789;17.851211547851562;-136.9832000732422
320;1673435662.8936093;47.1288181;7.238116;63.506004333496094;1673435662.9332266;-23.402414321899414;18.137907028198242;-137.0758514404297
321;1673435663.074185;47.128808299999996;7.2381024;63.90700149536133;1673435663.1120365;-23.635135650634766;18.125612258911133;-137.10694885253906
322;1673435663.267154;47.128798499999995;7.2380887;64.30900573730469;1673435663.3091393;-23.795547485351562;18.20848846435547;-137.17288208007812
323;1673435663.4658983;47.1287887;7.2380751;64.71000671386719;1673435663.51504;-23.966901779174805;18.053274154663086;-137.12245178222656
324;1673435663.6834762;47.1287788;7.2380615;65.10800170898438;1673435663.726023;-24.106536865234375;17.2901611328125;-136.94094848632812
325;1673435663.8711414;47.128768799999996;7.2380479;65.5050048828125;1673435663.9166126;-24.054180145263672;17.06250762939453;-136.84188842773438
326;1673435664.0822241;47.1287588;7.2380343;65.906005859375;1673435664.126244;-24.012062072753906;16.605201721191406;-136.61859130859375
327;1673435664.2822933;47.1287488;7.2380207;66.3070068359375;1673435664.3216262;-23.856502532958984;16.09966278076172;-136.59097290039062
328;1673435664.464085;47.1287388;7.238007;66.70600128173828;1673435664.5109355;-23.869234085083008;15.915328979492188;-136.6405029296875
329;1673435664.6760302;47.128728699999996;7.237993299999999;67.1030044555664;1673435664.7244103;-23.665340423583984;15.856600761413574;-136.6492156982422
330;1673435664.912537;47.128718799999994;7.2379796999999995;67.50300598144531;1673435664.9502096;-23.725923538208008;15.863625526428223;-136.57373046875
331;1673435665.0894532;47.1287089;7.237965999999999;67.9010009765625;1673435665.1300514;-23.749557495117188;15.990924835205078;-136.65475463867188
332;1673435665.2776647;47.128698899999996;7.237952399999999;68.29800415039062;1673435665.3219018;-23.685312271118164;16.596179962158203;-136.79534912109375
333;1673435665.507058;47.128689;7.237938799999999;68.69499969482422;1673435665.5677323;-23.47089958190918;17.297788619995117;-136.91134643554688
334;1673435665.7149065;47.128679;7.2379251;69.09200286865234;1673435665.760898;-23.50386619567871;17.744972229003906;-136.99118041992188
335;1673435665.9111235;47.128668999999995;7.2379115;69.48800659179688;1673435665.9562206;-23.21259307861328;18.23541831970215;-137.0384063720703
336;1673435666.1055768;47.1286591;7.2378978;69.88300323486328;1673435666.1471784;-23.352550506591797;18.513988494873047;-137.1097412109375
337;1673435666.2993748;47.1286492;7.2378841;70.2770004272461;1673435666.3419003;-23.476591110229492;18.505023956298828;-137.04949951171875
338;1673435666.509281;47.1286394;7.237870399999999;70.677001953125;1673435666.5493317;-23.65504264831543;18.321359634399414;-137.07315063476562
339;1673435666.7104628;47.128629499999995;7.2378566;71.0780029296875;1673435666.747588;-23.685701370239258;18.028701782226562;-137.08566284179688
340;1673435666.8984334;47.128619699999994;7.237842799999999;71.47900390625;1673435666.940991;-23.829736709594727;17.543231964111328;-136.99366760253906
341;1673435667.099078;47.1286098;7.237829;71.8800048828125;1673435667.14208;-24.00811767578125;17.171903610229492;-136.89828491210938
342;1673435667.306695;47.1286;7.2378152;72.27900695800781;1673435667.3536377;-24.113569259643555;16.96681785583496;-136.8896942138672
343;1673435667.5057251;47.1285901;7.2378015;72.6820068359375;1673435667.5454624;-24.224660873413086;16.914575576782227;-136.8672332763672
344;1673435667.6949463;47.1285801;7.2377877999999995;73.08700561523438;1673435667.7356572;-24.194047927856445;17.213085174560547;-136.90916442871094
345;1673435667.8878806;47.1285702;7.2377742;73.48800659179688;1673435667.931378;-24.131471633911133;17.26726722717285;-136.8509979248047
346;1673435668.0984917;47.1285601;7.2377606;73.88899993896484;1673435668.1425428;-24.066774368286133;17.192829132080078;-136.75686645507812
347;1673435668.3061087;47.1285501;7.237746899999999;74.28600311279297;1673435668.345704;-23.849166870117188;17.12080955505371;-136.71551513671875
348;1673435668.4900873;47.128540099999995;7.2377332;74.6820068359375;1673435668.5348942;-23.782115936279297;16.859817504882812;-136.71652221679688
349;1673435668.6805778;47.1285302;7.2377194;75.0780029296875;1673435668.7271075;-23.840391159057617;16.723533630371094;-136.7476043701172
350;1673435668.897374;47.1285202;7.237705699999999;75.47400665283203;1673435668.9390748;-23.81065559387207;16.75638771057129;-136.75335693359375
351;1673435669.0951028;47.128510299999995;7.237692099999999;75.87000274658203;1673435669.1333694;-23.831607818603516;16.881202697753906;-136.83001708984375
352;1673435669.305815;47.1285004;7.2376784999999995;76.26700592041016;1673435669.343488;-23.851993560791016;17.03390121459961;-136.8450164794922
353;1673435669.4896204;47.1284905;7.2376648999999995;76.66300201416016;1673435669.5272682;-24.04437255859375;17.366241455078125;-136.86517333984375
354;1673435669.6753347;47.1284807;7.237651199999999;77.06400299072266;1673435669.7166245;-24.296356201171875;17.366334915161133;-136.86708068847656
355;1673435669.8827083;47.128470799999995;7.237637599999999;77.46300506591797;1673435669.931564;-24.29330825805664;17.41831398010254;-136.87327575683594
356;1673435670.0925725;47.1284609;7.2376239;77.85900115966797;1673435670.1387513;-24.459714889526367;17.49070167541504;-136.89913940429688
357;1673435670.298622;47.128451;7.2376102;78.2560043334961;1673435670.3421855;-24.580324172973633;17.369121551513672;-136.888427734375
358;1673435670.5002484;47.128441099999996;7.237596399999999;78.65400695800781;1673435670.540952;-24.194419860839844;17.418529510498047;-136.86935424804688
359;1673435670.7138388;47.1284312;7.2375826;79.0510025024414;1673435670.7580433;-23.990489959716797;17.311199188232422;-136.93014526367188
360;1673435670.9245174;47.1284212;7.2375687;79.44700622558594;1673435670.965655;-23.808399200439453;17.345609664916992;-136.92613220214844
361;1673435671.1216471;47.128411299999996;7.237554899999999;79.84500122070312;1673435671.161698;-23.631784439086914;17.447805404663086;-136.94744873046875
362;1673435671.31156;47.1284014;7.2375412;80.24600219726562;1673435671.3503366;-23.799287796020508;17.329761505126953;-136.97076416015625
363;1673435671.5061078;47.1283915;7.2375275;80.64600372314453;1673435671.544386;-23.861906051635742;17.1701717376709;-136.95773315429688
364;1673435671.7062569;47.1283816;7.237513799999999;81.04500579833984;1673435671.7468634;-23.836692810058594;17.340953826904297;-136.95928955078125
365;1673435671.9075475;47.128371699999995;7.2375001999999995;81.44200134277344;1673435671.9500659;-23.846574783325195;17.207731246948242;-136.9405059814453
366;1673435672.099336;47.1283618;7.237486499999999;81.83500671386719;1673435672.142459;-23.81397247314453;17.409072875976562;-136.95236206054688
367;1673435672.301804;47.1283519;7.237472899999999;82.22700500488281;1673435672.344482;-23.99301528930664;17.415529251098633;-136.9736785888672
368;1673435672.49828;47.128341999999996;7.237459299999999;82.61700439453125;1673435672.539152;-24.069665908813477;17.448081970214844;-136.95028686523438
369;1673435672.7233367;47.128332099999994;7.2374458;83.0050048828125;1673435672.7649887;-24.14623260498047;17.453140258789062;-136.95306396484375
370;1673435672.932946;47.1283222;7.2374320999999995;83.39600372314453;1673435672.97101;-24.217451095581055;17.420743942260742;-136.94937133789062
371;1673435673.1417453;47.1283123;7.2374184999999995;83.78700256347656;1673435673.192524;-24.15458869934082;17.424375534057617;-136.93820190429688
372;1673435673.3312297;47.128302399999995;7.237404799999999;84.17900085449219;1673435673.3810406;-23.99348258972168;17.439268112182617;-136.9405517578125
373;1673435673.5267634;47.1282924;7.2373911;84.57400512695312;1673435673.5650344;-23.85243034362793;17.514738082885742;-136.9271240234375
374;1673435673.7640266;47.1282825;7.2373774;84.96800231933594;1673435673.8011222;-23.79002571105957;17.468589782714844;-136.9768829345703
375;1673435673.9418201;47.1282725;7.2373636999999995;85.36300659179688;1673435674.0220072;-23.81443214416504;17.410470962524414;-136.97254943847656
376;1673435674.1788757;47.1282626;7.237349999999999;85.75800323486328;1673435674.2140317;-23.77364158630371;17.2504940032959;-136.9615936279297
377;1673435674.3399713;47.1282528;7.237336399999999;86.1570053100586;1673435674.3921254;-23.98359489440918;17.264894485473633;-136.9709930419922
378;1673435674.5400932;47.1282429;7.237322799999999;86.5530014038086;1673435674.580131;-23.924118041992188;17.269981384277344;-136.96934509277344
379;1673435674.774519;47.1282329;7.2373091;86.94300079345703;1673435674.8113248;-23.86735725402832;17.42148208618164;-136.97264099121094
380;1673435674.9750488;47.128223;7.2372955;87.33100128173828;1673435675.0281332;-23.964109420776367;17.36072540283203;-136.96514892578125
381;1673435675.1721702;47.128213099999996;7.2372819999999995;87.71900177001953;1673435675.2092607;-24.00200653076172;17.366546630859375;-136.9590301513672
382;1673435675.354308;47.1282031;7.2372684;88.10800170898438;1673435675.3933475;-24.125761032104492;17.35801124572754;-136.95840454101562
383;1673435675.546297;47.1281932;7.2372548;88.49800109863281;1673435675.5915334;-23.990541458129883;17.511823654174805;-136.9443359375
384;1673435675.7713816;47.128183199999995;7.2372413;88.89100646972656;1673435675.8103633;-24.014677047729492;17.505189895629883;-136.92178344726562
385;1673435675.943878;47.1281732;7.2372277;89.2820053100586;1673435675.9840698;-23.970291137695312;17.57452392578125;-136.95445251464844
386;1673435676.132282;47.1281633;7.237214;89.67000579833984;1673435676.1705074;-23.92953109741211;17.51066017150879;-136.94129943847656
387;1673435676.3358786;47.1281533;7.2372004;90.0570068359375;1673435676.3739862;-23.917985916137695;17.47626495361328;-136.95046997070312
388;1673435676.5242794;47.1281434;7.2371867;90.44400787353516;1673435676.56007;-23.924545288085938;17.447175979614258;-136.9494171142578
389;1673435676.757301;47.128133399999996;7.2371731;90.8330078125;1673435676.7956562;-23.75052833557129;17.272098541259766;-136.92665100097656
390;1673435676.9493244;47.1281235;7.2371595;91.22600555419922;1673435676.9883454;-23.848905563354492;17.30290985107422;-136.9651641845703
391;1673435677.1226182;47.1281135;7.2371459;91.61700439453125;1673435677.1656103;-23.837757110595703;17.296144485473633;-136.94937133789062
392;1673435677.322618;47.128103599999996;7.2371323;92.00800323486328;1673435677.3663476;-23.845073699951172;17.286577224731445;-136.9584197998047
393;1673435677.5152707;47.1280936;7.2371187;92.4010009765625;1673435677.5660512;-23.899377822875977;17.301607131958008;-136.93182373046875
394;1673435677.7240484;47.1280837;7.237105199999999;92.79400634765625;1673435677.7607527;-24.052932739257812;17.283950805664062;-136.95541381835938
395;1673435677.9092383;47.128073799999996;7.237091599999999;93.18900299072266;1673435677.9483538;-23.987205505371094;17.31839370727539;-136.91162109375
396;1673435678.1081276;47.1280638;7.2370779999999995;93.5840072631836;1673435678.1509416;-23.90739631652832;17.363788604736328;-136.9087371826172
397;1673435678.307589;47.1280539;7.2370645;93.9800033569336;1673435678.3454468;-24.059785842895508;17.321067810058594;-136.92889404296875
398;1673435678.4945912;47.128043899999994;7.2370509;94.37700653076172;1673435678.5416644;-24.00876235961914;17.488597869873047;-136.92669677734375
399;1673435678.698547;47.1280339;7.237037399999999;94.7750015258789;1673435678.7419908;-23.994796752929688;17.51787567138672;-136.91287231445312
400;1673435678.9116733;47.128023899999995;7.237023799999999;95.17000579833984;1673435678.9542685;-23.87598419189453;17.600671768188477;-136.89706420898438
401;1673435679.104796;47.128014;7.237010199999999;95.56400299072266;1673435679.1496902;-23.95097541809082;17.521610260009766;-136.89491271972656
402;1673435679.3102138;47.128004;7.2369965999999994;95.96300506591797;1673435679.3478448;-23.827713012695312;17.575359344482422;-136.88906860351562
403;1673435679.4870934;47.127994099999995;7.2369829999999995;96.36100769042969;1673435679.5350864;-23.898853302001953;17.451398849487305;-136.9055633544922
404;1673435679.7043877;47.1279842;7.2369693999999996;96.76000213623047;1673435679.7508137;-23.981956481933594;17.441396713256836;-136.90664672851562
405;1673435679.915894;47.1279742;7.2369558;97.15900421142578;1673435679.9549837;-23.844533920288086;17.44373321533203;-136.88465881347656
406;1673435680.105982;47.127964299999995;7.2369422;97.5570068359375;1673435680.1482313;-23.987987518310547;17.372007369995117;-136.8920440673828
407;1673435680.3139834;47.1279543;7.2369286;97.9580078125;1673435680.3540564;-23.714418411254883;17.465473175048828;-136.87335205078125
408;1673435680.516972;47.127944299999996;7.236915;98.35800170898438;1673435680.5909102;-23.737226486206055;17.493671417236328;-136.87789916992188
409;1673435680.736228;47.1279344;7.2369012999999995;98.75700378417969;1673435680.77209;-23.742755889892578;17.346210479736328;-136.8665313720703
410;1673435680.9332323;47.1279245;7.2368877;99.156005859375;1673435680.9739397;-23.774049758911133;17.277408599853516;-136.9091033935547
411;1673435681.1255631;47.1279147;7.2368741;99.55400848388672;1673435681.164696;-23.96722984313965;17.342803955078125;-136.91639709472656
412;1673435681.3067746;47.127904799999996;7.2368605;99.95500183105469;1673435681.350353;-23.899110794067383;17.32727813720703;-136.86717224121094
413;1673435681.510271;47.1278948;7.2368469;100.3530044555664;1673435681.5509412;-24.065874099731445;17.24195098876953;-136.8873291015625
414;1673435681.7133663;47.1278849;7.2368333;100.74800109863281;1673435681.7529457;-23.907285690307617;17.317724227905273;-136.8491668701172
415;1673435681.8982377;47.127874999999996;7.2368197;101.14300537109375;1673435681.93742;-23.95636558532715;17.4212703704834;-136.87879943847656
