;pos_time;latitude;longitude;altitude;alt_time;pitch;roll;yaw
0;1665761013.9512599;46.9755389;7.1803441999999995;0.06200000271201134;1665761013.9434514;-0.7117842435836792;0.4523687958717346;92.1846694946289
1;1665761014.1484108;46.9755389;7.1803441999999995;0.06800000369548798;1665761014.1396265;-0.4558197557926178;0.36496493220329285;92.19645690917969
2;1665761014.3631291;46.9755389;7.1803441999999995;0.06599999964237213;1665761014.3533692;-0.6310750246047974;0.46561312675476074;92.2319564819336
3;1665761014.5671132;46.975539;7.1803441999999995;0.06300000101327896;1665761014.5612586;-0.6130030751228333;0.3241448998451233;92.3646011352539
4;1665761014.7710974;46.975539;7.1803441999999995;0.05900000408291817;1665761014.7564569;-0.5599420070648193;0.3583866059780121;92.33613586425781
5;1665761014.9692252;46.975539;7.1803441999999995;0.05700000375509262;1665761014.9614172;-0.4023558497428894;0.40808767080307007;92.22318267822266
6;1665761015.170282;46.975539;7.1803441999999995;0.06000000238418579;1665761015.1566186;-0.643608808517456;0.28348401188850403;92.3015365600586
7;1665761015.3859785;46.9755391;7.1803441999999995;0.06100000441074371;1665761015.3781703;-0.5684642791748047;0.2999786138534546;92.26195526123047
8;1665761015.5938683;46.9755391;7.1803441999999995;0.06100000441074371;1665761015.5860577;-0.6295480728149414;0.2654491364955902;92.2607650756836
9;1665761015.800777;46.9755391;7.1803441999999995;-0.0010000000474974513;1665761015.7929695;-0.43487808108329773;0.3567039370536804;92.18355560302734
10;1665761015.9959786;46.9755392;7.1803441999999995;-0.005000000353902578;1665761015.9910994;-0.6717103719711304;0.24413245916366577;92.27191162109375
11;1665761016.2097206;46.9755392;7.1803441999999995;-0.010000000707805157;1665761016.2038646;-0.6031705141067505;0.32706478238105774;92.14356994628906
12;1665761016.4185843;46.9755392;7.1803443;-0.012000000104308128;1665761016.4029703;-0.5558677911758423;0.3353676199913025;92.1069564819336
13;1665761016.6245217;46.9755392;7.1803443;-0.014000000432133675;1665761016.608907;-0.5252326726913452;0.3063744008541107;92.2774887084961
14;1665761016.833868;46.9755392;7.1803443;-0.017000000923871994;1665761016.8231306;-0.583805501461029;0.23288550972938538;92.28878021240234
15;1665761017.0358994;46.9755392;7.1803444;-0.014000000432133675;1665761017.0300434;-0.6704665422439575;0.3444375693798065;92.14305114746094
16;1665761017.247692;46.9755391;7.1803444;0.0020000000949949026;1665761017.2389061;-0.5939924716949463;0.29048725962638855;92.26191711425781
17;1665761017.4565535;46.9755391;7.1803444;0.007000000216066837;1665761017.4467955;-0.6491613388061523;0.37912046909332275;92.12195587158203
18;1665761017.653708;46.9755391;7.1803444999999995;0.01600000075995922;1665761017.6458995;-0.6268047094345093;0.28652888536453247;92.26854705810547
19;1665761017.8586652;46.9755391;7.1803444999999995;0.021000001579523087;1665761017.850859;-0.4784643352031708;0.31814637780189514;92.27397918701172
20;1665761018.0763133;46.9755391;7.1803446;0.026000000536441803;1665761018.0597239;-0.31804803013801575;0.32729893922805786;92.3416976928711
21;1665761018.2759333;46.9755391;7.1803446;0.03800000250339508;1665761018.2720304;1.112955093383789;0.005487757734954357;92.2905044555664
22;1665761018.58847;46.9755391;7.1803444;0.06200000271201134;1665761018.5787082;1.751127004623413;0.10461526364088058;92.3571548461914
23;1665761018.785158;46.9755391;7.1803441999999995;0.10200000554323196;1665761018.776375;0.6839748620986938;0.24456830322742462;92.26171112060547
24;1665761019.0140648;46.9755392;7.1803439;0.16700001060962677;1665761019.0033293;0.1093006432056427;0.026773767545819283;92.33832550048828
25;1665761019.2397714;46.9755392;7.1803437;0.25;1665761019.2300234;-0.6861177086830139;1.365462064743042;91.95562744140625
26;1665761019.4525957;46.9755391;7.180343499999999;0.3960000276565552;1665761019.4457614;-0.25287064909935;0.2946937680244446;91.75342559814453
27;1665761019.6576078;46.9755391;7.1803433;0.5480000376701355;1665761019.6429667;0.5914015769958496;0.21188867092132568;91.03456115722656
28;1665761020.0607977;46.9755391;7.1803431;0.718000054359436;1665761020.0510378;0.7510713338851929;0.516208827495575;90.03398895263672
29;1665761020.2648315;46.9755391;7.180342899999999;0.9180000424385071;1665761020.2560477;-0.4999912679195404;-0.07920172065496445;89.35234832763672
30;1665761020.4522274;46.9755391;7.1803427;1.1450001001358032;1665761020.443441;-1.5805819034576416;-0.16834376752376556;87.16348266601562
31;1665761020.6571853;46.9755391;7.1803427;1.3700001239776611;1665761020.6484005;-2.4713168144226074;-0.4408584535121918;84.87004852294922
32;1665761021.091504;46.9755392;7.1803428;1.627000093460083;1665761021.0856493;-1.7124043703079224;0.6118189692497253;88.89675903320312
33;1665761021.294513;46.9755392;7.180343;1.90500009059906;1665761021.2828012;-0.7317832708358765;0.11762531101703644;87.28511047363281
34;1665761021.5111833;46.9755393;7.1803433;2.194000005722046;1665761021.4916656;-0.5149866938591003;-0.20402099192142487;85.10697937011719
35;1665761021.723952;46.975539399999995;7.1803434;2.508000135421753;1665761021.704432;-0.14443553984165192;0.6188738942146301;84.1902847290039
36;1665761021.915248;46.9755395;7.1803436;2.8440001010894775;1665761021.9074404;0.36620327830314636;0.4499001204967499;82.28280639648438
37;1665761022.1377773;46.9755395;7.1803437;3.1650002002716064;1665761022.1221602;-0.2801961302757263;0.04146118834614754;80.4927978515625
38;1665761022.3383756;46.9755396;7.180343799999999;3.508000135421753;1665761022.335448;-0.16517293453216553;0.6338408589363098;80.56475067138672
39;1665761022.559927;46.9755396;7.180343799999999;3.8430001735687256;1665761022.5540695;0.010037976317107677;0.6570053696632385;80.64855194091797
40;1665761022.771717;46.9755397;7.1803439;4.1660003662109375;1665761022.7619588;-0.3313392698764801;0.04110157862305641;80.27392578125
41;1665761022.999125;46.9755397;7.1803439;4.499000072479248;1665761022.9903429;-0.2502349019050598;0.6786654591560364;80.96634674072266
42;1665761023.207991;46.9755397;7.180344;4.833000183105469;1665761023.191396;-0.19216670095920563;1.0024430751800537;80.61578369140625
43;1665761023.4197798;46.9755397;7.180344;5.159000396728516;1665761023.4149024;-0.7968862652778625;-0.04314146190881729;80.30017852783203
44;1665761023.6227891;46.9755397;7.1803441;5.497000217437744;1665761023.612055;-0.29488566517829895;0.572828471660614;80.98094177246094
45;1665761023.8306785;46.9755396;7.1803443;5.826000213623047;1665761023.810182;0.12492120265960693;0.6384125351905823;80.6529541015625
46;1665761024.0444236;46.9755396;7.1803444;6.146000385284424;1665761024.0327115;-0.18020395934581757;0.12252083420753479;80.48640441894531
47;1665761024.2591445;46.9755396;7.1803444999999995;6.475000381469727;1665761024.2523103;-0.04000675305724144;0.3647049069404602;81.13773345947266
48;1665761024.4562922;46.9755396;7.1803444999999995;6.7950005531311035;1665761024.4475102;-0.07659594714641571;1.0723881721496582;80.77819061279297
49;1665761024.6768684;46.9755396;7.1803446;7.110000133514404;1665761024.6671102;-0.4019792377948761;0.04758710414171219;81.10368347167969
50;1665761024.8798778;46.9755396;7.1803446;7.436000347137451;1665761024.8759754;-0.004531403537839651;0.2830624282360077;81.57012939453125
51;1665761025.0994778;46.9755395;7.1803447;7.744000434875488;1665761025.0926461;-0.11316339671611786;0.9506524801254272;81.58263397216797
52;1665761025.305412;46.9755395;7.180344799999999;8.051000595092773;1665761025.2966304;-0.3910740315914154;0.2856479585170746;81.67359924316406
53;1665761025.499639;46.9755395;7.1803449;8.360000610351562;1665761025.4898782;-0.019201772287487984;0.10754567384719849;81.65072631835938
54;1665761025.7104535;46.9755395;7.180345;8.66200065612793;1665761025.698744;-0.06772536039352417;0.758254885673523;81.38133239746094
55;1665761025.905652;46.975539399999995;7.180345099999999;8.969000816345215;1665761025.8988256;-0.04941729083657265;0.45779627561569214;81.3279037475586
56;1665761026.1057324;46.975539399999995;7.180345099999999;9.290000915527344;1665761026.1028042;-0.0532790943980217;0.12478172034025192;81.33270263671875
57;1665761026.313629;46.975539399999995;7.180345099999999;9.585000038146973;1665761026.3067882;-0.2588605582714081;0.7601869106292725;81.11365509033203
58;1665761026.5058942;46.9755393;7.1803452;9.88800048828125;1665761026.496135;0.011658985167741776;0.4034871757030487;81.17484283447266
59;1665761026.7167087;46.9755393;7.1803452;10.188000679016113;1665761026.6981642;0.14789709448814392;-0.20172199606895447;81.19888305664062
60;1665761026.913862;46.9755393;7.1803453;10.586000442504883;1665761026.9050772;-0.06313171237707138;0.8627272844314575;80.95503997802734
61;1665761027.128582;46.9755392;7.1803453;11.143000602722168;1665761027.1198037;0.20526795089244843;0.25230205059051514;81.84402465820312
62;1665761027.3433027;46.9755392;7.180345399999999;11.72800064086914;1665761027.32378;0.18930119276046753;-0.2620445787906647;82.86703491210938
63;1665761027.540452;46.9755393;7.1803453;12.3100004196167;1665761027.5277672;-0.06423121690750122;1.0521639585494995;82.32283020019531
64;1665761027.744441;46.9755392;7.1803452;12.9010009765625;1665761027.7356546;-0.10482335090637207;0.08341586589813232;81.1854248046875
65;1665761027.9503725;46.9755392;7.1803452;13.484000205993652;1665761027.9435408;-0.1795998066663742;0.14011549949645996;80.36493682861328
66;1665761028.1621664;46.9755392;7.1803453;14.071001052856445;1665761028.1533813;-0.10723063349723816;0.7745717167854309;80.60710906982422
67;1665761028.3632193;46.9755391;7.1803453;14.664000511169434;1665761028.3505342;0.10740268230438232;-0.13590483367443085;80.72935485839844
68;1665761028.5633001;46.9755391;7.1803453;15.249000549316406;1665761028.554518;0.012210283428430557;0.3105977475643158;80.73085021972656
69;1665761028.7789958;46.9755391;7.1803452;15.827000617980957;1665761028.7711895;0.007554142270237207;0.13981039822101593;80.77098846435547
70;1665761028.9907904;46.9755391;7.1803452;16.41400146484375;1665761028.982005;-0.028271012008190155;0.15839143097400665;80.77046966552734
71;1665761029.1967235;46.9755391;7.1803452;16.998001098632812;1665761029.18794;0.039937831461429596;0.08557599037885666;80.86763000488281
72;1665761029.3968053;46.9755391;7.1803452;17.578001022338867;1665761029.3850932;0.013854117132723331;0.3143688440322876;80.83818817138672
73;1665761029.6164033;46.9755391;7.1803452;18.161001205444336;1665761029.6076267;0.05184174329042435;0.12145053595304489;80.92558288574219
74;1665761029.830151;46.9755391;7.180345099999999;18.742000579833984;1665761029.8213656;-0.059528909623622894;0.01153605617582798;80.83429718017578
75;1665761030.1971247;46.9755391;7.180345099999999;19.321001052856445;1665761030.1863914;-0.07504678517580032;0.4371570944786072;80.8949203491211
76;1665761030.3972037;46.9755391;7.180345;19.905000686645508;1665761030.3884213;0.05789636820554733;0.13464267551898956;80.95201873779297
77;1665761030.6090026;46.9755391;7.1803449;20.485000610351562;1665761030.6031404;-0.09462282061576843;0.23848511278629303;80.8980941772461
78;1665761030.8168843;46.9755391;7.1803449;21.064001083374023;1665761030.810053;-0.13016098737716675;0.06774424761533737;81.01532745361328
79;1665761031.0208716;46.9755391;7.180344799999999;21.645000457763672;1665761031.0169654;-0.09975223243236542;0.18803705275058746;80.87892150878906
80;1665761031.2287567;46.9755391;7.1803447;22.227001190185547;1665761031.2199714;-0.17819593846797943;0.3237496316432953;80.9019775390625
81;1665761031.5313163;46.9755391;7.1803447;22.810001373291016;1665761031.522533;-0.12846310436725616;0.132338747382164;80.92853546142578
82;1665761031.7294464;46.9755391;7.1803447;23.398000717163086;1665761031.7216377;-0.0444137342274189;0.4863411486148834;80.89310455322266
83;1665761031.9617326;46.9755391;7.1803447;23.983001708984375;1665761031.9529467;-0.11352016776800156;0.14420302212238312;80.92047882080078
84;1665761032.1666949;46.9755391;7.1803446;24.57200050354004;1665761032.1588876;-0.11013736575841904;0.35687145590782166;80.89431762695312
85;1665761032.3697002;46.9755391;7.1803446;25.161001205444336;1665761032.3570127;-0.059025850147008896;0.21000936627388;80.94170379638672
86;1665761032.5932136;46.9755391;7.1803446;25.74700164794922;1665761032.583445;-0.10726425796747208;0.26188966631889343;80.91511535644531
87;1665761032.8020673;46.9755391;7.1803444999999995;26.336000442504883;1665761032.7942593;-0.09954498708248138;0.40686264634132385;80.8823471069336
88;1665761033.148547;46.9755391;7.1803444999999995;26.928001403808594;1665761033.136835;-0.1038433387875557;-0.10902496427297592;80.95462799072266
89;1665761033.351556;46.9755391;7.1803444999999995;27.519001007080078;1665761033.343749;-0.13899217545986176;0.4844576120376587;80.93038940429688
90;1665761033.5555415;46.9755391;7.1803444;28.11100196838379;1665761033.5467565;-0.21068774163722992;0.28806546330451965;80.95832061767578
91;1665761033.766356;46.9755391;7.1803444;28.70400047302246;1665761033.7595236;-0.25682538747787476;0.16339483857154846;80.91465759277344
92;1665761033.9674118;46.975539;7.1803444;29.298002243041992;1665761033.9605803;-0.21942652761936188;0.2729590833187103;80.94732666015625
93;1665761034.1831093;46.975539;7.1803444999999995;29.89200210571289;1665761034.175303;-0.12056469172239304;0.09106659889221191;80.96492004394531
94;1665761034.3783095;46.975539;7.1803444999999995;30.48600196838379;1665761034.3646443;-0.10061999410390854;0.3483108580112457;80.92721557617188
95;1665761034.5842438;46.975539;7.1803444999999995;31.079002380371094;1665761034.5725322;-0.07470893114805222;0.22192798554897308;80.93087005615234
96;1665761034.7765152;46.9755391;7.1803444999999995;31.671001434326172;1665761034.768707;-0.055206526070833206;0.2546769976615906;80.9241943359375
97;1665761034.9990447;46.9755391;7.1803444999999995;32.263999938964844;1665761034.98831;-0.09380435198545456;0.3013530671596527;80.94524383544922
98;1665761035.1971707;46.975539;7.1803444999999995;32.858001708984375;1665761035.1903458;-0.09329698979854584;0.20248360931873322;80.93301391601562
99;1665761035.3943286;46.975539;7.1803444999999995;33.452003479003906;1665761035.3855412;-0.07787778973579407;0.2663358747959137;80.94537353515625
100;1665761035.5983086;46.975539;7.1803444999999995;34.047000885009766;1665761035.595382;-0.05292562022805214;0.3848108947277069;80.9265365600586
101;1665761035.8042457;46.975539;7.1803444999999995;34.64200210571289;1665761035.7847264;-0.07216301560401917;0.21118339896202087;80.90591430664062
102;1665761036.012131;46.975539;7.1803444999999995;35.24100112915039;1665761036.0043232;-0.21761371195316315;0.3375997841358185;80.88404083251953
103;1665761036.2336826;46.975539;7.1803444999999995;35.8380012512207;1665761036.2268584;-0.22501949965953827;0.23282192647457123;80.8956527709961
104;1665761036.9422576;46.9755389;7.1803444999999995;36.43600082397461;1665761036.9364018;-0.18243904411792755;0.19833627343177795;80.88619232177734
105;1665761037.153075;46.9755389;7.1803444999999995;37.03200149536133;1665761037.145269;-0.1028764396905899;0.16487832367420197;80.88651275634766
106;1665761037.3677964;46.9755389;7.1803446;37.62700271606445;1665761037.3580368;-0.06905540823936462;0.21107079088687897;80.88388061523438
107;1665761037.5854478;46.9755389;7.1803446;38.22200012207031;1665761037.573732;-0.059538520872592926;0.2142532467842102;80.88539123535156
108;1665761037.797235;46.9755389;7.1803446;38.81700134277344;1665761037.79138;-0.06531264632940292;0.2803637385368347;80.88631439208984
109;1665761037.9904854;46.9755389;7.1803446;39.41100311279297;1665761037.9797487;-0.1534116119146347;0.2979429066181183;80.93357849121094
110;1665761038.1964223;46.975538799999995;7.1803446;40.00700378417969;1665761038.18666;-0.18546062707901;0.38951146602630615;80.94708251953125
111;1665761038.4072356;46.975538799999995;7.1803446;40.60700225830078;1665761038.3925939;-0.22269366681575775;0.18575970828533173;80.96139526367188
112;1665761038.6092677;46.975538799999995;7.1803447;41.20800018310547;1665761038.600487;-0.09850817918777466;0.25542548298835754;80.96764373779297
113;1665761039.1040976;46.975538799999995;7.1803447;41.80800247192383;1665761039.089459;0.025577597320079803;0.20658868551254272;80.95301055908203
114;1665761039.309059;46.975538799999995;7.1803447;42.40800094604492;1665761039.3002765;0.0344834104180336;0.3656098246574402;80.94534301757812
115;1665761039.5081623;46.975538799999995;7.1803447;43.012001037597656;1665761039.502309;-0.05123740807175636;0.23091226816177368;80.9856948852539
116;1665761039.71898;46.9755387;7.1803447;43.6140022277832;1665761039.7111697;-0.057059697806835175;0.4293176829814911;80.99226379394531
117;1665761040.2089293;46.9755387;7.1803447;44.211002349853516;1665761040.201124;-0.06106582283973694;0.3149769604206085;80.96490478515625
118;1665761040.4119434;46.9755387;7.180344799999999;44.807003021240234;1665761040.3992505;-0.027638614177703857;0.28495070338249207;80.9700927734375
119;1665761040.6149478;46.9755387;7.180344799999999;45.4010009765625;1665761040.6081145;0.04741711914539337;0.2466265857219696;80.9535140991211
120;1665761040.817955;46.9755386;7.180344799999999;46.000003814697266;1665761040.8111231;0.07257003337144852;0.2732613682746887;80.9720687866211
121;1665761041.027794;46.9755386;7.180344799999999;46.60000228881836;1665761041.0170593;0.07248946279287338;0.17466121912002563;80.92658996582031
122;1665761041.2386103;46.9755386;7.180344799999999;47.20100402832031;1665761041.2337298;0.05330909788608551;0.35590600967407227;80.92999267578125
123;1665761041.429906;46.9755386;7.1803447;47.802001953125;1665761041.42405;-0.005553770810365677;0.306986004114151;80.93263244628906
124;1665761042.1277454;46.9755385;7.1803447;48.40400314331055;1665761042.1179857;-0.037231963127851486;0.08688898384571075;80.91493225097656
125;1665761042.334659;46.9755385;7.1803447;49.00700378417969;1665761042.3239248;-0.03136596083641052;0.08021996915340424;80.9110336303711
126;1665761042.5454738;46.9755385;7.1803447;49.60900115966797;1665761042.5298588;-0.03160744532942772;0.12173409759998322;80.90673828125
127;1665761042.7382705;46.9755385;7.1803447;50.21000289916992;1665761042.7265487;-0.049421221017837524;0.06460296362638474;80.90377807617188
128;1665761042.9603693;46.9755385;7.1803446;50.810001373291016;1665761042.9374075;-0.10787010192871094;0.16596822440624237;80.90501403808594
129;1665761043.1985142;46.9755385;7.1803446;51.41100311279297;1665761043.173137;-0.14006826281547546;0.14280907809734344;80.89252471923828
130;1665761043.3976197;46.9755385;7.1803446;52.013004302978516;1665761043.3907864;-0.16910570859909058;0.20803800225257874;80.88436889648438
131;1665761043.595746;46.9755385;7.1803444999999995;52.61700439453125;1665761043.5879385;-0.19426681101322174;0.1679987609386444;80.88067626953125
132;1665761043.808513;46.9755385;7.1803444999999995;53.21900177001953;1665761043.8055859;-0.1559193730354309;0.10414063930511475;80.90178680419922
133;1665761044.0612974;46.9755386;7.1803444999999995;53.82200241088867;1665761044.0456817;-0.18442422151565552;0.1433802992105484;80.93269348144531
134;1665761044.2682095;46.9755386;7.1803444999999995;54.42500305175781;1665761044.2594264;-0.19299989938735962;0.27980196475982666;80.9176254272461
135;1665761044.4799473;46.9755387;7.1803444999999995;55.03000259399414;1665761044.4692073;-0.14218592643737793;0.31949061155319214;80.96125030517578
136;1665761044.689781;46.9755387;7.1803444999999995;55.62600326538086;1665761044.6790457;-0.06762678176164627;0.3374163806438446;80.89523315429688
137;1665761044.890837;46.9755387;7.1803444999999995;56.1660041809082;1665761044.8840055;-0.13079522550106049;0.24214962124824524;80.9430923461914
138;1665761045.0938444;46.9755387;7.1803446;56.63200378417969;1665761045.087013;-0.09319371730089188;0.33459529280662537;80.94940185546875
139;1665761045.3095403;46.9755387;7.1803446;57.03000259399414;1665761045.301735;0.022300846874713898;0.33766642212867737;80.94134521484375
140;1665761045.5154793;46.975538799999995;7.1803446;57.36300277709961;1665761045.4988878;0.11251189559698105;0.27173563838005066;80.95114135742188
141;1665761045.720437;46.975538799999995;7.1803444999999995;57.6410026550293;1665761045.711655;0.07743863016366959;0.2707141935825348;80.9354476928711
142;1665761045.937111;46.975538799999995;7.1803444999999995;57.875003814697266;1665761045.9283268;-0.03430372104048729;0.30441391468048096;80.91958618164062
143;1665761046.2543225;46.975538799999995;7.1803444;58.07100296020508;1665761046.2445595;-0.07011015713214874;0.2921085059642792;80.92540740966797
144;1665761046.468064;46.975538799999995;7.1803444;58.233001708984375;1665761046.4592805;-0.0911894366145134;0.1791999638080597;80.927001953125
145;1665761046.662289;46.9755389;7.1803444;58.38300323486328;1665761046.6525297;2.9806249141693115;-9.022353172302246;77.16995239257812
146;1665761046.880916;46.9755397;7.180343499999999;58.54300308227539;1665761046.8740783;13.727511405944824;-34.63311004638672;69.92012023925781
147;1665761047.0868487;46.975542;7.1803406999999995;58.708003997802734;1665761047.077086;17.925695419311523;-47.85122299194336;60.55939865112305
148;1665761047.296336;46.9755462;7.180334599999999;58.83900451660156;1665761047.2885284;2.788801431655884;-56.43199920654297;44.67558670043945
149;1665761047.5061884;46.9755524;7.1803243;58.96000289916992;1665761047.4954507;-22.690176010131836;-51.10887908935547;24.836048126220703
150;1665761047.72989;46.9755599;7.180311;59.073001861572266;1665761047.72501;-34.678924560546875;-36.44923782348633;4.420244216918945
151;1665761047.92997;46.9755681;7.180295699999999;59.17500305175781;1665761047.923137;-37.53900909423828;-25.556163787841797;-7.659150123596191
152;1665761048.147621;46.9755768;7.1802793;59.25700378417969;1665761048.1339548;-35.430477142333984;-11.146024703979492;-16.488567352294922
153;1665761048.3457472;46.9755859;7.180263399999999;59.30800247192383;1665761048.3359885;-33.65531921386719;-7.0995588302612305;-14.59439754486084
154;1665761048.608289;46.975595399999996;7.1802484;59.34400177001953;1665761048.5995083;-32.31278991699219;-12.123512268066406;-2.177365303039551
155;1665761048.839603;46.975605099999996;7.1802341;59.3650016784668;1665761048.8347235;-32.13996124267578;-20.89431381225586;12.073565483093262
156;1665761049.048466;46.975615499999996;7.1802204;59.39500427246094;1665761049.039683;-31.787944793701172;-29.56726837158203;27.06973648071289
157;1665761049.244641;46.9756267;7.1802074;59.40500259399414;1665761049.236835;-24.607242584228516;-41.46302032470703;46.15584182739258
158;1665761049.4701016;46.9756387;7.180194999999999;59.39600372314453;1665761049.4544833;-19.34168815612793;-39.485687255859375;55.81028366088867
159;1665761049.6711552;46.975651299999996;7.180183899999999;59.35900115966797;1665761049.663348;-13.607365608215332;-24.020240783691406;56.662200927734375
160;1665761049.877093;46.9756633;7.1801740999999994;59.323001861572266;1665761049.8644009;-3.5410425662994385;-2.224153995513916;54.45758056640625
161;1665761050.0830302;46.975673699999994;7.1801656;59.28600311279297;1665761050.0732675;6.057966709136963;8.955697059631348;43.823089599609375
162;1665761050.293843;46.9756819;7.1801584;59.27300262451172;1665761050.286035;16.272092819213867;-1.2084840536117554;26.996225357055664
163;1665761050.5066102;46.975688;7.1801517;59.2760009765625;1665761050.4939222;17.826847076416016;-19.437946319580078;19.550146102905273
164;1665761050.7184045;46.975692599999995;7.1801441;59.28700256347656;1665761050.7037613;10.603778839111328;-36.77668380737305;13.927346229553223
165;1665761050.9214108;46.9756961;7.1801343;59.30600357055664;1665761050.9077468;-10.952929496765137;-38.45051956176758;-2.3098626136779785
166;1665761051.1341772;46.9756995;7.1801227;59.368003845214844;1665761051.1195364;-34.38445281982422;-19.382307052612305;-19.189613342285156
167;1665761051.336209;46.9757037;7.1801105;59.415000915527344;1665761051.3235226;-41.955108642578125;-9.510238647460938;-9.492149353027344
168;1665761051.5558093;46.975709599999995;7.1800986;59.45100402832031;1665761051.5470264;-44.952152252197266;-16.3553409576416;11.514254570007324
169;1665761051.8808236;46.9757172;7.1800877;59.46600341796875;1665761051.8651998;-44.529415130615234;-21.456748962402344;27.10724449157715
170;1665761052.0789492;46.975726599999994;7.180078399999999;59.467002868652344;1665761052.0701606;-39.55973815917969;-23.02524757385254;39.097251892089844
171;1665761052.309282;46.975736999999995;7.180071;59.43400192260742;1665761052.2809775;-32.70614242553711;-20.964637756347656;49.537967681884766
172;1665761052.491794;46.9757481;7.1800654999999995;59.400001525878906;1665761052.4849627;-27.895883560180664;-10.759417533874512;56.52277374267578
173;1665761052.6987047;46.9757587;7.1800621;59.35100173950195;1665761052.6918738;-21.911054611206055;11.005440711975098;52.540802001953125
174;1665761052.9241624;46.9757679;7.180060999999999;59.31200408935547;1665761052.913425;-6.562359809875488;24.194400787353516;41.041568756103516
175;1665761053.1242414;46.975775299999995;7.1800615;59.27700424194336;1665761053.1174095;4.79756498336792;6.914676666259766;24.24195098876953
176;1665761053.3399408;46.9757813;7.1800621;59.233001708984375;1665761053.3272552;5.543325424194336;-26.510942459106445;17.04546546936035
177;1665761053.5400183;46.9757861;7.1800605;59.21800231933594;1665761053.5302596;17.191701889038086;-36.641666412353516;12.531471252441406
178;1665761053.7400997;46.9757892;7.1800554;59.255001068115234;1665761053.7332647;28.70291519165039;-18.16695213317871;7.156400680541992
179;1665761053.9518878;46.975790499999995;7.1800494;59.28600311279297;1665761053.9431064;30.783552169799805;-14.5785493850708;-4.813695430755615
180;1665761054.1480649;46.9757895;7.1800429999999995;59.31700134277344;1665761054.1402562;27.821928024291992;-27.233360290527344;-10.32193660736084
181;1665761054.3549774;46.975786899999996;7.1800361;59.32400131225586;1665761054.3471696;24.141786575317383;-26.647125244140625;-22.391233444213867
182;1665761054.5560322;46.975783;7.1800292;59.30500411987305;1665761054.5482244;16.217138290405273;-21.10793685913086;-35.28779602050781
183;1665761055.0372026;46.9757782;7.1800226;59.27300262451172;1665761055.0274417;5.609601020812988;-19.5908260345459;-46.81122970581055
184;1665761055.2382562;46.9757734;7.1800165;59.268001556396484;1665761055.2304485;-2.5953831672668457;9.575714111328125;-34.847686767578125
185;1665761055.4373615;46.9757696;7.1800121;59.25300216674805;1665761055.4295526;-12.469067573547363;35.289710998535156;-15.589408874511719
186;1665761055.6384165;46.9757678;7.1800112;59.2760009765625;1665761055.6296334;-23.647506713867188;31.931821823120117;-0.800317108631134
187;1665761055.8463044;46.9757678;7.1800131;59.31900405883789;1665761055.8384988;-28.787309646606445;13.445916175842285;10.728620529174805
188;1665761056.551963;46.975769;7.1800162;59.32600402832031;1665761056.0434556;-26.09001922607422;12.64358139038086;15.322361946105957
189;1665761056.7539945;46.9757713;7.1800204;59.302001953125;1665761056.7461872;-20.94257164001465;9.839411735534668;20.242328643798828
190;1665761056.9579802;46.975774099999995;7.180025199999999;59.27800369262695;1665761056.9511454;-17.21051025390625;8.694039344787598;28.62753677368164
191;1665761057.186362;46.975777099999995;7.1800304;59.24700164794922;1665761057.1824582;-18.19862937927246;2.542451858520508;37.543739318847656
192;1665761057.3991296;46.9757804;7.1800358;59.23400115966797;1665761057.3893764;-18.570852279663086;-1.8116674423217773;43.1432991027832
193;1665761057.6143665;46.975784;7.1800409;59.22500228881836;1665761057.6055815;-12.213043212890625;-14.670083045959473;28.00922203063965
194;1665761057.8271346;46.9757879;7.1800444;59.204002380371094;1665761057.8173733;-4.859082221984863;-30.179302215576172;15.034075736999512
195;1665761058.0272117;46.975791799999996;7.1800448999999995;59.211002349853516;1665761058.019404;-3.2233517169952393;-35.748939514160156;5.373871326446533
196;1665761058.7416434;46.9757955;7.1800421;59.23100280761719;1665761058.7328598;-17.901418685913086;-34.4555549621582;-12.00244426727295
197;1665761058.9534378;46.975799099999996;7.1800361;59.259002685546875;1665761058.9456284;-34.71711349487305;-20.1331729888916;-28.84749412536621
198;1665761059.153515;46.9758032;7.1800273;59.33000183105469;1665761059.1447332;-42.48949432373047;-9.004430770874023;-34.37455749511719
199;1665761059.3633583;46.9758086;7.1800166999999995;59.40400314331055;1665761059.356526;-48.52253341674805;-1.9176729917526245;-37.926883697509766
200;1665761059.5683181;46.9758153;7.1800048;59.458003997802734;1665761059.5595317;-51.44965744018555;2.1528968811035156;-41.84130859375
201;1665761060.0582702;46.9758236;7.1799914;59.49500274658203;1665761060.04949;-51.79438018798828;1.0779306888580322;-42.36949157714844
202;1665761060.2690842;46.9758334;7.1799766;59.522003173828125;1665761060.2603023;-51.16154098510742;1.3989800214767456;-40.43949890136719
203;1665761060.4828274;46.9758442;7.179961;59.52900314331055;1665761060.4652627;-50.06270980834961;2.7519538402557373;-38.68343734741211
204;1665761060.6819322;46.975856;7.1799452;59.52700424194336;1665761060.6741247;-48.578460693359375;3.0332047939300537;-38.00294876098633
205;1665761060.8800588;46.9758685;7.179929199999999;59.50700378417969;1665761060.8771327;-45.80940246582031;4.2075724601745605;-38.37936782836914
206;1665761061.0879488;46.975881699999995;7.179913099999999;59.50100326538086;1665761061.0801384;-44.88503646850586;1.4571958780288696;-39.02248764038086
207;1665761061.2968113;46.975895099999995;7.1798968;59.49500274658203;1665761061.287051;-46.94938659667969;-0.8606694936752319;-38.949520111083984
208;1665761061.492011;46.9759088;7.1798801999999995;59.487003326416016;1665761061.4842036;-48.20917510986328;-1.404453992843628;-39.01652908325195
209;1665761061.694045;46.9759227;7.1798630999999995;59.46900177001953;1665761061.6872163;-48.997772216796875;-0.5041621923446655;-39.0693244934082
210;1665761061.8980284;46.9759369;7.179845599999999;59.461002349853516;1665761061.8892446;-50.384586334228516;0.03810594975948334;-39.135379791259766
211;1665761062.104946;46.9759513;7.1798278;59.44000244140625;1665761062.0932279;-50.766048431396484;0.4330960214138031;-39.29999923706055
212;1665761062.3128293;46.975966199999995;7.179809499999999;59.42100143432617;1665761062.3030684;-49.38191604614258;0.1327178031206131;-38.95989227294922
213;1665761063.0272603;46.975981399999995;7.179790799999999;59.4170036315918;1665761063.0175006;-49.057552337646484;0.8354880809783936;-39.62892150878906
214;1665761063.2244115;46.9759968;7.179772;59.410003662109375;1665761063.2166045;-49.59465026855469;0.7078617215156555;-39.97283172607422
215;1665761063.4303503;46.976012399999995;7.179753;59.400001525878906;1665761063.4186366;-48.75735855102539;0.12173403799533844;-39.850738525390625
216;1665761063.7592604;46.976028;7.179733799999999;59.39200210571289;1665761063.752429;-48.13851547241211;1.197766661643982;-40.63674545288086
217;1665761063.9583623;46.9760437;7.179714499999999;59.3900032043457;1665761063.9446998;-49.88399124145508;1.3111751079559326;-40.473445892333984
218;1665761064.1779635;46.9760595;7.1796951;59.37700271606445;1665761064.1711338;-50.08314895629883;0.927952766418457;-40.391883850097656
219;1665761064.375115;46.976075599999994;7.1796754;59.371002197265625;1665761064.366333;-49.627967834472656;0.7098907828330994;-40.41095733642578
220;1665761064.600572;46.9760917;7.1796555;59.362003326416016;1665761064.595692;-50.89142990112305;1.2181166410446167;-40.774295806884766
221;1665761064.8152914;46.976107999999996;7.1796354;59.345001220703125;1665761064.8084595;-50.390499114990234;0.542350709438324;-40.234622955322266
222;1665761065.0358691;46.976124299999995;7.1796152;59.333003997802734;1665761065.0261068;-50.27070617675781;1.2696229219436646;-41.00278091430664
223;1665761065.2476592;46.976140699999995;7.1795949;59.323001861572266;1665761065.2359464;-50.58980178833008;1.056631326675415;-40.58511734008789
224;1665761065.4662838;46.976157199999996;7.1795746;59.31500244140625;1665761065.462379;-49.1618537902832;0.14043863117694855;-39.9043083190918
225;1665761065.6663628;46.9761737;7.1795539999999995;59.31700134277344;1665761065.656603;-49.814212799072266;1.0302616357803345;-40.989463806152344
226;1665761065.8732781;46.9761903;7.1795333999999995;59.310001373291016;1665761065.8654673;-49.84510040283203;1.0434015989303589;-40.93862533569336
227;1665761066.1036131;46.9762068;7.1795127999999995;59.301002502441406;1665761066.095804;-48.73584747314453;1.3530429601669312;-40.733177185058594
228;1665761066.3202822;46.976223399999995;7.179492199999999;59.29500198364258;1665761066.3144271;-50.01802062988281;1.2848143577575684;-40.72450637817383
229;1665761066.5252428;46.976239899999996;7.1794717;59.281002044677734;1665761066.5154843;-50.61033248901367;0.4898764491081238;-40.52666473388672
230;1665761066.744843;46.9762565;7.179450999999999;59.26900100708008;1665761066.7370367;-49.55792999267578;0.5953856110572815;-40.5977783203125
231;1665761066.9468772;46.9762731;7.1794303;59.26000213623047;1665761066.9361396;-50.79522705078125;1.5341016054153442;-40.86777877807617
232;1665761067.1537879;46.976289799999996;7.1794094;59.24500274658203;1665761067.1459804;-50.36681365966797;1.1720376014709473;-40.554988861083984
233;1665761067.3607001;46.9763059;7.1793894;59.2390022277832;1665761067.3538663;-49.53814697265625;0.9232864379882812;-40.627384185791016
234;1665761067.5666342;46.9763234;7.1793675;59.23800277709961;1665761067.556874;-50.303016662597656;0.21634604036808014;-40.19347381591797
235;1665761067.784282;46.976340199999996;7.1793466;59.228004455566406;1665761067.7754989;-50.272701263427734;0.8299696445465088;-40.60120391845703
236;1665761067.986315;46.976357;7.179325599999999;59.22900390625;1665761067.9765544;-48.172813415527344;0.5262534022331238;-39.507057189941406
237;1665761068.1883464;46.9763738;7.179304699999999;59.224002838134766;1665761068.1805382;-41.155418395996094;1.4574288129806519;-39.76849365234375
238;1665761068.39233;46.976389999999995;7.1792846;59.202003479003906;1665761068.3825736;-34.45084762573242;-0.6079472899436951;-39.35942077636719
239;1665761068.5992494;46.9764049;7.1792660999999995;59.177001953125;1665761068.5904589;-30.25236701965332;1.570947527885437;-41.00715255737305
240;1665761068.8100579;46.976419899999996;7.1792475;59.14600372314453;1665761068.8022513;-26.19720458984375;2.176168918609619;-40.92807388305664
241;1665761069.1887488;46.9764328;7.1792316;59.11100387573242;1665761069.177036;-24.502500534057617;1.279352068901062;-40.42758560180664
242;1665761069.872926;46.9764452;7.1792164;59.06500244140625;1665761069.8651156;-21.363737106323242;1.465225338935852;-40.774070739746094
243;1665761070.0632443;46.9764564;7.179202699999999;59.0260009765625;1665761070.053481;-17.238065719604492;1.7761000394821167;-40.817718505859375
244;1665761070.2769887;46.9764668;7.179189999999999;58.99100112915039;1665761070.264301;-12.513916015625;1.2426193952560425;-40.73407745361328
245;1665761070.4839022;46.976475199999996;7.1791798;58.96400451660156;1665761070.4751136;-8.19461441040039;0.767089307308197;-40.4616584777832
246;1665761070.6859305;46.9764828;7.1791706;58.941001892089844;1665761070.6781213;-4.602580547332764;0.8577083349227905;-40.45864486694336
247;1665761070.8840578;46.976489199999996;7.1791629;58.92000198364258;1665761070.877228;-1.9740923643112183;0.7459036111831665;-40.592864990234375
248;1665761071.091947;46.9764945;7.1791564999999995;58.90700149536133;1665761071.0841374;0.30409833788871765;-0.028000572696328163;-40.37969970703125
249;1665761071.2851992;46.976498799999995;7.1791513;58.89900207519531;1665761071.278365;1.384219765663147;0.12165702879428864;-40.332645416259766
250;1665761071.4979615;46.9765022;7.1791469999999995;58.8900032043457;1665761071.4891777;1.2309906482696533;-0.41015249490737915;-40.544620513916016
251;1665761071.6999931;46.976504999999996;7.1791434;58.88900375366211;1665761071.6931639;1.1760227680206299;1.2676135301589966;-40.692630767822266
252;1665761071.9137373;46.9765071;7.1791407;58.888004302978516;1665761071.9049556;1.114759087562561;0.49876177310943604;-40.231136322021484
253;1665761072.1294363;46.9765089;7.1791385;58.881004333496094;1665761072.1216266;-0.48356103897094727;0.654922604560852;-39.88340759277344
254;1665761072.3217046;46.9765103;7.1791367;58.87700271606445;1665761072.3129215;-1.0166608095169067;-0.5839618444442749;-39.63887405395508
255;1665761072.5305698;46.9765115;7.179135199999999;58.875003814697266;1665761072.5237367;-2.0066752433776855;1.5584611892700195;-40.00695037841797
256;1665761072.7365062;46.9765126;7.1791339;58.87000274658203;1665761072.729674;-1.974015235900879;0.5050846338272095;-39.86035919189453
257;1665761072.9502509;46.976513499999996;7.1791326;58.855003356933594;1665761072.9424415;-2.257387638092041;0.7966127395629883;-39.78634262084961
258;1665761073.65297;46.9765144;7.1791314999999996;58.849002838134766;1665761073.6412594;-2.4726574420928955;-0.7335727214813232;-38.82537841796875
259;1665761073.864761;46.976515199999994;7.179130499999999;58.85100173950195;1665761073.848171;-2.206639289855957;2.8876688480377197;-39.38731002807617
260;1665761074.0706966;46.976516;7.1791295999999996;58.85000228881836;1665761074.0628915;-1.8360425233840942;1.291666865348816;-39.28511047363281
261;1665761074.2756596;46.9765167;7.1791287;58.85200119018555;1665761074.2668746;-6.6677961349487305;0.49329128861427307;-43.28736114501953
262;1665761074.4845212;46.976517699999995;7.179127299999999;58.90700149536133;1665761074.4728105;-24.09564971923828;0.8565391302108765;-49.40977096557617
263;1665761074.692409;46.976519599999996;7.1791244999999995;59.03400421142578;1665761074.6846008;-38.59676742553711;4.203891754150391;-50.32832336425781
264;1665761074.8973694;46.9765227;7.179119699999999;59.13300323486328;1665761074.89152;-48.254756927490234;-0.6950588822364807;-51.00074005126953
265;1665761075.1120903;46.9765272;7.1791122;59.19200134277344;1665761075.1033065;-52.067291259765625;-1.9724661111831665;-51.05683135986328
266;1665761075.2965536;46.976532999999996;7.1791016999999995;59.233001708984375;1665761075.2877698;-52.585731506347656;0.910484790802002;-51.668453216552734
267;1665761075.5103016;46.9765404;7.1790885;59.2760009765625;1665761075.5024886;-50.82267761230469;2.1801345348358154;-49.9288330078125
268;1665761075.81481;46.976549;7.1790736;59.31500244140625;1665761075.8011456;-48.729679107666016;0.554440975189209;-47.2949104309082
269;1665761076.0256271;46.976558499999996;7.1790575;59.35200119018555;1665761076.0139136;-45.64408874511719;-0.6844290494918823;-48.26232147216797
270;1665761076.241327;46.9765685;7.179040499999999;59.37800216674805;1665761076.2296107;-42.96666717529297;-1.6958791017532349;-48.574954986572266
271;1665761076.4384747;46.976579;7.1790223;59.38200378417969;1665761076.4277382;-42.08112716674805;-0.521830677986145;-49.31174087524414
272;1665761076.7556767;46.976588799999995;7.1790052;59.371002197265625;1665761076.7507951;-42.96467590332031;-0.08440037816762924;-49.33259582519531
273;1665761076.9586823;46.9765991;7.1789872;59.36300277709961;1665761076.9469686;-44.551368713378906;0.2793344557285309;-49.314083099365234
274;1665761077.1763296;46.9766097;7.1789689;59.36100387573242;1665761077.1655939;-46.585357666015625;0.26521897315979004;-49.16169738769531
275;1665761077.3910491;46.976620499999996;7.1789501;59.35700225830078;1665761077.380314;-48.34852981567383;0.04410965368151665;-49.08259582519531
276;1665761078.0869393;46.9766322;7.1789299;59.353004455566406;1665761078.0752258;-48.65000915527344;0.2711120843887329;-49.18196105957031
277;1665761078.2909198;46.9766434;7.178910699999999;59.34800338745117;1665761078.283113;-49.034751892089844;0.034208182245492935;-48.801212310791016
278;1665761078.4988086;46.9766555;7.178889799999999;59.333003997802734;1665761078.4910376;-50.18223190307617;0.4053387939929962;-49.39241027832031
279;1665761078.7106004;46.9766677;7.178868899999999;59.31200408935547;1665761078.7027948;-51.454078674316406;0.8403635025024414;-49.767356872558594
280;1665761078.9048264;46.976680699999996;7.178846699999999;59.285003662109375;1665761078.8960416;-50.644535064697266;0.3951682448387146;-49.413307189941406
281;1665761079.1029522;46.976693;7.178825499999999;59.272003173828125;1665761079.093192;-50.73759460449219;0.37563061714172363;-49.69728088378906
282;1665761079.8847287;46.9767061;7.1788032;59.250003814697266;1665761079.4113677;-51.47402572631836;0.3946278989315033;-49.659576416015625
283;1665761080.0838335;46.9767193;7.1787804;59.230003356933594;1665761080.0740724;-49.670345306396484;0.3151719868183136;-49.3388557434082
284;1665761080.2868395;46.9767328;7.178757399999999;59.21800231933594;1665761080.2780561;-49.49654769897461;0.7388024926185608;-49.80314636230469
285;1665761080.4976556;46.976746399999996;7.1787342;59.21000289916992;1665761080.4898489;-49.916236877441406;0.5613508820533752;-49.861122131347656
286;1665761080.6967618;46.97676;7.1787109;59.19900131225586;1665761080.6879764;-48.59967803955078;0.4932565987110138;-49.72142028808594
287;1665761080.9066012;46.9767736;7.1786875;59.191001892089844;1665761080.9007466;-48.694908142089844;0.5531085133552551;-49.64244079589844
288;1665761081.122299;46.9767872;7.178664299999999;59.15700149536133;1665761081.1144905;-44.407745361328125;2.388801336288452;-50.47530746459961
289;1665761081.31457;46.9768006;7.1786414;59.1140022277832;1665761081.3057837;-38.36729049682617;-0.2822878062725067;-48.159603118896484
290;1665761081.5166013;46.9768136;7.1786194;59.0780029296875;1665761081.5087922;-34.763084411621094;-0.6428611874580383;-49.662357330322266
291;1665761081.728392;46.976825899999994;7.1785983;59.0410041809082;1665761081.7186325;-30.868696212768555;-0.2298707216978073;-49.7843017578125
292;1665761081.934331;46.9768374;7.178578399999999;59.00300216674805;1665761081.9284742;-26.54862403869629;0.06357716023921967;-49.6097412109375
293;1665761082.137337;46.9768481;7.1785602;58.96900177001953;1665761082.129528;-21.8709659576416;0.8027853965759277;-49.486427307128906
294;1665761082.3471758;46.9768581;7.1785429;58.93400192260742;1665761082.3383946;-16.901681900024414;0.1571716070175171;-49.2463493347168
295;1665761082.5550628;46.976866699999995;7.178528;58.90200424194336;1665761082.5462801;-11.942277908325195;0.488789439201355;-49.370330810546875
296;1665761082.7551436;46.976873999999995;7.1785155;58.87900161743164;1665761082.745384;-7.343250274658203;1.036614179611206;-49.294349670410156
297;1665761082.9698644;46.976880699999995;7.1785039;58.862003326416016;1665761082.9630334;-3.3503470420837402;0.6480838656425476;-49.05410385131836
298;1665761083.1884892;46.976886099999994;7.1784946;58.85400390625;1665761083.178728;-0.4889349639415741;0.942683219909668;-48.89181900024414
299;1665761083.4012554;46.976890399999995;7.1784873;58.85200119018555;1665761083.3934476;1.2267242670059204;0.8274121284484863;-48.53005599975586
300;1665761083.609145;46.9768942;7.178481;58.85100173950195;1665761083.6013372;2.0743632316589355;-0.16799338161945343;-48.02592849731445
301;1665761084.1313071;46.976897;7.1784763;58.85200119018555;1665761084.122521;1.8989019393920898;0.09379065781831741;-48.0927734375
302;1665761084.3304074;46.9768992;7.1784723999999995;58.85400390625;1665761084.3245537;1.4470155239105225;1.6512879133224487;-48.363990783691406
303;1665761084.5480554;46.976901;7.1784693;58.85400390625;1665761084.532442;0.23882266879081726;1.0604512691497803;-47.569244384765625
304;1665761084.7452085;46.9769024;7.1784669;58.855003356933594;1665761084.7403278;-0.9139086008071899;1.393896222114563;-47.15089797973633
305;1665761084.9609053;46.9769037;7.1784649;58.85700225830078;1665761084.9530957;-1.6197893619537354;-0.35028234124183655;-46.81021499633789
306;1665761085.2732236;46.9769049;7.1784633;58.858001708984375;1665761085.2615128;-2.1568586826324463;-0.20619864761829376;-46.88819122314453
307;1665761085.4811125;46.976905699999996;7.178461899999999;58.85900115966797;1665761085.4713511;-2.4331107139587402;0.06745878607034683;-47.048133850097656
308;1665761085.7016869;46.9769065;7.1784604;58.86000442504883;1665761085.691929;-2.421710968017578;1.2393510341644287;-47.21864700317383
309;1665761085.9261682;46.9769072;7.1784592;58.85900115966797;1665761085.9173858;-2.465115785598755;1.176898717880249;-46.69019317626953
310;1665761086.1301534;46.9769079;7.178458099999999;58.86000442504883;1665761086.1242976;-2.3110544681549072;-0.06669747829437256;-46.44431686401367
311;1665761086.3312087;46.9769085;7.1784569;58.85900115966797;1665761086.3243754;-1.5309087038040161;-0.6249744296073914;-46.4008903503418
312;1665761086.5478792;46.9769091;7.178456;58.88600158691406;1665761086.5371437;0.7991880178451538;6.551356792449951;-42.48832702636719
313;1665761086.7547925;46.9769097;7.1784555999999995;59.03900146484375;1665761086.7430797;3.9992146492004395;11.924202919006348;-32.39137649536133
314;1665761087.0729682;46.976910499999995;7.1784564;59.255001068115234;1665761087.0505204;-0.8050918579101562;27.497596740722656;-20.706087112426758
315;1665761087.2759745;46.976912;7.1784601;59.553001403808594;1665761087.2671907;-17.94869613647461;39.24806594848633;-4.2876386642456055
316;1665761087.484841;46.976914699999995;7.1784677;59.93800354003906;1665761087.4770348;-35.40750503540039;30.993921279907227;9.22631549835205
317;1665761087.7093208;46.9769192;7.1784785;60.371002197265625;1665761087.700536;-45.90345001220703;17.086702346801758;22.571643829345703
318;1665761087.9240391;46.9769259;7.1784921;60.84300231933594;1665761087.9142804;-49.085838317871094;10.55156421661377;29.121978759765625
319;1665761088.1329026;46.976934199999995;7.178507;61.26900100708008;1665761088.1250954;-48.33439636230469;10.999028205871582;21.144845962524414
320;1665761088.3300543;46.9769442;7.178522699999999;61.68300247192383;1665761088.3232265;-46.01173782348633;17.324859619140625;7.250635623931885
321;1665761088.5438035;46.9769559;7.1785387;62.10400390625;1665761088.5359929;-40.22574996948242;28.154008865356445;-6.326191425323486
322;1665761088.751688;46.976968799999995;7.1785549;62.5160026550293;1665761088.7438803;-32.251304626464844;38.00974655151367;-20.014434814453125
323;1665761088.9576232;46.9769826;7.178571499999999;62.92900466918945;1665761088.9488382;-21.85812759399414;40.83411407470703;-33.34457015991211
324;1665761089.162584;46.9769971;7.1785882;63.32600402832031;1665761089.1537998;-18.36018943786621;44.433319091796875;-31.214895248413086
325;1665761089.3685179;46.9770119;7.1786059;63.69700241088867;1665761089.3616877;-23.097185134887695;47.06269836425781;-8.050675392150879
326;1665761089.574454;46.977025999999995;7.1786254;64.04000091552734;1665761089.5627425;-29.03204917907715;35.830753326416016;20.537322998046875
327;1665761089.783322;46.977038799999995;7.1786463;64.4010009765625;1665761089.7755125;-27.405073165893555;13.698534965515137;31.330646514892578
328;1665761089.992182;46.9770507;7.178666499999999;64.76300048828125;1665761089.9843757;-26.99209976196289;6.57144832611084;32.20500183105469
329;1665761090.1903121;46.977061899999995;7.1786856;65.12300109863281;1665761090.175673;-33.934776306152344;7.785080909729004;34.40632629394531
330;1665761090.8979123;46.977072799999995;7.178704199999999;65.47100067138672;1665761090.8871746;-41.44253921508789;4.52829647064209;40.460018157958984
331;1665761091.1067739;46.977084;7.1787228;65.81000518798828;1665761091.097993;-47.81022644042969;-0.894856333732605;44.761474609375
332;1665761091.8231661;46.9770957;7.1787417;66.11400604248047;1665761091.8153577;-51.61295700073242;-5.024057388305664;47.051368713378906
333;1665761092.0622861;46.9771083;7.1787611;66.39400482177734;1665761092.0544815;-51.868404388427734;-6.185087203979492;45.49449157714844
334;1665761092.3833897;46.9771218;7.1787806;66.64800262451172;1665761092.3794851;-46.274147033691406;-3.607121229171753;43.22916030883789
335;1665761092.6059182;46.9771356;7.178799799999999;66.8790054321289;1665761092.5981097;-39.937103271484375;-1.0558645725250244;42.14247131347656
336;1665761092.8147821;46.9771498;7.1788193;67.1030044555664;1665761092.8069785;-36.40000915527344;-0.34952491521835327;42.353458404541016
337;1665761093.0236456;46.9771626;7.1788365999999995;67.29400634765625;1665761093.0138905;-33.604610443115234;-0.16018693149089813;42.60369873046875
338;1665761093.2237325;46.9771753;7.1788538;67.47500610351562;1665761093.215918;-30.39811134338379;0.38015177845954895;43.1047248840332
339;1665761093.4228294;46.9771873;7.178870099999999;67.6290054321289;1665761093.410145;-26.073911666870117;0.6189625859260559;43.6790771484375
340;1665761093.634622;46.9771985;7.1788853999999995;67.75700378417969;1665761093.6258376;-20.566225051879883;0.8976806998252869;43.87542724609375
341;1665761093.842509;46.9772087;7.178899299999999;67.86700439453125;1665761093.8347049;-14.606478691101074;1.0083482265472412;44.03691101074219
342;1665761094.190942;46.977218;7.1789121;67.97100067138672;1665761094.1841094;-8.938716888427734;1.1204462051391602;44.156532287597656
343;1665761094.3949268;46.977225399999995;7.178922399999999;68.06300354003906;1665761094.3910217;-4.1045823097229;1.1585524082183838;44.35190963745117
344;1665761094.5998852;46.9772318;7.1789315;68.15400695800781;1665761094.5872002;-0.0487903393805027;1.1683685779571533;44.50333786010742
345;1665761094.8253443;46.977236999999995;7.178939;68.23400115966797;1665761094.8185117;2.813396453857422;0.9782900810241699;44.6795539855957
346;1665761095.046894;46.9772411;7.178944899999999;68.3010025024414;1665761095.041038;4.266293525695801;0.9101793169975281;44.854862213134766
347;1665761095.249901;46.9772442;7.1789494;68.35800170898438;1665761095.241119;4.446298599243164;0.6827873587608337;45.05268859863281
348;1665761095.4490051;46.9772466;7.1789529;68.40800476074219;1665761095.4372952;3.5726523399353027;0.46327874064445496;45.150455474853516
349;1665761095.64128;46.9772483;7.1789555;68.4520034790039;1665761095.6334703;1.9442371129989624;0.35778573155403137;45.18521499633789
350;1665761095.8491688;46.9772496;7.1789575;68.49500274658203;1665761095.8335493;-0.286349356174469;0.04362054169178009;45.21329116821289
351;1665761096.141967;46.9772507;7.178959099999999;68.5320053100586;1665761096.1331825;-2.329556941986084;0.048777878284454346;45.136474609375
352;1665761096.3615673;46.977251599999995;7.178960399999999;68.56600189208984;1665761096.3547356;-4.207976818084717;0.004835789557546377;45.0689582824707
353;1665761096.5655487;46.9772525;7.1789616;68.59600067138672;1665761096.5577402;-5.400369644165039;0.16688638925552368;45.22514724731445
354;1665761096.7714872;46.977253399999995;7.178962899999999;68.62000274658203;1665761096.763681;-5.880187034606934;0.2333075851202011;45.549354553222656
355;1665761096.9666855;46.9772544;7.178964199999999;68.64200592041016;1665761096.9588783;-5.617413520812988;0.3398103713989258;45.95063018798828
356;1665761097.187261;46.977255299999996;7.1789654999999994;68.66200256347656;1665761097.187261;-4.689407825469971;0.37730872631073;46.35188293457031
357;1665761097.5659516;46.9772563;7.178967;68.6820068359375;1665761097.5308156;-3.389230489730835;0.40259116888046265;46.53889083862305
358;1665761097.763101;46.9772572;7.1789684;68.70100402832031;1665761097.7543168;-1.7405582666397095;0.42782315611839294;46.43896484375
359;1665761097.9680624;46.977258;7.1789697;68.71600341796875;1665761097.960256;-0.26480093598365784;0.7519116997718811;46.596614837646484
360;1665761098.1798532;46.9772585;7.1789708;68.73100280761719;1665761098.1700933;3.9654650688171387;11.8390531539917;53.93646240234375
361;1665761098.3945832;46.977258299999995;7.178972;68.74800109863281;1665761098.3877506;1.3999711275100708;21.857587814331055;66.14170837402344
362;1665761098.598567;46.9772568;7.1789739;68.80599975585938;1665761098.5878305;-15.474668502807617;39.06422424316406;81.83649444580078
363;1665761098.8005989;46.9772532;7.1789773;68.89600372314453;1665761098.792791;-35.7081298828125;30.414581298828125;99.99993896484375
364;1665761099.006536;46.9772477;7.1789828;68.99500274658203;1665761098.9987295;-44.761070251464844;15.20220947265625;112.1724624633789
365;1665761099.2115023;46.977240699999996;7.178991;69.08600616455078;1665761099.197832;-48.37374496459961;8.389331817626953;117.5120849609375
366;1665761099.4115746;46.977232799999996;7.179001599999999;69.17200469970703;1665761099.402795;-49.825618743896484;4.6057047843933105;123.52387237548828
367;1665761099.6223907;46.9772244;7.1790138;69.22900390625;1665761099.614583;-48.702457427978516;6.340173721313477;111.88156127929688
368;1665761099.837112;46.977215699999995;7.1790286;69.27900695800781;1665761099.8293037;-46.547210693359375;9.58041763305664;100.81800079345703
369;1665761100.0528066;46.977207;7.1790451;69.3070068359375;1665761100.0410972;-43.54386901855469;16.570966720581055;91.31507873535156
370;1665761100.2587426;46.9771984;7.179062999999999;69.32500457763672;1665761100.2509363;-39.723777770996094;22.116615295410156;83.38932800292969
371;1665761100.477368;46.9771897;7.179081999999999;69.34700012207031;1665761100.46956;-36.43907165527344;30.8873291015625;83.57638549804688
372;1665761100.6764734;46.977180399999995;7.1791013999999995;69.35700225830078;1665761100.6686661;-38.1616325378418;33.50590515136719;102.598388671875
373;1665761100.888262;46.9771698;7.179119999999999;69.3740005493164;1665761100.8794782;-38.82477951049805;21.954816818237305;118.70940399169922
374;1665761101.0766323;46.977157999999996;7.1791385;69.38899993896484;1665761101.0688226;-38.66411590576172;3.164091110229492;124.3458251953125
375;1665761101.281592;46.9771472;7.179155499999999;69.40800476074219;1665761101.2737823;-41.062984466552734;2.4584407806396484;122.2271957397461
376;1665761101.5031428;46.977136099999996;7.1791732999999995;69.40800476074219;1665761101.4865491;-43.52516555786133;1.7854878902435303;127.29441833496094
377;1665761101.712006;46.977125;7.1791914;69.39900207519531;1665761101.7061503;-46.3785285949707;-1.1922193765640259;132.4312744140625
378;1665761101.930635;46.9771137;7.179209999999999;69.39400482177734;1665761101.9228241;-47.358489990234375;-3.643419027328491;129.7005157470703
379;1665761102.152183;46.9771024;7.179229299999999;69.39000701904297;1665761102.1433976;-50.05240249633789;-3.336979627609253;128.41378784179688
380;1665761102.3522623;46.977091099999996;7.1792495;69.37600708007812;1665761102.3444536;-51.74671173095703;-0.6891867518424988;127.79910278320312
381;1665761102.5689342;46.977079499999995;7.1792704999999994;69.3550033569336;1665761102.555271;-51.21083068847656;0.6237723231315613;127.98319244384766
382;1665761102.87052;46.9770675;7.1792922;69.34300231933594;1665761102.8636868;-50.5025634765625;0.9545027613639832;128.2519989013672
383;1665761103.0930476;46.9770548;7.179315399999999;69.33600616455078;1665761103.0745025;-51.24684524536133;0.8180169463157654;128.61077880859375
384;1665761103.2901993;46.9770427;7.1793371;69.32400512695312;1665761103.2833674;-50.90719985961914;0.9051122069358826;128.88775634765625
385;1665761103.501014;46.9770299;7.179360099999999;69.31100463867188;1665761103.4893034;-49.583892822265625;0.7967945337295532;129.27835083007812
386;1665761103.7313528;46.977016899999995;7.179383199999999;69.3010025024414;1665761103.7264693;-50.01811218261719;0.8102266192436218;129.47508239746094
387;1665761103.9363096;46.9770038;7.1794063999999995;69.281005859375;1665761103.927528;-49.13185119628906;0.32103294134140015;129.56204223632812
388;1665761104.1432216;46.976990699999995;7.1794294;69.24500274658203;1665761104.1354141;-43.440364837646484;1.3683847188949585;129.84703063964844
389;1665761104.3559916;46.9769777;7.1794521;69.20800018310547;1665761104.3393974;-39.18889617919922;-0.7102821469306946;130.65086364746094
390;1665761104.5472853;46.976965199999995;7.179474;69.16500091552734;1665761104.5385036;-35.70091247558594;-0.42438095808029175;129.50460815429688
391;1665761104.7610288;46.9769532;7.179494999999999;69.11900329589844;1665761104.755173;-30.985366821289062;-0.6763501763343811;129.7943572998047
392;1665761104.9728215;46.9769419;7.1795148;69.0770034790039;1665761104.9620855;-25.82200050354004;0.04387088492512703;129.9635009765625
393;1665761105.1670454;46.9769316;7.179532999999999;69.03400421142578;1665761105.1631417;-20.17194366455078;0.3863813877105713;130.30743408203125
394;1665761105.397381;46.9769218;7.17955;68.99100494384766;1665761105.3846962;-14.148838996887207;-0.03875318542122841;130.39334106445312
395;1665761105.6091764;46.9769139;7.1795639;68.9540023803711;1665761105.6013675;-8.572641372680664;0.14548449218273163;130.54000854492188
396;1665761105.9156592;46.976906899999996;7.1795763;68.92000579833984;1665761105.9078295;-3.667125701904297;0.31596237421035767;130.77088928222656
397;1665761106.1225502;46.9769009;7.1795868;68.89300537109375;1665761106.1127906;0.039790816605091095;0.7873029112815857;130.79417419433594
398;1665761106.333365;46.9768961;7.1795953;68.87600708007812;1665761106.322631;2.730128526687622;0.7851183414459229;131.06832885742188
399;1665761106.5383265;46.976892199999995;7.179602;68.86100006103516;1665761106.5305176;4.1211724281311035;0.9286580681800842;131.40907287597656
400;1665761106.7491412;46.976889199999995;7.1796071999999995;68.8479995727539;1665761106.7403605;4.196193695068359;1.0673871040344238;131.7294464111328
401;1665761106.96679;46.9768869;7.1796112;68.83300018310547;1665761106.952149;3.46036434173584;0.34913530945777893;132.0784149169922
402;1665761107.1603277;46.9768853;7.179614;68.82100677490234;1665761107.1541822;1.4661478996276855;1.0964407920837402;132.33909606933594
403;1665761107.3617163;46.976884;7.1796161;68.81200408935547;1665761107.3539083;-0.7553836107254028;0.3959759473800659;132.5966796875
404;1665761107.56277;46.9768829;7.1796178;68.80500030517578;1665761107.5539875;-3.361593246459961;0.7657784223556519;132.70639038085938
405;1665761107.7735877;46.976881999999996;7.1796194;68.8010025024414;1665761107.7648013;-5.304462909698486;0.3786936104297638;132.7875213623047
406;1665761107.9873307;46.976881;7.1796209;68.79700469970703;1665761107.979522;-6.491026401519775;0.20463326573371887;132.7041778564453
407;1665761108.1936588;46.9768799;7.1796225;68.79500579833984;1665761108.186827;-6.847843647003174;0.18521717190742493;132.49221801757812
408;1665761108.3976443;46.976878799999994;7.179624199999999;68.79300689697266;1665761108.389837;-6.189752578735352;0.0969661995768547;132.2023468017578
409;1665761108.6045544;46.976877699999996;7.1796259;68.79100036621094;1665761108.5957704;-4.8150715827941895;-0.006823641713708639;131.92007446289062
410;1665761108.8046365;46.9768767;7.1796275;68.79100036621094;1665761108.7958517;-3.202207326889038;-0.047096509486436844;131.7156219482422
411;1665761109.0213058;46.9768757;7.1796291;68.79300689697266;1665761109.013498;-1.5519959926605225;0.0909629687666893;131.76629638671875
412;1665761109.244811;46.9768749;7.1796305;68.79700469970703;1665761109.2331018;-0.007229086011648178;0.039307963103055954;131.82614135742188
413;1665761109.4400103;46.9768742;7.1796316;68.7800064086914;1665761109.4351304;2.853376626968384;6.456780433654785;136.0946044921875
414;1665761109.645948;46.976873499999996;7.1796321999999995;68.6520004272461;1665761109.642044;5.508259296417236;11.85089111328125;146.8911590576172
415;1665761109.8421235;46.976872799999995;7.1796318;68.48500061035156;1665761109.8352957;0.012162004597485065;29.91621971130371;159.77212524414062
416;1665761110.0422027;46.976871599999996;7.1796292;68.33100128173828;1665761110.0343955;-19.2477970123291;36.91323471069336;176.3017578125
417;1665761110.2666838;46.9768695;7.1796241;68.20899963378906;1665761110.257898;-33.526737213134766;26.685440063476562;-169.03713989257812
418;1665761110.4755476;46.9768666;7.1796174;68.08900451660156;1665761110.4618835;-37.109336853027344;18.190296173095703;-160.65443420410156
419;1665761110.6805074;46.9768626;7.1796093;67.93700408935547;1665761110.6746545;-34.15476989746094;10.622973442077637;-157.2855224609375
