;pos_time;latitude;longitude;altitude;alt_time;pitch;roll;yaw
0;1665756519.6851938;46.975536399999996;7.1803517;-0.005000000353902578;1665756519.7906005;0.7690916657447815;0.2211531400680542;92.77953338623047
1;1665756519.8950307;46.975536399999996;7.1803517;-0.004000000189989805;1665756520.004344;0.8449742794036865;0.21160350739955902;92.808837890625
2;1665756520.108776;46.975536399999996;7.1803517;-0.003000000026077032;1665756520.2014961;0.7297166585922241;0.19724184274673462;92.81241607666016
3;1665756520.3117816;46.975536399999996;7.1803517;-0.0010000000474974513;1665756520.4171898;0.8248176574707031;0.14413370192050934;92.83721923828125
4;1665756520.5235755;46.975536399999996;7.1803517;0.0;1665756520.621173;0.8263247013092041;0.35769081115722656;92.66837310791016
5;1665756520.7285337;46.975536399999996;7.1803517;-0.0020000000949949026;1665756520.8193026;0.7464719414710999;0.18269598484039307;92.809814453125
6;1665756520.937398;46.975536399999996;7.1803517;-0.005000000353902578;1665756521.048665;0.613311231136322;0.24369998276233673;92.69620513916016
7;1665756521.1482143;46.975536399999996;7.1803517;-0.009000000543892384;1665756521.238986;0.8109263777732849;0.22565646469593048;92.65007019042969
8;1665756521.3473177;46.975536399999996;7.1803517999999995;0.0;1665756521.4429655;0.6885413527488708;0.23833754658699036;92.81273651123047
9;1665756521.5678935;46.975536399999996;7.1803517999999995;0.003000000026077032;1665756521.6498775;0.6923749446868896;0.2868654131889343;92.82575225830078
10;1665756521.7660224;46.975536399999996;7.1803517;0.00800000037997961;1665756521.8567896;0.791248619556427;0.22266213595867157;92.71392059326172
11;1665756521.9836693;46.975536399999996;7.1803517;0.01100000087171793;1665756522.0822453;0.8243893384933472;0.10933706909418106;92.7739486694336
12;1665756522.1896076;46.975536399999996;7.1803517;0.015000000596046448;1665756522.301846;0.9378881454467773;0.20732037723064423;92.71754455566406
13;1665756522.4170156;46.975536399999996;7.1803517;0.01900000125169754;1665756522.5167408;0.7091284394264221;0.27276426553726196;92.68199157714844
14;1665756522.6255965;46.975536399999996;7.1803517;0.0;1665756522.731005;0.783486008644104;0.354878693819046;92.63136291503906
15;1665756522.8217719;46.975536399999996;7.1803517;0.003000000026077032;1665756522.9144928;0.8422574996948242;0.22889482975006104;92.7276382446289
16;1665756523.03454;46.975536399999996;7.1803517;0.004000000189989805;1665756523.1375406;0.8273134827613831;0.21339151263237;92.73722076416016
17;1665756523.2390444;46.975536399999996;7.1803517;0.003000000026077032;1665756523.350309;0.8463963866233826;0.23231297731399536;92.74967193603516
18;1665756523.4558964;46.975536399999996;7.1803517;0.006000000052154064;1665756523.5657234;0.850986897945404;0.3379886746406555;92.7171401977539
19;1665756523.6769927;46.975536399999996;7.1803517;0.01100000087171793;1665756523.7804425;0.7327698469161987;0.20808418095111847;92.95718383789062
20;1665756523.8863652;46.975536399999996;7.1803517;0.02500000037252903;1665756524.005952;0.7589945793151855;0.6694990396499634;92.74972534179688
21;1665756524.1036167;46.975536299999995;7.1803517;0.06000000238418579;1665756524.2196128;-0.0931004211306572;2.0665431022644043;92.35930633544922
22;1665756524.316747;46.975536299999995;7.1803517999999995;0.11000000685453415;1665756524.4148724;2.9148125648498535;-2.8913300037384033;94.34964752197266
23;1665756524.6159787;46.975536299999995;7.1803517999999995;0.20500001311302185;1665756524.7245526;2.5190577507019043;-2.9949493408203125;96.37661743164062
24;1665756524.8416715;46.9755365;7.1803517;0.32500001788139343;1665756524.9539113;3.3427467346191406;-0.7950485348701477;97.29898071289062
25;1665756525.0583422;46.9755368;7.1803516;0.46400001645088196;1665756525.161799;9.763830184936523;-2.132943630218506;98.34296417236328
26;1665756525.2706528;46.9755371;7.180351099999999;0.659000039100647;1665756525.3750818;-4.501306056976318;10.229301452636719;96.56732177734375
27;1665756525.488302;46.9755373;7.1803506;0.8330000638961792;1665756525.5810182;0.08399027585983276;1.7279231548309326;95.47351837158203
28;1665756525.6932592;46.9755371;7.1803503;1.027000069618225;1665756525.7947626;5.36285400390625;-6.148855209350586;94.7117691040039
29;1665756525.8962665;46.975536999999996;7.1803498999999995;1.2660000324249268;1665756526.009484;-0.5840317606925964;0.5403478145599365;94.26402282714844
30;1665756526.1109877;46.975536999999996;7.180349499999999;1.5150001049041748;1665756526.205659;-0.8142877221107483;-0.22101882100105286;98.84068298339844
31;1665756526.3081477;46.975536999999996;7.1803494;1.7340000867843628;1665756526.4125714;-3.5225768089294434;-0.08531050384044647;98.1392593383789
32;1665756526.5209074;46.9755371;7.1803495999999996;2.0180001258850098;1665756526.62046;-0.953595757484436;1.7043962478637695;97.53055572509766
33;1665756526.7239156;46.9755371;7.18035;2.2900002002716064;1665756526.8205385;1.1154882907867432;0.8760852813720703;96.91658020019531
34;1665756526.9318016;46.975536999999996;7.1803503;2.5890002250671387;1665756527.026474;-1.5852214097976685;-0.5324086546897888;97.15242004394531
35;1665756527.135788;46.975536999999996;7.180350799999999;2.942000150680542;1665756527.2392418;0.9417712092399597;1.0933923721313477;96.95359802246094
36;1665756527.3436754;46.975536899999994;7.1803513;3.267000198364258;1665756527.445178;1.8271230459213257;0.6034858822822571;96.70648193359375
37;1665756527.551561;46.9755368;7.1803516;3.6040000915527344;1665756527.6647794;0.14993271231651306;-0.7823408842086792;97.2336196899414
38;1665756527.770187;46.9755368;7.1803519;3.939000129699707;1665756527.862905;1.2755918502807617;0.5465589761734009;97.10090637207031
39;1665756527.968313;46.9755367;7.1803522;4.25;1665756528.074698;2.0496647357940674;1.0861504077911377;96.68453216552734
40;1665756528.1859612;46.9755366;7.1803523;4.578000068664551;1665756528.3099139;0.31644126772880554;-1.2763229608535767;97.21355438232422
41;1665756528.4202037;46.9755366;7.180352399999999;4.909000396728516;1665756528.5275607;1.5627626180648804;-0.0030284475069493055;97.1989517211914
42;1665756528.6202836;46.9755366;7.1803525;5.2270002365112305;1665756528.713978;1.7252992391586304;1.4012497663497925;96.87092590332031
43;1665756528.813529;46.9755365;7.1803525;5.549000263214111;1665756528.926746;0.8965868353843689;-0.8313300013542175;97.25016784667969
44;1665756529.0341096;46.9755365;7.1803525;5.889000415802002;1665756529.1356113;1.0457987785339355;-0.2945978343486786;97.34796905517578
45;1665756529.242971;46.9755365;7.1803525;6.194000244140625;1665756529.3552089;1.1907894611358643;1.6000111103057861;97.05519104003906
46;1665756529.45769;46.9755365;7.1803525;6.515000343322754;1665756529.5631626;1.157479166984558;0.14180400967597961;96.9533462524414
47;1665756529.685163;46.975536399999996;7.180352399999999;6.830000400543213;1665756529.788621;1.073463797569275;-0.0376400426030159;97.0379638671875
48;1665756529.8862183;46.975536399999996;7.180352399999999;7.135000228881836;1665756529.994555;1.2099392414093018;1.8059232234954834;96.81879425048828
49;1665756530.1087463;46.975536399999996;7.1803523;7.467000484466553;1665756530.225868;1.0241320133209229;0.6480465531349182;96.70530700683594
50;1665756530.3371298;46.975536299999995;7.1803522;7.767000198364258;1665756530.4308276;1.0780078172683716;-0.34550029039382935;97.02630615234375
51;1665756530.5294027;46.9755362;7.1803520999999995;8.071000099182129;1665756530.6396906;0.6929388046264648;1.1300057172775269;96.89556884765625
52;1665756530.7343628;46.9755362;7.180352;8.375;1665756530.8368478;1.0547459125518799;0.6516160368919373;96.76228332519531
53;1665756530.9734862;46.9755361;7.1803519;8.664999961853027;1665756531.0779152;0.9706815481185913;-0.7063173055648804;97.06900787353516
54;1665756531.1784446;46.9755361;7.1803517999999995;8.956000328063965;1665756531.277018;0.8138511180877686;0.8285311460494995;96.843017578125
55;1665756531.406832;46.9755361;7.1803517999999995;9.26400089263916;1665756531.50444;0.946207582950592;1.0112367868423462;96.78900909423828
56;1665756531.6137397;46.9755361;7.1803517999999995;9.54800033569336;1665756531.709389;1.0188260078430176;-0.44751232862472534;96.9934310913086
57;1665756531.8079617;46.975536;7.1803517999999995;9.836000442504883;1665756531.9075148;0.8928564190864563;0.506434440612793;97.00116729736328
58;1665756532.0275621;46.975536;7.1803517;10.148000717163086;1665756532.124187;1.2021652460098267;1.137842059135437;96.85344696044922
59;1665756532.2334976;46.975536;7.1803517;10.503000259399414;1665756532.3428113;0.5769822001457214;-1.5719501972198486;97.89088439941406
60;1665756532.4433384;46.9755359;7.1803516;11.071000099182129;1665756532.54777;0.7673143148422241;1.1651426553726196;98.26811218261719
61;1665756532.6600118;46.9755359;7.1803516;11.652000427246094;1665756532.7537062;0.5970136523246765;1.4152591228485107;97.61457824707031
62;1665756532.8513076;46.9755359;7.1803516;12.223000526428223;1665756532.9635448;1.3141751289367676;-0.914370059967041;97.4858169555664
63;1665756533.080665;46.975535799999996;7.1803517;12.805000305175781;1665756533.173385;1.0755749940872192;0.5308672785758972;96.57711791992188
64;1665756533.2836747;46.975535799999996;7.1803516;13.397000312805176;1665756533.38713;0.8113324642181396;0.7343226671218872;96.64328002929688
65;1665756533.48961;46.975535799999996;7.1803516;13.976000785827637;1665756533.5979457;1.3672106266021729;-0.6777235865592957;96.8768310546875
66;1665756533.7072585;46.975535799999996;7.1803516;14.572000503540039;1665756533.8087606;0.8503249883651733;0.4414747357368469;96.72271728515625
67;1665756533.9044087;46.975535799999996;7.1803516;15.158000946044922;1665756534.0059144;0.9791573882102966;0.5420731902122498;96.88936614990234
68;1665756534.1122983;46.975535799999996;7.1803516;15.73900032043457;1665756534.2118487;1.2560182809829712;-0.18395423889160156;96.94906616210938
69;1665756534.3680093;46.975535799999996;7.1803514999999996;16.35900115966797;1665756534.4558506;0.37292131781578064;0.43796610832214355;96.85572814941406
70;1665756534.5944407;46.975535799999996;7.1803514999999996;16.94500160217285;1665756534.785279;1.4641265869140625;0.25811290740966797;96.9658432006836
71;1665756534.8858075;46.975535699999995;7.1803514999999996;17.50200080871582;1665756534.9834046;0.8619595170021057;-0.058623749762773514;96.97161102294922
72;1665756535.085886;46.975535699999995;7.1803514999999996;18.099000930786133;1665756535.1952052;0.5952134728431702;0.20205377042293549;96.93526458740234
73;1665756535.2947483;46.975535699999995;7.1803514999999996;18.68400001525879;1665756535.3952777;1.533563256263733;0.06962890923023224;97.00877380371094
74;1665756535.51142;46.975535799999996;7.180351399999999;19.27400016784668;1665756535.622685;0.7786676287651062;0.20849120616912842;96.96342468261719
75;1665756535.706622;46.975535799999996;7.180351399999999;19.86600112915039;1665756535.8022687;0.5421743392944336;0.3198035955429077;96.98527526855469
76;1665756535.9135327;46.9755359;7.180351399999999;20.44300079345703;1665756536.1175182;1.3705450296401978;0.11341947317123413;96.96090698242188
77;1665756536.2356129;46.9755359;7.1803513;21.029001235961914;1665756536.3507829;0.3182608485221863;0.4662163555622101;96.97895050048828
78;1665756536.4542382;46.975536;7.180351399999999;21.61600112915039;1665756536.5645235;1.0178571939468384;0.3346489667892456;97.01554107666016
79;1665756536.680668;46.975536;7.180351399999999;22.200000762939453;1665756536.7997427;0.7721507549285889;0.13830864429473877;96.96212768554688
80;1665756536.903199;46.975536;7.180351399999999;22.82000160217285;1665756537.0359328;0.45515626668930054;0.39751678705215454;96.98444366455078
81;1665756537.1384137;46.975536;7.1803514999999996;23.386001586914062;1665756537.2399163;1.7212365865707397;0.10146164894104004;97.00577545166016
82;1665756537.365823;46.9755361;7.1803516;23.964000701904297;1665756537.6166518;0.42944639921188354;0.37029871344566345;96.98711395263672
83;1665756537.7249901;46.9755361;7.1803516;24.55000114440918;1665756538.0197415;0.9801225662231445;0.4419761896133423;97.02386474609375
84;1665756538.1568937;46.9755362;7.1803517;25.13300132751465;1665756538.2779148;1.6581193208694458;0.3568405508995056;96.96086120605469
85;1665756538.3911324;46.9755362;7.1803517;25.72100067138672;1665756538.4945898;0.4805377125740051;0.42015326023101807;97.01073455810547
86;1665756538.6136615;46.975536299999995;7.1803517;26.31300163269043;1665756538.7278519;1.2968641519546509;0.315021276473999;96.98406982421875
87;1665756538.8322835;46.975536299999995;7.1803517999999995;26.9010009765625;1665756538.9308615;0.7050653100013733;0.29056382179260254;96.99449920654297
88;1665756539.0460281;46.975536299999995;7.1803517999999995;27.488000869750977;1665756539.1631484;1.003014326095581;0.27082017064094543;97.01732635498047
89;1665756539.2812462;46.975536299999995;7.1803517999999995;28.089000701904297;1665756539.374939;1.48404860496521;0.15662039816379547;96.9908218383789
90;1665756539.4754698;46.975536299999995;7.1803517999999995;28.681001663208008;1665756539.592587;0.4943534731864929;0.34387969970703125;97.00911712646484
91;1665756539.7018995;46.975536299999995;7.1803517999999995;29.2760009765625;1665756539.7907143;1.296032428741455;0.2901909351348877;97.01876831054688
92;1665756539.9136934;46.975536399999996;7.1803517999999995;29.87200164794922;1665756540.0298402;1.1479560136795044;0.24970102310180664;97.0174560546875
93;1665756540.1430511;46.975536399999996;7.1803517999999995;30.47100067138672;1665756540.2535026;1.2168915271759033;0.3984701633453369;97.08407592773438
94;1665756540.3725724;46.975536399999996;7.1803517999999995;31.067001342773438;1665756540.4662678;0.9156203269958496;0.35325390100479126;97.00513458251953
95;1665756541.0538223;46.9755365;7.1803517999999995;31.668001174926758;1665756541.1797256;0.751629114151001;0.4057990312576294;97.08306121826172
96;1665756541.2900114;46.9755365;7.1803517999999995;32.268001556396484;1665756542.0073733;1.2774884700775146;0.3387347459793091;97.07431030273438
97;1665756542.1293712;46.9755365;7.1803517999999995;32.87200164794922;1665756542.2328298;0.9520294070243835;0.2850133776664734;97.05461120605469
98;1665756542.339212;46.9755365;7.1803517999999995;33.47500228881836;1665756542.43974;1.0325286388397217;0.42717358469963074;97.06407928466797
99;1665756542.5441742;46.9755366;7.1803519;34.10100173950195;1665756542.6447067;0.9404149651527405;0.5586485266685486;97.04651641845703
100;1665756542.7393715;46.9755366;7.1803519;34.676002502441406;1665756542.8457553;1.2310702800750732;0.41436830163002014;97.03553771972656
101;1665756542.94726;46.9755366;7.1803519;35.27799987792969;1665756543.0497413;1.2974785566329956;0.3747863471508026;97.04041290283203
102;1665756543.158076;46.9755366;7.1803519;35.87900161743164;1665756543.2517724;1.0133073329925537;0.5195803642272949;96.98040008544922
103;1665756543.3757231;46.9755366;7.1803519;36.480003356933594;1665756543.5152917;1.0442605018615723;0.49104154109954834;96.98175811767578
104;1665756543.6324127;46.9755366;7.1803519;37.08000183105469;1665756543.7309873;0.9492555856704712;0.5673186779022217;96.97077178955078
105;1665756543.8295658;46.9755366;7.1803519;37.682003021240234;1665756543.9359486;1.1244299411773682;0.5226946473121643;96.95803833007812
106;1665756544.0647786;46.9755366;7.1803519;38.28000259399414;1665756544.1858034;0.8786680102348328;0.45065584778785706;96.97677612304688
107;1665756544.2892585;46.9755366;7.1803519;38.87900161743164;1665756544.4054022;0.904910683631897;0.3946364223957062;96.95346069335938
108;1665756544.4971483;46.9755366;7.1803519;39.48200225830078;1665756544.5947466;0.9095135927200317;0.3603355288505554;96.97467803955078
109;1665756544.7060106;46.9755366;7.1803519;40.0880012512207;1665756544.8065407;1.0590490102767944;0.4346652626991272;96.97289276123047
110;1665756544.9285405;46.9755366;7.180352;40.689002990722656;1665756545.050538;1.1489405632019043;0.4770275354385376;96.99024963378906
111;1665756545.1657054;46.9755366;7.1803520999999995;41.2920036315918;1665756545.2847786;1.1615867614746094;0.4164198637008667;97.00772094726562
112;1665756545.3931186;46.9755366;7.1803520999999995;41.89600372314453;1665756545.493642;1.1616016626358032;0.5613505840301514;97.02095031738281
113;1665756545.598074;46.9755366;7.1803520999999995;42.49700164794922;1665756545.712268;1.1652320623397827;0.39823001623153687;97.03565979003906
114;1665756545.819626;46.9755366;7.1803520999999995;43.12300109863281;1665756545.9162505;1.2641632556915283;0.44707146286964417;97.05716705322266
115;1665756546.0294662;46.9755366;7.1803520999999995;43.72800064086914;1665756546.2285705;1.2779326438903809;0.475506067276001;97.08528137207031
116;1665756546.332025;46.9755366;7.1803520999999995;44.30800247192383;1665756546.444266;1.2176910638809204;0.3390602171421051;97.09024047851562
117;1665756546.5438175;46.9755366;7.1803520999999995;44.935001373291016;1665756546.6394675;1.259922742843628;0.3356061577796936;97.0593490600586
118;1665756546.8385692;46.9755365;7.180352;45.538002014160156;1665756546.9312887;1.1772270202636719;0.23504051566123962;97.02474975585938
119;1665756547.0513396;46.9755365;7.1803519;46.1150016784668;1665756547.1538188;1.2059725522994995;0.1801752895116806;97.05393981933594
120;1665756547.775529;46.9755365;7.1803519;46.71600341796875;1665756547.8721526;1.204174518585205;0.16936688125133514;97.04100799560547
121;1665756547.9882972;46.9755365;7.1803519;47.31800079345703;1665756548.0839453;1.2469489574432373;0.27046266198158264;96.99072265625
122;1665756548.1971605;46.9755365;7.1803519;47.948001861572266;1665756548.2957382;1.2845336198806763;0.33185210824012756;96.99446105957031
123;1665756548.396265;46.9755365;7.1803517999999995;48.53400421142578;1665756548.4919147;1.2740857601165771;0.33209681510925293;96.97279357910156
124;1665756548.60806;46.9755366;7.1803517;49.14400100708008;1665756548.7251787;1.1747738122940063;0.34361520409584045;96.90887451171875
125;1665756548.8296092;46.9755366;7.1803517;49.749000549316406;1665756548.9281983;1.1842870712280273;0.26487278938293457;96.94686126708984
126;1665756549.0443294;46.9755366;7.1803516;50.35100173950195;1665756549.2346497;1.0433599948883057;0.27181291580200195;96.96184539794922
127;1665756549.3390822;46.9755366;7.1803514999999996;50.95000076293945;1665756549.4435122;1.1277481317520142;0.4154397249221802;96.96163940429688
128;1665756549.5391603;46.9755366;7.180351399999999;51.57400131225586;1665756549.6348112;1.0421468019485474;0.3168383836746216;96.951416015625
129;1665756549.7450972;46.9755366;7.180351399999999;52.173004150390625;1665756549.8456252;0.9703779220581055;0.23189395666122437;96.96846008300781
130;1665756549.9500585;46.9755366;7.1803513;52.74200439453125;1665756550.0476596;0.9963072538375854;0.3650587797164917;96.99946594238281
131;1665756550.1442826;46.9755366;7.1803513;53.332000732421875;1665756550.2409048;1.146396279335022;0.2832946479320526;96.97555541992188
132;1665756550.3453355;46.9755366;7.180351399999999;53.923004150390625;1665756550.4673362;1.2800557613372803;0.29269349575042725;97.00853729248047
133;1665756550.569816;46.9755366;7.180351399999999;54.53600311279297;1665756550.6693695;1.1712242364883423;0.2641134560108185;97.02261352539062
134;1665756550.7728252;46.9755366;7.1803513;55.12700271606445;1665756550.8860412;1.0472352504730225;0.3237842321395874;97.02616119384766
135;1665756550.9946933;46.9755366;7.1803513;55.68400192260742;1665756551.094844;1.2773520946502686;0.36538928747177124;97.00788116455078
136;1665756551.1973236;46.9755366;7.1803513;56.198001861572266;1665756551.3017569;1.1693533658981323;0.32768648862838745;97.02098846435547
137;1665756551.3974044;46.9755366;7.1803513;56.65900421142578;1665756551.510619;1.109976053237915;0.4018520712852478;97.0024642944336
138;1665756551.6111484;46.9755365;7.1803513;57.01700210571289;1665756551.709724;1.4105359315872192;0.31526079773902893;97.02042388916016
139;1665756551.8131785;46.9755365;7.180351399999999;57.340003967285156;1665756551.9068751;1.3358640670776367;0.43071579933166504;97.01191711425781
140;1665756552.010329;46.9755365;7.1803513;57.5880012512207;1665756552.128425;1.3550719022750854;0.3320649564266205;97.0093994140625
141;1665756552.2279768;46.9755365;7.1803513;57.80800247192383;1665756552.3353388;1.1504794359207153;0.44448262453079224;97.01403045654297
142;1665756552.4436777;46.9755365;7.1803513;58.000003814697266;1665756552.54518;1.2455904483795166;0.34187406301498413;97.0123062133789
143;1665756552.9990175;46.9755365;7.1803512;58.15800094604492;1665756553.0936878;1.2216598987579346;0.2980145514011383;97.0078353881836
144;1665756553.2020242;46.9755365;7.1803512;58.2920036315918;1665756553.3035288;15.195215225219727;-11.66295337677002;90.66522216796875
145;1665756553.4001527;46.975536899999994;7.1803506;58.428001403808594;1665756553.5065362;28.456798553466797;-32.87013244628906;81.33443450927734
146;1665756553.6080418;46.9755385;7.1803479;58.5880012512207;1665756553.709546;31.43640899658203;-45.100582122802734;76.26393127441406
147;1665756553.811048;46.975542399999995;7.180342;58.77400207519531;1665756553.9262178;20.404708862304688;-55.52762222290039;63.98459243774414
148;1665756554.0335774;46.9755484;7.1803335;58.88600158691406;1665756554.1292257;2.162069797515869;-59.39215850830078;48.898101806640625
149;1665756554.2336564;46.9755566;7.1803219;58.971004486083984;1665756554.3400416;-14.766510009765625;-53.86650466918945;35.11570739746094
150;1665756554.4386163;46.9755666;7.1803075;59.05600357055664;1665756554.543048;-29.114625930786133;-46.97023010253906;22.1115665435791
151;1665756554.6484613;46.9755779;7.1802912999999995;59.121002197265625;1665756554.7675283;-37.25665283203125;-34.99420928955078;7.647132396697998
152;1665756554.8758645;46.9755897;7.180274;59.14400100708008;1665756554.9666317;-39.40719985961914;-26.213319778442383;0.21812084317207336
153;1665756555.072041;46.975601999999995;7.1802563;59.17500305175781;1665756555.178425;-39.469783782958984;-17.373918533325195;-7.2618889808654785
154;1665756555.7757404;46.9756147;7.1802386;59.211002349853516;1665756555.8782163;-41.770973205566406;-18.45450210571289;-12.655269622802734
155;1665756555.982649;46.975627499999995;7.1802212;59.215003967285156;1665756556.0792723;-45.94258117675781;-15.174355506896973;-21.534528732299805
156;1665756556.1885834;46.9756412;7.180203;59.22200393676758;1665756556.2939913;-41.37090301513672;-7.667709827423096;-22.027921676635742
157;1665756556.3954952;46.9756541;7.1801862;59.23800277709961;1665756556.5028567;-36.01744842529297;-2.422571897506714;-12.230633735656738
158;1665756557.0777204;46.9756682;7.1801691;59.23100280761719;1665756557.183131;-25.08014678955078;-2.8944764137268066;2.3594415187835693
159;1665756557.2836564;46.9756808;7.1801552;59.19900131225586;1665756557.378329;-16.187089920043945;-2.2034194469451904;13.347095489501953
160;1665756557.4778805;46.975693199999995;7.1801432;59.20000457763672;1665756557.57548;-18.691171646118164;-17.455074310302734;12.632710456848145
161;1665756557.6818652;46.9757047;7.1801327;59.186004638671875;1665756557.7775126;-27.76714324951172;-21.75821876525879;-6.363168239593506
162;1665756557.8819447;46.975715799999996;7.180122399999999;59.19000244140625;1665756557.9902794;-42.43540573120117;-22.828704833984375;-23.59635353088379
163;1665756558.1015456;46.975726599999994;7.1801108;59.217002868652344;1665756558.199144;-53.402774810791016;-13.734394073486328;-37.0656852722168
164;1665756558.3025985;46.975737599999995;7.1800963;59.23600387573242;1665756558.4070327;-56.48606872558594;0.544110894203186;-43.162254333496094
165;1665756558.5036554;46.9757493;7.180080299999999;59.259002685546875;1665756558.601255;-55.88793182373047;5.813325881958008;-49.68284606933594
166;1665756558.7027583;46.975761999999996;7.180062899999999;59.29700469970703;1665756558.8042629;-51.91904067993164;3.695406675338745;-45.43598175048828
167;1665756558.9106479;46.975775399999996;7.1800445999999996;59.3280029296875;1665756559.0092235;-48.965946197509766;7.743018627166748;-41.16300964355469
168;1665756559.111702;46.9757894;7.1800261999999995;59.329002380371094;1665756559.221014;-47.94944763183594;6.871011257171631;-38.39655685424805
169;1665756559.8183284;46.9758041;7.1800083;59.340003967285156;1665756559.938376;-49.091922760009766;2.4067635536193848;-40.2234001159668
170;1665756560.0428054;46.9758199;7.1799895;59.345001220703125;1665756560.135527;-49.74372482299805;0.2837289571762085;-40.552730560302734
171;1665756560.2350783;46.9758346;7.1799721;59.33400344848633;1665756560.3346312;-50.254695892333984;0.8969065546989441;-40.11054992675781
172;1665756560.4458954;46.9758502;7.1799536999999996;59.33900451660156;1665756560.5415418;-50.51032257080078;0.7835345268249512;-39.83921813964844
173;1665756560.6528084;46.975865999999996;7.1799351;59.35400390625;1665756560.7523577;-49.63544464111328;0.3345699906349182;-39.787540435791016
174;1665756560.8567913;46.975882;7.1799162;59.355003356933594;1665756560.953415;-50.36609649658203;1.258563756942749;-41.0963249206543
175;1665756561.070533;46.975898;7.1798969999999995;59.36700439453125;1665756561.1661837;-49.862815856933594;1.0088592767715454;-40.779537200927734
176;1665756561.2891574;46.9759142;7.1798772;59.3640022277832;1665756561.379925;-50.31387710571289;2.114600419998169;-40.9941520690918
177;1665756561.4814308;46.9759305;7.1798575;59.345001220703125;1665756561.5790312;-51.033451080322266;1.1625604629516602;-40.67716979980469
178;1665756561.6873698;46.975947;7.1798376;59.35100173950195;1665756561.7908235;-49.53109359741211;-0.09282873570919037;-40.41740036010742
179;1665756561.9030614;46.9759636;7.1798174999999995;59.3650016784668;1665756562.0201821;-50.18207931518555;1.7768139839172363;-41.672607421875
180;1665756562.117781;46.975980299999996;7.1797973;59.3650016784668;1665756562.2144074;-50.74488830566406;1.883618950843811;-41.488224029541016
181;1665756562.319815;46.9759977;7.1797761;59.381004333496094;1665756562.4271755;-49.249977111816406;0.5746510028839111;-40.70355224609375
182;1665756562.631157;46.9760138;7.1797562;59.371002197265625;1665756562.724853;-50.32102584838867;1.7696764469146729;-42.04288864135742
183;1665756562.8283126;46.9760305;7.1797356;59.35400390625;1665756562.9395761;-50.04745864868164;1.7478700876235962;-41.479461669921875
184;1665756563.0371747;46.976048;7.1797141;59.371002197265625;1665756563.1484387;-49.36460876464844;1.1618952751159668;-40.87644577026367
185;1665756563.3524222;46.976064099999995;7.1796942999999995;59.368003845214844;1665756563.570069;-50.55589294433594;1.052850604057312;-41.543704986572266
186;1665756563.6715732;46.976081;7.1796735;59.371002197265625;1665756563.8365178;-50.104515075683594;0.4563594460487366;-41.51924133300781
187;1665756563.941928;46.9760979;7.1796526;59.38300323486328;1665756564.0336688;-48.858116149902344;1.229849934577942;-41.594539642333984
188;1665756564.1381016;46.9761147;7.179631499999999;59.37400436401367;1665756564.250341;-50.90607833862305;1.8693324327468872;-41.340057373046875
189;1665756564.3528206;46.976131599999995;7.1796104;59.368003845214844;1665756564.450422;-49.23683166503906;0.05131138116121292;-40.14017105102539
190;1665756564.5607088;46.976148599999995;7.179589399999999;59.38300323486328;1665756564.663191;-49.81937026977539;0.9494479894638062;-41.47965621948242
191;1665756564.7685957;46.9761655;7.1795683;59.37700271606445;1665756564.8779109;-50.41150665283203;1.3542404174804688;-41.908119201660156
192;1665756564.9930773;46.9761824;7.1795472;59.38900375366211;1665756565.0945804;-49.043212890625;1.3325190544128418;-41.39981460571289
193;1665756565.210724;46.9761993;7.1795260999999995;59.39200210571289;1665756565.3239412;-50.41865158081055;0.9539378881454468;-41.28876495361328
194;1665756565.4254446;46.976216099999995;7.1795048999999995;59.368003845214844;1665756565.525972;-50.08441925048828;0.9005932807922363;-41.427085876464844
195;1665756565.6245515;46.976233099999995;7.179483599999999;59.37200164794922;1665756565.83146;-48.96353530883789;1.5306460857391357;-41.351253509521484
196;1665756565.9466286;46.97625;7.179462399999999;59.36300277709961;1665756566.051063;-51.0316047668457;0.983312726020813;-40.89875411987305
197;1665756566.24919;46.976267;7.1794411;59.362003326416016;1665756566.3458114;-49.73727798461914;0.04402467980980873;-40.70174789428711
198;1665756566.4561028;46.976284;7.1794198;59.37200164794922;1665756566.5537002;-49.099266052246094;0.8091664910316467;-41.28764343261719
199;1665756566.6483722;46.9763009;7.1793985;59.36300277709961;1665756566.7528045;-50.55577087402344;1.5093483924865723;-41.63407897949219
200;1665756566.8611403;46.9763178;7.1793773;59.36000442504883;1665756566.9606922;-49.36296081542969;1.0282635688781738;-40.97707748413086
201;1665756567.068053;46.9763348;7.1793559;59.35400390625;1665756567.164677;-49.8984260559082;0.8409806489944458;-40.87226104736328
202;1665756567.2652035;46.976351799999996;7.1793347;59.33500289916992;1665756567.369636;-47.075199127197266;1.1450659036636353;-41.358612060546875
203;1665756567.471144;46.9763686;7.179313499999999;59.33700180053711;1665756567.5667887;-32.49390411376953;-1.4299161434173584;-39.76964569091797
204;1665756567.6624362;46.9763849;7.1792929;59.329002380371094;1665756567.7668686;-27.43195343017578;-6.855365753173828;-36.590675354003906
205;1665756567.87911;46.9764002;7.1792734;59.310001373291016;1665756567.9835389;-30.117874145507812;4.917344570159912;-41.87092208862305
206;1665756568.0791872;46.976414299999995;7.1792551;59.2910041809082;1665756568.1777623;-24.440732955932617;5.507350921630859;-39.12017822265625
207;1665756568.2841487;46.9764276;7.1792384;59.24800109863281;1665756568.393461;-21.76724624633789;-0.09980545938014984;-40.15510559082031
208;1665756568.5008187;46.976439899999995;7.1792231;59.21800231933594;1665756568.6003711;-19.036542892456055;1.7492111921310425;-42.10536575317383
209;1665756568.70871;46.9764511;7.179209299999999;59.18800354003906;1665756568.8189957;-15.379220008850098;1.6476466655731201;-41.15152359008789
210;1665756568.9322143;46.976461199999996;7.179196999999999;59.14200210571289;1665756569.0346904;-12.339418411254883;1.241392731666565;-40.97541427612305
211;1665756569.1391234;46.9764701;7.179186199999999;59.108001708984375;1665756569.24453;-8.966107368469238;0.5693026185035706;-41.059329986572266
212;1665756569.3470104;46.9764779;7.1791768;59.08000183105469;1665756569.963844;-4.752599239349365;0.08294769376516342;-41.5994987487793
213;1665756570.070227;46.9764847;7.1791687;59.05900192260742;1665756570.1697798;-0.6653667092323303;-0.35378456115722656;-40.894832611083984
214;1665756570.2849476;46.976490899999995;7.1791614;59.038002014160156;1665756570.375718;-3.283616542816162;-1.03036367893219;-40.70695114135742
215;1665756570.483074;46.9764951;7.1791561999999995;59.03000259399414;1665756570.5806737;-5.050073623657227;-0.567969799041748;-40.54119873046875
216;1665756570.6909657;46.976499;7.179151399999999;59.01700210571289;1665756570.790516;3.5538828372955322;-0.5404183268547058;-40.874576568603516
217;1665756570.8890903;46.9765022;7.1791472999999995;59.00700378417969;1665756570.992548;-3.447514533996582;1.5075442790985107;-41.22726821899414
218;1665756571.588887;46.976504899999995;7.179143799999999;59.000003814697266;1665756571.6874619;-0.7302165627479553;-0.611395001411438;-41.34496307373047
219;1665756571.7899392;46.976507299999994;7.1791408;58.9900016784668;1665756571.8963215;-3.918139934539795;-0.5098241567611694;-41.207481384277344
220;1665756571.9978256;46.9765093;7.1791382;58.97700119018555;1665756572.094451;3.528824806213379;-0.38926947116851807;-41.04059600830078
221;1665756572.2057142;46.976511099999996;7.1791358999999995;58.967002868652344;1665756572.3169792;-0.6710307002067566;-0.0847560241818428;-40.66912841796875
222;1665756572.4331217;46.9765125;7.1791341;58.95900344848633;1665756572.5258417;-0.7116900086402893;0.2299831509590149;-40.47938537597656
223;1665756572.6332033;46.9765136;7.1791326;58.952003479003906;1665756572.7308033;-2.705571174621582;-0.21114353835582733;-39.62161636352539
224;1665756572.834257;46.9765145;7.179131399999999;58.945003509521484;1665756572.9318564;0.917008101940155;1.2232367992401123;-39.2724723815918
225;1665756573.036289;46.976515199999994;7.1791303;58.94200134277344;1665756573.1485312;2.1021971702575684;-0.20013520121574402;-39.59880447387695
226;1665756573.2519853;46.9765158;7.1791294;58.93700408935547;1665756573.3486106;-7.693026065826416;-0.6550200581550598;-40.50803756713867
227;1665756573.4510894;46.9765167;7.1791282999999995;58.93800354003906;1665756573.5594265;-30.09283447265625;0.8550287485122681;-48.84380340576172
228;1665756573.663858;46.9765179;7.1791265;58.970001220703125;1665756573.7614567;-54.108211517333984;3.3566300868988037;-51.52397155761719
229;1665756573.8590622;46.976520799999996;7.179122;59.000003814697266;1665756574.0542574;-56.12322235107422;1.7501311302185059;-53.67255783081055
230;1665756574.1655211;46.976526299999996;7.1791129;59.06500244140625;1665756574.2601945;-47.961727142333984;-3.271364212036133;-53.271514892578125
231;1665756574.3597462;46.9765333;7.1791005;59.15400314331055;1665756574.460274;-58.7206916809082;0.6871486306190491;-50.71463394165039
232;1665756574.5637305;46.9765412;7.179085799999999;59.195003509521484;1665756574.6662111;-59.28297805786133;4.435238361358643;-49.611061096191406
233;1665756575.0488005;46.9765509;7.1790689;59.21800231933594;1665756575.1512797;-56.07261657714844;-0.7988048195838928;-47.329410552978516
234;1665756575.2596178;46.976562099999995;7.1790498;59.24700164794922;1665756575.360145;-52.10932159423828;-1.6248313188552856;-47.39342498779297
235;1665756575.462625;46.9765739;7.1790293;59.27100372314453;1665756575.5582747;-50.10855484008789;-0.0776461586356163;-49.14274978637695
236;1665756575.668562;46.9765861;7.179008199999999;59.255001068115234;1665756575.7710435;-51.77231216430664;-1.2533361911773682;-49.13673400878906
237;1665756575.871568;46.976598599999996;7.178986399999999;59.25400161743164;1665756575.9818563;-51.4112548828125;0.5494339466094971;-48.70942687988281
238;1665756576.0872638;46.9766115;7.178963899999999;59.25200271606445;1665756576.1819372;-51.92365646362305;0.9347314834594727;-48.95317077636719
239;1665756576.285394;46.976625399999996;7.178940099999999;59.2390022277832;1665756576.3859212;-52.67192459106445;-0.11327844113111496;-49.15357971191406
240;1665756576.4932814;46.9766384;7.1789179;59.233001708984375;1665756576.6006408;-50.98465347290039;-1.0322219133377075;-48.49018859863281
241;1665756576.697266;46.9766528;7.1788932;59.23500442504883;1665756576.8065765;-51.110443115234375;0.3186260163784027;-49.47846984863281
242;1665756576.9002724;46.9766663;7.1788701999999995;59.2130012512207;1665756577.000801;-51.47049331665039;0.4866553843021393;-49.4029655456543
243;1665756577.1042573;46.9766805;7.1788457999999995;59.20600128173828;1665756577.1979513;-49.81272506713867;0.6353471279144287;-49.244873046875
244;1665756577.310194;46.976694699999996;7.1788213999999995;59.19700241088867;1665756577.9094558;-51.386619567871094;0.41005590558052063;-49.47331619262695
245;1665756578.0109599;46.9767091;7.1787969;59.18300247192383;1665756578.120273;-51.31881332397461;-0.31700313091278076;-49.19319152832031
246;1665756578.2286954;46.9767236;7.1787722;59.18000411987305;1665756578.3352368;-49.90995788574219;0.2841050922870636;-49.643959045410156
247;1665756578.4640658;46.9767382;7.1787475;59.173004150390625;1665756578.5743546;-51.39543151855469;0.4767729640007019;-49.778350830078125
248;1665756578.6836681;46.9767527;7.1787225999999995;59.15500259399414;1665756578.8017614;-50.886817932128906;-0.10665571689605713;-49.24850845336914
249;1665756578.9198573;46.976768;7.1786965;59.160003662109375;1665756579.0223374;-47.75112533569336;0.420818030834198;-49.493404388427734
250;1665756579.1375062;46.9767826;7.1786715999999995;59.13900375366211;1665756579.276101;-35.05652618408203;0.6349766850471497;-49.353816986083984
251;1665756579.3800786;46.9767963;7.1786483;59.12600326538086;1665756579.4962223;-28.77788734436035;0.8950198292732239;-48.51189422607422
252;1665756579.6162841;46.9768097;7.178625599999999;59.12000274658203;1665756579.7197402;-29.973289489746094;-1.4933284521102905;-47.55891036987305
253;1665756579.8241699;46.976822399999996;7.1786043;59.08900451660156;1665756579.9159148;-24.719200134277344;-1.6138428449630737;-49.729774475097656
254;1665756580.0330374;46.9768341;7.1785843;59.061004638671875;1665756580.1277068;-22.051342010498047;-0.09939026832580566;-50.04361343383789
255;1665756580.2321398;46.976844799999995;7.178566;59.031002044677734;1665756580.3443787;-18.67233657836914;0.288274884223938;-49.53426742553711
256;1665756580.4478352;46.976854499999995;7.178549299999999;58.99700164794922;1665756580.5561738;-14.295153617858887;-0.3939109146595001;-49.31404113769531
257;1665756580.654745;46.976863099999996;7.1785345;58.96400451660156;1665756580.754299;-10.732994079589844;-0.003190879011526704;-49.215457916259766
258;1665756580.8684924;46.9768707;7.178521399999999;58.93700408935547;1665756580.965112;-7.44251012802124;0.016541630029678345;-49.00596237182617
259;1665756581.0822332;46.9768773;7.178510299999999;58.9160041809082;1665756581.1808095;-4.265773296356201;-0.3284260928630829;-48.98785400390625
260;1665756581.285241;46.9768829;7.1785007;58.906002044677734;1665756581.4062665;-1.8949213027954102;1.076780915260315;-49.33244705200195
261;1665756581.502891;46.9768877;7.178492599999999;58.90300369262695;1665756581.604394;-0.6301394104957581;2.039262294769287;-50.6489372253418
262;1665756581.716634;46.976891599999995;7.1784858;58.906002044677734;1665756581.8132598;-0.872390866279602;0.5263625383377075;-50.573707580566406
263;1665756581.91574;46.9768948;7.1784801;58.91200256347656;1665756582.019193;-2.1390504837036133;-0.02467299997806549;-47.92867660522461
264;1665756582.1265528;46.9768973;7.178475499999999;58.91400146484375;1665756582.2319634;0.3824864327907562;1.0661689043045044;-46.97031784057617
265;1665756582.343227;46.976899499999995;7.178471699999999;58.91200256347656;1665756582.4535127;1.323674201965332;0.7272257208824158;-46.79811477661133
266;1665756582.5506594;46.976901299999994;7.1784687;58.910003662109375;1665756582.6472778;1.2379601001739502;0.0938066765666008;-46.5532112121582
267;1665756582.7487833;46.9769028;7.1784662;58.91200256347656;1665756582.847357;-4.906564712524414;1.7175062894821167;-46.50272750854492
268;1665756582.9576457;46.976903899999996;7.1784643;58.90700149536133;1665756583.0640316;-3.719296455383301;-0.2663017511367798;-45.97407913208008
269;1665756583.1606553;46.976904999999995;7.1784627;58.90200424194336;1665756583.2592316;0.2460823655128479;0.9296194314956665;-46.01825714111328
270;1665756583.3695178;46.976906;7.1784612;58.900001525878906;1665756583.5774062;-1.043779969215393;-1.2404230833053589;-46.04438400268555
271;1665756583.6915991;46.976906899999996;7.1784599;58.89800262451172;1665756583.7940776;-1.697627305984497;0.46497079730033875;-46.63946533203125
272;1665756583.892654;46.9769077;7.1784586;58.89400100708008;1665756583.990256;-3.1578922271728516;-0.14842654764652252;-46.573421478271484
273;1665756584.110302;46.9769084;7.1784576;58.88900375366211;1665756584.222543;0.4991713762283325;0.03765495494008064;-46.642818450927734
274;1665756584.3386855;46.976909;7.1784566;58.89900207519531;1665756584.4338758;8.779424667358398;7.814728736877441;-40.07820510864258
275;1665756584.5324495;46.9769097;7.178456199999999;59.013004302978516;1665756584.6378577;-0.09550359100103378;10.407001495361328;-29.378637313842773
276;1665756584.7608335;46.9769106;7.1784567;59.22900390625;1665756584.8633134;-1.3954797983169556;32.58311080932617;-17.882347106933594
277;1665756584.972629;46.976912;7.1784590999999995;59.51400375366211;1665756585.083893;-24.831890106201172;42.44399642944336;-5.16779899597168
278;1665756585.1922264;46.976914699999995;7.178465699999999;59.881004333496094;1665756585.2937317;-46.98105239868164;33.70269012451172;0.7408803105354309
279;1665756585.3923068;46.9769201;7.1784769;60.307003021240234;1665756585.515282;-55.57893371582031;25.78910255432129;12.47530460357666
280;1665756585.626547;46.9769283;7.1784913999999995;60.71900177001953;1665756585.7114584;-55.06812286376953;23.562807083129883;19.08757972717285
281;1665756585.8139398;46.9769386;7.1785083;61.134002685546875;1665756585.9281297;-55.209495544433594;11.910801887512207;28.364347457885742
282;1665756586.1272342;46.976951199999995;7.1785282;61.5780029296875;1665756586.2297134;-52.875404357910156;4.646622657775879;32.03272247314453
283;1665756586.336097;46.9769655;7.178549299999999;62.03200149536133;1665756586.4297931;-48.145774841308594;5.956279277801514;23.64345932006836
284;1665756586.5391068;46.976981099999996;7.1785704;62.50800323486328;1665756586.649394;-40.93171691894531;14.421783447265625;23.171754837036133
285;1665756586.7450404;46.976997;7.1785912;62.9430046081543;1665756586.849472;-42.86235427856445;18.72021484375;34.02545928955078
286;1665756586.9529321;46.9770124;7.178612599999999;63.33500289916992;1665756587.0622451;-47.34129333496094;5.717860698699951;47.95054626464844
287;1665756587.1676495;46.977027199999995;7.1786351999999995;63.74200439453125;1665756587.2779362;-47.407859802246094;-7.393080234527588;49.20054626464844
288;1665756587.369681;46.9770421;7.1786579999999995;64.13200378417969;1665756587.472162;-49.49233627319336;-7.7145514488220215;46.24858093261719
289;1665756587.5697622;46.977057599999995;7.1786805;64.50800323486328;1665756587.6702895;-50.01838302612305;-1.4330670833587646;46.431541442871094
290;1665756587.7766788;46.9770737;7.178702899999999;64.89800262451172;1665756587.885009;-50.30497360229492;0.7895697951316833;45.491668701171875
291;1665756587.9923818;46.9770897;7.1787259;65.29199981689453;1665756588.0870533;-50.81765365600586;-1.848914623260498;43.531837463378906
292;1665756588.1885579;46.9771061;7.1787491;65.68000030517578;1665756588.2890866;-47.005088806152344;0.5788622498512268;43.39529037475586
293;1665756588.4101107;46.977122699999995;7.1787722;66.06000518798828;1665756588.525279;-28.73439598083496;4.686822414398193;45.2758674621582
294;1665756588.6179974;46.977138599999996;7.1787947;66.41400146484375;1665756588.721454;-10.728313446044922;20.001605987548828;40.8275032043457
295;1665756588.8190532;46.9771527;7.178815999999999;66.74200439453125;1665756588.9293425;-26.083200454711914;34.429996490478516;25.54155731201172
296;1665756589.042559;46.9771645;7.1788367;67.04400634765625;1665756589.1430862;-29.782894134521484;-28.425573348999023;43.01268005371094
297;1665756589.2436132;46.9771759;7.178856199999999;67.27900695800781;1665756589.3353581;-24.580169677734375;-52.026756286621094;45.626705169677734
298;1665756589.4973724;46.9771892;7.1788697;67.51500701904297;1665756589.6027825;-28.951305389404297;-23.093053817749023;44.01824951171875
299;1665756589.710143;46.9772021;7.178878399999999;67.7229995727539;1665756589.8177652;-10.64699935913086;20.297119140625;40.282676696777344
300;1665756589.9378135;46.977214499999995;7.178886899999999;67.89900207519531;1665756590.0246787;-14.123805046081543;33.13118362426758;51.35028839111328
301;1665756590.128133;46.9772247;7.1788963;68.03700256347656;1665756590.2335417;7.432872772216797;27.440444946289062;60.55607986450195
302;1665756590.359449;46.9772308;7.1789049;68.18700408935547;1665756590.4599724;30.320878982543945;22.90310287475586;66.08832550048828
303;1665756590.561479;46.977233899999995;7.1789119999999995;68.3550033569336;1665756590.658102;17.25078773498535;28.370771408081055;73.57601165771484
304;1665756590.7644866;46.9772342;7.1789163;68.5050048828125;1665756590.8601332;1.6746156215667725;24.063373565673828;82.95999145507812
305;1665756590.9850612;46.977233;7.1789195999999995;68.62300109863281;1665756591.0836382;-19.035715103149414;-7.179598331451416;82.35594177246094
306;1665756591.1802633;46.9772317;7.1789231;68.69700622558594;1665756591.2798142;-32.56867599487305;-23.851686477661133;64.99435424804688
307;1665756591.3822951;46.9772319;7.1789274999999995;68.76399993896484;1665756591.4984388;-27.9043025970459;-13.244206428527832;48.93365478515625
308;1665756591.6106787;46.9772337;7.1789323;68.79100036621094;1665756591.7219415;-19.0781307220459;-5.666092872619629;42.19326400756836
309;1665756591.8380861;46.9772365;7.1789372;68.8010025024414;1665756591.9376383;-8.653486251831055;-2.7037770748138428;40.95637893676758
310;1665756592.0528073;46.9772396;7.1789418;68.81000518798828;1665756592.1582122;-18.30839729309082;-1.7677311897277832;44.721195220947266
311;1665756592.2850947;46.9772428;7.1789461;68.81500244140625;1665756592.378788;-16.084280014038086;-0.4659412205219269;46.19846725463867
312;1665756592.4939556;46.977246199999996;7.1789505;68.81500244140625;1665756592.5905874;-9.42834758758545;0.6484394669532776;47.64728927612305
313;1665756592.7008696;46.977249099999995;7.1789545;68.81400299072266;1665756592.8023736;-2.1203901767730713;1.7378417253494263;49.1671142578125
314;1665756592.903877;46.9772519;7.178958199999999;68.81600189208984;1665756593.002453;2.9988062381744385;2.281090497970581;50.82481384277344
315;1665756593.099075;46.9772542;7.1789615;68.82400512695312;1665756593.2083907;3.469139814376831;2.6033947467803955;52.44529724121094
316;1665756593.3108675;46.9772561;7.1789644;68.83000183105469;1665756593.4094455;2.1168768405914307;1.9292570352554321;54.01460647583008
317;1665756593.511924;46.9772573;7.1789665;68.83500671386719;1665756594.022886;1.8307300806045532;1.2809442281723022;54.341278076171875
318;1665756594.1292682;46.977258;7.178967999999999;68.84000396728516;1665756594.2219894;4.847110271453857;1.2464051246643066;53.7552490234375
319;1665756594.332278;46.9772586;7.1789692;68.84600067138672;1665756594.437686;4.105634689331055;2.3267500400543213;54.10958480834961
320;1665756594.5362618;46.977259;7.178970199999999;68.85900115966797;1665756594.6397166;7.386904716491699;17.295379638671875;61.17389678955078
321;1665756594.7382958;46.9772588;7.178971199999999;68.87300109863281;1665756594.8300369;-5.710100173950195;19.56412124633789;70.95121765136719
322;1665756594.9413004;46.977257599999994;7.1789726;68.89700317382812;1665756595.044757;-25.751903533935547;37.052490234375;81.3018569946289
323;1665756595.1443076;46.977255;7.1789752;68.93900299072266;1665756595.2516675;-48.1563606262207;32.147552490234375;95.41226959228516
324;1665756595.3590295;46.977250299999994;7.178980699999999;68.98200225830078;1665756595.466388;-53.691009521484375;16.166614532470703;110.19579315185547
325;1665756595.569845;46.9772433;7.178990199999999;69.05599975585938;1665756595.6664686;-55.55916976928711;6.840036869049072;119.40243530273438
326;1665756595.7611399;46.9772349;7.1790028999999995;69.14800262451172;1665756595.8694785;-57.598201751708984;5.150463104248047;126.33047485351562
327;1665756596.0334442;46.9772253;7.1790180999999995;69.20500183105469;1665756596.2667077;-57.630348205566406;1.9386637210845947;132.28785705566406
328;1665756596.3701632;46.9772144;7.1790351999999995;69.23600006103516;1665756596.4726446;-54.48796844482422;-4.8591437339782715;133.9506072998047
329;1665756596.5829344;46.9772026;7.1790543;69.2550048828125;1665756596.680531;-51.28927230834961;-6.4597625732421875;129.41468811035156
330;1665756596.789846;46.9771905;7.179075;69.28400421142578;1665756596.9001317;-46.955753326416016;-1.0835728645324707;117.78256225585938
331;1665756597.0924056;46.9771788;7.179096599999999;69.28900146484375;1665756597.1987884;-49.419677734375;6.977797985076904;120.01976013183594
332;1665756597.2866275;46.977167099999996;7.179119099999999;69.29900360107422;1665756597.3881319;-51.516204833984375;8.173798561096191;130.2201385498047
333;1665756597.485734;46.9771548;7.1791417;69.31400299072266;1665756597.5813801;-51.49839401245117;-2.059723377227783;132.93988037109375
334;1665756597.6877627;46.9771418;7.1791643;69.31500244140625;1665756597.787317;-51.788089752197266;-3.5855836868286133;128.50242614746094
335;1665756597.8985794;46.977128799999996;7.179187499999999;69.30000305175781;1665756598.0059395;-51.858577728271484;0.7855705618858337;127.98091125488281
336;1665756598.1084187;46.9771152;7.1792124;69.302001953125;1665756598.2099245;-51.38805389404297;2.77789044380188;129.2384490966797
337;1665756598.3192353;46.9771025;7.179235599999999;69.29700469970703;1665756598.4256186;-52.47102355957031;0.7734313011169434;129.52517700195312
338;1665756598.517362;46.9770889;7.179259999999999;69.2820053100586;1665756598.6178906;-52.4553337097168;0.23663859069347382;129.25631713867188
339;1665756598.7193954;46.977075199999994;7.179284699999999;69.2800064086914;1665756598.816996;-51.653221130371094;1.631468415260315;129.6720733642578
340;1665756598.9233785;46.977061299999995;7.1793095;69.27000427246094;1665756599.0414746;-52.71646499633789;1.0265991687774658;130.32330322265625
341;1665756599.1546903;46.977047;7.1793343;69.24800109863281;1665756599.2532663;-52.65167999267578;-0.19464628398418427;130.09542846679688
342;1665756599.3660178;46.9770326;7.1793594;69.24000549316406;1665756599.4685;-52.03477478027344;0.3207029402256012;129.68540954589844
343;1665756599.574882;46.977018199999996;7.179384799999999;69.22500610351562;1665756599.6685772;-50.94807052612305;0.5615723133087158;130.31581115722656
344;1665756599.774962;46.9770037;7.179410099999999;69.20800018310547;1665756599.9740658;-39.28879928588867;2.531630039215088;129.46177673339844
345;1665756600.0921612;46.9769894;7.1794348999999995;69.19400024414062;1665756600.1751223;-21.197668075561523;9.130138397216797;128.04010009765625
346;1665756600.2854116;46.9769757;7.1794579;69.1780014038086;1665756600.3830109;-21.441232681274414;16.090656280517578;125.1416015625
347;1665756600.486465;46.976962799999995;7.179478;69.16300201416016;1665756600.5928512;-33.85007095336914;-18.99424171447754;139.99293518066406
348;1665756600.7021625;46.976950699999996;7.179496899999999;69.14100646972656;1665756600.8124504;-25.310747146606445;-16.31380271911621;129.1942901611328
349;1665756600.9188352;46.97694;7.179515599999999;69.10400390625;1665756601.0320492;-20.282638549804688;0.12055040150880814;126.39598846435547
350;1665756601.1276963;46.9769307;7.1795332;69.07200622558594;1665756601.231155;-17.075057983398438;-1.7358325719833374;128.95338439941406
351;1665756601.3346105;46.9769223;7.179549199999999;69.03400421142578;1665756601.442947;-12.24209213256836;1.502820611000061;129.9085693359375
352;1665756601.5551846;46.9769149;7.179563399999999;68.99100494384766;1665756601.6586401;-9.244468688964844;3.489675521850586;130.81088256835938
353;1665756601.7562406;46.9769084;7.1795756;68.9530029296875;1665756601.8743372;-6.07513427734375;3.963972568511963;131.34434509277344
354;1665756601.988529;46.9769027;7.1795857;68.92200469970703;1665756602.0890577;-1.3915596008300781;2.749443769454956;132.3997802734375
355;1665756602.2940166;46.976897799999996;7.1795941999999995;68.9010009765625;1665756602.3906415;2.8328003883361816;2.760746479034424;132.62307739257812
356;1665756602.4980044;46.9768936;7.179601099999999;68.88700103759766;1665756602.5926714;1.9469698667526245;2.0386781692504883;132.7608184814453
357;1665756602.7010102;46.9768902;7.1796066;68.87800598144531;1665756602.8161805;-1.0684922933578491;1.4676055908203125;132.89456176757812
358;1665756602.9128022;46.976887399999995;7.1796108;68.875;1665756603.0113778;-0.9914438724517822;0.6638028621673584;132.63613891601562
359;1665756603.1099515;46.9768852;7.179614;68.86900329589844;1665756603.2143843;0.8718885779380798;0.14408627152442932;132.28512573242188
360;1665756603.3217442;46.9768834;7.1796166999999995;68.86500549316406;1665756603.4310565;-0.17783686518669128;-0.7427193522453308;131.728515625
361;1665756603.5335362;46.9768818;7.179619;68.86500549316406;1665756603.6418724;-3.5632946491241455;0.0627584457397461;131.2608642578125
362;1665756603.75021;46.9768806;7.1796209;68.87000274658203;1665756603.8458602;-5.55239200592041;-0.3855750560760498;131.17079162597656
363;1665756603.948339;46.976879499999995;7.1796226;68.8740005493164;1665756604.0586271;-4.144651412963867;-0.5158897042274475;130.88600158691406
364;1665756604.1650102;46.9768786;7.1796241;68.8740005493164;1665756604.2665129;-1.5455480813980103;-0.36072584986686707;130.72348022460938
365;1665756604.3709457;46.9768778;7.179625499999999;68.87200164794922;1665756604.4880648;-0.9645999073982239;-0.226639986038208;130.7300567626953
366;1665756604.5866413;46.9768769;7.1796269;68.87200164794922;1665756604.689121;-1.5778090953826904;-0.4095699191093445;131.02577209472656
367;1665756604.785743;46.9768762;7.1796282;68.87200164794922;1665756604.887247;-3.1609370708465576;0.28165122866630554;131.15109252929688
368;1665756605.0004742;46.9768756;7.179629299999999;68.87200164794922;1665756605.096111;-2.9773919582366943;0.4365983009338379;131.09889221191406
369;1665756605.30888;46.9768751;7.1796302999999995;68.86000061035156;1665756605.4055045;5.121017932891846;8.228549003601074;133.93289184570312
370;1665756605.5148146;46.9768745;7.179631;68.74200439453125;1665756605.615343;4.633528709411621;11.3434476852417;144.12924194335938
371;1665756605.7353907;46.9768738;7.1796311;68.56200408935547;1665756605.8388476;-12.343114852905273;31.60428810119629;158.13148498535156
372;1665756605.9403524;46.9768725;7.1796297;68.4010009765625;1665756606.0389278;-26.335994720458984;37.44472885131836;175.5004119873047
373;1665756606.6608837;46.9768699;7.1796254;68.27200317382812;1665756606.7506683;-35.99751281738281;32.91402053833008;-173.99513244628906
374;1665756606.8492446;46.9768665;7.179619499999999;68.11400604248047;1665756606.9448926;-33.84982681274414;20.335710525512695;-166.29067993164062
375;1665756607.0493267;46.9768621;7.1796114;67.96600341796875;1665756607.1508284;-32.66337966918945;9.550626754760742;-159.98052978515625
376;1665756607.2601435;46.9768569;7.1796026;67.81100463867188;1665756607.373356;-36.77924728393555;7.435850620269775;-151.58448791503906
377;1665756607.4787643;46.9768511;7.1795934;67.63500213623047;1665756607.586125;-36.784263610839844;2.6969172954559326;-143.95535278320312
378;1665756607.7042205;46.976844799999995;7.1795838;67.46700286865234;1665756607.810605;-34.75216293334961;-2.536430597305298;-136.13113403320312
379;1665756607.9179661;46.976838;7.179573899999999;67.302001953125;1665756608.0145898;-34.29365539550781;-5.422649383544922;-130.9412078857422
380;1665756608.1326873;46.976830899999996;7.1795640999999994;67.12000274658203;1665756608.227357;-33.29658889770508;-5.07672643661499;-133.21487426757812
381;1665756608.8324785;46.976823599999996;7.1795542999999995;66.93600463867188;1665756608.9261744;-33.01333236694336;-3.143436908721924;-135.119384765625
382;1665756609.0276756;46.9768161;7.1795444999999996;66.7490005493164;1665756609.1213734;-33.24050521850586;-1.6981297731399536;-135.4495086669922
383;1665756609.2209237;46.9768085;7.1795348;66.56000518798828;1665756609.3273096;-33.44244384765625;-0.3508276343345642;-135.51438903808594
384;1665756609.4258857;46.9768009;7.179525099999999;66.37100219726562;1665756609.5234866;-33.363285064697266;0.5431016683578491;-135.45689392089844
385;1665756609.6337714;46.9767933;7.1795152;66.18099975585938;1665756609.741132;-33.472103118896484;1.1132081747055054;-135.4287872314453
386;1665756609.856302;46.976785899999996;7.1795051;65.99400329589844;1665756609.9597561;-33.33045959472656;1.327616810798645;-135.3989715576172
387;1665756610.0700433;46.9767784;7.1794949;65.80400085449219;1665756610.1647167;-33.07997512817383;1.3512934446334839;-135.41917419433594
388;1665756610.2603638;46.9767711;7.179484599999999;65.61300659179688;1665756610.3579645;-33.113460540771484;1.3590904474258423;-135.389404296875
389;1665756610.482892;46.9767638;7.1794742;65.42000579833984;1665756610.571708;-33.05091857910156;1.1037237644195557;-135.43190002441406
390;1665756610.6829722;46.976756599999995;7.1794636;65.22900390625;1665756610.7825248;-32.94425964355469;0.6183212399482727;-135.4493865966797
391;1665756610.883052;46.976749299999994;7.1794531;65.03400421142578;1665756610.990411;-33.00735855102539;0.4481854736804962;-135.49151611328125
392;1665756611.0873156;46.976742099999996;7.1794424999999995;64.84200286865234;1665756611.1888204;-33.02363204956055;0.12074685096740723;-135.51475524902344
393;1665756611.2961795;46.9767349;7.1794319;64.64900207519531;1665756611.3976839;-32.98625946044922;-0.10768348723649979;-135.56216430664062
394;1665756611.501139;46.9767278;7.1794214;64.45500183105469;1665756611.5981503;-33.12794876098633;-0.23488488793373108;-135.5592041015625
395;1665756611.69632;46.9767203;7.1794104999999995;64.25300598144531;1665756611.8036828;-33.294097900390625;-0.32490015029907227;-135.61782836914062
396;1665756611.9110389;46.976713;7.1794001;64.05900573730469;1665756612.0144987;-33.40703582763672;-0.18858057260513306;-135.57569885253906
397;1665756612.1189277;46.976706;7.17939;63.87300491333008;1665756612.219457;-33.26467514038086;-0.10797032713890076;-135.59060668945312
398;1665756612.322911;46.9766987;7.1793796;63.682003021240234;1665756612.4146554;-33.14799118041992;-0.053194839507341385;-135.55902099609375
399;1665756612.516161;46.9766911;7.1793686999999995;63.48400115966797;1665756612.6176622;-33.14759063720703;0.04859158396720886;-135.59051513671875
400;1665756612.7181916;46.9766841;7.1793587;63.29900360107422;1665756612.8167682;-33.253353118896484;0.22301076352596283;-135.51620483398438
401;1665756612.9211984;46.9766768;7.1793483;63.108001708984375;1665756613.0197775;-33.135650634765625;0.27941563725471497;-135.521484375
402;1665756613.125184;46.9766695;7.179337899999999;62.9160041809082;1665756613.228639;-33.027870178222656;0.37202611565589905;-135.534912109375
403;1665756613.331122;46.9766621;7.1793274;62.72300338745117;1665756613.4335983;-33.03321075439453;0.4255766272544861;-135.51170349121094
404;1665756613.5429106;46.9766548;7.1793169;62.52900314331055;1665756613.6492956;-33.00965118408203;0.4024914801120758;-135.50909423828125
405;1665756613.7556782;46.9766475;7.1793064;62.336002349853516;1665756613.854254;-33.002906799316406;0.3090617060661316;-135.51429748535156
406;1665756613.9655185;46.9766403;7.1792959;62.1400032043457;1665756614.0582385;-32.984962463378906;0.1708102524280548;-135.54359436035156
407;1665756614.1616974;46.9766331;7.1792853999999995;61.94400405883789;1665756614.251933;-33.0674934387207;0.1434587985277176;-135.56109619140625
408;1665756614.371983;46.9766258;7.179274899999999;61.74900436401367;1665756614.4676285;-33.217994689941406;0.042534973472356796;-135.5697479248047
409;1665756614.5701096;46.976618599999995;7.1792644;61.553001403808594;1665756614.6677094;-33.150020599365234;0.07006266713142395;-135.60011291503906
410;1665756614.7799497;46.976611299999995;7.1792539;61.35700225830078;1665756614.8814561;-33.17021179199219;0.18659354746341705;-135.62847900390625
411;1665756614.9888139;46.976603999999995;7.1792434;61.163002014160156;1665756615.090319;-33.0489501953125;0.23966297507286072;-135.5928192138672
412;1665756615.1967013;46.976596699999995;7.1792329;60.967002868652344;1665756615.3108938;-33.002864837646484;0.22594061493873596;-135.6038818359375
413;1665756615.408493;46.976589399999995;7.1792224;60.772003173828125;1665756615.5129268;-32.94868087768555;0.2854782044887543;-135.6405029296875
414;1665756615.6115007;46.976582099999995;7.1792118;60.577003479003906;1665756615.8135364;-32.91239929199219;0.20745009183883667;-135.6717071533203
415;1665756615.9218686;46.976574799999995;7.1792013;60.38300323486328;1665756616.0194707;-32.831871032714844;0.1729852259159088;-135.72634887695312
416;1665756616.1336603;46.976567599999996;7.1791906999999995;60.189002990722656;1665756616.245902;-20.818416595458984;0.07737898826599121;-135.62515258789062
417;1665756616.3503327;46.976560299999996;7.1791801;59.9890022277832;1665756616.4479332;-14.99290657043457;0.18658362329006195;-135.85101318359375
418;1665756616.564078;46.9765538;7.1791709;59.81700134277344;1665756616.662654;-11.141830444335938;0.30850324034690857;-135.81553649902344
