;pos_time;latitude;longitude;altitude;alt_time;pitch;roll;yaw
0;1665664539.990081;46.9755371;7.1803554;-0.018000001087784767;1665664540.034977;-0.2819380760192871;-0.37049490213394165;91.92025756835938
1;1665664540.1852806;46.9755371;7.1803554;-0.018000001087784767;1665664540.2399375;-0.3706759214401245;-0.34134015440940857;91.96161651611328
2;1665664540.3980505;46.975536999999996;7.1803554;-0.013000000268220901;1665664540.44197;-0.3273248076438904;-0.24925778806209564;91.73179626464844
3;1665664540.592273;46.9755371;7.1803554;-0.007000000216066837;1665664540.6449788;-0.18195264041423798;-0.24884966015815735;91.7069091796875
4;1665664540.8001618;46.9755371;7.1803554;-0.003000000026077032;1665664540.8499382;-0.3605113625526428;-0.23138470947742462;91.71249389648438
5;1665664541.0187871;46.975536999999996;7.1803555;0.0;1665664541.0627065;-0.20316466689109802;-0.2718914747238159;91.92296600341797
6;1665664541.2217937;46.975536999999996;7.1803555;0.0020000000949949026;1665664541.2637608;-0.371175616979599;-0.3325420022010803;91.83462524414062
7;1665664541.4267542;46.975536999999996;7.1803554;0.0010000000474974513;1665664541.4726255;-0.42417874932289124;-0.28876909613609314;91.92604064941406
8;1665664541.625861;46.975536999999996;7.1803554;0.0;1665664541.6688032;-0.3596397936344147;-0.4389384686946869;91.88845825195312
9;1665664541.8376508;46.9755371;7.1803552999999996;0.0;1665664541.9079268;-0.3296838402748108;-0.279476523399353;92.03677368164062
10;1665664542.0738428;46.9755371;7.1803552999999996;-0.003000000026077032;1665664542.1226418;-0.4106731116771698;-0.22078347206115723;91.80874633789062
11;1665664542.2973495;46.9755371;7.1803552999999996;-0.005000000353902578;1665664542.3383405;-0.4503399133682251;-0.21288906037807465;91.80585479736328
12;1665664542.49157;46.9755371;7.180355199999999;-0.009000000543892384;1665664542.53549;-0.37221887707710266;-0.3833830654621124;91.88976287841797
13;1665664542.7023878;46.9755371;7.1803552999999996;-0.012000000104308128;1665664542.7443542;-0.40345361828804016;-0.24964988231658936;91.84850311279297
14;1665664542.906417;46.9755371;7.1803552999999996;-0.013000000268220901;1665664542.9630835;-0.17159727215766907;-0.22225920855998993;91.7315673828125
15;1665664543.1124125;46.9755371;7.1803552999999996;-0.014000000432133675;1665664543.1592588;-0.29683980345726013;-0.029027597978711128;91.68970489501953
16;1665664543.3212886;46.9755371;7.180355199999999;0.0010000000474974513;1665664543.372039;-0.38283610343933105;-0.028703125193715096;91.70639038085938
17;1665664543.527222;46.9755371;7.180355199999999;0.005000000353902578;1665664543.5740695;-0.2322986125946045;-0.07432370632886887;91.8025131225586
18;1665664543.7438934;46.9755371;7.180355199999999;0.010000000707805157;1665664543.8005042;-0.14867135882377625;-0.09784439951181412;91.89594268798828
19;1665664543.9690578;46.9755371;7.180355199999999;0.012000000104308128;1665664544.0174727;-0.049357037991285324;-0.1659153401851654;91.98793029785156
20;1665664544.1648479;46.9755371;7.180355199999999;0.01600000075995922;1665664544.2107177;0.4855307936668396;0.5318969488143921;92.35981750488281
21;1665664544.377614;46.9755371;7.180355199999999;0.03100000135600567;1665664544.429342;0.38638296723365784;0.17724867165088654;92.3143081665039
22;1665664544.5835502;46.975536999999996;7.1803551;0.07200000435113907;1665664544.6236115;-0.20408643782138824;-0.04673764109611511;92.20761108398438
23;1665664544.7906153;46.975536999999996;7.1803551;0.11800000816583633;1665664544.8355575;-0.1379907876253128;-0.17488424479961395;92.1272964477539
24;1665664544.9977252;46.975536899999994;7.1803551;0.2160000056028366;1665664545.054883;0.278064101934433;-0.07754075527191162;92.04125213623047
25;1665664545.2307625;46.975536899999994;7.1803551;0.3330000042915344;1665664545.2790976;0.1177864596247673;-0.3599264919757843;91.94920349121094
26;1665664545.424672;46.975536899999994;7.180355;0.47700002789497375;1665664545.4774249;0.06422109156847;-0.33435118198394775;91.8721694946289
27;1665664545.6308115;46.9755368;7.180354899999999;0.6200000047683716;1665664545.699177;-0.713665246963501;-0.30831652879714966;91.8129653930664
28;1665664545.8506036;46.9755368;7.180354899999999;0.7760000228881836;1665664545.9047978;-0.2978112995624542;-0.36994946002960205;91.77509307861328
29;1665664546.0687838;46.9755368;7.180354899999999;0.9660000205039978;1665664546.1156824;-0.6960558295249939;-0.23920607566833496;91.7527084350586
30;1665664546.2637172;46.975536899999994;7.180354899999999;1.1730000972747803;1665664546.3306444;-0.5309468507766724;-0.2538696825504303;91.71978759765625
31;1665664546.4809978;46.975536899999994;7.180354899999999;1.4280000925064087;1665664546.5288215;-0.254879355430603;-0.2096991389989853;91.67098236083984
32;1665664546.8626137;46.975536899999994;7.180355;1.6670000553131104;1665664546.9143438;-0.27343058586120605;-0.15302512049674988;90.59315490722656
33;1665664547.0783432;46.975536899999994;7.1803551;1.9340001344680786;1665664547.1202793;0.16764028370380402;-0.279189795255661;90.5520248413086
34;1665664547.2901018;46.975536899999994;7.1803551;2.2269999980926514;1665664547.3418314;-0.15512295067310333;-0.35706982016563416;90.6001968383789
35;1665664547.491158;46.975536899999994;7.1803551;2.5200002193450928;1665664547.5458164;-0.101730115711689;-0.3632033169269562;90.65099334716797
36;1665664547.7068572;46.975536899999994;7.1803551;2.8560001850128174;1665664547.760534;-0.06318847835063934;-0.2890591323375702;90.6544418334961
37;1665664547.9137673;46.975536899999994;7.180355199999999;3.18500018119812;1665664547.9615908;-0.26107272505760193;-0.3112907111644745;90.69976043701172
38;1665664548.1265368;46.975536899999994;7.180355199999999;3.5250000953674316;1665664548.1694791;0.06851158291101456;-0.2521478533744812;90.6982421875
39;1665664548.3256383;46.975536999999996;7.1803552999999996;3.8560001850128174;1665664548.3744402;-0.07052627950906754;-0.22825928032398224;90.68814086914062
40;1665664548.5384102;46.975536999999996;7.1803554;4.181000232696533;1665664548.5842788;0.3037048280239105;-0.09968972951173782;90.69698333740234
41;1665664548.754105;46.9755371;7.1803554;4.529000282287598;1665664548.797047;0.08441745489835739;-0.14051300287246704;90.72980499267578
42;1665664548.9561367;46.9755371;7.1803554;4.8510003089904785;1665664549.0137217;-0.06709425896406174;-0.21638883650302887;90.69747924804688
43;1665664549.1718335;46.9755371;7.1803554;5.190000057220459;1665664549.216727;0.1694580614566803;-0.21474024653434753;90.669921875
44;1665664549.3728876;46.9755371;7.1803554;5.520000457763672;1665664549.4236398;-0.11429056525230408;-0.15469448268413544;90.64974975585938
45;1665664549.5876095;46.9755372;7.1803554;5.861000061035156;1665664549.6315281;0.22117428481578827;-0.0645662397146225;90.6866226196289
46;1665664549.7886643;46.9755372;7.1803554;6.173000335693359;1665664549.8335621;0.08803021907806396;0.013045261614024639;90.64823913574219
47;1665664549.9809377;46.9755372;7.1803554;6.479000091552734;1665664550.029736;0.1059052124619484;-0.014537124894559383;90.68984985351562
48;1665664550.1937046;46.9755372;7.1803554;6.808000087738037;1665664550.2503147;0.15399697422981262;-0.08352944999933243;90.68972778320312
49;1665664550.4084246;46.9755372;7.1803554;7.117000102996826;1665664550.4611318;0.07000678777694702;-0.05444357171654701;90.70891571044922
50;1665664550.6153364;46.9755372;7.1803554;7.436000347137451;1665664550.6631608;0.35487550497055054;-0.03237646073102951;90.65846252441406
51;1665664550.8134654;46.9755372;7.1803554;7.746000289916992;1665664550.8593378;0.15914644300937653;0.0071066319942474365;90.64434814453125
52;1665664551.0457528;46.9755372;7.1803552999999996;8.062000274658203;1665664551.0965102;0.12307949364185333;0.017977645620703697;90.68936157226562
53;1665664551.268281;46.9755372;7.1803552999999996;8.35300064086914;1665664551.317085;-0.021826621145009995;0.054418954998254776;90.68571472167969
54;1665664551.4664123;46.9755372;7.180355199999999;8.644000053405762;1665664551.521066;0.02175404690206051;0.001680194865912199;90.6906967163086
55;1665664551.6791801;46.9755372;7.180355199999999;8.95300006866455;1665664551.7318816;-0.04529597610235214;-0.06277824938297272;90.6422119140625
56;1665664551.9007328;46.9755371;7.1803551;9.254000663757324;1665664551.9553869;-0.14840653538703918;-0.10600055754184723;90.66156768798828
57;1665664552.1047163;46.9755371;7.180355;9.571000099182129;1665664552.1525376;-0.07318969815969467;-0.154628187417984;90.70105743408203
58;1665664552.2950346;46.9755371;7.180355;9.860000610351562;1665664552.3448112;-0.264884352684021;-0.1794709712266922;90.69524383544922
59;1665664552.509755;46.975536999999996;7.180354899999999;10.164000511169434;1665664552.553675;-0.005193864926695824;-0.2449186146259308;90.67935943603516
60;1665664552.7313077;46.975536999999996;7.180354899999999;10.568000793457031;1665664552.7752259;-0.0906427800655365;-0.19897858798503876;90.66880798339844
61;1665664552.9382231;46.975536999999996;7.180354899999999;11.094000816345215;1665664552.9831169;-0.3092925548553467;-0.11145544797182083;90.68305969238281
62;1665664553.1363497;46.975536999999996;7.1803548;11.680000305175781;1665664553.191979;-0.2212817519903183;-0.18196047842502594;90.6709976196289
63;1665664553.340333;46.975536999999996;7.1803548;12.271000862121582;1665664553.3871808;-0.4717575013637543;-0.22408349812030792;90.69829559326172
64;1665664553.546269;46.975536899999994;7.180354899999999;12.863000869750977;1665664553.594093;-0.1476466953754425;-0.20143388211727142;90.68983459472656
65;1665664553.7395177;46.975536899999994;7.180354899999999;13.458000183105469;1665664553.788315;-0.256669282913208;-0.1598086953163147;90.67042541503906
66;1665664554.045004;46.975536899999994;7.180354899999999;14.045001029968262;1665664554.1006377;-0.24325986206531525;-0.17755304276943207;90.66878509521484
67;1665664554.2577715;46.975536999999996;7.180355;14.63800048828125;1665664554.311452;-0.16420124471187592;-0.0542110949754715;90.66429138183594
68;1665664554.4617558;46.975536999999996;7.180355;15.232000350952148;1665664554.516412;-0.2139406055212021;0.04523755982518196;90.67433166503906
69;1665664554.6647668;46.975536999999996;7.180355;15.825000762939453;1665664554.7086837;-0.20105475187301636;-0.0011671490501612425;90.67790985107422
70;1665664554.873631;46.975536999999996;7.1803551;16.417001724243164;1665664554.9175513;-0.14824417233467102;-0.043689921498298645;90.67301940917969
71;1665664555.0805428;46.975536999999996;7.1803551;17.032001495361328;1665664555.1254368;-0.15537920594215393;-0.06995830684900284;90.67052459716797
72;1665664555.2942863;46.975536999999996;7.1803551;17.60300064086914;1665664555.3382099;-0.17460086941719055;-0.03239794075489044;90.67050170898438
73;1665664555.5031524;46.975536999999996;7.180355199999999;18.197999954223633;1665664555.5519521;-0.19397708773612976;-0.044925786554813385;90.65918731689453
74;1665664555.7100625;46.975536999999996;7.180355199999999;18.797000885009766;1665664555.7530077;-0.22334177792072296;0.05022159963846207;90.66026306152344
75;1665664555.915997;46.975536999999996;7.1803552999999996;19.39900016784668;1665664555.9647985;-0.15185093879699707;0.05789756774902344;90.6667709350586
76;1665664556.1375508;46.975536899999994;7.1803552999999996;20.019001007080078;1665664556.175613;-0.0323404036462307;-0.020320849493145943;90.65409851074219
77;1665664556.4381576;46.975536899999994;7.1803554;20.591001510620117;1665664556.492815;-0.02117728628218174;-0.11408792436122894;90.66265106201172
78;1665664556.6519022;46.975536899999994;7.1803554;21.187000274658203;1665664556.6987495;-0.06568315625190735;-0.1098250150680542;90.65703582763672
79;1665664556.9427497;46.975536899999994;7.1803554;21.7810001373291;1665664556.9983842;-0.0945969671010971;-0.03805055841803551;90.66567993164062
80;1665664557.1613739;46.9755368;7.1803555;22.40300178527832;1665664557.2228634;-0.030769139528274536;-0.019969234243035316;90.67174530029297
81;1665664557.3770702;46.9755368;7.1803555;22.979001998901367;1665664557.4268472;0.03824450075626373;-0.09628968685865402;90.66099548339844
82;1665664557.5742235;46.9755368;7.1803555999999995;23.575000762939453;1665664557.6318061;0.0020698606967926025;-0.19020521640777588;90.67032623291016
83;1665664557.7772317;46.9755368;7.1803555999999995;24.17300033569336;1665664557.8260334;-0.006406903732568026;-0.21793314814567566;90.67012786865234
84;1665664557.9978075;46.9755367;7.1803555999999995;24.774002075195312;1665664558.046609;0.060433756560087204;-0.18029740452766418;90.67585754394531
85;1665664558.217408;46.9755368;7.1803555999999995;25.373001098632812;1665664558.2623053;0.057177819311618805;-0.13519804179668427;90.65120697021484
86;1665664558.4350572;46.9755368;7.1803557;25.97300148010254;1665664558.4731224;0.006530787795782089;-0.08631415665149689;90.64633178710938
87;1665664558.6370869;46.9755368;7.1803557;26.57000160217285;1665664558.6839368;0.04591954126954079;-0.14821474254131317;90.65898895263672
88;1665664558.8410711;46.9755367;7.1803557;27.165000915527344;1665664558.8898716;0.06092555820941925;-0.23015622794628143;90.67735290527344
89;1665664559.049939;46.9755367;7.1803557;27.75800132751465;1665664559.0967853;0.03438524156808853;-0.32248654961586;90.6716537475586
90;1665664559.2500157;46.9755367;7.1803557;28.35300064086914;1665664559.2988188;-0.016170037910342216;-0.21611575782299042;90.66950988769531
91;1665664559.452048;46.9755367;7.1803557;28.95400047302246;1665664559.4969454;-0.0016669929027557373;-0.23060443997383118;90.666259765625
92;1665664559.660912;46.9755368;7.1803555999999995;29.556001663208008;1665664559.7097127;-0.037697650492191315;-0.12985676527023315;90.66957092285156
93;1665664559.851235;46.9755368;7.1803555999999995;30.157001495361328;1665664559.8980803;-0.09126561135053635;-0.09396376460790634;90.68215942382812
94;1665664560.0581462;46.9755368;7.1803555999999995;30.755001068115234;1665664560.1118252;-0.11280998587608337;-0.12259071320295334;90.67041778564453
95;1665664560.2689621;46.9755368;7.1803555;31.356000900268555;1665664560.3245945;-0.13982026278972626;-0.10026442259550095;90.66703033447266
96;1665664560.4817297;46.9755368;7.1803555;31.961002349853516;1665664560.527602;-0.12645559012889862;-0.1794705092906952;90.67280578613281
97;1665664560.6779077;46.9755368;7.1803555;32.57100296020508;1665664560.7335382;-0.069789819419384;-0.30992501974105835;90.66373443603516
98;1665664560.8916488;46.9755368;7.1803555;33.178001403808594;1665664560.944353;-0.06255199015140533;-0.3480477035045624;90.66815185546875
99;1665664561.1122255;46.9755368;7.1803555;33.78900146484375;1665664561.1571229;-0.029395177960395813;-0.24195528030395508;90.66941833496094
100;1665664561.305476;46.9755368;7.1803555999999995;34.39500045776367;1665664561.3542728;0.05914156511425972;-0.1351090520620346;90.6849365234375
101;1665664561.5094573;46.975536899999994;7.1803555999999995;35.00100326538086;1665664561.5572822;0.06300055235624313;-0.12478034198284149;90.67257690429688
102;1665664561.7183208;46.975536899999994;7.1803555999999995;35.605003356933594;1665664561.779812;-0.03251638635993004;-0.10238166153430939;90.6536865234375
103;1665664561.9545143;46.975536899999994;7.1803555;36.2130012512207;1665664562.000386;-0.17336510121822357;-0.029271237552165985;90.66548919677734
104;1665664562.1575232;46.975536999999996;7.1803555;36.820003509521484;1665664562.2112038;-0.17828874289989471;-0.07488290965557098;90.67654418945312
105;1665664562.599652;46.975536999999996;7.1803555;37.42300033569336;1665664562.6445487;-0.09042559564113617;-0.022968409582972527;90.66780090332031
106;1665664562.8212025;46.975536999999996;7.1803555;38.03000259399414;1665664562.8739066;-0.02623017691075802;-0.012443960644304752;90.66712951660156
107;1665664563.0173807;46.975536999999996;7.1803555;38.634002685546875;1665664563.0661805;-0.11097453534603119;0.0025207577273249626;90.6642837524414
108;1665664563.218436;46.975536999999996;7.1803555;39.237003326416016;1665664563.264307;-0.06328059732913971;-0.03504166007041931;90.67369079589844
109;1665664563.4419417;46.975536999999996;7.1803555999999995;39.84100341796875;1665664563.490739;-0.04595974460244179;-0.030721882358193398;90.67787170410156
110;1665664563.6459231;46.975536999999996;7.1803555999999995;40.444000244140625;1665664563.6976528;-0.04406868293881416;-0.03882114216685295;90.67514038085938
111;1665664563.853813;46.975536999999996;7.1803555999999995;41.047000885009766;1665664563.9084702;-0.10548941791057587;-0.047965116798877716;90.67130279541016
112;1665664564.1329474;46.975536999999996;7.1803555999999995;41.652000427246094;1665664564.1758914;-0.1292414665222168;-0.06007295846939087;90.66190338134766
113;1665664564.3261957;46.975536899999994;7.1803555999999995;42.284000396728516;1665664564.3769474;-0.08181615173816681;-0.15929178893566132;90.65911865234375
114;1665664564.5457983;46.975536899999994;7.1803555999999995;42.8650016784668;1665664564.5906951;-0.049992818385362625;-0.11667262762784958;90.66265106201172
115;1665664564.737092;46.975536899999994;7.1803557;43.46800231933594;1665664564.78394;-0.03594342991709709;-0.056862082332372665;90.67308044433594
116;1665664564.953766;46.975536899999994;7.1803557;44.069000244140625;1665664565.00159;-0.1355394870042801;-0.06590937823057175;90.68289184570312
117;1665664565.1440845;46.975536899999994;7.1803555999999995;44.67400360107422;1665664565.1928854;-0.22463282942771912;-0.034136947244405746;90.67059326171875
118;1665664565.343188;46.975536899999994;7.1803555999999995;45.27800369262695;1665664565.4007728;-0.26853761076927185;0.05805463716387749;90.6778793334961
119;1665664565.5637643;46.975536899999994;7.1803555999999995;45.880001068115234;1665664565.6125646;-0.19716861844062805;0.015912214294075966;90.67707061767578
120;1665664565.782389;46.975536899999994;7.1803557;46.47900390625;1665664565.9336736;-0.06555576622486115;-0.10014114528894424;90.6635971069336
121;1665664566.0927567;46.975536899999994;7.1803558;47.07500076293945;1665664566.1522942;0.07483765482902527;-0.14579428732395172;90.66717529296875
122;1665664566.2986941;46.975536899999994;7.1803558;47.67100143432617;1665664566.3553011;0.12420696765184402;-0.08196526020765305;90.66681671142578
123;1665664566.509509;46.975536899999994;7.1803558;48.26900100708008;1665664566.558311;-0.04097352549433708;0.02323400042951107;90.67524719238281
124;1665664566.7115426;46.975536899999994;7.1803558;48.8650016784668;1665664566.7583907;-0.1805950403213501;-0.011731620877981186;90.68230438232422
125;1665664566.9204066;46.975536899999994;7.1803558;49.46000289916992;1665664566.9672537;-0.1711350679397583;-0.05822870507836342;90.67688751220703
126;1665664567.1263418;46.975536899999994;7.1803558;50.05600357055664;1665664567.1722143;-0.008414882235229015;-0.0008386378758586943;90.67619323730469
127;1665664567.325446;46.975536899999994;7.1803558;50.65400314331055;1665664567.3732724;-0.04486827552318573;0.007276393007487059;90.67971801757812
128;1665664567.5401666;46.975536999999996;7.1803557;51.25100326538086;1665664567.593848;-0.1772911101579666;0.03177152946591377;90.66624450683594
129;1665664567.7519577;46.975536999999996;7.1803557;51.84800338745117;1665664567.801734;-0.3241886496543884;-0.002632759977132082;90.67305755615234
130;1665664567.9862;46.975536999999996;7.1803557;52.44200134277344;1665664568.0398788;-0.26424020528793335;-0.019343992695212364;90.66961669921875
131;1665664568.2038467;46.975536999999996;7.1803557;53.06100082397461;1665664568.2526534;-0.09224779158830643;0.03557225689291954;90.66364288330078
132;1665664568.386361;46.975536999999996;7.1803558;53.63200378417969;1665664568.431257;-0.024987155571579933;0.08938120305538177;90.66925048828125
133;1665664568.5747268;46.975536999999996;7.1803558;54.25300216674805;1665664568.6303694;-0.047892261296510696;0.048818204551935196;90.66905212402344
134;1665664568.7777352;46.975536999999996;7.1803558;54.82400131225586;1665664568.8265364;-0.07790098339319229;0.05282587558031082;90.6693115234375
135;1665664568.97977;46.975536999999996;7.1803558;55.419002532958984;1665664569.023687;-0.15598347783088684;0.10981261730194092;90.67161560058594
136;1665664569.1944873;46.975536999999996;7.1803558;55.993003845214844;1665664569.2403593;-0.23254802823066711;0.14130477607250214;90.664306640625
137;1665664569.3974953;46.975536899999994;7.1803558;56.45900344848633;1665664569.4423914;-0.11739090830087662;0.016974056139588356;90.66373443603516
138;1665664569.604408;46.975536899999994;7.1803558;56.87400436401367;1665664569.6473532;-0.07326880842447281;-0.0897580087184906;90.6844482421875
139;1665664569.7986317;46.975536899999994;7.1803558;57.221004486083984;1665664569.843527;-0.009302773512899876;-0.08094021677970886;90.66661071777344
140;1665664570.0182319;46.9755368;7.1803558;57.512001037597656;1665664570.0670326;0.015297351405024529;0.015448923222720623;90.66787719726562
141;1665664570.3246987;46.975536899999994;7.1803558;57.75700378417969;1665664570.3744755;0.024564649909734726;0.027192460373044014;90.66603088378906
142;1665664570.5150194;46.975536899999994;7.1803558;57.96000289916992;1665664570.5638201;-0.01598537527024746;0.038861289620399475;90.66940307617188
143;1665664570.7326672;46.975536899999994;7.1803558;58.12700271606445;1665664570.7746322;-0.06780719012022018;0.06668318063020706;90.67230987548828
144;1665664570.9337227;46.975536899999994;7.1803558;58.2650032043457;1665664570.9805727;1.31227707862854;-1.2872954607009888;90.33201599121094
145;1665664571.1289215;46.975536999999996;7.1803555999999995;58.40700149536133;1665664571.181628;19.373836517333984;-21.825454711914062;81.99247741699219
146;1665664571.3348594;46.975538;7.1803539;58.551002502441406;1665664571.3885398;31.361635208129883;-42.743492126464844;69.39665222167969
147;1665664571.54177;46.9755409;7.180348899999999;58.70600128173828;1665664571.5993545;23.230445861816406;-52.76626205444336;62.5950813293457
148;1665664571.7525856;46.9755464;7.1803402;58.853004455566406;1665664571.7984583;0.19122344255447388;-54.451560974121094;52.57653045654297
149;1665664571.9536412;46.9755537;7.1803295;58.94900131225586;1665664572.0073247;-14.964105606079102;-50.38289260864258;38.818023681640625
150;1665664572.164458;46.975562499999995;7.180317;59.02700424194336;1665664572.2093558;-19.541610717773438;-47.044586181640625;26.13736915588379
151;1665664572.3811314;46.975572299999996;7.180302999999999;59.083003997802734;1665664572.4240756;-27.149919509887695;-37.68062973022461;14.684571266174316
152;1665664572.5870676;46.975582599999996;7.180288099999999;59.108001708984375;1665664572.6348925;-33.7248649597168;-26.470426559448242;3.7420718669891357
153;1665664572.7881243;46.9755933;7.1802728;59.11700439453125;1665664572.8496108;-35.789039611816406;-21.746082305908203;-3.597120523452759
154;1665664573.0008907;46.9756043;7.1802578;59.12200164794922;1665664573.0457878;-36.03924560546875;-16.863056182861328;-11.323010444641113
155;1665664573.1902375;46.975615399999995;7.180242799999999;59.10900115966797;1665664573.2341568;-40.26399230957031;-17.802875518798828;-17.78887939453125
156;1665664573.3903165;46.9756268;7.180227299999999;59.11700439453125;1665664573.4352117;-44.55842971801758;-15.552736282348633;-26.908781051635742
157;1665664573.5952747;46.9756382;7.1802112;59.11100387573242;1665664573.6431003;-44.99576950073242;-9.062149047851562;-35.00791549682617
158;1665664573.820732;46.9756503;7.1801938;59.10100173950195;1665664573.864651;-42.33439636230469;1.417213797569275;-36.62223434448242
159;1665664574.0130026;46.975661699999996;7.1801778999999994;59.09300231933594;1665664574.0520444;-33.61378479003906;12.778227806091309;-24.169300079345703
160;1665664574.6142204;46.975673699999994;7.1801632;59.066001892089844;1665664574.6571639;-25.775188446044922;9.977973937988281;-4.0766921043396
161;1665664574.9158037;46.975685299999995;7.1801515;59.031002044677734;1665664574.9607003;-12.674555778503418;3.2008159160614014;9.1307954788208
162;1665664575.1339633;46.9756959;7.180142;58.98400115966797;1665664575.1847148;-3.7526695728302;-6.975222110748291;12.127118110656738
163;1665664575.3438017;46.9757052;7.180133799999999;58.95500183105469;1665664575.3857722;-13.739575386047363;-23.113027572631836;1.8281112909317017
164;1665664575.9196432;46.9757136;7.180125599999999;58.939002990722656;1665664575.9635623;-28.443130493164062;-30.59267807006836;-13.107364654541016
165;1665664576.1119158;46.9757215;7.180115799999999;58.935001373291016;1665664576.1636422;-45.12498474121094;-28.996713638305664;-25.22944450378418
166;1665664576.3529866;46.9757294;7.1801036;58.95000457763672;1665664576.3988595;-55.702579498291016;-12.226250648498535;-38.49681091308594
167;1665664576.5725882;46.9757381;7.1800885;58.970001220703125;1665664576.6184623;-57.41143798828125;10.791512489318848;-47.99117660522461
168;1665664576.7638824;46.9757488;7.1800717999999994;59.02700424194336;1665664576.8097553;-55.90316390991211;24.655107498168945;-46.83033752441406
169;1665664576.9659147;46.975761399999996;7.180055599999999;59.057003021240234;1665664577.014716;-50.361759185791016;17.781652450561523;-30.62926483154297
170;1665664577.1708746;46.9757757;7.180041;59.07400131225586;1665664577.2196777;-40.99850845336914;2.802999258041382;-17.94043731689453
171;1665664577.378766;46.9757908;7.1800277999999995;59.096004486083984;1665664577.4285424;-36.529319763183594;-26.039405822753906;-15.395040512084961
172;1665664577.5798194;46.9758055;7.1800139;59.11000442504883;1665664577.6256914;-41.83896255493164;-55.65147399902344;-24.935791015625
173;1665664577.788684;46.975817899999996;7.1799957;59.096004486083984;1665664577.8433394;-62.22426986694336;-39.81443786621094;-34.71662521362305
174;1665664578.10198;46.975828799999995;7.1799707999999995;59.08500289916992;1665664578.14883;-53.17609405517578;9.41800308227539;-56.76054382324219
175;1665664578.315727;46.9758394;7.1799466;59.092002868652344;1665664578.3645256;-31.419336318969727;57.1132926940918;-42.777103424072266
176;1665664578.510926;46.9758524;7.1799262;59.057003021240234;1665664578.5528932;-38.310302734375;39.78845977783203;-22.760242462158203
177;1665664578.7119825;46.975865399999996;7.1799140999999995;59.02000427246094;1665664578.7588277;-25.903547286987305;4.621173858642578;-11.02831745147705
178;1665664579.033087;46.9758791;7.179904199999999;58.993003845214844;1665664579.0760293;-1.3598198890686035;-2.083665609359741;-10.004888534545898
179;1665664579.255613;46.9758901;7.1798967;58.970001220703125;1665664579.3122234;19.942893981933594;1.4593932628631592;0.26509153842926025
180;1665664579.4615493;46.9758986;7.1798907;58.94400405883789;1665664579.5171864;15.345142364501953;-2.85654354095459;3.373304843902588
181;1665664579.68115;46.975904799999995;7.1798858;58.92500305175781;1665664579.7270234;2.966369390487671;-22.84071922302246;-6.949680805206299
182;1665664579.9036777;46.9759095;7.1798801999999995;58.926002502441406;1665664579.94955;-15.832372665405273;-36.782047271728516;-17.08275604248047
183;1665664580.1174219;46.9759131;7.1798734;58.93300247192383;1665664580.18379;-37.63170623779297;-30.484275817871094;-28.36680793762207
184;1665664580.3477602;46.9759168;7.1798636;58.94700241088867;1665664580.397535;-50.737937927246094;-4.209872722625732;-42.97567367553711
185;1665664580.553696;46.9759217;7.1798516;58.97300338745117;1665664580.6064005;-51.65662384033203;13.67039966583252;-44.73250961303711
186;1665664580.7703662;46.9759288;7.1798386999999995;58.98400115966797;1665664580.8220947;-35.7415771484375;14.912030220031738;-26.791255950927734
187;1665664580.9889915;46.9759367;7.1798283;58.98500442504883;1665664581.0416946;-15.814132690429688;21.500835418701172;-13.186910629272461
188;1665664581.2173755;46.9759448;7.179820299999999;58.97900390625;1665664581.2808175;1.8145389556884766;32.76789855957031;-3.250619888305664
189;1665664581.4291666;46.975951699999996;7.1798161;58.97600173950195;1665664581.4750388;14.415908813476562;32.65540313720703;3.5788331031799316
190;1665664581.6575518;46.9759568;7.179815499999999;58.974002838134766;1665664581.7024524;11.29022216796875;27.48714828491211;5.77112340927124
191;1665664581.8517747;46.9759599;7.179817399999999;58.97300338745117;1665664581.899599;-4.941137313842773;18.626861572265625;-1.2402820587158203
192;1665664582.0752819;46.9759625;7.179820599999999;58.965003967285156;1665664582.1192005;-18.111156463623047;6.320906639099121;-12.4437837600708
193;1665664582.2782867;46.9759654;7.1798239;58.952003479003906;1665664582.327088;-20.906810760498047;-5.698297500610352;-23.139171600341797
194;1665664582.5769436;46.9759685;7.179825999999999;58.93300247192383;1665664582.6316004;-21.553640365600586;-17.73716163635254;-32.01105499267578
195;1665664582.7809305;46.9759716;7.1798259;58.92400360107422;1665664582.8277767;-25.068326950073242;-21.21746063232422;-41.6861572265625
196;1665664582.9936965;46.9759744;7.1798231999999995;58.926002502441406;1665664583.0366402;-37.1447868347168;-9.35345458984375;-46.709110260009766
197;1665664583.189872;46.9759776;7.179818099999999;58.948001861572266;1665664583.2435532;-52.9377326965332;4.478020191192627;-47.34270095825195
198;1665664583.4612005;46.9759828;7.17981;59.005001068115234;1665664583.5080516;-60.0102424621582;11.200114250183105;-44.251094818115234
199;1665664583.771569;46.9759909;7.1797996;59.06900405883789;1665664583.8125608;-59.04247283935547;6.696473121643066;-39.553070068359375
200;1665664583.9862916;46.976002199999996;7.1797868;59.12000274658203;1665664584.0311859;-54.03436279296875;-4.330058574676514;-40.32669448852539
201;1665664584.2097929;46.976013699999996;7.1797732;59.16400146484375;1665664584.2605464;-49.359397888183594;-11.925531387329102;-43.709747314453125
202;1665664584.4342737;46.976025799999995;7.1797574;59.178001403808594;1665664584.4752655;-44.78882598876953;-2.967554807662964;-47.77854537963867
203;1665664584.6275215;46.9760378;7.1797406;59.1930046081543;1665664584.6714423;-40.16118240356445;7.484426975250244;-44.66040802001953
204;1665664584.841269;46.97605;7.179723999999999;59.195003509521484;1665664584.8939717;-40.84712600708008;10.887246131896973;-39.38296127319336
205;1665664585.0520816;46.9760626;7.1797083;59.2030029296875;1665664585.1965299;-48.343692779541016;-1.5754027366638184;-36.47836685180664
206;1665664585.8631399;46.976075599999994;7.1796926999999995;59.220001220703125;1665664585.9060843;-50.40017318725586;-8.991654396057129;-40.74592971801758
207;1665664586.1764343;46.9760888;7.179676199999999;59.211002349853516;1665664586.2252343;-50.84828186035156;-6.28779935836792;-44.74593734741211
208;1665664586.3989637;46.976102399999995;7.179657499999999;59.21400451660156;1665664586.4536188;-49.02362060546875;2.720231056213379;-44.809364318847656
209;1665664586.6068516;46.976115799999995;7.179639;59.20100402832031;1665664586.657602;-48.47990036010742;8.706438064575195;-41.55568313598633
210;1665664586.8245018;46.976129799999995;7.1796209;59.19600296020508;1665664586.8752532;-49.5169563293457;3.491425037384033;-37.39719772338867
211;1665664587.028484;46.976143699999994;7.1796038;59.19000244140625;1665664587.0743575;-48.94304275512695;-5.9647321701049805;-38.06489181518555
212;1665664587.2393;46.976158399999996;7.1795855;59.18100357055664;1665664587.2793152;-49.863101959228516;-9.215422630310059;-42.747657775878906
213;1665664587.427667;46.9761728;7.1795662;59.186004638671875;1665664587.4725661;-49.050018310546875;-3.16623854637146;-46.51162338256836
214;1665664587.6375077;46.976186999999996;7.1795462;59.17500305175781;1665664587.6814277;-49.094852447509766;9.206682205200195;-46.23908233642578
215;1665664587.8532066;46.976201599999996;7.179526399999999;59.169002532958984;1665664587.9068835;-49.192298889160156;12.279691696166992;-39.932186126708984
216;1665664588.2992387;46.9762169;7.1795076;59.15700149536133;1665664588.3421812;-49.75911331176758;0.28373706340789795;-34.541160583496094
217;1665664588.5090759;46.9762327;7.1794891;59.150001525878906;1665664588.5686145;-49.665645599365234;-13.24017333984375;-37.40623092651367
218;1665664588.8213985;46.976248299999995;7.1794699;59.14200210571289;1665664588.8711743;-50.45393371582031;-16.286075592041016;-44.07172775268555
219;1665664589.0400226;46.976262899999995;7.1794492;59.12600326538086;1665664589.0810125;-51.21859359741211;2.3241381645202637;-50.91012191772461
220;1665664589.2342453;46.976278099999995;7.1794267;59.121002197265625;1665664589.2830453;-47.83026885986328;21.225141525268555;-47.679752349853516
221;1665664589.4353008;46.976292699999995;7.179406999999999;59.099002838134766;1665664589.485077;-50.77922821044922;17.412399291992188;-36.440677642822266
222;1665664589.6539252;46.976309799999996;7.1793876999999995;59.092002868652344;1665664589.7007732;-50.6551628112793;-6.205154895782471;-29.725828170776367
223;1665664589.8559587;46.976326;7.1793701;59.08200454711914;1665664589.912567;-50.34945297241211;-27.871013641357422;-36.451698303222656
224;1665664590.0697017;46.9763418;7.1793499;59.066001892089844;1665664590.1116693;-55.444759368896484;-24.384761810302734;-45.35015869140625
225;1665664590.2883286;46.9763561;7.179327;59.052001953125;1665664590.3400538;-48.62949752807617;6.929646015167236;-54.32398986816406
226;1665664590.4893818;46.9763702;7.1793036;59.03900146484375;1665664590.5333037;-30.33719825744629;38.23876190185547;-42.06167984008789
227;1665664590.6953177;46.9763847;7.179283799999999;59.00300216674805;1665664590.7382615;-34.26365661621094;30.414459228515625;-30.990270614624023
228;1665664590.893544;46.976399799999996;7.1792685999999994;58.987003326416016;1665664590.9540582;-34.514678955078125;-6.862339019775391;-28.22348403930664
229;1665664591.1229067;46.976414399999996;7.1792548;58.97500228881836;1665664591.171704;-32.132816314697266;-22.454282760620117;-41.22739791870117
230;1665664591.3366482;46.9764275;7.1792405;58.958003997802734;1665664591.403018;-30.14665985107422;-8.678091049194336;-49.91228103637695
231;1665664591.5572248;46.976439199999994;7.179226;58.94200134277344;1665664591.601145;-24.42702865600586;1.9253324270248413;-44.47190856933594
232;1665664591.7797523;46.9764499;7.1792124;58.92200469970703;1665664591.8226998;-21.900497436523438;3.879988670349121;-37.345916748046875
233;1665664591.9954486;46.976459899999995;7.1792001;58.90400314331055;1665664592.0413215;-19.00147247314453;1.0096722841262817;-36.80290985107422
234;1665664592.2036672;46.976469099999996;7.179189;58.87900161743164;1665664592.2446609;-15.969269752502441;-1.9063947200775146;-39.39848709106445
235;1665664592.4164393;46.9764774;7.179178899999999;58.85100173950195;1665664592.4662116;-12.806440353393555;-2.423474073410034;-41.0091667175293
236;1665664592.65946;46.9764847;7.1791697999999995;58.82400131225586;1665664592.6994786;-9.40453815460205;-1.4132647514343262;-41.1721305847168
237;1665664592.8644202;46.9764911;7.1791616;58.80000305175781;1665664592.92298;-6.725983619689941;-1.0065524578094482;-40.824947357177734
238;1665664593.0898767;46.9764967;7.1791542999999995;58.785003662109375;1665664593.1464849;-3.617363929748535;0.23011234402656555;-40.79468536376953
239;1665664593.2948375;46.9765011;7.1791485999999995;58.77100372314453;1665664593.3426614;-2.447801113128662;-0.5663168430328369;-40.528907775878906
240;1665664593.5124853;46.976504999999996;7.1791434;58.75800323486328;1665664593.5564048;-0.4462760388851166;0.35457536578178406;-40.3506965637207
241;1665664593.7096372;46.976507999999995;7.1791393999999995;58.750003814697266;1665664593.7496526;0.01644178107380867;-0.028178587555885315;-39.79328536987305
242;1665664593.935097;46.976510499999996;7.1791361;58.746002197265625;1665664593.977062;0.8925920128822327;0.47902509570121765;-39.23630142211914
243;1665664594.1332211;46.9765126;7.1791333999999996;58.74400329589844;1665664594.178117;1.260050654411316;0.5581842064857483;-38.476463317871094
244;1665664594.3333035;46.9765142;7.179131399999999;58.746002197265625;1665664594.4084535;1.2022172212600708;0.40574994683265686;-37.724124908447266
245;1665664594.5714474;46.9765155;7.1791298;58.74700164794922;1665664594.6065826;1.0906500816345215;0.2879926264286041;-37.56353759765625
246;1665664594.7695737;46.976516499999995;7.179128599999999;58.746002197265625;1665664594.8134937;0.8876321315765381;0.1826498806476593;-37.776390075683594
247;1665664594.9979587;46.976517199999996;7.1791277;58.746002197265625;1665664595.041878;-7.145279884338379;-0.47116926312446594;-38.845611572265625
248;1665664595.1921859;46.9765181;7.179126699999999;58.76000213623047;1665664595.2419581;-38.987918853759766;-0.23930881917476654;-47.42970275878906
249;1665664595.40007;46.976520099999995;7.1791237;58.81200408935547;1665664595.4478967;-57.926795959472656;4.172814846038818;-54.210079193115234
250;1665664595.6226008;46.976524399999995;7.1791167;58.86100387573242;1665664595.6694462;-62.59803009033203;-1.493544340133667;-52.40903091430664
251;1665664595.8392706;46.976531099999995;7.179104799999999;58.93400192260742;1665664595.8900247;-58.78367233276367;-1.6904698610305786;-51.87755584716797
252;1665664596.1545196;46.9765395;7.1790895;58.99500274658203;1665664596.207225;-53.27702331542969;5.3790764808654785;-50.51189422607422
253;1665664596.4697704;46.9765489;7.1790731;59.051002502441406;1665664596.5273523;-49.24483108520508;5.986014366149902;-46.43540573120117
254;1665664596.685464;46.9765598;7.1790555;59.090003967285156;1665664596.7284074;-44.594696044921875;-1.3360795974731445;-45.24396896362305
255;1665664596.9138474;46.976571;7.179037699999999;59.108001708984375;1665664596.955817;-41.7861442565918;-6.560256004333496;-49.360443115234375
256;1665664597.1139305;46.976582;7.1790194;59.12600326538086;1665664597.1607785;-42.13373947143555;-8.357114791870117;-51.988250732421875
257;1665664597.32084;46.9765926;7.1790005;59.131004333496094;1665664597.372568;-48.49284362792969;1.122100591659546;-53.64191818237305
258;1665664597.5218964;46.9766033;7.178980999999999;59.13600158691406;1665664597.5687437;-51.12510299682617;6.035327911376953;-50.45256423950195
259;1665664597.7444293;46.9766146;7.1789612;59.13200378417969;1665664597.7883463;-50.75001525878906;3.586176633834839;-47.10823059082031
260;1665664597.956218;46.976626599999996;7.1789413;59.12700271606445;1665664598.009897;-50.42045211791992;-2.7459070682525635;-47.62824249267578
261;1665664598.1748443;46.9766389;7.178920799999999;59.125003814697266;1665664598.2265694;-49.51466369628906;-6.247931480407715;-50.28758239746094
262;1665664598.3905373;46.9766511;7.1788995;59.11600112915039;1665664598.458859;-49.834224700927734;-2.0587689876556396;-52.72233963012695
263;1665664598.6306329;46.9766632;7.1788775;59.11900329589844;1665664598.6872423;-49.69649124145508;4.773387908935547;-52.18816375732422
264;1665664598.841452;46.9766757;7.1788552999999995;59.112003326416016;1665664598.8882983;-50.24222946166992;6.297515392303467;-48.53489685058594
265;1665664599.0376265;46.9766888;7.178833399999999;59.10200119018555;1665664599.0825217;-50.93006134033203;0.4368036985397339;-46.0294189453125
266;1665664599.2464895;46.9767023;7.1788114;59.09300231933594;1665664599.3030994;-50.14199447631836;-7.055438995361328;-47.28316879272461
267;1665664599.4475489;46.9767162;7.178788;59.08200454711914;1665664599.498298;-51.06215286254883;-6.801714897155762;-51.97394561767578
268;1665664599.6603153;46.976728699999995;7.1787655;59.08200454711914;1665664599.7218041;-51.22285842895508;2.428940534591675;-55.37278366088867
269;1665664599.8750343;46.976742099999996;7.1787408;59.070003509521484;1665664599.9160266;-50.688323974609375;10.077241897583008;-51.991546630859375
270;1665664600.089756;46.9767551;7.1787183;59.05900192260742;1665664600.129772;-51.100704193115234;5.461663722991943;-44.77839279174805
271;1665664600.2859325;46.9767693;7.178695299999999;59.04600143432617;1665664600.338635;-49.19424819946289;-6.6293487548828125;-42.7457275390625
272;1665664600.486011;46.976783399999995;7.1786724;59.025001525878906;1665664600.5318842;-35.92203140258789;-7.127047538757324;-52.806480407714844
273;1665664600.6997573;46.9767973;7.1786489;59.000003814697266;1665664600.7446523;-28.331106185913086;-13.585162162780762;-53.059818267822266
274;1665664600.9008107;46.9768085;7.1786281;58.98500442504883;1665664600.9408264;-32.56064224243164;5.223691463470459;-60.941497802734375
275;1665664601.113582;46.976819899999995;7.1786065;58.96400451660156;1665664601.158476;-30.27878761291504;16.377565383911133;-57.006744384765625
276;1665664601.3175645;46.9768304;7.1785882;58.939002990722656;1665664601.3731978;-28.533090591430664;8.300492286682129;-46.19862365722656
277;1665664601.5264285;46.976841;7.178570799999999;58.91100311279297;1665664601.5732746;-25.464359283447266;0.7923749089241028;-45.78785705566406
278;1665664601.7587154;46.9768511;7.1785549;58.88200378417969;1665664601.8075151;-22.501785278320312;-2.769331216812134;-50.01913833618164
279;1665664602.0017397;46.9768603;7.178540099999999;58.85400390625;1665664602.0524929;-19.292320251464844;-3.020038366317749;-51.77427291870117
280;1665664602.2135324;46.976868499999995;7.1785266;58.82400131225586;1665664602.2672133;-15.738341331481934;-1.2313941717147827;-51.17628860473633
281;1665664602.433133;46.9768757;7.1785143;58.79900360107422;1665664602.4770536;-11.262350082397461;-0.9962883591651917;-49.97025680541992
282;1665664602.6488276;46.976881999999996;7.178503399999999;58.772003173828125;1665664602.6995804;-8.043400764465332;-0.5261481404304504;-49.7689208984375
283;1665664602.8498838;46.9768877;7.1784935999999995;58.74500274658203;1665664602.9260125;-5.703411102294922;0.06063614785671234;-49.81325149536133
284;1665664603.074364;46.9768924;7.1784855;58.72300338745117;1665664603.1202364;-2.5098369121551514;-0.6904141306877136;-49.561439514160156
285;1665664603.2812772;46.9768961;7.1784789;58.70600128173828;1665664603.3281257;-1.0050619840621948;0.3123258650302887;-49.472599029541016
286;1665664603.486238;46.9768993;7.1784732;58.69400405883789;1665664603.5321085;1.0270527601242065;-0.19338704645633698;-49.081050872802734
287;1665664603.7048607;46.976901899999994;7.1784685999999995;58.69200134277344;1665664603.7546372;1.4273097515106201;0.46385449171066284;-48.78120422363281
288;1665664603.9156766;46.976904;7.1784650999999995;58.689002990722656;1665664603.9800947;1.920433521270752;0.47724416851997375;-48.21879196166992
289;1665664604.130397;46.976905599999995;7.1784623;58.691001892089844;1665664604.1762702;1.9121166467666626;0.3028705418109894;-47.69749450683594
290;1665664604.4368613;46.976906799999995;7.1784602;58.695003509521484;1665664604.501277;1.535567045211792;0.4277927279472351;-47.22141647338867
291;1665664604.8575182;46.9769077;7.178458699999999;58.698001861572266;1665664604.9141288;1.0776094198226929;0.5089633464813232;-47.08606719970703
292;1665664605.08395;46.9769084;7.1784574999999995;58.70000457763672;1665664605.1298223;0.5861403942108154;0.43490758538246155;-47.198673248291016
293;1665664605.2840304;46.976909;7.1784566;58.708003997802734;1665664605.336737;1.1885371208190918;2.5854625701904297;-46.62459182739258
294;1665664605.4889903;46.9769095;7.178456199999999;58.78400421142578;1665664605.5670705;5.8243231773376465;14.144388198852539;-37.475318908691406
295;1665664605.7203028;46.9769102;7.1784573;59.02700424194336;1665664605.7808146;3.5629758834838867;15.296867370605469;-26.18815040588379
296;1665664605.9643025;46.976911;7.178459699999999;59.349002838134766;1665664606.0091987;-9.0692138671875;22.29615592956543;-17.147727966308594
297;1665664606.1878095;46.9769126;7.1784639;59.76100158691406;1665664606.2336788;-30.830474853515625;40.40047073364258;-7.803213119506836
298;1665664606.4825592;46.9769161;7.1784712;60.185001373291016;1665664606.5303826;-50.35493850708008;39.31510543823242;3.8103694915771484
299;1665664606.70997;46.9769228;7.178484;60.65400314331055;1665664606.7616966;-56.491703033447266;19.158918380737305;17.64716148376465
300;1665664606.9159036;46.976932999999995;7.1785006;61.15500259399414;1665664607.0740168;-52.45771026611328;10.923439025878906;26.106290817260742
301;1665664607.262386;46.9769454;7.178519199999999;61.686004638671875;1665664607.304355;-42.08979797363281;11.48165512084961;21.592578887939453
302;1665664607.460512;46.9769587;7.178538199999999;62.204002380371094;1665664607.513219;-33.1312370300293;9.441947937011719;14.28900146484375
303;1665664607.67328;46.976971999999996;7.1785565;62.66800308227539;1665664607.732818;-29.55797004699707;12.976729393005371;14.968903541564941
304;1665664607.8977623;46.9769856;7.1785746999999995;63.10400390625;1665664607.9387517;-31.591327667236328;24.79315757751465;22.536062240600586
305;1665664608.1036966;46.976997499999996;7.1785919;63.47600173950195;1665664608.155429;-45.82642364501953;23.174577713012695;37.31401062011719
306;1665664608.3301291;46.9770091;7.1786115;63.846004486083984;1665664608.3779535;-52.3991584777832;3.217033863067627;50.64784622192383
307;1665664608.5341125;46.9770208;7.1786327;64.18700408935547;1665664608.5829144;-50.521671295166016;-17.128387451171875;51.4659423828125
308;1665664608.7361455;46.9770338;7.178653499999999;64.52100372314453;1665664608.7898262;-45.24711990356445;-14.932293891906738;35.18475341796875
309;1665664608.9684334;46.9770481;7.178672499999999;64.85000610351562;1665664609.014306;-28.549489974975586;4.600596904754639;20.173309326171875
310;1665664609.1626594;46.9770623;7.178689899999999;65.18500518798828;1665664609.2085304;-29.269817352294922;19.889406204223633;22.029659271240234
311;1665664609.3607852;46.9770757;7.1787072;65.53500366210938;1665664609.433009;-49.770965576171875;29.735193252563477;31.6917781829834
312;1665664609.5920992;46.977088099999996;7.178727299999999;65.88500213623047;1665664609.641875;-66.49549102783203;21.572298049926758;39.780426025390625
313;1665664609.800964;46.977101;7.1787516;66.19900512695312;1665664609.8458583;-62.047908782958984;-20.460468292236328;44.47758483886719
314;1665664610.0244672;46.9771165;7.1787759;66.50300598144531;1665664610.0664363;-45.91966247558594;-26.917436599731445;23.09830093383789
315;1665664610.2177165;46.9771341;7.178795399999999;66.8280029296875;1665664610.2694418;-29.183568954467773;-16.910810470581055;14.82715129852295
316;1665664610.5271063;46.977151199999994;7.1788105;67.1290054321289;1665664610.5768826;-9.571908950805664;2.9705612659454346;17.960704803466797
317;1665664610.7369485;46.9771666;7.178823599999999;67.4070053100586;1665664610.7867217;-10.010165214538574;41.11671829223633;22.086585998535156
318;1665664610.943862;46.9771794;7.1788371;67.61900329589844;1665664610.9946117;-30.25058937072754;44.815547943115234;34.538734436035156
319;1665664611.1761472;46.9771893;7.1788528;67.78400421142578;1665664611.2249465;-37.80035400390625;14.891926765441895;52.705543518066406
320;1665664611.3859892;46.9771979;7.1788697;67.92400360107422;1665664611.4308834;-27.311735153198242;-6.972833156585693;50.825782775878906
321;1665664611.5889983;46.9772061;7.1788856999999995;68.03900146484375;1665664611.651468;-21.714021682739258;-8.32478141784668;43.55012893676758
322;1665664611.8056674;46.9772141;7.1789001;68.14000701904297;1665664611.848612;-17.464340209960938;-3.488616943359375;43.716331481933594
323;1665664612.0018427;46.9772216;7.1789127;68.22900390625;1665664612.0584524;-12.719683647155762;-0.7899288535118103;46.72525405883789
324;1665664612.2351098;46.977228499999995;7.1789239;68.30599975585938;1665664612.2829318;-8.498984336853027;-0.5196805000305176;47.46810531616211
325;1665664612.4293323;46.9772344;7.178933499999999;68.37200164794922;1665664612.4917965;-5.080722808837891;-1.1720187664031982;46.703433990478516
326;1665664612.6411233;46.9772396;7.178941699999999;68.427001953125;1665664612.6860197;-2.3311774730682373;-1.390893578529358;46.087493896484375
327;1665664613.0569024;46.977244;7.1789483999999995;68.47600555419922;1665664613.108631;-0.21687152981758118;-1.0144168138504028;45.965518951416016
328;1665664613.2560065;46.9772477;7.1789537999999995;68.52300262451172;1665664613.30871;1.2947405576705933;-0.44969451427459717;46.13614273071289
329;1665664613.4746308;46.9772507;7.1789581;68.56300354003906;1665664613.521476;2.1922836303710938;0.03797435387969017;46.55139923095703
330;1665664613.679588;46.977253;7.1789613999999995;68.60100555419922;1665664613.7254612;2.568917989730835;0.4140225052833557;47.28787612915039
331;1665664613.879669;46.9772548;7.178964;68.63500213623047;1665664613.9265206;2.621975898742676;0.6422748565673828;48.26816177368164
332;1665664614.073896;46.9772562;7.1789659;68.66300201416016;1665664614.1197662;2.454169750213623;0.7941269278526306;49.229103088378906
333;1665664614.2886155;46.9772572;7.1789673;68.68600463867188;1665664614.3393676;1.832002878189087;0.7544407844543457;49.35515594482422
334;1665664614.4965022;46.9772579;7.1789684;68.7030029296875;1665664614.552133;1.2088279724121094;0.5603869557380676;49.06102752685547
335;1665664614.7004852;46.977258299999995;7.1789692;68.72100067138672;1665664614.74831;-4.198904037475586;13.532642364501953;51.065914154052734
336;1665664614.9054463;46.977258299999995;7.1789705999999995;68.76000213623047;1665664615.0860052;-10.860116004943848;39.81494903564453;62.14854431152344
337;1665664615.241194;46.9772568;7.1789738;68.80000305175781;1665664615.2890158;-17.651905059814453;34.74116897583008;74.4194564819336
338;1665664615.4451756;46.9772537;7.178978799999999;68.84300231933594;1665664615.5017834;-32.4388427734375;36.566959381103516;83.8497543334961
339;1665664615.6559896;46.9772489;7.178985699999999;68.9020004272461;1665664615.7106457;-49.729103088378906;32.29643249511719;96.06893157958984
340;1665664615.871686;46.9772421;7.1789955999999995;68.96900177001953;1665664615.9175615;-58.367462158203125;16.48384666442871;109.48169708251953
341;1665664616.0785978;46.9772335;7.1790088;69.031005859375;1665664616.1322796;-56.1707763671875;9.715143203735352;117.99943542480469
342;1665664616.2845378;46.9772238;7.1790246;69.0770034790039;1665664616.3382165;-51.0944709777832;8.475090026855469;126.86714935302734
343;1665664616.5021825;46.977213;7.179041799999999;69.125;1665664616.5461044;-44.73350143432617;2.1658525466918945;134.71742248535156
344;1665664616.712999;46.977201699999995;7.1790594;69.1500015258789;1665664616.7618017;-40.48515319824219;-7.412652015686035;138.5579833984375
345;1665664616.9140565;46.9771905;7.1790772;69.16100311279297;1665664616.9677374;-40.82490158081055;-11.130803108215332;134.29254150390625
346;1665664617.1336553;46.9771797;7.1790956999999995;69.17200469970703;1665664617.1883132;-45.89677810668945;-7.1197004318237305;128.81752014160156
347;1665664617.3298326;46.9771694;7.1791149999999995;69.177001953125;1665664617.37668;-50.08769226074219;0.5673195123672485;127.55738067626953
348;1665664617.5308874;46.9771588;7.179135;69.18800354003906;1665664617.575783;-51.46044921875;4.603791236877441;130.22056579589844
349;1665664617.7582955;46.977147699999996;7.1791554;69.19700622558594;1665664617.8002644;-51.58734893798828;1.9112125635147095;132.9041748046875
350;1665664618.0530517;46.9771359;7.179176099999999;69.19800567626953;1665664618.0959923;-51.29527282714844;-2.9642508029937744;132.16978454589844
351;1665664618.2570322;46.9771238;7.179197299999999;69.20700073242188;1665664618.300955;-50.388370513916016;-4.281096458435059;129.411865234375
352;1665664618.4502802;46.977111699999995;7.1792193;69.2030029296875;1665664618.4942012;-50.33230209350586;-0.048051152378320694;127.45488739013672
353;1665664618.6523125;46.977099599999995;7.1792416999999995;69.2030029296875;1665664618.7196562;-50.380889892578125;4.814926624298096;128.55303955078125
354;1665664618.8826516;46.9770871;7.1792643;69.19900512695312;1665664618.9265697;-50.850852966308594;4.751553058624268;131.83029174804688
355;1665664619.0915132;46.977074099999996;7.1792867;69.19300079345703;1665664619.1422675;-51.35458755493164;-1.2608836889266968;133.89051818847656
356;1665664619.3111148;46.9770608;7.179309399999999;69.19000244140625;1665664619.3569887;-51.40412902832031;-4.784658908843994;131.26751708984375
357;1665664619.508266;46.9770475;7.1793325;69.1820068359375;1665664619.550236;-51.526405334472656;-1.484357237815857;127.23650360107422
358;1665664619.69761;46.9770344;7.1793561;69.1760025024414;1665664619.7415316;-51.508331298828125;4.250855922698975;127.05790710449219
359;1665664619.8830523;46.977021099999995;7.17938;69.17200469970703;1665664619.933803;-51.408103942871094;5.609445571899414;131.16001892089844
360;1665664620.222698;46.9770074;7.179403499999999;69.16200256347656;1665664620.2685697;-44.94820022583008;0.17189115285873413;135.7801513671875
361;1665664620.4266863;46.9769937;7.1794265;69.13899993896484;1665664620.4754827;-30.43545150756836;-1.5517505407333374;134.10682678222656
362;1665664620.6521413;46.9769806;7.1794483;69.11700439453125;1665664620.697036;-27.996034622192383;-3.8007524013519287;132.39111328125
363;1665664620.8629558;46.9769685;7.1794689;69.09000396728516;1665664620.91078;-31.440332412719727;-4.041769981384277;129.54495239257812
364;1665664621.0659645;46.976957299999995;7.1794885;69.05900573730469;1665664621.1128109;-31.022512435913086;-0.6062701940536499;127.44744110107422
365;1665664621.28361;46.976946899999994;7.1795070999999995;69.02799987792969;1665664621.3285084;-28.150693893432617;2.704188346862793;128.8309783935547
366;1665664621.4817414;46.9769371;7.1795244;68.99400329589844;1665664621.5295646;-25.016603469848633;3.5655457973480225;131.39773559570312
367;1665664621.6867013;46.9769279;7.1795404;68.95700073242188;1665664621.7335463;-21.12387466430664;2.0040717124938965;132.01531982421875
368;1665664621.8965416;46.9769194;7.1795548;68.92200469970703;1665664621.9433885;-17.59883689880371;1.1007370948791504;130.8822021484375
369;1665664622.103455;46.976911699999995;7.1795678;68.89200592041016;1665664622.1405406;-13.206336975097656;0.07130920886993408;130.49716186523438
370;1665664622.798364;46.9769048;7.1795794;68.86500549316406;1665664622.835456;-9.306544303894043;0.2596395015716553;130.30813598632812
371;1665664622.9974704;46.976898899999995;7.1795895;68.83800506591797;1665664623.0531034;-6.214951038360596;0.7657331824302673;130.47079467773438
372;1665664623.2092621;46.9768937;7.1795981;68.81400299072266;1665664623.2522082;-3.3242995738983154;0.7358459830284119;130.70257568359375
373;1665664623.4230037;46.9768894;7.1796054;68.79300689697266;1665664623.4639971;-1.130728006362915;0.7981821298599243;130.4932098388672
374;1665664623.6221085;46.9768858;7.1796114;68.77799987792969;1665664623.6728618;0.7276357412338257;0.2551508843898773;130.36289978027344
375;1665664623.8368287;46.9768828;7.1796162;68.76800537109375;1665664623.879773;1.745720386505127;-0.03510153293609619;129.94381713867188
376;1665664624.0369086;46.9768805;7.17962;68.76000213623047;1665664624.0847328;2.24714994430542;-0.10491111129522324;129.58445739746094
377;1665664624.2487054;46.9768787;7.1796229;68.75300598144531;1665664624.2965255;2.381058931350708;-0.33461764454841614;129.0471954345703
378;1665664624.4429278;46.9768774;7.1796251;68.75;1665664624.4878213;1.5535582304000854;0.27635449171066284;128.4047088623047
379;1665664624.641054;46.976876399999995;7.179626799999999;68.7490005493164;1665664624.702542;1.2166060209274292;-0.11335620284080505;127.9356689453125
380;1665664624.8462994;46.9768756;7.1796280999999995;68.74500274658203;1665664624.8960748;0.7279934287071228;-0.15008379518985748;127.970703125
381;1665664625.0473535;46.9768751;7.1796291;68.74400329589844;1665664625.102986;0.217007577419281;0.12315909564495087;128.16334533691406
382;1665664625.2669537;46.976874599999995;7.1796299999999995;68.74200439453125;1665664625.311849;4.458187103271484;4.7618889808654785;129.82110595703125
383;1665664625.4787457;46.9768743;7.1796304;68.6520004272461;1665664625.5187628;11.844462394714355;13.601003646850586;138.34400939941406
384;1665664625.673945;46.9768739;7.1796299999999995;68.48200225830078;1665664625.7247;2.1610236167907715;19.488927841186523;150.43374633789062
385;1665664625.8769546;46.9768733;7.1796282;68.32100677490234;1665664625.927706;-16.102291107177734;39.34263610839844;160.7777557373047
386;1665664626.1111953;46.976871599999996;7.1796245;68.17900085449219;1665664626.1541443;-37.074764251708984;36.80615234375;173.54910278320312
387;1665664626.30249;46.9768683;7.1796183;68.0320053100586;1665664626.3483653;-37.703025817871094;27.499645233154297;-172.03346252441406
388;1665664626.4986668;46.976863599999994;7.1796104;67.87800598144531;1665664626.6440907;-28.142946243286133;15.455315589904785;-164.50729370117188
389;1665664626.7943962;46.9768585;7.1796019;67.7040023803711;1665664626.8471088;-24.218791961669922;8.327017784118652;-159.59881591796875
390;1665664627.1115944;46.9768532;7.1795934;67.53900146484375;1665664627.1623542;-29.16373062133789;7.370940685272217;-151.9192657470703
391;1665664627.3155818;46.9768477;7.1795849;67.37700653076172;1665664627.361451;-32.6021728515625;4.2257537841796875;-141.93495178222656
392;1665664627.5156639;46.9768419;7.1795762;67.21300506591797;1665664627.559582;-33.395599365234375;-0.8391892313957214;-132.70567321777344
393;1665664627.7147655;46.9768359;7.179567199999999;67.052001953125;1665664627.770396;-33.01045227050781;-5.249414920806885;-128.3529815673828
394;1665664627.9294865;46.976829599999995;7.1795579;66.89700317382812;1665664627.9782841;-32.81135177612305;-5.962151527404785;-131.2411651611328
395;1665664628.1344454;46.9768231;7.1795487;66.74000549316406;1665664628.180316;-32.77494812011719;-4.440896987915039;-134.5800018310547
396;1665664628.3364758;46.976816199999995;7.1795396;66.57600402832031;1665664628.3794217;-32.664852142333984;-2.6149723529815674;-135.60696411132812
397;1665664628.5258222;46.9768092;7.1795304;66.41000366210938;1665664628.5795012;-32.56911849975586;-1.2029486894607544;-135.53750610351562
398;1665664628.7395637;46.9768021;7.1795212;66.24400329589844;1665664628.793248;-32.61166000366211;-0.35136649012565613;-135.37689208984375
399;1665664628.9542844;46.976794899999994;7.1795119;66.0780029296875;1665664629.0108967;-32.6734733581543;0.14582392573356628;-135.39566040039062
400;1665664629.1641283;46.976787699999996;7.1795024;65.91200256347656;1665664629.2080436;-32.64624786376953;0.515232503414154;-135.49537658691406
401;1665664629.3612783;46.9767805;7.179492799999999;65.74000549316406;1665664629.4198382;-32.62699890136719;0.682407796382904;-135.5666046142578
402;1665664629.5701435;46.9767734;7.1794831;65.56800079345703;1665664629.6140609;-32.60865020751953;0.7542173862457275;-135.5961151123047
403;1665664629.7858367;46.9767663;7.1794733;65.39200592041016;1665664629.8326876;-32.61629104614258;0.7745834589004517;-135.62542724609375
404;1665664629.989821;46.9767592;7.1794633;65.21200561523438;1665664630.0483844;-32.647640228271484;0.7695827484130859;-135.66592407226562
405;1665664630.2103984;46.9767521;7.1794534;65.03300476074219;1665664630.2562685;-32.60056686401367;0.7374930381774902;-135.68618774414062
406;1665664630.4007168;46.976745;7.1794433;64.8550033569336;1665664630.447566;-32.6798210144043;0.6661503314971924;-135.73667907714844
407;1665664630.6144638;46.976738;7.1794332;64.6780014038086;1665664630.662289;-32.696292877197266;0.6352062821388245;-135.7549285888672
408;1665664630.8135667;46.9767308;7.179423;64.49500274658203;1665664630.8809123;-32.687583923339844;0.5760301351547241;-135.78150939941406
409;1665664631.0351174;46.9767237;7.1794129;64.31200408935547;1665664631.0868464;-32.724422454833984;0.4885629117488861;-135.81448364257812
410;1665664631.2556942;46.976716599999996;7.1794027;64.12800598144531;1665664631.298642;-32.87350845336914;0.42519766092300415;-135.81983947753906
411;1665664631.4577272;46.9767095;7.1793925;63.939002990722656;1665664631.5075026;-32.89838790893555;0.35446515679359436;-135.84083557128906
412;1665664631.66464;46.9767024;7.1793822;63.74700164794922;1665664631.7095382;-33.03866195678711;0.32843515276908875;-135.85467529296875
413;1665664631.867649;46.976695299999996;7.1793719;63.557003021240234;1665664631.9232793;-33.06550979614258;0.27332359552383423;-135.87380981445312
