;pos_time;latitude;longitude;altitude;alt_time;pitch;roll;yaw
0;1665662508.9790065;46.9755349;7.1803569;-0.021000001579523087;1665662509.025856;-0.19097121059894562;0.8003012537956238;91.17929077148438
1;1665662509.2015326;46.975535;7.1803569;-0.023000001907348633;1665662509.2415495;-0.10839281231164932;0.8320786356925964;91.13385772705078
2;1665662509.4025886;46.975535;7.180357;-0.023000001907348633;1665662509.4455323;-0.22208404541015625;0.9365431070327759;91.12456512451172
3;1665662509.6095004;46.975535;7.180357;-0.026000000536441803;1665662509.6641567;-0.13264431059360504;0.8147721886634827;91.25505828857422
4;1665662509.8330061;46.9755349;7.180357099999999;-0.03100000135600567;1665662509.872045;0.035226330161094666;0.8829870820045471;91.18787384033203
5;1665662510.0487008;46.9755349;7.180357099999999;-0.03100000135600567;1665662510.0955503;-0.03331360965967178;0.8756277561187744;91.17926025390625
6;1665662510.2653718;46.9755349;7.180357099999999;-0.03100000135600567;1665662510.319052;-0.01735791005194187;0.8838927149772644;91.18244171142578
7;1665662510.4703343;46.9755349;7.1803571999999996;-0.03500000014901161;1665662510.5181582;-0.17331351339817047;0.9674359560012817;91.0966567993164
8;1665662510.6743152;46.975535;7.1803571999999996;-0.003000000026077032;1665662510.7211637;-0.09595934301614761;0.8527847528457642;91.23616027832031
9;1665662510.8831794;46.9755349;7.1803571999999996;-0.007000000216066837;1665662510.9251475;-0.2388903945684433;0.9757544994354248;91.17544555664062
10;1665662511.0764267;46.9755349;7.180357099999999;-0.013000000268220901;1665662511.1164432;-0.08825796842575073;0.896453320980072;91.08663940429688
11;1665662511.297979;46.9755349;7.180357099999999;-0.015000000596046448;1665662511.360442;-0.08456406742334366;0.9210730791091919;91.10565948486328
12;1665662511.613229;46.9755348;7.180357;-0.01600000075995922;1665662511.6551957;-0.13706184923648834;0.8097036480903625;91.05123138427734
13;1665662511.823066;46.9755348;7.1803569;-0.020000001415610313;1665662511.8650339;0.031797222793102264;0.9206681251525879;91.0468521118164
14;1665662512.0318584;46.9755348;7.1803569;-0.021000001579523087;1665662512.0772665;-0.13733772933483124;0.8588916659355164;91.15670013427734
15;1665662512.241633;46.9755348;7.1803569;-0.02200000174343586;1665662512.288481;-0.1568143516778946;0.9118035435676575;91.02324676513672
16;1665662512.464678;46.9755348;7.1803569;0.0;1665662512.5134761;-0.11766019463539124;0.992763340473175;91.03329467773438
17;1665662512.669634;46.9755348;7.1803569;0.0;1665662512.7067251;0.13808977603912354;0.885798990726471;91.05408477783203
18;1665662512.871666;46.9755348;7.180356799999999;0.0;1665662512.9185162;-0.041679415851831436;0.8213990926742554;91.11735534667969
19;1665662513.07858;46.9755348;7.180356799999999;0.003000000026077032;1665662513.1224992;0.051752906292676926;0.7134532928466797;91.3966064453125
20;1665662513.2737794;46.9755348;7.180356799999999;0.006000000052154064;1665662513.321603;0.5825795531272888;-0.3111622631549835;91.85143280029297
21;1665662513.4699543;46.9755349;7.180356799999999;0.017000000923871994;1665662513.516803;0.4832325875759125;-0.17277011275291443;91.73843383789062
22;1665662513.699373;46.975535;7.180356799999999;0.04800000041723251;1665662513.7442694;0.1037609800696373;0.5597568154335022;91.6535873413086
23;1665662513.895548;46.975535199999996;7.180356799999999;0.10100000351667404;1665662513.93459;-0.033947642892599106;0.9133074283599854;91.58087921142578
24;1665662514.0975878;46.9755353;7.180356799999999;0.17600001394748688;1665662514.1415088;0.02983938716351986;1.0088573694229126;91.52783966064453
25;1665662514.3025484;46.9755354;7.1803567;0.27400001883506775;1665662514.349396;0.023970654234290123;1.0273220539093018;91.46275329589844
26;1665662514.500734;46.9755354;7.1803567;0.39100003242492676;1665662514.5427015;-0.016946498304605484;1.0278335809707642;91.41949462890625
27;1665662514.7228024;46.9755355;7.1803567;0.5270000100135803;1665662514.7623556;-0.006785472389310598;0.9967274069786072;91.38223266601562
28;1665662514.927812;46.9755355;7.180356799999999;0.690000057220459;1665662514.9702973;0.08127602189779282;0.9932804107666016;91.3297119140625
29;1665662515.1259923;46.9755355;7.180356799999999;0.89000004529953;1665662515.166009;0.041472483426332474;0.9671192765235901;91.30228424072266
30;1665662515.31924;46.9755355;7.180356799999999;1.1130000352859497;1665662515.366088;0.07645037770271301;1.0274678468704224;91.27145385742188
31;1665662515.5446997;46.9755356;7.1803569;1.3510000705718994;1665662515.588616;0.10783284902572632;1.048764705657959;91.2409896850586
32;1665662515.8492084;46.9755355;7.1803569;1.6080000400543213;1665662515.8911755;0.08146160840988159;0.9286553859710693;90.2302017211914
33;1665662516.0483112;46.9755355;7.1803569;1.8890000581741333;1665662516.0980868;0.1268446147441864;0.8499265909194946;90.1928482055664
34;1665662516.2483943;46.9755355;7.1803569;2.189000129699707;1665662516.2893846;0.1549823135137558;0.8223345875740051;90.2224349975586
35;1665662516.456279;46.9755355;7.180357;2.503000020980835;1665662516.511911;0.12199452519416809;0.8571219444274902;90.19219970703125
36;1665662516.68564;46.9755355;7.180357;2.80400013923645;1665662516.7285857;0.18298082053661346;0.943010151386261;90.18739318847656
37;1665662516.8798656;46.9755355;7.180357;3.1090002059936523;1665662516.925734;0.17838463187217712;1.001987338066101;90.25061798095703
38;1665662517.082872;46.9755355;7.180357099999999;3.4170000553131104;1665662517.1306944;0.12614771723747253;1.0769834518432617;90.25662994384766
39;1665662517.2966142;46.9755355;7.180357099999999;3.7210001945495605;1665662517.349318;0.12002849578857422;1.0506911277770996;90.18296813964844
40;1665662517.5142617;46.9755355;7.180357099999999;4.03000020980835;1665662517.558183;0.15522271394729614;0.9779849648475647;90.18878173828125
41;1665662517.7319152;46.9755354;7.1803571999999996;4.336000442504883;1665662517.7846146;0.2709195613861084;1.035947322845459;90.25747680664062
42;1665662517.9671261;46.9755353;7.1803573;4.642000198364258;1665662518.0090961;0.4544256329536438;1.0519721508026123;90.24668884277344
43;1665662518.1837976;46.9755353;7.1803573;4.950000286102295;1665662518.2179582;0.5227931141853333;1.096076250076294;90.21099090576172
44;1665662518.3838801;46.9755353;7.1803574;5.258000373840332;1665662518.4219432;0.4796903431415558;1.0643631219863892;90.1920394897461
45;1665662518.6151893;46.975535199999996;7.1803573;5.562000274658203;1665662518.6571608;0.424728661775589;0.9483232498168945;90.20565795898438
46;1665662518.8084362;46.975535099999995;7.1803573;5.866000175476074;1665662518.8504064;0.43260160088539124;0.8108217716217041;90.22992706298828
47;1665662519.0182786;46.975535;7.1803573;6.178000450134277;1665662519.0670772;0.42569276690483093;0.7948446869850159;90.22942352294922
48;1665662519.220311;46.975535;7.1803573;6.487000465393066;1665662519.265205;0.4257100820541382;0.8344564437866211;90.23068237304688
49;1665662519.4330766;46.9755349;7.1803571999999996;6.799000263214111;1665662519.470166;0.3913637101650238;0.8759506940841675;90.21995544433594
50;1665662519.6468222;46.9755349;7.1803571999999996;7.11400032043457;1665662519.6926935;0.3989194333553314;0.8922972083091736;90.21403503417969
51;1665662519.8547084;46.9755349;7.1803571999999996;7.425000190734863;1665662519.9035084;0.3926834762096405;0.9562987685203552;90.22530364990234
52;1665662520.0928512;46.9755349;7.180357099999999;7.735000133514404;1665662520.1309173;0.27045774459838867;0.9540686011314392;90.23833465576172
53;1665662520.2792675;46.9755348;7.180357099999999;8.04800033569336;1665662520.3251398;0.22604966163635254;0.8244279623031616;90.21955871582031
54;1665662520.4910614;46.9755348;7.180357099999999;8.360000610351562;1665662520.5457194;0.27576911449432373;0.7908353209495544;90.21580505371094
55;1665662520.6989489;46.9755348;7.180357099999999;8.678000450134277;1665662520.7418907;0.24668742716312408;0.830300509929657;90.22010040283203
56;1665662520.8951223;46.9755348;7.180357099999999;8.994000434875488;1665662520.9419713;0.2651338279247284;0.8643859624862671;90.22704315185547
57;1665662521.0981307;46.9755348;7.180357;9.305000305175781;1665662521.136194;0.1914915293455124;0.9278689026832581;90.2288818359375
58;1665662521.3089461;46.9755348;7.180357;9.620000839233398;1665662521.3489633;0.15072856843471527;0.9777692556381226;90.23389434814453
59;1665662521.5060976;46.9755347;7.180357;9.938000679016113;1665662521.5529473;0.1505734771490097;0.8912953734397888;90.23236846923828
60;1665662521.7293067;46.9755347;7.180357;10.265000343322754;1665662521.7742019;0.2576311230659485;0.792883038520813;90.2291259765625
61;1665662521.9469519;46.975534599999996;7.180357;10.78600025177002;1665662521.9889224;0.15432269871234894;0.5772492289543152;90.22429656982422
62;1665662522.1519122;46.975534599999996;7.180357099999999;11.441000938415527;1665662522.1909535;-0.4743180274963379;0.47078779339790344;90.23126220703125
63;1665662522.369559;46.975534599999996;7.180357099999999;12.018000602722168;1665662522.410553;-0.0012265525292605162;0.6676555871963501;90.22013092041016
64;1665662522.5745206;46.975534599999996;7.1803571999999996;12.575000762939453;1665662522.6223445;0.4875231385231018;0.7762817740440369;90.23974609375
65;1665662522.7794816;46.975534599999996;7.1803573;13.13900089263916;1665662522.8185227;0.46504461765289307;0.7796208262443542;90.23731994628906
66;1665662522.971755;46.975534599999996;7.1803574;13.713000297546387;1665662523.0176249;0.2605627179145813;0.7856258153915405;90.2295150756836
67;1665662523.1845212;46.9755347;7.1803574;14.293000221252441;1665662523.2206316;0.261528879404068;0.8819671273231506;90.23445129394531
68;1665662523.3845987;46.9755347;7.1803574999999995;14.880001068115234;1665662523.4333985;0.3737933337688446;0.8991979956626892;90.22569274902344
69;1665662523.6090782;46.9755347;7.1803574999999995;15.468000411987305;1665662523.6481192;0.3733486831188202;0.9373888969421387;90.22171020507812
70;1665662523.822824;46.9755348;7.1803574999999995;16.0570011138916;1665662523.8638139;0.2247154265642166;0.9423918724060059;90.22879028320312
71;1665662524.0277824;46.9755348;7.1803574999999995;16.648000717163086;1665662524.0677986;0.1262950748205185;0.8826970458030701;90.21282958984375
72;1665662524.2200618;46.9755348;7.1803574999999995;17.24100112915039;1665662524.256166;0.14333929121494293;0.8089321851730347;90.22945404052734
73;1665662524.415258;46.9755348;7.1803574999999995;17.836000442504883;1665662524.4542942;0.14954878389835358;0.7479429841041565;90.2294921875
74;1665662524.6329014;46.9755348;7.1803576;18.4320011138916;1665662524.6826775;0.19077958166599274;0.745646595954895;90.22069549560547
75;1665662524.8417659;46.9755348;7.1803576;19.035001754760742;1665662524.8778772;0.2060409039258957;0.7652748823165894;90.21295928955078
76;1665662525.0496535;46.9755348;7.1803576;19.635000228881836;1665662525.0994372;0.12618383765220642;0.7995975017547607;90.20693969726562
77;1665662525.2922173;46.9755348;7.1803577;20.235000610351562;1665662525.3195446;0.17093287408351898;0.7524527311325073;90.2143325805664
78;1665662525.4815605;46.9755349;7.1803577999999995;20.83100128173828;1665662525.5293894;0.3599734306335449;0.8771072626113892;90.20761108398438
79;1665662525.6777368;46.975535;7.1803579;21.429000854492188;1665662525.722632;0.4722265601158142;0.969490110874176;90.21908569335938
80;1665662525.900264;46.975535;7.180358;22.0260009765625;1665662525.94028;0.4226815402507782;0.9417544603347778;90.2425765991211
81;1665662526.095464;46.975535;7.180358;22.621000289916992;1665662526.153049;0.32944855093955994;0.9386196732521057;90.22443389892578
82;1665662526.4234014;46.975535;7.180358;23.21500015258789;1665662526.4663472;0.2798367142677307;0.802997887134552;90.23324584960938
83;1665662526.629338;46.975535099999995;7.180358;23.81100082397461;1665662526.6761842;0.2653680145740509;0.8120958209037781;90.22384643554688
84;1665662526.9406815;46.975535099999995;7.180358;24.407001495361328;1665662526.986554;0.27199533581733704;0.895179033279419;90.2274169921875
85;1665662527.156376;46.975535099999995;7.180358;25.00200080871582;1665662527.1963904;0.2968185842037201;0.8468761444091797;90.2236328125
86;1665662527.3603585;46.975535099999995;7.180358;25.59800148010254;1665662527.4120874;0.38135775923728943;0.8331712484359741;90.22468566894531
87;1665662527.5955744;46.975535099999995;7.180358;26.19500160217285;1665662527.6424227;0.36998671293258667;0.8497514724731445;90.22346496582031
88;1665662527.8034618;46.975535099999995;7.180358;26.792001724243164;1665662527.8493352;0.41251713037490845;0.8726840615272522;90.22765350341797
89;1665662528.0191576;46.975535099999995;7.180358;27.39000129699707;1665662528.0650308;0.3769635260105133;0.7961263060569763;90.234375
90;1665662528.7443244;46.975535099999995;7.1803579;27.98400115966797;1665662528.7862957;0.3197746276855469;0.7180573344230652;90.22692108154297
91;1665662528.957095;46.975535099999995;7.1803579;28.580001831054688;1665662529.013703;0.36554235219955444;0.7347754836082458;90.2342529296875
92;1665662529.171819;46.975535199999996;7.1803579;29.176000595092773;1665662529.2215898;0.3508467674255371;0.8389537334442139;90.22944641113281
93;1665662529.3904371;46.975535199999996;7.1803579;29.774002075195312;1665662529.436308;0.35237202048301697;0.909217119216919;90.22651672363281
94;1665662529.5924683;46.975535199999996;7.1803577999999995;30.373001098632812;1665662529.6471267;0.2665964663028717;0.8701663017272949;90.23212432861328
95;1665662529.8189046;46.9755353;7.1803577999999995;30.965002059936523;1665662529.8647723;0.2137768417596817;0.8507344722747803;90.22398376464844
96;1665662530.0228837;46.9755353;7.1803577999999995;31.559001922607422;1665662530.0697324;0.29764291644096375;0.8662068843841553;90.22176361083984
97;1665662530.787224;46.9755353;7.1803577999999995;32.15299987792969;1665662530.798939;0.4232601225376129;0.9037789106369019;90.21340942382812
98;1665662530.8653038;46.9755353;7.1803577999999995;32.74800109863281;1665662530.892631;0.41592371463775635;1.021252155303955;90.23253631591797
99;1665662531.0029216;46.9755354;7.1803577999999995;33.342002868652344;1665662531.0312254;0.4002890884876251;1.0932976007461548;90.22879028320312
100;1665662531.2537577;46.9755354;7.1803577999999995;33.94000244140625;1665662531.3074348;0.3328845500946045;1.0509194135665894;90.22613525390625
101;1665662531.4274797;46.9755353;7.1803577;34.540000915527344;1665662531.4645696;0.24658574163913727;0.9728406667709351;90.2245101928711
102;1665662531.619754;46.9755353;7.1803577;35.13600158691406;1665662531.6626952;0.20991730690002441;0.878196656703949;90.22156524658203
103;1665662531.8315425;46.9755353;7.1803577;35.73200225830078;1665662531.8783906;0.2950364947319031;0.8769505620002747;90.21866607666016
104;1665662532.0316253;46.9755353;7.1803577;36.32500076293945;1665662532.0706646;0.4147602915763855;0.9382290840148926;90.23095703125
105;1665662532.236583;46.9755353;7.1803577;36.92000198364258;1665662532.272697;0.43581682443618774;0.9739075303077698;90.23799896240234
106;1665662532.8253326;46.9755353;7.1803577;37.518001556396484;1665662532.939487;0.31877845525741577;0.9455304741859436;90.22756958007812
107;1665662533.003906;46.975535199999996;7.1803576;38.117000579833984;1665662533.0224497;0.16094531118869781;0.9383123517036438;90.22965240478516
108;1665662533.1376154;46.975535199999996;7.1803576;38.71000289916992;1665662533.1747055;0.21696428954601288;0.9051763415336609;90.2234115600586
109;1665662533.3152475;46.975535199999996;7.1803576;39.303001403808594;1665662533.3562403;0.3905140459537506;0.8719460368156433;90.21602630615234
110;1665662533.4977593;46.975535199999996;7.1803576;39.897003173828125;1665662533.5377765;0.37231484055519104;0.8901798129081726;90.21980285644531
111;1665662533.6759892;46.975535099999995;7.1803577;40.496002197265625;1665662533.717959;0.3366056978702545;0.8626691699028015;90.22238159179688
112;1665662533.9765985;46.975535099999995;7.1803577;41.09600067138672;1665662534.0185673;0.3351704776287079;0.8815388679504395;90.22124481201172
113;1665662534.1698458;46.975535099999995;7.1803576;41.69600296020508;1665662534.2205982;0.3245832622051239;0.898737907409668;90.23619842529297
114;1665662534.378708;46.975535099999995;7.1803576;42.297000885009766;1665662534.4226317;0.24664926528930664;0.8685911893844604;90.22541809082031
115;1665662534.5825977;46.975535099999995;7.1803576;42.893001556396484;1665662534.6343253;0.34992706775665283;0.857740581035614;90.22583770751953
116;1665662534.7973197;46.975535099999995;7.1803576;43.4890022277832;1665662534.841236;0.4366724193096161;0.8267784118652344;90.22222137451172
117;1665662535.5058935;46.975535099999995;7.1803576;44.08500289916992;1665662535.5546944;0.34743407368659973;0.8754016160964966;90.22142028808594
118;1665662535.5966628;46.975535;7.1803576;44.68100357055664;1665662535.6191072;0.3100745677947998;0.8108689785003662;90.23249053955078
119;1665662535.7049952;46.975535;7.1803574999999995;45.281002044677734;1665662535.7323267;0.30932697653770447;0.7531870603561401;90.2208480834961
120;1665662535.9470437;46.975535;7.1803574999999995;45.88100051879883;1665662535.980229;0.26839521527290344;0.7198856472969055;90.21830749511719
121;1665662536.1197965;46.975535;7.1803574;46.48600387573242;1665662536.15786;0.1771184206008911;0.6562131643295288;90.21996307373047
122;1665662536.3003561;46.975535;7.1803574;47.0880012512207;1665662536.3384202;0.18028496205806732;0.6654635071754456;90.21804809570312
123;1665662536.4955542;46.9755349;7.1803574;47.69200134277344;1665662536.5345962;0.3099852204322815;0.6562889814376831;90.23375701904297
124;1665662536.6898136;46.9755349;7.1803574;48.29900360107422;1665662536.7317483;0.39754554629325867;0.6781600713729858;90.23528289794922
125;1665662536.8996253;46.9755349;7.1803574;48.90300369262695;1665662536.9406157;0.35548344254493713;0.6622556447982788;90.22455596923828
126;1665662537.1075091;46.975535;7.1803573;49.50600051879883;1665662537.1475239;0.21559923887252808;0.6943776607513428;90.22787475585938
127;1665662537.3007534;46.975535;7.1803573;50.10900115966797;1665662537.3476021;0.21735550463199615;0.7166664600372314;90.22045135498047
128;1665662537.5135217;46.975535;7.1803574;50.70900344848633;1665662537.5535429;0.3302017152309418;0.7103786468505859;90.2310562133789
129;1665662537.7145772;46.975535;7.1803574;51.310001373291016;1665662537.7575233;0.37435173988342285;0.6984904408454895;90.22591400146484
130;1665662537.9234416;46.975535;7.1803574;51.91100311279297;1665662537.9673615;0.36376437544822693;0.7812196612358093;90.23050689697266
131;1665662538.1196203;46.975535;7.1803574;52.513004302978516;1665662538.1596344;0.33264267444610596;0.8069813251495361;90.23222351074219
132;1665662538.3196964;46.975535;7.1803574;53.1140022277832;1665662538.3616662;0.32753902673721313;0.7563304305076599;90.2359619140625
133;1665662538.5236824;46.975535;7.1803574;53.71000289916992;1665662538.580289;0.3610697090625763;0.7503675818443298;90.21516418457031
134;1665662538.737424;46.975535;7.1803573;54.30600357055664;1665662538.7813442;0.335811972618103;0.7074717283248901;90.21915435791016
135;1665662538.958976;46.975535;7.1803574;54.9010009765625;1665662539.0028987;0.33370107412338257;0.6584575772285461;90.22559356689453
136;1665662539.1463675;46.975535;7.1803573;55.487003326416016;1665662539.1912653;0.2590225636959076;0.7079930901527405;90.22086334228516
137;1665662539.3581593;46.975535099999995;7.1803573;56.009002685546875;1665662539.4079366;0.26671114563941956;0.8944172859191895;90.21641540527344
138;1665662539.5699527;46.975535099999995;7.1803573;56.461002349853516;1665662539.6138747;0.3908226191997528;1.0015487670898438;90.2250747680664
139;1665662539.7875996;46.975535099999995;7.1803573;56.85400390625;1665662539.829569;0.47138088941574097;0.989822506904602;90.21245574951172
140;1665662539.994514;46.975535099999995;7.1803573;57.195003509521484;1665662540.0374582;0.387849360704422;0.8811946511268616;90.22221374511719
141;1665662540.205329;46.975535099999995;7.1803573;57.49400329589844;1665662540.2433922;0.34991225600242615;0.8288267254829407;90.22704315185547
142;1665662540.4132152;46.975535;7.1803573;57.74900436401367;1665662540.452257;0.37649574875831604;0.8451424837112427;90.22759246826172
143;1665662540.6093907;46.975535;7.1803573;57.961002349853516;1665662540.6494107;0.4002971649169922;0.8848708271980286;90.2216796875
144;1665662540.8221579;46.975535;7.1803573;58.13900375366211;1665662540.8690073;0.4437277019023895;0.8965569138526917;90.21739196777344
145;1665662541.027119;46.975535;7.1803573;58.28900146484375;1665662541.0681121;2.384119987487793;-1.1728346347808838;89.62841796875
146;1665662541.2301257;46.975535199999996;7.1803569;58.44700241088867;1665662541.2701452;21.16981315612793;-24.08173370361328;79.69694519042969
147;1665662541.4272778;46.9755365;7.1803547;58.65400314331055;1665662541.4877918;31.894424438476562;-45.420654296875;67.24607849121094
148;1665662541.6439502;46.9755399;7.180349;58.85200119018555;1665662541.6898222;22.55126190185547;-56.12303924560547;60.39222717285156
149;1665662541.8635488;46.9755459;7.1803395;59.01900100708008;1665662541.9113767;-0.13563913106918335;-57.98159408569336;50.8529167175293
150;1665662542.0802224;46.9755542;7.1803273;59.156002044677734;1665662542.1260946;-17.804967880249023;-54.402496337890625;37.570884704589844
151;1665662542.2881088;46.9755645;7.180313;59.27000427246094;1665662542.3261743;-31.733781814575195;-48.400577545166016;22.640169143676758
152;1665662542.4901416;46.9755762;7.1802969;59.36600112915039;1665662542.5369902;-40.11066436767578;-41.83982849121094;8.4937105178833
153;1665662542.6902199;46.9755888;7.1802793;59.423004150390625;1665662542.7327068;-44.32360076904297;-35.779476165771484;-3.078204393386841
154;1665662542.8947198;46.9756019;7.1802604;59.454002380371094;1665662542.9405932;-48.19784164428711;-25.129863739013672;-12.185385704040527
155;1665662543.098706;46.975615499999996;7.1802407;59.46400451660156;1665662543.1465297;-49.92831039428711;-15.71596908569336;-17.10576629638672
156;1665662543.3065927;46.9756297;7.1802208;59.45000457763672;1665662543.3475873;-49.3564453125;-10.340730667114258;-20.111679077148438
157;1665662543.513506;46.975644599999995;7.1802012;59.43700408935547;1665662543.5564475;-48.400142669677734;-8.087074279785156;-17.36525535583496
158;1665662543.7165103;46.9756599;7.180182299999999;59.410003662109375;1665662543.7633579;-45.5831184387207;-11.161235809326172;-5.80359411239624
159;1665662543.9292805;46.9756758;7.1801645;59.37400436401367;1665662543.9731994;-38.91266632080078;-18.94535255432129;8.614697456359863
160;1665662544.1196024;46.975692099999996;7.1801479;59.34800338745117;1665662544.1635194;-36.77956771850586;-33.09905242919922;14.314894676208496
161;1665662544.323581;46.9757087;7.1801315;59.34400177001953;1665662544.367504;-44.9442138671875;-42.176090240478516;1.6105518341064453
162;1665662544.5314705;46.975725399999995;7.1801132999999995;59.32100296020508;1665662544.5763667;-58.05885696411133;-40.07212448120117;-17.379873275756836
163;1665662544.7497158;46.9757417;7.1800916;59.294002532958984;1665662544.7907085;-66.2482681274414;-20.44297218322754;-30.71051025390625
164;1665662544.9771237;46.9757584;7.180066999999999;59.26400375366211;1665662545.0181181;-58.572269439697266;9.2452392578125;-39.22394943237305
165;1665662545.195749;46.9757761;7.180042299999999;59.23500442504883;1665662545.242601;-41.79447937011719;45.340538024902344;-45.86616516113281
166;1665662545.399733;46.9757951;7.1800218;59.14800262451172;1665662545.4377956;-25.100488662719727;83.81956481933594;-70.07044982910156
167;1665662545.6154282;46.975817;7.180008399999999;58.90800094604492;1665662545.6603255;-57.827999114990234;34.77407455444336;-72.86373901367188
168;1665662545.817459;46.975840299999994;7.179993499999999;58.77100372314453;1665662545.8564997;-71.84794616699219;-75.57260131835938;-24.83989715576172
169;1665662546.0419393;46.9758584;7.179971699999999;58.48400115966797;1665662546.0878134;-73.01570892333984;-42.82221221923828;-66.35105895996094
170;1665662546.2566588;46.975869599999996;7.179944099999999;58.18100357055664;1665662546.3025331;-37.67731857299805;-9.053278923034668;-84.26599884033203
171;1665662546.4908986;46.9758764;7.1799145;58.27900314331055;1665662546.5299425;-41.210391998291016;38.51311492919922;-67.40861511230469
172;1665662546.6782904;46.9758857;7.1798874999999995;58.50200271606445;1665662546.7212358;-64.91046142578125;95.06717681884766;-87.10372161865234
173;1665662546.965235;46.9759008;7.179868099999999;58.36700439453125;1665662547.0140388;-80.59493255615234;24.98210906982422;-13.637587547302246
174;1665662547.1848357;46.975921199999995;7.1798563;58.11700439453125;1665662547.2414434;-29.931007385253906;-13.811829566955566;10.773046493530273
175;1665662547.408339;46.9759424;7.1798461;58.263004302978516;1665662547.4473774;-14.827800750732422;-59.430458068847656;-1.593295693397522
176;1665662547.6132977;46.975960699999995;7.1798307999999995;58.52000427246094;1665662547.656241;-39.19939041137695;-70.82981872558594;0.05862874537706375
177;1665662547.846562;46.9759764;7.179807899999999;58.685001373291016;1665662547.890481;-69.31693267822266;-41.20884704589844;-12.60738754272461
178;1665662548.0446894;46.9759928;7.1797778999999995;58.80900192260742;1665662548.1052017;-70.5317611694336;24.43613052368164;-38.7353401184082
179;1665662548.2652667;46.9760133;7.179750599999999;58.92500305175781;1665662548.3101604;-64.57386016845703;27.77183723449707;-16.159969329833984
180;1665662548.4770567;46.9760364;7.1797308;59.03300094604492;1665662548.515123;-53.68577575683594;26.522071838378906;-5.320093631744385
181;1665662548.670308;46.976060499999996;7.1797184;59.1930046081543;1665662548.7308156;-25.88829803466797;51.18059158325195;-18.243741989135742
182;1665662548.8928335;46.9760837;7.1797125;59.28000259399414;1665662548.9328496;-1.6805169582366943;71.37491607666016;-38.74629592895508
183;1665662549.08608;46.9761062;7.1797153;59.33400344848633;1665662549.1387854;-44.652706146240234;-7.882757663726807;-44.90383529663086
184;1665662549.2920158;46.976126799999996;7.1797175;59.39900207519531;1665662549.332031;-70.12216186523438;-97.16291046142578;-17.157169342041016
185;1665662549.485267;46.9761415;7.179712899999999;59.17900466918945;1665662549.5301623;-77.81971740722656;-45.642459869384766;-63.57664108276367
186;1665662549.6999831;46.9761485;7.1796969;58.88600158691406;1665662549.742929;-52.675453186035156;6.105144023895264;-95.40406036376953
187;1665662549.9098222;46.9761531;7.1796736;58.941001892089844;1665662549.9605753;-40.746742248535156;49.90558624267578;-96.2564468383789
188;1665662550.1313746;46.9761593;7.1796491;59.05000305175781;1665662550.172366;-33.95309066772461;65.4160385131836;-92.34039306640625
189;1665662550.3295026;46.976168;7.1796257;59.006004333496094;1665662550.366592;-30.830068588256836;25.98554039001465;-81.09222412109375
190;1665662550.5364149;46.976178;7.179603999999999;58.971004486083984;1665662550.5803347;-4.316228866577148;-28.41238784790039;-94.21253967285156
191;1665662550.728686;46.976185799999996;7.1795851;58.92100143432617;1665662550.769679;-5.368558406829834;-52.16872024536133;-125.47335815429688
192;1665662550.9473116;46.9761904;7.1795712;58.77100372314453;1665662550.9853742;-6.0657453536987305;-39.51747131347656;-127.21083068847656
193;1665662551.1591022;46.9761917;7.1795623;58.656002044677734;1665662551.2147365;-13.682861328125;-20.895919799804688;-124.50093078613281
194;1665662551.3747976;46.9761907;7.179556;58.64800262451172;1665662551.4148166;-14.441117286682129;-16.879745483398438;-127.61990356445312
195;1665662552.0199766;46.9761885;7.179551099999999;58.67900466918945;1665662552.0717065;-5.217158317565918;-15.057294845581055;-126.98137664794922
196;1665662552.2259128;46.9761855;7.1795474;58.72300338745117;1665662552.2727625;3.572570562362671;-10.016477584838867;-116.02816009521484
197;1665662552.4347765;46.9761826;7.1795449;58.759002685546875;1665662552.4855294;2.36621356010437;0.47954756021499634;-104.55329895019531
198;1665662552.642665;46.9761801;7.1795428999999995;58.78400421142578;1665662552.6875615;-21.946979522705078;22.097272872924805;-98.38780212402344
199;1665662552.9227762;46.976178999999995;7.1795395;58.86000442504883;1665662552.960843;-37.366302490234375;34.49043273925781;-88.42304992675781
200;1665662553.0965052;46.9761806;7.1795338;58.9530029296875;1665662553.1355467;-47.21747589111328;38.017826080322266;-77.13627624511719
201;1665662553.382473;46.976185799999996;7.179525699999999;59.06700134277344;1665662553.4332244;-56.75749969482422;30.201313018798828;-65.09318542480469
202;1665662553.5854816;46.9761947;7.1795154;59.185001373291016;1665662553.631354;-61.73526382446289;16.4984073638916;-52.95553207397461
203;1665662553.787512;46.9762067;7.1795024;59.29500198364258;1665662553.8294811;-61.354740142822266;6.738326072692871;-43.29501724243164
204;1665662554.0227292;46.9762207;7.179487699999999;59.387001037597656;1665662554.069578;-58.148826599121094;-1.8351391553878784;-36.111026763916016
205;1665662554.7332544;46.976236;7.179471599999999;59.46200180053711;1665662554.7742474;-55.08211898803711;-10.142107009887695;-32.56336212158203
206;1665662554.9333346;46.9762518;7.1794541;59.518001556396484;1665662554.9762802;-54.091400146484375;-11.143714904785156;-36.33135223388672
207;1665662555.1412258;46.976267799999995;7.1794351;59.5410041809082;1665662555.1802633;-52.53350830078125;-3.8205416202545166;-41.898773193359375
208;1665662555.3471603;46.9762838;7.179415199999999;59.53700256347656;1665662555.3862007;-48.57502365112305;2.279118776321411;-41.2548828125
209;1665662555.5472386;46.9762999;7.1793952;59.51700210571289;1665662555.5911593;-46.18478012084961;3.236488103866577;-37.04035568237305
210;1665662555.7473176;46.976316;7.1793757;59.48400115966797;1665662555.793191;-46.907405853271484;-2.082770824432373;-33.82805633544922
211;1665662555.9532552;46.976332199999995;7.1793565;59.44000244140625;1665662555.9981492;-43.599483489990234;-11.216794967651367;-35.14647674560547
212;1665662556.1699255;46.9763479;7.1793371;59.37800216674805;1665662556.2148242;-41.05919647216797;-6.0860185623168945;-43.89993667602539
213;1665662556.3729334;46.976363;7.1793176;59.31900405883789;1665662556.4236858;-40.29963684082031;4.932848930358887;-46.35604476928711
214;1665662556.603271;46.9763776;7.1792986;59.25800323486328;1665662556.6384056;-38.704017639160156;7.930676460266113;-39.974891662597656
215;1665662556.7887552;46.9763921;7.179280599999999;59.195003509521484;1665662556.9361322;-37.72173309326172;1.866768479347229;-34.15774154663086
216;1665662557.0864332;46.9764063;7.1792637;59.134002685546875;1665662557.1313293;-33.97587966918945;-3.2281506061553955;-36.54167556762695
217;1665662557.294321;46.976419899999996;7.1792475;59.06700134277344;1665662557.3382423;-29.753549575805664;-3.649454355239868;-41.42607116699219
218;1665662557.5022087;46.9764327;7.179232;58.996002197265625;1665662557.5500348;-25.93168067932129;-1.4931988716125488;-42.783050537109375
219;1665662557.7159548;46.9764445;7.1792172999999995;58.923004150390625;1665662557.757923;-22.14971923828125;0.2963275611400604;-40.88189697265625
220;1665662557.927745;46.9764553;7.1792036999999995;58.85100173950195;1665662557.9687388;-18.251222610473633;1.1840548515319824;-39.40912628173828
221;1665662558.14637;46.9764651;7.1791914;58.78200149536133;1665662558.1893137;-14.562664031982422;0.9109286069869995;-39.33662033081055
222;1665662558.3513296;46.976473999999996;7.1791806;58.720001220703125;1665662558.4108644;-11.290569305419922;0.11955249309539795;-39.541229248046875
223;1665662558.5640955;46.976481799999995;7.1791711;58.6670036315918;1665662558.605088;-7.872352600097656;0.10929154604673386;-39.773109436035156
224;1665662558.774913;46.976488499999995;7.1791627;58.621002197265625;1665662558.8159072;-5.445170879364014;-0.253189355134964;-39.60222244262695
225;1665662558.9896362;46.9764944;7.179155499999999;58.5880012512207;1665662559.026721;-2.7979915142059326;0.28893133997917175;-39.41291809082031
226;1665662559.1975214;46.9764992;7.1791494;58.566001892089844;1665662559.2375379;-1.108912467956543;0.30496832728385925;-39.129119873046875
227;1665662559.395648;46.976503199999996;7.179144399999999;58.557003021240234;1665662559.4415233;-0.22818297147750854;-0.028362104669213295;-38.64836883544922
228;1665662559.6093917;46.9765066;7.179140299999999;58.55900192260742;1665662559.6464818;1.2077380418777466;0.7884485125541687;-38.29860305786133
229;1665662559.8153276;46.976509199999995;7.179137;58.56900405883789;1665662559.8514397;1.3049025535583496;0.25108596682548523;-37.76667785644531
230;1665662560.005648;46.9765113;7.1791344;58.586002349853516;1665662560.0456665;1.7917612791061401;0.8920574188232422;-37.19722366333008
231;1665662560.2135355;46.976512899999996;7.179132399999999;58.596004486083984;1665662560.2584343;1.3553215265274048;0.44489586353302;-36.34321212768555
232;1665662560.4233797;46.9765142;7.179130799999999;58.61100387573242;1665662560.4614398;1.1918123960494995;0.7676875591278076;-35.66644287109375
233;1665662560.8996632;46.9765151;7.1791295999999996;58.630001068115234;1665662560.9103987;0.756191611289978;0.7116482853889465;-35.57183837890625
234;1665662560.999214;46.976515899999995;7.1791287;58.64400100708008;1665662561.0245917;0.31540223956108093;0.41131067276000977;-35.790496826171875
235;1665662561.1485412;46.9765166;7.1791279;58.6670036315918;1665662561.2071028;-16.644786834716797;-1.2804908752441406;-39.50553512573242
236;1665662561.3427658;46.976517799999996;7.1791263;58.755001068115234;1665662561.3730223;-46.695587158203125;1.4227464199066162;-50.894596099853516
237;1665662561.5428467;46.9765206;7.1791218;58.90400314331055;1665662561.5770066;-60.03306198120117;3.622591733932495;-54.649417877197266
238;1665662561.728438;46.976525699999996;7.1791130999999995;59.03600311279297;1665662561.764543;-61.79177474975586;-2.246387243270874;-51.93785858154297
239;1665662561.9382715;46.976532999999996;7.179100099999999;59.14600372314453;1665662561.9802403;-58.118473052978516;0.18130603432655334;-51.762882232666016
240;1665662562.161774;46.9765419;7.1790837;59.24400329589844;1665662562.1978877;-53.99727249145508;5.744640350341797;-49.429832458496094
241;1665662562.3657582;46.9765522;7.179066;59.320003509521484;1665662562.4048;-50.36137390136719;3.3463706970214844;-46.189205169677734
242;1665662562.563886;46.976563399999996;7.179047799999999;59.3650016784668;1665662562.6146393;-47.110870361328125;-1.6126160621643066;-46.980926513671875
243;1665662562.7610419;46.976574899999996;7.179029099999999;59.37800216674805;1665662562.802034;-43.93621826171875;-3.1671066284179688;-50.20273971557617
244;1665662562.9708815;46.976586399999995;7.17901;59.371002197265625;1665662563.0157797;-46.6442756652832;-1.9561179876327515;-51.70589065551758
245;1665662563.1826768;46.976597899999994;7.1789903;59.368003845214844;1665662563.226594;-51.510963439941406;1.6292362213134766;-51.01323318481445
246;1665662563.3993495;46.9766097;7.17897;59.35200119018555;1665662563.4403396;-52.96711730957031;1.3873788118362427;-48.663116455078125
247;1665662563.5935702;46.976622;7.1789492;59.33000183105469;1665662563.6345634;-52.70724105834961;-0.31101012229919434;-48.24244689941406
248;1665662563.8004832;46.9766348;7.1789277;59.310001373291016;1665662563.8463547;-52.28166580200195;-1.3140983581542969;-49.322505950927734
249;1665662564.012273;46.976647799999995;7.1789055;59.288002014160156;1665662564.0522895;-52.16594314575195;-0.776316225528717;-50.26862335205078
250;1665662564.209428;46.9766611;7.178882799999999;59.26900100708008;1665662564.26018;-52.08281707763672;0.3026169538497925;-50.1746711730957
251;1665662564.4143865;46.976674599999996;7.1788596;59.24800109863281;1665662564.4592817;-51.86533737182617;0.6027374863624573;-49.366432189941406
252;1665662564.6252034;46.9766884;7.1788359999999996;59.22700119018555;1665662564.671073;-51.549400329589844;-0.08341682702302933;-48.83050537109375
253;1665662564.8408985;46.9767024;7.178812199999999;59.20900344848633;1665662564.979489;-51.361717224121094;-0.8656618595123291;-49.1242561340332
254;1665662565.1463866;46.976716499999995;7.1787882;59.186004638671875;1665662565.1922603;-51.278141021728516;-0.8551588654518127;-49.79437255859375
255;1665662565.3591511;46.976730599999996;7.1787639;59.16800308227539;1665662565.402096;-51.24972152709961;-0.10978955775499344;-50.13664627075195
256;1665662565.5816815;46.9767449;7.178739299999999;59.14800262451172;1665662565.6382873;-51.1525764465332;0.4817432463169098;-49.773345947265625
257;1665662565.7983513;46.9767592;7.178714599999999;59.130001068115234;1665662565.8432474;-51.069129943847656;0.29299086332321167;-49.166168212890625
258;1665662566.0208795;46.976773699999995;7.178689899999999;59.11600112915039;1665662566.0735855;-47.598876953125;-0.7472132444381714;-48.7735481262207
259;1665662566.2512178;46.976788;7.1786654;59.07600402832031;1665662566.2863529;-31.243200302124023;1.7126634120941162;-50.59748458862305
260;1665662566.4415362;46.976801599999995;7.1786422;59.02100372314453;1665662566.496193;-24.840181350708008;1.8581876754760742;-49.69534683227539
261;1665662566.6484458;46.976814399999995;7.1786205999999995;58.96900177001953;1665662566.6904163;-29.358259201049805;-3.8178884983062744;-47.31182861328125
262;1665662566.8524308;46.9768263;7.1786002;58.91400146484375;1665662566.9090414;-28.668508529663086;-3.817354917526245;-49.87679672241211
263;1665662567.0583668;46.9768373;7.178580999999999;58.85100173950195;1665662567.1100955;-25.74673843383789;-1.1690700054168701;-51.38505554199219
264;1665662567.4009426;46.9768475;7.1785631;58.785003662109375;1665662567.4429107;-22.474687576293945;0.7552845478057861;-50.184356689453125
265;1665662567.6010222;46.9768568;7.1785464999999995;58.720001220703125;1665662567.652752;-19.14404296875;1.4083343744277954;-49.15746307373047
266;1665662567.8069568;46.9768653;7.1785317;58.656002044677734;1665662567.8567355;-15.076746940612793;0.8686879277229309;-48.894412994384766
267;1665662568.019725;46.9768729;7.1785184;58.59700393676758;1665662568.058766;-10.80169677734375;0.017487777397036552;-49.28012466430664
268;1665662568.2315164;46.9768797;7.1785065999999995;58.54600143432617;1665662568.270558;-7.417078018188477;0.25477877259254456;-49.378074645996094
269;1665662568.4433105;46.976885499999995;7.178496399999999;58.50700378417969;1665662568.4794235;-4.270186424255371;0.5131828784942627;-49.02703094482422
270;1665662568.6482701;46.976890499999996;7.1784878;58.483001708984375;1665662568.6873102;-1.5844230651855469;0.5117543339729309;-48.792362213134766
271;1665662568.8512764;46.976894699999995;7.178480599999999;58.47300338745117;1665662568.899101;0.5646927356719971;0.4751599133014679;-48.468345642089844
272;1665662569.0494063;46.976898;7.1784747;58.470001220703125;1665662569.090396;1.2294862270355225;1.113250732421875;-48.26499938964844
273;1665662569.254364;46.976900799999996;7.178470099999999;58.47500228881836;1665662569.2953582;2.342050790786743;0.2920723855495453;-47.87938690185547
274;1665662569.4554193;46.976903;7.1784664;58.48600387573242;1665662569.5081244;2.055485248565674;0.5977059006690979;-47.70521926879883
275;1665662569.6613607;46.9769047;7.178463499999999;58.50400161743164;1665662569.6994188;2.2638862133026123;0.32807812094688416;-47.40253829956055
276;1665662569.868267;46.9769061;7.1784612999999995;58.5260009765625;1665662569.9141395;1.971731424331665;0.2677401006221771;-47.12855911254883
277;1665662570.070299;46.9769071;7.178459699999999;58.551002502441406;1665662570.1093407;1.3512481451034546;0.4081595838069916;-46.90812301635742
278;1665662570.2801387;46.9769078;7.178458399999999;58.57600402832031;1665662570.319182;0.7605363726615906;0.41409599781036377;-46.88131332397461
279;1665662570.481194;46.9769085;7.1784574;58.60200119018555;1665662570.5221875;0.4401523470878601;0.290659636259079;-46.936607360839844
280;1665662570.684202;46.976909;7.1784567;58.6400032043457;1665662570.7330043;3.8884823322296143;7.795226097106934;-43.494537353515625
281;1665662570.8969703;46.9769095;7.178457;58.88300323486328;1665662570.9438176;5.40812873840332;15.237022399902344;-31.991785049438477
282;1665662571.1155968;46.9769102;7.1784588;59.27700424194336;1665662571.1546342;0.11555769294500351;16.548337936401367;-22.162601470947266
283;1665662571.3156767;46.9769113;7.178462;59.69600296020508;1665662571.3605719;-18.940126419067383;36.40289306640625;-13.1287202835083
284;1665662571.5362492;46.976914;7.1784684;60.21900177001953;1665662571.5782194;-42.431976318359375;44.059017181396484;-3.239560127258301
285;1665662571.7539017;46.976919699999996;7.1784798;60.75800323486328;1665662571.7987945;-56.596641540527344;29.441282272338867;8.616430282592773
286;1665662571.990089;46.9769292;7.1784959;61.30400466918945;1665662572.0320578;-55.84718322753906;15.220614433288574;16.34798240661621
287;1665662572.1930962;46.9769413;7.1785137;61.83000183105469;1665662572.240922;-45.694122314453125;16.623737335205078;5.443114280700684
288;1665662572.4136753;46.976954899999996;7.1785315;62.358001708984375;1665662572.452713;-34.44483947753906;25.67990493774414;-7.016778469085693
289;1665662572.6118026;46.9769692;7.1785492;62.853004455566406;1665662572.6479135;-24.075925827026367;43.14836120605469;-2.2828338146209717
290;1665662572.8099277;46.9769832;7.1785679;63.25800323486328;1665662572.8440888;-28.942106246948242;40.043460845947266;18.340177536010742
291;1665662573.0148897;46.9769959;7.1785882999999995;63.6150016784668;1665662573.0607595;-42.38807678222656;14.286460876464844;30.638710021972656
292;1665662573.2296093;46.9770081;7.1786097;63.99700164794922;1665662573.267671;-50.224884033203125;-0.4866350591182709;31.463241577148438
293;1665662573.4374964;46.977021199999996;7.1786305;64.34900665283203;1665662573.474585;-52.100868225097656;2.7655651569366455;32.23206329345703
294;1665662573.6219623;46.9770353;7.1786512;64.67100524902344;1665662573.6600225;-49.5543098449707;6.453301906585693;43.921730041503906
295;1665662573.8269203;46.9770496;7.178672499999999;64.99300384521484;1665662573.867912;-47.26690673828125;1.1474089622497559;53.04802322387695
296;1665662574.0474946;46.977063799999996;7.1786946;65.3280029296875;1665662574.0923939;-47.59428024291992;-9.207684516906738;50.37331771850586
297;1665662574.251482;46.977078399999996;7.1787166;65.6550064086914;1665662574.3002794;-49.2775993347168;-10.521326065063477;41.738285064697266
298;1665662574.4603438;46.9770938;7.1787377;65.96600341796875;1665662574.5013354;-50.50053024291992;-0.03174716606736183;37.593971252441406
299;1665662574.6633508;46.977109899999995;7.1787586;66.26800537109375;1665662574.7095394;-46.561309814453125;9.725293159484863;43.562095642089844
300;1665662574.8715549;46.9771256;7.178779899999999;66.531005859375;1665662574.912545;-28.205368041992188;9.331520080566406;52.79096984863281
301;1665662575.093106;46.977139799999996;7.178801;66.76300048828125;1665662575.1340988;-22.484302520751953;28.819032669067383;43.4031982421875
302;1665662575.2902582;46.977151899999996;7.1788219;66.99400329589844;1665662575.3371058;-32.79587936401367;-7.1393327713012695;53.0867919921875
303;1665662575.5030274;46.9771632;7.1788419;67.22100067138672;1665662575.543042;-28.487043380737305;-33.02386474609375;44.99772262573242
304;1665662575.6933458;46.9771749;7.1788589;67.3790054321289;1665662575.738241;-29.123754501342773;-17.948753356933594;31.381288528442383
305;1665662575.899283;46.9771868;7.1788734;67.51100158691406;1665662575.94613;-21.73299789428711;0.5778775811195374;35.22737121582031
306;1665662576.0964346;46.977198099999995;7.1788864;67.62100219726562;1665662576.1452358;-18.11637306213379;7.592090606689453;45.53813934326172
307;1665662576.3062751;46.9772082;7.1788985;67.71100616455078;1665662576.3589787;-15.9771146774292;6.67070198059082;47.78680419921875
308;1665662576.5248976;46.977216999999996;7.1789099;67.80000305175781;1665662576.5688176;-12.74460506439209;3.176832675933838;45.71327590942383
309;1665662576.7318077;46.9772247;7.1789203;67.88500213623047;1665662576.7728024;-9.111418724060059;1.5233358144760132;44.65379333496094
310;1665662576.94653;46.9772313;7.1789295;67.95700073242188;1665662576.99045;-5.791048049926758;1.442412257194519;45.195091247558594
311;1665662577.1592972;46.9772369;7.178937599999999;68.02300262451172;1665662577.2012649;-3.035767078399658;1.5526374578475952;45.912052154541016
312;1665662577.36133;46.9772416;7.1789445;68.08900451660156;1665662577.403296;-1.0301265716552734;1.4345016479492188;46.252197265625
313;1665662578.0113435;46.977245499999995;7.1789502999999995;68.15800476074219;1665662578.0523348;0.44562309980392456;1.1471949815750122;46.42509460449219
314;1665662578.215326;46.977248599999996;7.178954999999999;68.22500610351562;1665662578.2563193;1.4758273363113403;0.8964182138442993;46.52457046508789
315;1665662578.4105272;46.9772511;7.1789589;68.28700256347656;1665662578.45152;1.9002686738967896;0.6953128576278687;46.54082107543945
316;1665662578.61451;46.977253;7.178961999999999;68.35000610351562;1665662578.6564786;2.1006276607513428;0.4976559281349182;46.42643737792969
317;1665662578.8155656;46.9772545;7.1789644;68.40800476074219;1665662578.8565614;1.9823869466781616;0.19582772254943848;46.0358772277832
318;1665662579.0215027;46.9772556;7.1789663;68.46400451660156;1665662579.064445;1.4919990301132202;-0.05204901844263077;45.44575500488281
319;1665662579.235249;46.977256399999995;7.1789676;68.51300048828125;1665662579.278189;0.9580508470535278;-0.13655392825603485;45.29531478881836
320;1665662579.4450877;46.977256999999994;7.1789686999999995;68.5570068359375;1665662579.48608;0.4084150791168213;-0.10756838321685791;45.45170593261719
321;1665662579.6363816;46.9772575;7.1789695;68.59600067138672;1665662579.6764395;1.6798015832901;5.080317497253418;46.941768646240234
322;1665662579.8433375;46.977257599999994;7.1789703;68.6500015258789;1665662579.889208;7.888941287994385;19.813838958740234;57.0584831237793
323;1665662580.0453696;46.9772569;7.1789714;68.70899963378906;1665662580.0873365;-5.150167465209961;25.285045623779297;67.39215087890625
324;1665662580.2473996;46.9772548;7.1789735;68.82300567626953;1665662580.3010914;-27.18023681640625;40.753944396972656;77.79765319824219
325;1665662580.4611435;46.9772508;7.178978099999999;68.97700500488281;1665662580.5031116;-47.46586227416992;37.252708435058594;89.39571380615234
326;1665662580.6602497;46.9772445;7.1789862;69.11400604248047;1665662580.7012413;-57.96047592163086;20.30584144592285;103.57373046875
327;1665662580.861302;46.977236399999995;7.1789982;69.23200225830078;1665662580.9091268;-57.57600402832031;11.761459350585938;113.6856460571289
328;1665662581.083831;46.9772269;7.179013599999999;69.3280029296875;1665662581.1248248;-54.00404739379883;11.641719818115234;121.80402374267578
329;1665662581.2858627;46.977216299999995;7.1790306;69.406005859375;1665662581.3307595;-50.873199462890625;5.2159600257873535;129.65220642089844
330;1665662581.482038;46.977204799999996;7.1790487;69.45700073242188;1665662581.5357177;-48.40766525268555;-0.3635145127773285;120.4968490600586
331;1665662581.6918771;46.9771934;7.179067799999999;69.47600555419922;1665662581.7348218;-44.212852478027344;7.188522815704346;98.96851348876953
332;1665662581.903672;46.9771826;7.1790878;69.45100402832031;1665662581.9505186;-35.80416488647461;18.398731231689453;83.84198760986328
333;1665662582.1213176;46.977172599999996;7.179107999999999;69.40299987792969;1665662582.1671908;-28.45610809326172;26.481107711791992;78.7788314819336
334;1665662582.4570627;46.977162799999995;7.1791282999999995;69.4070053100586;1665662582.502934;-38.513465881347656;36.83359909057617;87.9719009399414
335;1665662582.9089482;46.9771523;7.1791485999999995;69.41699981689453;1665662582.9557998;-53.7075080871582;36.35490798950195;106.33397674560547
336;1665662583.1148858;46.97714;7.1791689;69.39100646972656;1665662583.1519747;-60.40122604370117;17.107603073120117;123.77068328857422
337;1665662583.3110602;46.9771261;7.1791896;69.34200286865234;1665662583.3491254;-50.905521392822266;-3.0356311798095703;131.50540161132812
338;1665662583.5130916;46.9771119;7.1792111;69.31500244140625;1665662583.5697014;-46.19389343261719;-9.44572925567627;130.6134490966797
339;1665662583.7356193;46.9770981;7.179233399999999;69.3080062866211;1665662583.7854004;-49.38218688964844;-6.216744899749756;129.9224090576172
340;1665662583.9337494;46.9770849;7.1792564;69.28400421142578;1665662583.9766912;-51.07082748413086;-1.5033951997756958;130.29652404785156
341;1665662584.1406608;46.977071699999996;7.1792798;69.25200653076172;1665662584.1806755;-51.072837829589844;-0.2003735899925232;131.8097686767578
342;1665662584.3368356;46.9770584;7.179303399999999;69.22500610351562;1665662584.3768523;-50.99580383300781;-1.5196298360824585;132.10891723632812
343;1665662584.5349655;46.977044899999996;7.1793271999999995;69.2020034790039;1665662584.5896215;-51.165504455566406;-2.5748350620269775;130.54739379882812
344;1665662584.7428505;46.9770314;7.1793514;69.1780014038086;1665662584.7867732;-51.39265823364258;-1.5107331275939941;128.6587371826172
345;1665662584.959523;46.9770179;7.1793759999999995;69.1570053100586;1665662585.0034463;-51.40837478637695;0.7419634461402893;128.33108520507812
346;1665662585.1693618;46.9770043;7.1794006999999995;69.1290054321289;1665662585.209378;-45.688270568847656;1.1939536333084106;130.16148376464844
347;1665662585.3850596;46.9769909;7.1794251;69.07300567626953;1665662585.4358153;-29.790380477905273;5.608062744140625;129.94667053222656
348;1665662585.6876192;46.9769778;7.1794478999999995;69.01300048828125;1665662585.7373939;-26.84491539001465;10.431548118591309;129.0583953857422
349;1665662585.9052653;46.976965299999996;7.1794687999999995;68.96300506591797;1665662585.9472344;-29.546663284301758;-10.807605743408203;137.3635711669922
350;1665662586.1160898;46.976953699999996;7.179488699999999;68.9070053100586;1665662586.156097;-27.712055206298828;-10.072352409362793;130.0196533203125
351;1665662586.3044493;46.9769432;7.1795078;68.84200286865234;1665662586.3542254;-24.91493797302246;-3.3730969429016113;125.93824768066406
352;1665662586.5103855;46.9769338;7.1795257999999995;68.7760009765625;1665662586.5523546;-21.996801376342773;1.4800951480865479;128.67526245117188
353;1665662586.7368171;46.976925099999995;7.1795423;68.70899963378906;1665662586.7680478;-18.786867141723633;3.3428521156311035;131.41885375976562
354;1665662586.9339688;46.9769171;7.179557099999999;68.64200592041016;1665662586.9798415;-14.8712797164917;2.6303939819335938;131.656005859375
355;1665662587.1467395;46.9769098;7.1795702;68.58200073242188;1665662587.1906588;-10.790997505187988;1.334995985031128;130.97943115234375
356;1665662587.368289;46.9769033;7.179581799999999;68.53300476074219;1665662587.4024498;-7.434867858886719;1.1874911785125732;130.57431030273438
357;1665662587.5556798;46.9768975;7.1795917;68.49700164794922;1665662587.6015534;-3.6344215869903564;0.3533425033092499;130.82943725585938
358;1665662587.7655985;46.9768926;7.1796;68.46500396728516;1665662587.8056154;-1.3845363855361938;0.6804611682891846;130.85153198242188
359;1665662587.9861765;46.9768885;7.1796069;68.44900512695312;1665662588.02619;0.2707931101322174;0.6457720398902893;130.7629852294922
360;1665662588.9441757;46.9768852;7.179612499999999;68.44700622558594;1665662588.9910266;1.6112526655197144;0.13541723787784576;130.66917419433594
361;1665662589.1520653;46.976882499999995;7.1796169999999995;68.4530029296875;1665662589.1998894;2.006911277770996;0.3339557647705078;130.32879638671875
362;1665662589.3716655;46.9768803;7.1796206;68.46600341796875;1665662589.416558;2.3569185733795166;0.10030186176300049;130.146484375
363;1665662589.5746756;46.9768787;7.1796234;68.48500061035156;1665662589.6176145;2.2916736602783203;-0.13489395380020142;129.83644104003906
364;1665662589.7884154;46.9768774;7.1796254;68.50700378417969;1665662589.8274539;1.4877254962921143;0.2335464358329773;129.50830078125
365;1665662589.9836144;46.976876499999996;7.179627;68.52900695800781;1665662590.0216796;0.9962754845619202;0.05113471671938896;129.2247772216797
366;1665662590.1895506;46.9768757;7.1796282;68.552001953125;1665662590.231519;0.42898547649383545;0.07185712456703186;129.25006103515625
367;1665662590.3876774;46.9768751;7.1796292;68.5780029296875;1665662590.4286706;0.05561326816678047;0.30788207054138184;129.3763427734375
368;1665662590.588734;46.976874599999995;7.179629899999999;68.5790023803711;1665662590.63656;9.387236595153809;9.959653854370117;133.39373779296875
369;1665662590.795655;46.9768742;7.1796301;68.43600463867188;1665662590.8415277;9.013978004455566;11.869304656982422;143.69252014160156
370;1665662590.997688;46.9768738;7.1796292;68.27900695800781;1665662591.0455127;-5.021627426147461;27.617013931274414;156.45069885253906
371;1665662591.7144845;46.9768726;7.1796264;68.21700286865234;1665662591.7584038;-26.36557960510254;39.30659866333008;167.05775451660156
372;1665662591.9204218;46.97687;7.1796213;68.17900085449219;1665662591.9653182;-40.53080749511719;32.359649658203125;-179.00210571289062
373;1665662592.115621;46.976866;7.1796142;68.08800506591797;1665662592.1585648;-35.53703308105469;22.54851531982422;-167.84246826171875
374;1665662592.319604;46.9768611;7.179606;67.94000244140625;1665662592.3586435;-25.01824378967285;11.087592124938965;-161.88050842285156
375;1665662592.5967896;46.976855799999996;7.1795974;67.76300048828125;1665662592.6651082;-26.372344970703125;7.451594352722168;-156.0955047607422
376;1665662592.819316;46.976850299999995;7.179588799999999;67.59700012207031;1665662592.8662012;-31.00132942199707;5.400631904602051;-146.78457641601562
377;1665662593.0232997;46.9768445;7.17958;67.4320068359375;1665662593.0720997;-32.85812759399414;1.2850065231323242;-137.2066192626953
378;1665662593.2292356;46.9768384;7.1795709;67.26900482177734;1665662593.2770612;-32.61820602416992;-3.3631129264831543;-129.5528564453125
379;1665662593.4488356;46.976831999999995;7.1795615999999995;67.10800170898438;1665662593.4908025;-32.16463088989258;-5.565865993499756;-129.68092346191406
380;1665662593.63818;46.9768255;7.1795523;66.94600677490234;1665662593.6801493;-32.08929443359375;-4.733231544494629;-133.5062255859375
381;1665662593.844117;46.9768186;7.1795428999999995;66.77200317382812;1665662593.8880355;-32.037261962890625;-2.988931179046631;-135.47035217285156
382;1665662594.039314;46.9768116;7.1795336;66.59300231933594;1665662594.083236;-31.903182983398438;-1.5536118745803833;-135.636474609375
383;1665662594.2475603;46.9768044;7.1795243;66.41200256347656;1665662594.2846441;-31.939546585083008;-0.5611579418182373;-135.4595184326172
384;1665662594.4486146;46.9767972;7.1795148;66.22900390625;1665662594.4915552;-32.00613021850586;0.03121037781238556;-135.44873046875
385;1665662594.6555233;46.97679;7.1795053;66.04700469970703;1665662594.696518;-32.08284378051758;0.3994327187538147;-135.53651428222656
386;1665662594.850726;46.976782799999995;7.1794956;65.86400604248047;1665662594.8946438;-32.09786605834961;0.6342111825942993;-135.59539794921875
387;1665662595.0635345;46.976775599999996;7.179485799999999;65.68400573730469;1665662595.1103842;-32.09727096557617;0.7095056772232056;-135.63072204589844
388;1665662595.2675178;46.9767684;7.1794759;65.49800109863281;1665662595.3172948;-32.051231384277344;0.7827028036117554;-135.67173767089844
389;1665662595.4890711;46.9767612;7.179465899999999;65.31100463867188;1665662595.5359178;-31.92527198791504;0.8424796462059021;-135.68394470214844
390;1665662595.6979358;46.976754;7.1794557999999995;65.12200164794922;1665662595.7389288;-31.91323471069336;0.7845652103424072;-135.6956329345703
391;1665662595.9087527;46.9767468;7.179445599999999;64.9320068359375;1665662595.9516943;-31.82790756225586;0.7284709811210632;-135.73252868652344
392;1665662596.1098077;46.976739699999996;7.1794354;64.74500274658203;1665662596.1566525;-31.932863235473633;0.6723296046257019;-135.7682342529297
393;1665662596.5883265;46.9767325;7.1794252;64.56100463867188;1665662596.6381004;-31.931396484375;0.5481452941894531;-135.7736358642578
394;1665662596.7991433;46.9767254;7.179414899999999;64.37800598144531;1665662596.8450122;-31.96965217590332;0.49335744976997375;-135.82949829101562
395;1665662597.0489955;46.9767182;7.1794046;64.18700408935547;1665662597.086117;-32.00338363647461;0.46683189272880554;-135.86119079589844
396;1665662597.2490819;46.976710999999995;7.1793942;63.99500274658203;1665662597.29007;-31.979114532470703;0.3478521704673767;-135.86795043945312
397;1665662597.450134;46.976703799999996;7.1793838999999995;63.79700469970703;1665662597.4872186;-32.02104568481445;0.3271673917770386;-135.90753173828125
398;1665662597.6394765;46.9766966;7.1793735;63.59800338745117;1665662597.6853487;-32.025962829589844;0.2981627285480499;-135.91351318359375
399;1665662597.8473642;46.9766894;7.1793632;63.406002044677734;1665662597.8893301;-32.09804153442383;0.25657033920288086;-135.94622802734375
400;1665662598.0425642;46.9766822;7.179352799999999;63.215003967285156;1665662598.089414;-32.07912063598633;0.19863590598106384;-135.96511840820312
401;1665662598.2494755;46.976675;7.1793423999999995;63.02400207519531;1665662598.289491;-32.052734375;0.17332065105438232;-135.98712158203125
402;1665662598.6545153;46.9766678;7.1793321;62.83000183105469;1665662598.6984375;-32.0245361328125;0.18843309581279755;-136.0054168701172
403;1665662598.8565574;46.9766605;7.1793217;62.6410026550293;1665662599.0430136;-32.02157974243164;0.19454853236675262;-136.02099609375
404;1665662599.1884375;46.976653299999995;7.1793115;62.44600296020508;1665662599.2264996;-32.043678283691406;0.24351507425308228;-136.01852416992188
405;1665662599.3855884;46.976645999999995;7.179301199999999;62.24900436401367;1665662599.424629;-32.094871520996094;0.3257817327976227;-136.01504516601562
406;1665662599.599334;46.976638699999995;7.1792909;62.05600357055664;1665662599.6403232;-32.114837646484375;0.35835501551628113;-135.99766540527344
407;1665662599.7994134;46.976631499999996;7.179280599999999;61.862003326416016;1665662599.8433309;-32.05791473388672;0.3471742570400238;-136.0072479248047
408;1665662600.0931883;46.976624199999996;7.1792703;61.67000198364258;1665662600.1468687;-32.01680374145508;0.2763606905937195;-136.04127502441406
409;1665662600.286437;46.976617;7.1792599;61.47500228881836;1665662600.3274293;-32.025779724121094;0.24019959568977356;-136.0548553466797
410;1665662600.4923708;46.9766097;7.1792495;61.28300476074219;1665662600.5314105;-32.001060485839844;0.2025812864303589;-136.0804901123047
411;1665662600.6846452;46.9766025;7.1792392;61.08900451660156;1665662600.728564;-31.979312896728516;0.16508331894874573;-136.11148071289062
412;1665662600.9188821;46.9765952;7.1792289;60.89900207519531;1665662600.9628034;-32.00673294067383;0.2403077632188797;-136.16452026367188
413;1665662601.1179857;46.9765879;7.179218499999999;60.70900344848633;1665662601.1570299;-31.98299789428711;0.32339388132095337;-136.16578674316406
414;1665662601.3122187;46.9765806;7.179208099999999;60.5150032043457;1665662601.35125;-31.881792068481445;0.22910712659358978;-136.1638946533203
415;1665662601.5035055;46.9765734;7.1791978;60.31900405883789;1665662601.5493777;-31.83940315246582;0.211411252617836;-136.24237060546875
416;1665662601.7006593;46.9765662;7.179187499999999;60.11600112915039;1665662601.8392534;-19.70275115966797;0.13298757374286652;-136.14984130859375
417;1665662602.006145;46.9765593;7.1791778;59.90300369262695;1665662602.0471396;-10.933428764343262;-0.062211208045482635;-136.38568115234375
418;1665662602.214034;46.9765531;7.179169;59.70600128173828;1665662602.5656464;-10.16834831237793;0.19979393482208252;-136.4144744873047
419;1665662602.7159529;46.976547599999996;7.1791614;59.53300094604492;1665662602.7667055;-9.213468551635742;0.47830429673194885;-136.4189453125
420;1665662602.929696;46.9765428;7.1791545;59.37800216674805;1665662602.9706867;-6.853255271911621;0.5623834133148193;-136.45175170898438
