;pos_time;latitude;longitude;altitude;alt_time;pitch;roll;yaw
0;1665166242.8530724;46.9755343;7.1803558;0.0020000000949949026;1665166243.4608378;0.11847443878650665;-0.21222279965877533;90.56016540527344
1;1665166243.579908;46.9755343;7.1803558;0.0;1665166243.6706777;0.026867520064115524;-0.0845300704240799;90.32435607910156
2;1665166243.7878015;46.9755343;7.1803558;-0.00800000037997961;1665166243.8814971;-0.07814273238182068;-0.1761316955089569;90.33456420898438
3;1665166244.0005717;46.9755343;7.1803558999999995;-0.013000000268220901;1665166244.0893888;0.020346932113170624;-0.2015552669763565;90.30015563964844
4;1665166244.2074885;46.9755343;7.1803558999999995;-0.017000000923871994;1665166244.2943554;0.118431955575943;-0.25424203276634216;90.31951904296875
5;1665166244.465159;46.9755343;7.1803558;-0.020000001415610313;1665166244.5666606;-0.026312680914998055;-0.1158922016620636;90.30091857910156
6;1665166244.6867101;46.9755343;7.1803558;-0.023000001907348633;1665166244.8087127;0.21129292249679565;-0.32149356603622437;90.29289245605469
7;1665166244.9307153;46.9755343;7.1803558;-0.024000000208616257;1665166245.0224617;0.006820937152951956;-0.14578185975551605;90.17516326904297
8;1665166245.14739;46.9755344;7.1803558;-0.020000001415610313;1665166245.2469432;0.039771996438503265;-0.13569676876068115;90.2758560180664
9;1665166245.3733652;46.9755344;7.1803558;-0.01600000075995922;1665166245.4748685;0.07876165211200714;-0.17224054038524628;90.1612548828125
10;1665166245.5949216;46.9755344;7.1803558;-0.013000000268220901;1665166245.6847153;0.017636915668845177;-0.14483721554279327;90.22419738769531
11;1665166245.8115978;46.9755344;7.1803557;-0.01100000087171793;1665166245.8994381;0.2015877366065979;-0.14327706396579742;90.27778625488281
12;1665166246.0146086;46.9755344;7.1803557;-0.010000000707805157;1665166246.107328;-0.04119151085615158;-0.08204078674316406;90.26290130615234
13;1665166246.2215204;46.9755344;7.1803558;-0.0010000000474974513;1665166246.328885;0.044727202504873276;-0.23202218115329742;90.20098876953125
14;1665166246.447958;46.9755344;7.1803558;-0.0010000000474974513;1665166246.5338488;0.19429261982440948;-0.024848857894539833;90.13379669189453
15;1665166246.6519442;46.9755344;7.1803558;-0.0020000000949949026;1665166246.7466178;0.03260290250182152;-0.07788659632205963;90.15713500976562
16;1665166246.8783815;46.9755344;7.1803557;-0.004000000189989805;1665166246.9847658;0.23015494644641876;-0.2280023992061615;90.35334014892578
17;1665166247.1038408;46.9755343;7.1803558;-0.006000000052154064;1665166247.1907048;0.21216359734535217;-0.14160238206386566;90.31327056884766
18;1665166247.2990434;46.9755343;7.1803558;-0.00800000037997961;1665166247.3947005;-0.0576932355761528;-0.23185929656028748;90.25405883789062
19;1665166247.5206025;46.9755343;7.1803558;-0.01100000087171793;1665166247.605511;-0.0823911502957344;-0.1916697919368744;90.24015045166016
20;1665166247.7167773;46.9755343;7.1803558999999995;-0.010000000707805157;1665166247.8221872;0.1217249408364296;-0.0730019211769104;90.22159576416016
21;1665166247.948093;46.9755343;7.1803558999999995;-0.009000000543892384;1665166248.0495996;0.016998572275042534;-0.22466881573200226;90.19377136230469
22;1665166248.1760235;46.9755343;7.1803558999999995;0.0;1665166248.2648404;0.0645894780755043;-0.10242811590433121;89.86931610107422
23;1665166248.3887947;46.9755343;7.1803558999999995;0.0;1665166248.4912746;0.006855808664113283;-0.16356144845485687;89.92601776123047
24;1665166248.6054673;46.9755343;7.1803558999999995;0.004000000189989805;1665166248.699168;0.1376965194940567;-0.19927296042442322;90.31134033203125
25;1665166248.8133636;46.9755343;7.1803558999999995;0.003000000026077032;1665166248.9031544;0.15284521877765656;-0.2480703443288803;90.31639862060547
26;1665166249.029059;46.9755342;7.1803558999999995;-0.0010000000474974513;1665166249.1276379;0.06314762681722641;-0.26185688376426697;90.36737060546875
27;1665166249.2457435;46.9755342;7.1803558999999995;-0.0020000000949949026;1665166249.3296812;0.1010330319404602;-0.25056108832359314;90.39295959472656
28;1665166249.4453633;46.9755342;7.1803558999999995;-0.004000000189989805;1665166249.5385945;0.19735194742679596;-0.17448769509792328;90.34976196289062
29;1665166249.664038;46.9755342;7.1803558999999995;-0.0020000000949949026;1665166249.7811618;0.46262943744659424;-0.05991208180785179;90.35356903076172
30;1665166249.9148755;46.9755342;7.1803558;0.0;1665166250.005644;0.8380243182182312;-0.5870794057846069;90.36204528808594
31;1665166250.1188629;46.9755343;7.1803558;0.024000000208616257;1665166250.2154877;0.28626757860183716;-0.27556943893432617;90.35054016113281
32;1665166250.33944;46.9755343;7.1803557;0.07200000435113907;1665166250.423377;0.05566657707095146;-0.08070921152830124;90.35086059570312
33;1665166250.5551412;46.9755344;7.1803557;0.14900000393390656;1665166250.6478634;0.06055012345314026;0.009713493287563324;90.31841278076172
34;1665166250.7796254;46.9755344;7.1803557;0.27800002694129944;1665166250.8586907;0.06168276071548462;0.0654529333114624;90.28646087646484
35;1665166250.9728773;46.9755344;7.1803557;0.4230000078678131;1665166251.0607169;0.12561193108558655;-0.01187160424888134;90.27079772949219
36;1665166251.1836967;46.9755344;7.1803558;0.5940000414848328;1665166251.268608;0.10213366895914078;0.004193142056465149;90.26385498046875
37;1665166251.3906095;46.9755344;7.1803558;0.7880000472068787;1665166251.4725955;0.11588647961616516;-0.03772919997572899;90.24848175048828
38;1665166251.5828853;46.9755344;7.1803558;1.0070000886917114;1665166251.7009833;0.09404204040765762;-0.07527005672454834;90.2380599975586
39;1665166251.7995589;46.9755344;7.1803558;1.253000020980835;1665166251.8786209;0.06921865046024323;-0.0920853316783905;90.2388687133789
40;1665166252.0015957;46.9755343;7.1803558;1.5230001211166382;1665166252.1060278;0.05272851139307022;-0.1780175119638443;90.38737487792969
41;1665166252.2231498;46.9755343;7.1803558999999995;1.8000000715255737;1665166252.310994;0.059963442385196686;-0.25139540433883667;90.43421936035156
42;1665166252.427139;46.9755343;7.1803558999999995;2.075000047683716;1665166252.5159557;0.16985471546649933;-0.25311166048049927;90.39187622070312
43;1665166252.6399088;46.9755343;7.180356;2.3540000915527344;1665166252.7170136;0.21288950741291046;-0.15534181892871857;90.3738784790039
44;1665166252.8341377;46.9755343;7.180356;2.638000011444092;1665166252.9180741;0.2197754681110382;-0.16716021299362183;90.3246078491211
45;1665166253.0361705;46.9755343;7.180356;2.9240000247955322;1665166253.1279163;0.2917579412460327;-0.1980242282152176;90.32064819335938
46;1665166253.2323515;46.9755343;7.1803561;3.2160000801086426;1665166253.3192208;0.23810061812400818;-0.16634534299373627;90.3427505493164
47;1665166253.4519532;46.9755343;7.1803561;3.51200008392334;1665166253.544678;0.32950907945632935;-0.2203664779663086;90.35021209716797
48;1665166253.6539886;46.9755343;7.1803561;3.811000108718872;1665166253.7398796;0.42988622188568115;-0.3541692793369293;90.34990692138672
49;1665166253.867736;46.9755343;7.1803561;4.109000205993652;1665166253.9506972;0.4893820583820343;-0.24623458087444305;90.36158752441406
50;1665166254.071725;46.9755343;7.1803561;4.404000282287598;1665166254.165422;0.41320493817329407;-0.21783290803432465;90.33814239501953
51;1665166254.2932806;46.9755343;7.1803561;4.703999996185303;1665166254.3811204;0.2988850772380829;-0.24479342997074127;90.31636810302734
52;1665166254.5109308;46.9755344;7.180356;5.008000373840332;1665166254.619269;0.29351696372032166;-0.22063718736171722;90.2848129272461
53;1665166254.729558;46.9755344;7.1803558999999995;5.326000213623047;1665166254.817401;0.12263503670692444;-0.12251599133014679;90.28572082519531
54;1665166255.034077;46.9755344;7.1803558999999995;5.624000072479248;1665166255.1199646;0.15197426080703735;-0.1990245282649994;90.2944107055664
55;1665166255.2331834;46.9755344;7.1803558;5.933000087738037;1665166255.3141923;0.14145967364311218;-0.2305980622768402;90.2874984741211
56;1665166255.4430254;46.9755344;7.1803558;6.246000289916992;1665166255.5377004;0.1810988336801529;-0.17775727808475494;90.29724884033203
57;1665166255.647015;46.9755344;7.1803558;6.555000305175781;1665166255.730951;0.18228453397750854;-0.24862700700759888;90.307373046875
58;1665166255.8549037;46.9755344;7.1803558;6.868000507354736;1665166255.9505548;0.1690276563167572;-0.13412973284721375;90.3053970336914
59;1665166256.1701562;46.9755344;7.1803558;7.193000316619873;1665166256.253117;0.22637620568275452;-0.09103536605834961;90.31092834472656
60;1665166256.3692636;46.9755344;7.1803558;7.49500036239624;1665166256.5673966;0.15221107006072998;-0.03154010325670242;90.32440948486328
61;1665166256.684517;46.9755344;7.1803558;7.807000160217285;1665166256.7791922;0.10645243525505066;-0.09569481760263443;90.32637786865234
62;1665166256.9176092;46.9755344;7.1803558;8.123000144958496;1665166256.9986162;0.17943981289863586;-0.06007922813296318;90.34002685546875
63;1665166257.1196446;46.9755344;7.1803558;8.43600082397461;1665166257.20651;0.131942480802536;-0.07792500406503677;90.33721923828125
64;1665166257.3363166;46.9755344;7.1803558;8.75;1665166257.425136;0.0870574489235878;-0.013460136950016022;90.32003021240234
65;1665166257.5344498;46.9755344;7.1803558;9.069000244140625;1665166257.6193612;0.16875030100345612;-0.10429646819829941;90.32371520996094
66;1665166257.7745483;46.9755344;7.1803558;9.385000228881836;1665166257.9726822;0.1795361042022705;-0.12829037010669708;90.30598449707031
67;1665166258.092729;46.9755344;7.1803558999999995;9.699000358581543;1665166258.183499;0.17903223633766174;-0.1331307590007782;90.30522155761719
68;1665166258.2986681;46.9755344;7.1803558999999995;10.01300048828125;1665166258.3913894;0.1842750757932663;-0.10985390841960907;90.31224822998047
69;1665166258.613924;46.9755343;7.1803558999999995;10.331000328063965;1665166258.7154288;0.2616555988788605;-0.18119613826274872;90.30919647216797
70;1665166258.8403597;46.9755343;7.180356;10.700000762939453;1665166258.9321053;0.26565128564834595;-0.1436283439397812;90.30377197265625
71;1665166259.0648408;46.9755343;7.180356;11.112000465393066;1665166259.1556118;0.16380013525485992;-0.12437855452299118;90.32027435302734
72;1665166259.2727323;46.9755343;7.180356;11.632000923156738;1665166259.3547187;0.06280588358640671;-0.18684209883213043;90.31028747558594
73;1665166259.8766112;46.9755343;7.180356;12.205000877380371;1665166259.9644525;0.12827996909618378;-0.02287943847477436;90.30683135986328
74;1665166260.0825496;46.9755343;7.180356;12.796000480651855;1665166260.165515;0.10584572702646255;-0.027165113016963005;90.32974243164062
75;1665166260.300202;46.9755343;7.180356;13.40000057220459;1665166260.3997543;0.1630266308784485;-0.08225156366825104;90.31401824951172
76;1665166260.5246851;46.9755343;7.180356;13.970000267028809;1665166260.613506;0.10054831951856613;0.017327938228845596;90.32679748535156
77;1665166260.733552;46.9755343;7.180356;14.5260009765625;1665166260.8262749;-0.0411045178771019;-0.09996464103460312;90.32585144042969
78;1665166260.9533818;46.9755343;7.180356;15.110000610351562;1665166261.0675752;0.1303372085094452;-0.04613175615668297;90.32646179199219
79;1665166261.1739597;46.9755342;7.1803561;15.701001167297363;1665166261.2676578;0.276061087846756;-0.10941994935274124;90.33019256591797
80;1665166261.3779464;46.9755342;7.180356199999999;16.29400062561035;1665166261.4706707;0.21939563751220703;-0.10758794844150543;90.32543182373047
81;1665166261.5936453;46.9755342;7.180356199999999;16.88800048828125;1665166261.686369;0.253934770822525;-0.14221422374248505;90.32987213134766
82;1665166261.8015373;46.9755342;7.1803563;17.477001190185547;1665166261.8893795;0.2707849144935608;-0.15048512816429138;90.32600402832031
83;1665166262.0211449;46.9755342;7.1803563;18.06300163269043;1665166262.1070323;0.23145674169063568;-0.13234376907348633;90.30896759033203
84;1665166262.2163458;46.9755341;7.1803563;18.652000427246094;1665166262.310042;0.1682305485010147;-0.15996044874191284;90.30951690673828
85;1665166262.424241;46.9755341;7.1803563;19.243000030517578;1665166262.5198853;0.17435643076896667;-0.2281801998615265;90.31446838378906
86;1665166262.6282237;46.9755341;7.1803563;19.83500099182129;1665166262.721925;0.27780115604400635;-0.3150446116924286;90.32947540283203
87;1665166262.833185;46.9755341;7.1803564;20.431001663208008;1665166262.9180987;0.35146376490592957;-0.22689031064510345;90.3028564453125
88;1665166263.5404334;46.9755341;7.1803564;21.023000717163086;1665166263.6272995;0.22953788936138153;-0.29339006543159485;90.32794189453125
89;1665166263.8351896;46.9755341;7.1803564;21.60900115966797;1665166263.925962;0.1441747546195984;-0.2368488609790802;90.34063720703125
90;1665166264.0362513;46.9755341;7.1803564;22.19500160217285;1665166264.1397142;0.13588334619998932;-0.14925989508628845;90.33690643310547
91;1665166264.255853;46.9755342;7.1803564;22.7810001373291;1665166264.3500748;0.23985520005226135;-0.16468843817710876;90.34056091308594
92;1665166264.484767;46.9755342;7.1803564;23.36600112915039;1665166264.5745592;0.17666083574295044;-0.15819817781448364;90.32807922363281
93;1665166264.7004654;46.9755342;7.1803564;23.953001022338867;1665166264.7853806;0.1835370659828186;-0.272804856300354;90.33305358886719
94;1665166264.904454;46.9755342;7.1803564;24.53700065612793;1665166264.9864373;0.23564930260181427;-0.31404197216033936;90.32807922363281
95;1665166265.1103919;46.9755342;7.180356499999999;25.125001907348633;1665166265.2001867;0.17390362918376923;-0.31277626752853394;90.31218719482422
96;1665166265.3319473;46.9755342;7.1803564;25.71200180053711;1665166265.4110043;0.06717366725206375;-0.2525976598262787;90.30890655517578
97;1665166265.5339813;46.9755342;7.1803564;26.296001434326172;1665166265.6276777;0.1082770973443985;-0.2694731652736664;90.32621002197266
98;1665166265.740897;46.9755342;7.180356499999999;26.881000518798828;1665166265.83557;0.28129544854164124;-0.2561793029308319;90.33606719970703
99;1665166265.9673357;46.9755343;7.180356499999999;27.468000411987305;1665166266.04444;0.30613189935684204;-0.15800349414348602;90.33494567871094
100;1665166266.155706;46.9755343;7.1803566;28.051000595092773;1665166266.2503767;0.2694339454174042;-0.12274101376533508;90.33929443359375
101;1665166266.3645701;46.9755343;7.1803566;28.66200065612793;1665166266.4582696;0.3609723746776581;-0.16911198198795319;90.34178161621094
102;1665166266.5734396;46.9755344;7.1803566;29.23000144958496;1665166266.6593275;0.2883400619029999;-0.1436600536108017;90.3356704711914
103;1665166266.7666917;46.9755344;7.1803566;29.82600212097168;1665166266.8623378;0.3108373284339905;-0.11324921250343323;90.33718872070312
104;1665166266.9726298;46.9755344;7.1803566;30.428001403808594;1665166267.0575418;0.3516217768192291;-0.026970496401190758;90.34396362304688
105;1665166267.1756387;46.9755344;7.1803566;31.029001235961914;1665166267.2683685;0.3249180316925049;-0.007133313454687595;90.332275390625
106;1665166267.3864577;46.9755344;7.1803566;31.632001876831055;1665166267.470397;0.3617616891860962;-0.06364763528108597;90.31977844238281
107;1665166267.5797093;46.975534499999995;7.1803567;32.23400115966797;1665166267.6724331;0.3887919485569;0.01957293041050434;90.30561828613281
108;1665166267.8002894;46.975534499999995;7.1803567;32.83400344848633;1665166267.8969152;0.37265655398368835;-0.005531703121960163;90.30672454833984
109;1665166268.0130622;46.9755344;7.1803566;33.42900085449219;1665166268.0999258;0.22878088057041168;-0.10027741640806198;90.30504608154297
110;1665166268.2316897;46.9755344;7.180356499999999;34.034000396728516;1665166268.309771;0.25575724244117737;-0.10763131082057953;90.30662536621094
111;1665166268.425916;46.975534499999995;7.180356499999999;34.64200210571289;1665166268.5118058;0.27703040838241577;-0.01090700551867485;90.3210220336914
112;1665166268.6260006;46.975534499999995;7.180356499999999;35.249000549316406;1665166268.7167718;0.2511806786060333;0.08091195672750473;90.33534240722656
113;1665166268.9236836;46.975534499999995;7.180356499999999;35.875;1665166269.0144532;0.3033897578716278;0.08941145986318588;90.33558654785156
114;1665166269.1315763;46.975534499999995;7.180356499999999;36.47800064086914;1665166269.2233212;0.3247506320476532;0.0723966434597969;90.32052612304688
115;1665166269.3424282;46.975534499999995;7.1803564;37.051002502441406;1665166269.4321876;0.2404678463935852;0.017940443009138107;90.31491088867188
116;1665166269.5463817;46.975534499999995;7.1803564;37.6510009765625;1665166269.6469111;0.14631232619285583;-0.005249710753560066;90.31285858154297
117;1665166269.76501;46.975534499999995;7.1803564;38.25100326538086;1665166269.8440664;0.2915710508823395;-0.006494645960628986;90.3196792602539
118;1665166269.957285;46.9755344;7.1803564;38.85100173950195;1665166270.0617187;0.3566221594810486;-0.08123418688774109;90.31819915771484
119;1665166270.1749358;46.9755344;7.1803564;39.45500183105469;1665166270.2637532;0.3229832947254181;-0.12777836620807648;90.34121704101562
120;1665166270.3925858;46.9755344;7.1803564;40.0620002746582;1665166270.4735954;0.28159189224243164;-0.1603684425354004;90.35799407958984
121;1665166270.5829103;46.9755344;7.1803563;40.663002014160156;1665166270.680515;0.1994665563106537;-0.18793024122714996;90.34138488769531
122;1665166270.7966583;46.9755343;7.1803563;41.26400375366211;1665166270.884498;0.22533243894577026;-0.19320864975452423;90.3359375
123;1665166270.9977176;46.9755344;7.1803563;41.862003326416016;1665166271.1031284;0.20468583703041077;-0.12328417599201202;90.3294906616211
124;1665166271.2036567;46.9755344;7.180356199999999;42.461002349853516;1665166271.2856524;0.1429259330034256;-0.15049441158771515;90.34136199951172
125;1665166271.8939989;46.9755344;7.180356199999999;43.06100082397461;1665166271.9808655;0.25281813740730286;-0.1263701319694519;90.31291961669922
126;1665166272.086276;46.9755344;7.180356199999999;43.66200256347656;1665166272.1770442;0.26041552424430847;-0.09793797135353088;90.30697631835938
127;1665166272.2892845;46.975534499999995;7.180356199999999;44.259002685546875;1665166272.3829832;0.24063023924827576;0.04121744632720947;90.30693054199219
128;1665166272.9398308;46.975534499999995;7.180356199999999;44.85300064086914;1665166273.0306003;0.24534982442855835;0.030614139512181282;90.29817199707031
129;1665166273.142845;46.975534499999995;7.180356199999999;45.47700119018555;1665166273.2302222;0.3143231272697449;-0.01945609785616398;90.3290786743164
130;1665166273.351285;46.975534599999996;7.1803561;46.057003021240234;1665166273.441078;0.243017315864563;0.010319320484995842;90.33284759521484
131;1665166273.5660083;46.975534599999996;7.1803561;46.65700149536133;1665166273.6548254;0.24097676575183868;-0.047618161886930466;90.33052062988281
132;1665166273.7778037;46.975534599999996;7.1803561;47.25800323486328;1665166273.8578377;0.16120077669620514;-0.0032740412279963493;90.33075714111328
133;1665166273.9651983;46.975534599999996;7.180356;47.8650016784668;1665166274.058896;0.19034230709075928;0.03248189762234688;90.34052276611328
134;1665166274.1848023;46.975534599999996;7.180356;48.4900016784668;1665166274.3770795;0.16145572066307068;-0.005819710902869701;90.34307098388672
135;1665166274.4941988;46.975534599999996;7.1803558999999995;49.06500244140625;1665166274.5888762;0.0990600660443306;-0.06169610843062401;90.32518768310547
136;1665166274.7128277;46.975534599999996;7.1803558999999995;49.66800308227539;1665166274.796763;0.11504632234573364;-0.03318609669804573;90.31411743164062
137;1665166274.921693;46.975534599999996;7.1803558999999995;50.294002532958984;1665166275.009535;0.18591515719890594;0.052376437932252884;90.31322479248047
138;1665166275.130561;46.975534599999996;7.1803558999999995;50.87000274658203;1665166275.2164512;0.1700325906276703;0.05877018719911575;90.33494567871094
139;1665166275.3296704;46.9755347;7.1803558;51.47300338745117;1665166275.4292235;0.05688171833753586;0.2062782198190689;90.33023071289062
140;1665166275.5473225;46.9755347;7.1803558;52.07100296020508;1665166275.6429708;0.0372212715446949;0.15800383687019348;90.33057403564453
141;1665166275.7532585;46.9755347;7.1803558;52.67100143432617;1665166275.844032;0.17905081808567047;0.15224844217300415;90.34578704833984
142;1665166275.9660323;46.9755347;7.1803558;53.272003173828125;1665166276.0558238;0.1831532120704651;0.11172650009393692;90.32965087890625
143;1665166276.1739225;46.9755347;7.1803558;53.85700225830078;1665166276.2588346;0.17427098751068115;0.09624653309583664;90.33462524414062
144;1665166276.3847468;46.9755347;7.1803558;54.39600372314453;1665166276.464776;0.172007218003273;0.20433788001537323;90.33875274658203
145;1665166276.680473;46.9755347;7.1803558;54.92000198364258;1665166276.7624586;0.15815888345241547;0.2909029722213745;90.35492706298828
146;1665166276.8922715;46.9755347;7.1803558;55.37000274658203;1665166276.9820623;0.03467036783695221;0.19131076335906982;90.34175109863281
147;1665166277.204594;46.975534599999996;7.1803558;55.79500198364258;1665166277.2914588;0.04500003904104233;0.10414016991853714;90.33269500732422
148;1665166277.4154124;46.975534599999996;7.1803557;56.189002990722656;1665166277.5013032;0.1484222710132599;0.0937163382768631;90.32158660888672
149;1665166277.6213522;46.975534599999996;7.1803557;56.551002502441406;1665166277.705289;0.09230736643075943;0.05231765657663345;90.31190490722656
150;1665166277.934653;46.975534499999995;7.1803558;56.88300323486328;1665166278.0205448;0.0795634537935257;0.015234003774821758;90.33589172363281
151;1665166278.1386406;46.975534499999995;7.1803558;57.18700408935547;1665166278.2411237;0.07214030623435974;0.07894550263881683;90.31898498535156
152;1665166278.3533683;46.975534499999995;7.1803558;57.4630012512207;1665166278.8628864;0.15500418841838837;0.08873994648456573;90.30441284179688
153;1665166278.9692757;46.975534499999995;7.1803558;57.711002349853516;1665166279.0658994;0.14832337200641632;0.044538091868162155;90.32070922851562
154;1665166279.1859486;46.975534499999995;7.1803558;57.93700408935547;1665166279.2796445;0.041562579572200775;0.05256684869527817;90.33472442626953
155;1665166279.3938382;46.975534499999995;7.1803558;58.150001525878906;1665166279.4963207;-0.006063713692128658;0.05570819601416588;90.32760620117188
156;1665166279.6066093;46.9755344;7.1803558;58.35100173950195;1665166279.6924982;0.055725738406181335;-0.02260100468993187;90.32408142089844
157;1665166279.8076694;46.9755344;7.1803558999999995;58.51900100708008;1665166279.902345;0.12890185415744781;0.014088173396885395;90.31468963623047
158;1665166280.016541;46.9755344;7.1803558999999995;58.678001403808594;1665166280.1024253;0.09174415469169617;0.046601492911577225;90.31076049804688
159;1665166280.225403;46.9755344;7.1803558999999995;58.8180046081543;1665166280.323983;0.029056239873170853;-0.05800526589155197;90.31757354736328
160;1665166280.4440346;46.9755344;7.1803558999999995;58.94700241088867;1665166280.5308964;-0.00033768080174922943;-0.09632932394742966;90.3048095703125
161;1665166280.6509461;46.9755344;7.1803558999999995;59.06700134277344;1665166280.7505002;0.09634126722812653;-0.12119629979133606;90.32038116455078
162;1665166280.8676233;46.975534499999995;7.1803558999999995;59.177001953125;1665166280.964253;0.10011834651231766;-0.09202851355075836;90.3232421875
163;1665166281.0706363;46.975534499999995;7.1803558999999995;59.2760009765625;1665166281.1604278;1.7825653553009033;-1.7431104183197021;88.7373275756836
164;1665166281.2892601;46.975534499999995;7.1803558;59.37200164794922;1665166281.3702712;6.110690116882324;-7.856271743774414;81.21360778808594
165;1665166281.4932482;46.9755348;7.1803554;59.45600128173828;1665166281.5830433;8.553380012512207;-15.160710334777832;71.47930908203125
166;1665166281.7001626;46.9755355;7.180354299999999;59.5410041809082;1665166281.7919114;8.386585235595703;-23.270477294921875;61.742713928222656
167;1665166281.9129355;46.975536899999994;7.1803522;59.62700271606445;1665166282.0085871;5.646629810333252;-30.711374282836914;52.54698944091797
168;1665166282.1208282;46.9755392;7.180348599999999;59.72900390625;1665166282.2115939;0.4801550805568695;-36.164146423339844;43.97345733642578
169;1665166282.3306713;46.9755423;7.1803439;59.827003479003906;1665166282.4243674;-6.428637504577637;-38.9747314453125;35.457603454589844
170;1665166282.5395381;46.9755464;7.1803376;59.923004150390625;1665166282.6429932;-14.104447364807129;-35.86974334716797;26.940792083740234
171;1665166282.7484062;46.975551499999995;7.180329899999999;60.00200271606445;1665166282.8362453;-20.66221046447754;-31.632905960083008;17.65887451171875
172;1665166282.9514165;46.9755568;7.180321999999999;60.053001403808594;1665166283.0529242;-25.882888793945312;-27.0140380859375;7.532454967498779
173;1665166283.169069;46.9755628;7.180313099999999;60.08700180053711;1665166283.2666714;-29.829538345336914;-21.973491668701172;-2.454336166381836
174;1665166283.375006;46.9755693;7.180303899999999;60.10700225830078;1665166283.5604515;-32.813480377197266;-16.435861587524414;-12.649896621704102
175;1665166283.682451;46.9755764;7.180294;60.11700439453125;1665166283.7742;-34.724761962890625;-11.22126579284668;-22.66363525390625
176;1665166283.896199;46.975583099999994;7.1802847;60.12400436401367;1665166283.9840393;-35.91933059692383;-6.411445617675781;-32.427764892578125
177;1665166284.107018;46.9755903;7.180274799999999;60.12300109863281;1665166284.196815;-36.46107482910156;-1.0524567365646362;-41.91258239746094
178;1665166284.3471215;46.9755976;7.1802646999999995;60.112003326416016;1665166284.3978724;-36.67465591430664;4.1356377601623535;-48.50350570678711
179;1665166284.535488;46.9756054;7.180254;60.096004486083984;1665166284.618449;-36.93600845336914;6.059320449829102;-49.67665481567383
180;1665166284.7326446;46.9756127;7.1802440999999995;60.08100128173828;1665166284.8136542;-37.52638244628906;6.096457481384277;-49.095767974853516
181;1665166284.9424896;46.9756205;7.1802337;60.066001892089844;1665166285.0303283;-38.144893646240234;5.67723274230957;-48.192138671875
182;1665166285.1494036;46.9756284;7.1802233;60.048004150390625;1665166285.234315;-38.66944885253906;5.120848178863525;-47.27678298950195
183;1665166285.358269;46.9756366;7.1802129;60.035003662109375;1665166285.4412327;-39.14045333862305;4.5799431800842285;-46.463565826416016
184;1665166285.5505462;46.9756453;7.1802019999999995;60.01700210571289;1665166285.6413157;-39.51011657714844;4.337096691131592;-45.78358840942383
185;1665166285.7584355;46.9756535;7.180191799999999;60.00800323486328;1665166285.8531108;-39.836814880371094;4.093186855316162;-45.09406661987305
186;1665166285.9760869;46.9756626;7.180180699999999;59.99500274658203;1665166286.0649052;-40.1480598449707;3.742131471633911;-44.47763442993164
187;1665166286.1791003;46.9756712;7.1801702;59.98800277709961;1665166286.2620597;-40.41029739379883;3.4154670238494873;-43.93995666503906
188;1665166286.3743007;46.9756802;7.180159199999999;59.980003356933594;1665166286.460191;-40.68229293823242;3.108738422393799;-43.46278381347656
189;1665166286.5782883;46.9756894;7.180148099999999;59.96800231933594;1665166286.6680865;-40.919578552246094;2.860522508621216;-43.05758285522461
190;1665166286.78618;46.975698699999995;7.1801369;59.958003997802734;1665166286.9218473;-41.150691986083984;2.6237940788269043;-42.72951889038086
191;1665166287.033115;46.9757081;7.180125599999999;59.945003509521484;1665166287.1180265;-41.36616134643555;2.4254512786865234;-42.453983306884766
192;1665166287.2234368;46.975717599999996;7.180114199999999;59.93700408935547;1665166287.3190846;-41.53879165649414;2.2470896244049072;-42.178714752197266
193;1665166287.443038;46.975727299999996;7.1801027;59.928001403808594;1665166287.5191677;-41.720035552978516;2.088392496109009;-41.92247772216797
194;1665166287.640193;46.975736999999995;7.180091;59.9170036315918;1665166287.7231548;-41.89929962158203;1.9203805923461914;-41.71809387207031
195;1665166287.8412514;46.9757469;7.1800793;59.91100311279297;1665166287.9320216;-42.04610061645508;1.7342305183410645;-41.526222229003906
196;1665166288.0501223;46.9757568;7.1800675;59.90900421142578;1665166288.137962;-42.216224670410156;1.6029701232910156;-41.357704162597656
197;1665166288.2531302;46.9757672;7.180054999999999;59.90200424194336;1665166288.3419497;-42.34280014038086;1.475008487701416;-41.20978546142578
198;1665166288.4580956;46.9757769;7.1800434;59.90300369262695;1665166288.5537443;-42.47222137451172;1.4001139402389526;-41.08835983276367
199;1665166288.6650121;46.9757871;7.180031199999999;59.90400314331055;1665166288.752852;-42.59383010864258;1.3088356256484985;-40.959110260009766
200;1665166288.8777826;46.9757977;7.1800184;59.90300369262695;1665166288.9597666;-42.729557037353516;1.2373789548873901;-40.87479782104492
201;1665166289.0690808;46.975807599999996;7.1800064;59.90200424194336;1665166289.1666846;-42.821441650390625;1.154065728187561;-40.764286041259766
202;1665166289.2759967;46.975818;7.1799938999999995;59.9010009765625;1665166289.3716464;-42.93760299682617;1.1237276792526245;-40.721622467041016
203;1665166289.4799836;46.9758285;7.1799813;59.89800262451172;1665166289.5746574;-43.0432014465332;1.088980793952942;-40.651573181152344
204;1665166289.682018;46.975839;7.1799686;59.8910026550293;1665166289.7659557;-43.14409637451172;1.0385855436325073;-40.57707977294922
205;1665166289.8820999;46.975849499999995;7.1799558;59.887001037597656;1665166289.9660408;-43.22883224487305;1.0327551364898682;-40.54169464111328
206;1665166290.0763288;46.9758601;7.179943;59.884002685546875;1665166290.169052;-43.31351852416992;1.0187629461288452;-40.48072052001953
207;1665166290.2773895;46.975870799999996;7.1799301;59.884002685546875;1665166290.367181;-43.39354705810547;0.839878261089325;-40.388553619384766
208;1665166290.483326;46.9758815;7.1799171;59.884002685546875;1665166290.577999;-43.47960662841797;0.5276551246643066;-40.34450149536133
209;1665166290.690241;46.9758922;7.179904;59.88500213623047;1665166290.7722268;-43.569210052490234;0.4047674238681793;-40.3945426940918
210;1665166290.8991091;46.975902999999995;7.179890899999999;59.884002685546875;1665166290.990854;-43.63636779785156;0.29094424843788147;-40.41208267211914
211;1665166291.1089518;46.9759138;7.1798777;59.88200378417969;1665166291.69627;-43.703277587890625;0.15797831118106842;-40.415340423583984
212;1665166291.8143158;46.9759246;7.179864299999999;59.87700271606445;1665166291.9089913;-43.756568908691406;0.1306138038635254;-40.46483612060547
213;1665166292.0231826;46.9759354;7.1798509;59.87700271606445;1665166292.1149306;-43.81855392456055;0.663933515548706;-40.6182975769043
214;1665166292.2232666;46.975946199999996;7.1798375;59.87800216674805;1665166292.3111084;-43.868709564208984;0.8502938151359558;-40.49380874633789
215;1665166292.4272554;46.975957099999995;7.1798239;59.87800216674805;1665166292.508295;-43.9285888671875;0.8063308000564575;-40.35007095336914
216;1665166292.6361206;46.975968099999996;7.1798104;59.88300323486328;1665166292.733724;-43.96501922607422;0.6583226919174194;-40.26483917236328
217;1665166292.8420618;46.975978999999995;7.1797968;59.88600158691406;1665166292.9347825;-44.02638626098633;0.6518813371658325;-40.28794860839844
218;1665166293.056785;46.975990499999995;7.1797827;59.893001556396484;1665166293.1456006;-44.07493591308594;0.7888855934143066;-40.349246978759766
219;1665166293.2705324;46.9760011;7.1797697;59.89800262451172;1665166293.3525157;-44.10647201538086;0.5645681023597717;-40.22055435180664
220;1665166293.4540215;46.9760122;7.179755999999999;59.9010009765625;1665166293.5379636;-44.161373138427734;0.4035859704017639;-40.262351989746094
221;1665166293.6541095;46.9760238;7.1797417999999995;59.90300369262695;1665166293.7399948;-44.20182800292969;0.501035213470459;-40.31865692138672
222;1665166293.856142;46.9760345;7.1797286;59.90400314331055;1665166293.9391043;-44.22178649902344;0.5905494093894958;-40.344993591308594
223;1665166294.0542712;46.9760456;7.1797149;59.9010009765625;1665166294.1460176;-44.273746490478516;0.6328803300857544;-40.33625030517578
224;1665166294.261192;46.9760567;7.1797011;59.9010009765625;1665166294.353908;-44.302059173583984;0.7103585600852966;-40.34782409667969
225;1665166294.4612732;46.9760679;7.1796872;59.90300369262695;1665166294.54716;-44.3287467956543;0.745171070098877;-40.365089416503906
226;1665166294.6623297;46.9760792;7.1796733999999995;59.90400314331055;1665166294.7462676;-44.364322662353516;0.6909157037734985;-40.33980178833008
227;1665166294.8877892;46.976090899999996;7.179659;59.90800094604492;1665166294.9736798;-44.39720916748047;0.6571175456047058;-40.34278869628906
228;1665166295.592682;46.976101799999995;7.1796456;59.91500473022461;1665166295.675641;-44.42326354980469;0.6317664384841919;-40.365230560302734
229;1665166295.786907;46.9761132;7.1796317;59.92500305175781;1665166295.8884144;-44.43061828613281;0.6149367690086365;-40.38646697998047
230;1665166295.993827;46.9761245;7.1796178;59.928001403808594;1665166296.0806932;-44.45964050292969;0.6654818654060364;-40.40232467651367
231;1665166296.2026918;46.976135899999996;7.1796038;59.93100357055664;1665166296.2924836;-43.77227020263672;0.4960365295410156;-40.327701568603516
232;1665166296.4144883;46.9761472;7.1795899;59.93400192260742;1665166296.506231;-41.99283218383789;0.5726052522659302;-40.415679931640625
233;1665166296.6155438;46.9761585;7.179576;59.93100357055664;1665166296.6965563;-40.90263748168945;0.546223521232605;-40.36064147949219
234;1665166296.808796;46.9761696;7.1795623;59.927001953125;1665166296.922991;-40.167259216308594;0.4705308973789215;-40.31810760498047
235;1665166297.047919;46.9761806;7.1795488;59.92000198364258;1665166297.1357603;-39.51091766357422;0.5259761214256287;-40.39503860473633
236;1665166297.2470274;46.976191199999995;7.1795355999999995;59.910003662109375;1665166297.4422302;-39.02013397216797;0.460906058549881;-40.393531799316406
237;1665166297.5554492;46.9762017;7.1795227;59.9010009765625;1665166297.6491485;-38.321773529052734;0.5885720252990723;-40.4935188293457
238;1665166297.7594352;46.976211899999996;7.1795101;59.89200210571289;1665166297.851182;-37.76197052001953;0.4030103385448456;-40.46310806274414
239;1665166297.9634235;46.976222;7.1794977;59.87800216674805;1665166298.0561433;-36.94350051879883;0.5575963854789734;-40.604774475097656
240;1665166298.1840022;46.9762318;7.1794856;59.86700439453125;1665166298.2747705;-36.3902702331543;0.5189012885093689;-40.60092544555664
241;1665166298.3831086;46.9762413;7.179473799999999;59.85600280761719;1665166298.4816885;-35.92445755004883;0.5456701517105103;-40.67374801635742
242;1665166298.5968583;46.9762506;7.1794622;59.84300231933594;1665166298.6944597;-35.301536560058594;0.5102819800376892;-40.69406509399414
243;1665166298.804747;46.9762597;7.179450999999999;59.83200454711914;1665166298.8945427;-34.51437759399414;0.6059525609016418;-40.78012466430664
244;1665166299.0058084;46.976268499999996;7.17944;59.82100296020508;1665166299.096576;-33.9644775390625;0.4874866306781769;-40.75645065307617
245;1665166299.2068675;46.9762772;7.1794294;59.81300354003906;1665166299.3054447;-36.0631103515625;0.4326517581939697;-40.82218933105469
246;1665166299.4176843;46.9762856;7.1794189;59.81500244140625;1665166299.5006485;-37.34617233276367;0.47661784291267395;-40.86701583862305
247;1665166299.6226475;46.9762941;7.1794085;59.81700134277344;1665166299.706587;-36.74052047729492;0.30681872367858887;-40.902183532714844
248;1665166299.814923;46.976302499999996;7.179398;59.81900405883789;1665166299.907645;-35.392093658447266;0.44424110651016235;-40.9652214050293
249;1665166300.0247667;46.9763109;7.1793876;59.82100296020508;1665166300.110656;-34.160404205322266;0.23019491136074066;-40.86212921142578
250;1665166300.229732;46.9763191;7.1793773;59.82400131225586;1665166300.3146482;-32.74467086791992;0.4882252514362335;-40.9281005859375
251;1665166300.4229813;46.9763271;7.1793672;59.823001861572266;1665166300.5127745;-31.467432022094727;0.57570481300354;-40.850181579589844
252;1665166300.6338072;46.9763349;7.1793574;59.820003509521484;1665166300.7177389;-30.251527786254883;0.28354498744010925;-40.76634979248047
253;1665166300.8251026;46.9763428;7.179347399999999;59.81300354003906;1665166300.9197767;-28.782360076904297;0.4831427037715912;-40.85947799682617
254;1665166301.0281124;46.976349899999995;7.1793385999999995;59.807003021240234;1665166301.1208324;-27.505966186523438;0.5282094478607178;-40.824920654296875
255;1665166301.24381;46.9763569;7.179329699999999;59.79600143432617;1665166301.3355572;-26.475605010986328;0.34838977456092834;-40.801055908203125
256;1665166301.455608;46.9763637;7.1793211999999995;59.78200149536133;1665166301.5551584;-25.397693634033203;0.5483754873275757;-40.884979248046875
257;1665166301.6634965;46.9763702;7.1793131;59.7660026550293;1665166301.7601223;-24.321725845336914;0.590683102607727;-40.88167190551758
258;1665166301.8860297;46.9763764;7.1793054;59.746002197265625;1665166301.9699676;-23.56356430053711;0.20406676828861237;-40.86075973510742
259;1665166302.072447;46.9763823;7.1792981;59.73100280761719;1665166302.1534593;-22.647245407104492;0.3380129039287567;-40.978641510009766
260;1665166302.260818;46.9763881;7.1792907999999995;59.720001220703125;1665166302.3447552;-21.776227951049805;0.4761509299278259;-40.95799255371094
261;1665166302.4677336;46.9763934;7.179284099999999;59.7130012512207;1665166302.5643592;-21.212472915649414;0.2373807579278946;-40.92599868774414
262;1665166302.6756253;46.9763983;7.1792779;59.70900344848633;1665166302.7624924;-20.312467575073242;0.2833656370639801;-40.98363494873047
263;1665166302.8757079;46.9764032;7.179271699999999;59.71000289916992;1665166302.9625735;-19.401531219482422;0.41334185004234314;-40.96882629394531
264;1665166303.0787206;46.9764081;7.1792656;59.71000289916992;1665166303.1724198;-18.65086555480957;0.42648619413375854;-40.94756317138672
265;1665166303.2875884;46.9764123;7.1792602;59.708003997802734;1665166303.381285;-17.99635887145996;0.3705586791038513;-40.93080139160156
266;1665166303.5013394;46.9764166;7.1792548;59.704002380371094;1665166303.5872262;-17.395790100097656;0.36331477761268616;-40.93854522705078
267;1665166303.706301;46.9764206;7.1792497;59.7030029296875;1665166303.790235;-16.826961517333984;0.44524598121643066;-40.92235565185547
268;1665166303.9034543;46.9764246;7.1792447;59.70700454711914;1665166303.9981253;-16.118263244628906;0.4782477915287018;-40.9006462097168
269;1665166304.1103685;46.976428299999995;7.17924;59.71400451660156;1665166304.2040675;-15.42386531829834;0.5861691832542419;-40.89849853515625
270;1665166304.319236;46.976431899999994;7.1792355;59.720001220703125;1665166304.4031718;-15.148636817932129;0.351469486951828;-40.85195541381836
271;1665166304.5163915;46.9764353;7.1792311;59.72500228881836;1665166304.6081367;-14.564037322998047;0.565972089767456;-40.85105514526367
272;1665166304.7252645;46.976438599999994;7.179227;59.73100280761719;1665166304.8121247;-14.149554252624512;0.5550428628921509;-40.81633758544922
273;1665166304.952673;46.976441799999996;7.1792229;59.7390022277832;1665166305.037583;-13.86733341217041;0.37090104818344116;-40.793792724609375
274;1665166305.1517758;46.976444699999995;7.1792193;59.75200271606445;1665166305.239617;-13.239341735839844;0.4145433008670807;-40.82866668701172
275;1665166305.356739;46.976447799999995;7.1792153999999995;59.768001556396484;1665166305.448486;-12.53097152709961;0.45201992988586426;-40.80238342285156
276;1665166305.5724404;46.9764506;7.1792121;59.78300094604492;1665166305.657359;-12.110087394714355;0.2442328780889511;-40.78181838989258
277;1665166305.9091651;46.976453299999996;7.179208699999999;59.80000305175781;1665166306.0048127;-11.776674270629883;0.20213651657104492;-40.83598327636719
278;1665166306.1160805;46.9764559;7.179205499999999;59.81300354003906;1665166306.2058742;-11.366432189941406;0.34590044617652893;-40.83132553100586
279;1665166306.3317814;46.9764584;7.1792023;59.820003509521484;1665166306.4166918;-11.206672668457031;0.2529987096786499;-40.81092071533203
280;1665166306.5367417;46.9764608;7.1791993;59.82400131225586;1665166306.6314166;-10.622174263000488;0.4636363089084625;-40.81254196166992
281;1665166306.7475638;46.9764631;7.1791963;59.829002380371094;1665166306.83833;-10.187759399414062;0.5457941293716431;-40.76591110229492
282;1665166306.953502;46.9764653;7.179193499999999;59.842002868652344;1665166307.037437;-9.823569297790527;0.3941691815853119;-40.753047943115234
283;1665166307.1477268;46.9764675;7.1791908;59.85200119018555;1665166307.241426;-9.431442260742188;0.5624567866325378;-40.73150634765625
284;1665166307.3507402;46.9764695;7.1791882;59.855003356933594;1665166307.4444356;-9.364381790161133;0.4000573754310608;-40.68940353393555
285;1665166307.564489;46.976471599999996;7.1791857;59.85900115966797;1665166307.6464727;-8.901324272155762;0.502234160900116;-40.7148551940918
286;1665166307.7616432;46.9764735;7.1791833;59.862003326416016;1665166307.852414;-8.459099769592285;0.48174282908439636;-40.70419692993164
287;1665166307.9627004;46.9764753;7.1791811;59.86700439453125;1665166308.0476148;-8.27412223815918;0.2790854573249817;-40.74112319946289
288;1665166308.166692;46.9764771;7.179178899999999;59.875003814697266;1665166308.2555068;-7.813121318817139;0.45011696219444275;-40.7807731628418
289;1665166308.368725;46.9764789;7.1791768;59.88200378417969;1665166308.4643722;-7.561220645904541;0.18173958361148834;-40.776763916015625
290;1665166308.5766144;46.9764805;7.1791747;59.88900375366211;1665166308.6673865;-7.283354759216309;0.2567615807056427;-40.84162139892578
291;1665166308.7864568;46.9764821;7.1791727;59.89400100708008;1665166308.8743005;-7.007956504821777;0.35576680302619934;-40.8469352722168
292;1665166308.986542;46.976483599999995;7.1791708;59.900001525878906;1665166309.5647075;-6.779046535491943;0.3121063709259033;-40.84259033203125
293;1665166309.674021;46.976485;7.179169099999999;59.90700149536133;1665166309.7638125;-6.583671569824219;0.09461098164319992;-40.849369049072266
294;1665166309.8867905;46.9764865;7.1791673;59.913002014160156;1665166309.9687762;-6.119104385375977;0.20732274651527405;-40.885902404785156
295;1665166310.085898;46.9764878;7.179165599999999;59.91800308227539;1665166310.1747193;-5.908005237579346;0.15596310794353485;-40.89835739135742
296;1665166310.2869604;46.976489099999995;7.1791639;59.926002502441406;1665166310.3806548;-5.684604644775391;0.13721048831939697;-40.89159393310547
297;1665166310.4909482;46.976490399999996;7.1791624;59.93400192260742;1665166310.5778148;-5.411990165710449;0.06247677654027939;-40.89576721191406
298;1665166310.6841972;46.976491599999996;7.1791608;59.939002990722656;1665166310.7847266;-5.195987224578857;0.06590821593999863;-40.896366119384766
299;1665166310.9018514;46.976492699999994;7.1791594;59.94200134277344;1665166310.9867606;-5.061340808868408;0.07624313980340958;-40.87508773803711
300;1665166311.1136432;46.9764938;7.179157999999999;59.9430046081543;1665166311.1927023;-4.834799766540527;0.03093300200998783;-40.82630157470703
301;1665166311.3029916;46.9764949;7.1791566;59.941001892089844;1665166311.399615;-4.5535664558410645;0.023919370025396347;-40.78505325317383
302;1665166311.5147865;46.976495899999996;7.1791553;59.9430046081543;1665166311.9522183;-4.398005485534668;-0.028869880363345146;-40.74130630493164
303;1665166312.0625076;46.9764968;7.179154;59.94600296020508;1665166312.1493745;-4.197386741638184;0.03063220903277397;-40.692508697509766
304;1665166312.2733269;46.976497699999996;7.1791528;59.95100402832031;1665166312.3660486;-3.985281467437744;0.011672308668494225;-40.637962341308594
305;1665166312.4782896;46.9764986;7.1791516;59.95700454711914;1665166312.6656861;-3.8347556591033936;0.07180529832839966;-40.554595947265625
306;1665166312.7906153;46.976499499999996;7.179150399999999;59.961002349853516;1665166312.8833373;-3.630063533782959;0.05639690160751343;-40.45035171508789
307;1665166313.007295;46.9765003;7.1791494;59.9630012512207;1665166313.0824437;-3.4343008995056152;0.005700959358364344;-40.354129791259766
308;1665166313.2054262;46.976501;7.1791484;59.965003967285156;1665166313.2922876;-3.302609920501709;0.04887797310948372;-40.281951904296875
309;1665166313.3986719;46.9765017;7.1791474;59.96900177001953;1665166313.4923706;-3.2262868881225586;0.0741809606552124;-40.141815185546875
310;1665166313.601688;46.9765024;7.1791464;59.97500228881836;1665166313.7012372;-3.1881167888641357;0.18234467506408691;-40.006690979003906
311;1665166313.8085985;46.976503099999995;7.1791455;59.97900390625;1665166313.893513;-3.123779058456421;0.24946826696395874;-39.824302673339844
312;1665166314.0057554;46.976503699999995;7.1791446;59.98200225830078;1665166314.598688;-2.9836933612823486;0.31832391023635864;-39.642520904541016
313;1665166314.716787;46.976504299999995;7.179143799999999;59.983001708984375;1665166314.804629;-2.8035638332366943;0.35065343976020813;-39.47734069824219
314;1665166314.9158933;46.976504899999995;7.179143;59.980003356933594;1665166315.0017824;-2.736276626586914;0.40052151679992676;-39.38199234008789
315;1665166315.1140263;46.976505499999995;7.179142199999999;59.978004455566406;1665166315.2067463;-2.6897032260894775;0.5316649675369263;-39.245540618896484
316;1665166315.3258197;46.976506;7.1791415;59.97900390625;1665166315.4165885;-2.599349021911621;0.5529661774635315;-39.08744430541992
317;1665166315.527855;46.9765066;7.1791408;59.98500442504883;1665166315.614724;-2.5818464756011963;0.5730647444725037;-38.994468688964844
318;1665166315.7308674;46.9765071;7.1791402;59.99400329589844;1665166315.816757;-2.552286148071289;0.6164919137954712;-38.96660232543945
319;1665166315.9426632;46.9765076;7.1791396;60.00200271606445;1665166316.030505;-2.4618148803710938;0.538499116897583;-38.99995803833008
320;1665166316.142747;46.9765082;7.179138999999999;60.006004333496094;1665166316.23547;-2.3066041469573975;0.4768873155117035;-39.11789321899414
321;1665166316.3438058;46.9765087;7.179138399999999;60.01000213623047;1665166316.4316454;-2.0880656242370605;0.4128056466579437;-39.27552795410156
322;1665166316.8737814;46.976509199999995;7.1791379;60.01100158691406;1665166316.973335;-1.982893705368042;0.3696708083152771;-39.44852828979492
323;1665166317.0914338;46.9765097;7.1791374;60.00800323486328;1665166317.185129;-1.9290393590927124;0.32246193289756775;-39.65900802612305
324;1665166317.298347;46.9765102;7.1791369;60.005001068115234;1665166317.387166;-1.9156370162963867;0.267205148935318;-39.849578857421875
325;1665166317.5003824;46.9765106;7.179136499999999;60.00300216674805;1665166317.58725;-1.8442747592926025;0.3081427812576294;-40.01110076904297
326;1665166317.703397;46.976510999999995;7.179136;60.00100326538086;1665166317.7863572;-1.6957170963287354;0.28646647930145264;-40.14720916748047
327;1665166317.907383;46.9765114;7.1791355;60.00100326538086;1665166317.9903448;-1.5856130123138428;0.32248738408088684;-40.2833251953125
328;1665166318.0938013;46.9765118;7.179135;60.00400161743164;1665166318.1757863;-1.420128583908081;0.34321102499961853;-40.32437515258789
329;1665166318.2919345;46.976512199999995;7.179134599999999;60.005001068115234;1665166318.4734728;-1.4129761457443237;0.30345967411994934;-40.34719467163086
330;1665166318.5847378;46.9765125;7.179134299999999;60.006004333496094;1665166318.682337;-1.4635308980941772;0.22106365859508514;-40.46743392944336
331;1665166318.8004363;46.976512799999995;7.1791339;60.005001068115234;1665166318.8921804;-1.513344168663025;0.11052359640598297;-40.61813735961914
332;1665166319.0063744;46.9765132;7.1791336;60.00400161743164;1665166319.1879163;-1.3768008947372437;0.09891659021377563;-40.85850524902344
333;1665166319.3040588;46.976513499999996;7.1791332;60.00700378417969;1665166319.398733;-1.3139796257019043;0.14015740156173706;-41.032955169677734
334;1665166319.5168314;46.9765138;7.1791328;60.009002685546875;1665166319.601746;-1.2322145700454712;0.18644599616527557;-41.05316925048828
335;1665166319.722773;46.976513999999995;7.179132399999999;60.01000213623047;1665166319.8145144;-1.1839745044708252;0.2506691515445709;-40.939109802246094
336;1665166319.9277349;46.9765143;7.1791320999999995;60.012001037597656;1665166320.0136223;-1.2111058235168457;0.3015149235725403;-40.88789749145508
337;1665166320.1414807;46.9765145;7.1791317;60.01400375366211;1665166320.2361538;-1.1517046689987183;0.22532051801681519;-40.85471725463867
338;1665166320.3453481;46.9765148;7.179131399999999;60.01700210571289;1665166320.439049;-3.7780370712280273;0.1825287640094757;-42.5094108581543
339;1665166320.5493376;46.9765151;7.179131;60.025001525878906;1665166320.6381557;-11.40871810913086;0.5394209623336792;-48.014991760253906
340;1665166320.7494183;46.9765156;7.1791303;60.03600311279297;1665166320.8402047;-19.52079200744629;1.960709810256958;-50.327388763427734
341;1665166320.9495173;46.976516499999995;7.179128899999999;60.05500411987305;1665166321.0393116;-27.019615173339844;3.1308960914611816;-50.99125671386719
342;1665166321.1613138;46.9765182;7.1791263999999995;60.09300231933594;1665166321.2481778;-33.43893051147461;3.8253676891326904;-51.07255935668945
343;1665166321.3613985;46.976520799999996;7.1791225;60.147003173828125;1665166321.4531467;-37.680458068847656;2.715599298477173;-50.72551727294922
344;1665166321.5653834;46.976524399999995;7.1791171;60.211002349853516;1665166321.6581047;-39.807960510253906;0.41866472363471985;-50.37112045288086
345;1665166321.7742605;46.9765288;7.179110199999999;60.27300262451172;1665166321.8656144;-38.89077377319336;-1.0719181299209595;-50.189388275146484
346;1665166321.9807823;46.9765337;7.179101999999999;60.327003479003906;1665166322.067664;-38.21711730957031;-1.5030497312545776;-50.18537521362305
347;1665166322.2101607;46.9765391;7.179092799999999;60.371002197265625;1665166322.2823858;-37.919456481933594;0.000945900974329561;-50.12698745727539
348;1665166322.39658;46.9765448;7.1790826999999995;60.40700149536133;1665166322.4844234;-37.82704162597656;0.4946024715900421;-49.73713684082031
349;1665166322.5947118;46.9765509;7.179072199999999;60.43300247192383;1665166322.6747472;-37.93412399291992;0.6169328689575195;-49.50272750854492
350;1665166322.7840598;46.9765571;7.1790612;60.44600296020508;1665166322.8797104;-38.12856674194336;-0.07154802232980728;-49.267333984375
351;1665166322.9909732;46.9765636;7.1790499;60.445003509521484;1665166323.0818608;-38.386741638183594;-0.3875333368778229;-49.234745025634766
352;1665166323.2077682;46.9765702;7.1790384;60.43400192260742;1665166323.3024843;-38.67776107788086;-0.5396406650543213;-49.2127685546875
353;1665166323.4186337;46.9765769;7.1790265;60.419002532958984;1665166323.5054965;-38.99298858642578;-0.5861889123916626;-49.21177291870117
354;1665166323.617736;46.9765838;7.1790142999999995;60.406002044677734;1665166323.6977696;-39.27648162841797;-0.6047829985618591;-49.202091217041016
355;1665166323.8198159;46.9765908;7.1790018;60.3900032043457;1665166323.904682;-39.563289642333984;-0.704947829246521;-49.17702865600586
356;1665166324.010092;46.976597899999994;7.1789891;60.36900329589844;1665166324.1018376;-39.84457015991211;-0.8468717932701111;-49.14802932739258
357;1665166324.215055;46.9766051;7.178976199999999;60.349002838134766;1665166324.3048522;-40.133907318115234;-1.01242995262146;-49.11452102661133
358;1665166324.5289195;46.9766124;7.1789632;60.327003479003906;1665166324.621641;-40.387939453125;-1.1806360483169556;-49.09984588623047
359;1665166324.727047;46.976619799999995;7.1789499;60.30400466918945;1665166324.8070843;-40.603660583496094;-1.4482266902923584;-49.052886962890625
360;1665166324.9398215;46.976627199999996;7.178936299999999;60.285003662109375;1665166325.0262625;-40.851722717285156;-1.0936592817306519;-49.211517333984375
361;1665166325.1424077;46.9766348;7.1789225;60.272003173828125;1665166325.2419589;-41.0809440612793;-0.43613916635513306;-49.185142517089844
362;1665166325.3659148;46.9766427;7.178908099999999;60.259002685546875;1665166325.4576595;-41.26545333862305;-0.06568381935358047;-49.04124069213867
363;1665166325.573806;46.9766501;7.1788946;60.24700164794922;1665166325.7563207;-41.468101501464844;0.4411913752555847;-48.97699737548828
364;1665166325.8773453;46.976658;7.1788805;60.23600387573242;1665166325.9603062;-41.63719940185547;1.2303093671798706;-48.9378776550293
365;1665166326.0696228;46.976665999999994;7.1788665;60.221004486083984;1665166326.1535575;-41.73752975463867;2.158339262008667;-48.82759475708008
366;1665166326.278489;46.9766742;7.178852399999999;60.204002380371094;1665166326.3673048;-40.120330810546875;0.5709925293922424;-48.009857177734375
367;1665166326.4785697;46.9766828;7.178837799999999;60.182003021240234;1665166326.5722687;-37.70900344848633;-0.42961934208869934;-48.221954345703125
368;1665166326.687452;46.9766907;7.1788244;60.15700149536133;1665166326.7713747;-35.726070404052734;-0.6177389025688171;-48.51029586791992
369;1665166326.8826408;46.9766987;7.1788108;60.12800216674805;1665166327.0729663;-34.238372802734375;-0.6286801099777222;-48.72760009765625
370;1665166327.1861827;46.9767065;7.1787975;60.096004486083984;1665166327.2740223;-33.71916961669922;0.4218761622905731;-49.025997161865234
371;1665166327.3882186;46.976714;7.1787847;60.060001373291016;1665166327.48289;-33.38283157348633;1.0571259260177612;-48.93605422973633
372;1665166327.600018;46.9767212;7.1787722;60.02000427246094;1665166327.688829;-32.86643600463867;1.1315220594406128;-48.817420959472656
373;1665166327.7981427;46.9767284;7.1787601;59.983001708984375;1665166327.899652;-32.101749420166016;0.9820564985275269;-48.75719451904297
374;1665166328.0079892;46.976735399999995;7.1787484;59.94900131225586;1665166328.095827;-31.278364181518555;0.87430340051651;-48.81838607788086
375;1665166328.2178328;46.9767422;7.178737099999999;59.919002532958984;1665166328.305674;-30.39320945739746;0.7118908762931824;-48.866249084472656
376;1665166328.4149842;46.976748799999996;7.1787262;59.89200210571289;1665166328.5028284;-29.60521697998047;0.6964507699012756;-48.98658752441406
377;1665166328.6131163;46.9767552;7.178715599999999;59.86900329589844;1665166329.435464;-28.96390724182129;0.7638077139854431;-49.02531051635742
378;1665166329.543801;46.9767614;7.178705399999999;59.849002838134766;1665166329.633594;-28.07305908203125;0.5000641345977783;-49.048980712890625
379;1665166329.932256;46.9767674;7.1786955;59.82500457763672;1665166330.01912;-27.36272621154785;0.5958639979362488;-49.19428634643555
380;1665166330.1333132;46.9767732;7.1786859;59.80500411987305;1665166330.2211552;-26.464853286743164;0.572969377040863;-49.208885192871094
381;1665166330.3421817;46.9767788;7.178676599999999;59.78600311279297;1665166330.4300227;-25.481243133544922;0.4410010278224945;-49.243507385253906
382;1665166330.5471468;46.9767842;7.1786677;59.77100372314453;1665166330.6301053;-24.679515838623047;0.5846943855285645;-49.336570739746094
383;1665166330.7530825;46.9767893;7.178659;59.76000213623047;1665166330.8409257;-23.832088470458984;0.7485798001289368;-49.32011032104492
384;1665166330.9482856;46.976794299999995;7.1786506999999995;59.756004333496094;1665166331.0439374;-22.914621353149414;0.4947601854801178;-49.307151794433594
385;1665166331.1532552;46.976799199999995;7.178642699999999;59.755001068115234;1665166331.734611;-21.951171875;0.3805711269378662;-49.346046447753906
386;1665166331.8527117;46.9768039;7.1786347;59.755001068115234;1665166331.9434798;-21.354045867919922;0.5584284067153931;-49.37714767456055
387;1665166332.052792;46.9768082;7.1786275999999996;59.756004333496094;1665166332.1406329;-20.551868438720703;0.44423893094062805;-49.34965515136719
388;1665166332.2626352;46.9768124;7.1786205;59.75200271606445;1665166332.344622;-19.654376983642578;0.3571949303150177;-49.377017974853516
389;1665166332.462719;46.9768167;7.1786134;59.74700164794922;1665166332.5495858;-18.771320343017578;0.3158442974090576;-49.39044189453125
390;1665166332.6674907;46.9768204;7.1786071;59.746002197265625;1665166332.752405;-18.196659088134766;0.6284099221229553;-49.40884017944336
391;1665166332.8773344;46.976824;7.1786008;59.74100112915039;1665166332.9583445;-17.564956665039062;0.640390932559967;-49.342674255371094
392;1665166333.0754647;46.9768275;7.1785948;59.737003326416016;1665166333.1623316;-16.88702964782715;0.5296828746795654;-49.32539367675781
393;1665166333.3760808;46.976830899999996;7.1785891;59.73500442504883;1665166333.4707518;-16.278608322143555;0.38309940695762634;-49.32775115966797
394;1665166333.5849454;46.9768342;7.1785836;59.737003326416016;1665166333.679619;-15.765052795410156;0.39045971632003784;-49.34566879272461
395;1665166333.798695;46.9768373;7.178578399999999;59.74200439453125;1665166333.8904402;-15.207362174987793;0.47126445174217224;-49.30664825439453
396;1665166333.9978;46.9768402;7.1785733;59.75100326538086;1665166334.0788095;-14.472213745117188;0.33270519971847534;-49.29014587402344
397;1665166334.1969066;46.976843099999996;7.1785684;59.75800323486328;1665166334.285727;-13.911842346191406;0.23222674429416656;-49.279441833496094
398;1665166334.3989446;46.9768458;7.1785638;59.76700210571289;1665166334.4809272;-13.701661109924316;0.4652571976184845;-49.267826080322266
399;1665166334.6058583;46.976848399999994;7.1785593;59.77700424194336;1665166334.6897955;-12.925418853759766;0.15881729125976562;-49.20783233642578
400;1665166334.8049638;46.976850899999995;7.178554999999999;59.788002014160156;1665166334.9015937;-12.381622314453125;0.052610594779253006;-49.20252990722656
401;1665166335.0089533;46.976853399999996;7.1785507;59.79700469970703;1665166335.0948427;-12.122440338134766;0.282932847738266;-49.190181732177734
402;1665166335.2080593;46.9768556;7.1785469;59.80500411987305;1665166335.2929718;-11.431207656860352;0.10445273667573929;-49.11086654663086
403;1665166335.4061928;46.9768578;7.1785431;59.81500244140625;1665166335.5047693;-10.917163848876953;0.06640014797449112;-49.0811882019043
404;1665166335.6160362;46.9768599;7.1785394;59.823001861572266;1665166335.6999733;-10.734681129455566;0.3106038570404053;-49.033512115478516
405;1665166335.8151429;46.976861899999996;7.1785358;59.833003997802734;1665166335.9029813;-10.246667861938477;0.27019721269607544;-48.93809509277344
406;1665166336.0162027;46.9768638;7.1785323;59.84100341796875;1665166336.1030676;-9.875550270080566;0.3859163522720337;-48.8420295715332
407;1665166336.2133555;46.9768656;7.1785292;59.846004486083984;1665166336.3021739;-9.620986938476562;0.5430814623832703;-48.73611831665039
408;1665166336.4202828;46.976867299999995;7.178526;59.853004455566406;1665166336.5061624;-9.197312355041504;0.48474928736686707;-48.64265823364258
409;1665166336.6232812;46.976869099999995;7.1785231;59.86100387573242;1665166336.7081952;-8.868447303771973;0.4639351963996887;-48.569400787353516
410;1665166336.828245;46.9768708;7.1785201999999995;59.87000274658203;1665166336.920966;-8.398411750793457;0.3939844071865082;-48.52179718017578
411;1665166337.04004;46.9768723;7.1785174;59.875003814697266;1665166337.1347144;-8.1112699508667;0.4673621356487274;-48.46784973144531
412;1665166337.2508614;46.9768739;7.1785147;59.87900161743164;1665166337.4323978;-7.742825984954834;0.542377233505249;-48.39390563964844
413;1665166337.5456164;46.9768754;7.1785121;59.88300323486328;1665166337.6373615;-7.36787748336792;0.541068971157074;-48.31597900390625
414;1665166337.7496066;46.9768768;7.178509699999999;59.887001037597656;1665166337.8384266;-7.0872626304626465;0.4806347191333771;-48.271175384521484
415;1665166337.9584708;46.976878199999994;7.1785074;59.89400100708008;1665166338.0463128;-6.766005992889404;0.428972452878952;-48.22421646118164
416;1665166338.1624582;46.976879499999995;7.1785052;59.9010009765625;1665166338.249323;-6.598477363586426;0.38095977902412415;-48.218177795410156
417;1665166338.375229;46.976880699999995;7.1785030999999995;59.90900421142578;1665166338.472831;-6.400454521179199;0.4737986624240875;-48.18037033081055
418;1665166338.672914;46.976881899999995;7.178501;59.9170036315918;1665166338.75978;-6.169042110443115;0.5012568831443787;-48.09945297241211
