;pos_time;latitude;longitude;altitude;alt_time;pitch;roll;yaw
0;1665661714.6247127;46.9755341;7.1803552999999996;0.052000001072883606;1665661714.7945359;-0.16181200742721558;0.4994658827781677;89.86553192138672
1;1665661714.843337;46.9755341;7.1803552999999996;0.04800000041723251;1665661715.0131583;0.031224701553583145;0.47067791223526;89.9666976928711
2;1665661715.0531716;46.9755341;7.1803552999999996;0.046000003814697266;1665661715.2268984;-0.19129614531993866;0.36738836765289307;90.06581115722656
3;1665661715.263011;46.9755341;7.180355199999999;0.04700000211596489;1665661715.4181933;-0.18373766541481018;0.3232947587966919;90.1369400024414
4;1665661715.4640636;46.975533999999996;7.180355199999999;0.046000003814697266;1665661715.6358397;-0.034616854041814804;0.3787584900856018;90.02432250976562
5;1665661715.6807344;46.975533999999996;7.1803552999999996;0.046000003814697266;1665661715.8398204;-0.0378355011343956;0.383118599653244;90.02938079833984
6;1665661715.8817875;46.975533999999996;7.1803552999999996;0.04500000178813934;1665661716.0506358;-0.2885473370552063;0.31161734461784363;90.03234100341797
7;1665661716.0857706;46.9755341;7.1803554;0.04200000315904617;1665661716.249738;-0.039487458765506744;0.3676374852657318;90.02811431884766
8;1665661716.2946303;46.9755341;7.1803554;0.039000000804662704;1665661716.4732385;-0.19034260511398315;0.3841031789779663;90.10746002197266
9;1665661716.507398;46.9755341;7.1803554;0.0;1665661716.680149;-0.1046995297074318;0.35841357707977295;90.1285629272461
10;1665661716.7260206;46.975533999999996;7.1803554;0.0;1665661716.892915;-0.2314213663339615;0.3368079364299774;90.01980590820312
11;1665661716.9280481;46.975533999999996;7.1803554;0.0010000000474974513;1665661717.0968955;-0.1151045709848404;0.3327997922897339;89.99002075195312
12;1665661717.133984;46.975533999999996;7.1803554;0.004000000189989805;1665661717.400428;-0.26344144344329834;0.363136351108551;90.04672241210938
13;1665661717.4443486;46.975533999999996;7.1803552999999996;0.006000000052154064;1665661717.6307628;-0.08721308410167694;0.5130299925804138;90.04254150390625
14;1665661717.6678493;46.9755341;7.1803552999999996;0.006000000052154064;1665661717.8493848;-0.16515614092350006;0.3766397535800934;90.18580627441406
15;1665661717.8850281;46.9755341;7.1803552999999996;0.00800000037997961;1665661718.0538738;-0.10143251717090607;0.3819160759449005;90.04679870605469
16;1665661718.0895238;46.9755341;7.180355199999999;0.007000000216066837;1665661718.2540026;-0.23102502524852753;0.42092007398605347;90.17180633544922
17;1665661718.2984335;46.9755341;7.180355199999999;0.007000000216066837;1665661718.4736507;-0.005971225909888744;0.3100675344467163;90.10906982421875
18;1665661718.5117173;46.9755341;7.180355199999999;0.0020000000949949026;1665661718.6893454;-0.13962139189243317;0.19041883945465088;90.17882537841797
19;1665661718.73424;46.9755341;7.180355199999999;0.006000000052154064;1665661718.894304;-0.2070743888616562;0.158309668302536;90.20418548583984
20;1665661718.9304173;46.9755341;7.1803552999999996;0.009000000543892384;1665661719.0924277;-0.05487111955881119;-0.3241591453552246;90.84901428222656
21;1665661719.137324;46.9755341;7.180355199999999;0.01600000075995922;1665661719.3295941;0.07809218764305115;-1.108806848526001;90.76705932617188
22;1665661719.3666823;46.9755342;7.180355199999999;0.04100000113248825;1665661719.5277207;-0.23062510788440704;-0.46177881956100464;90.64361572265625
23;1665661719.565786;46.9755343;7.180355199999999;0.08000000566244125;1665661719.7326796;-0.3822091817855835;0.06562826037406921;90.55091094970703
24;1665661719.7736704;46.975534499999995;7.180355199999999;0.13600000739097595;1665661719.9356863;-0.29293718934059143;0.31161075830459595;90.47970581054688
25;1665661719.984485;46.975534599999996;7.180355199999999;0.21300001442432404;1665661720.140641;-0.20103727281093597;0.406537801027298;90.41561889648438
26;1665661720.1787083;46.9755348;7.1803552999999996;0.3070000112056732;1665661720.343186;-0.13082990050315857;0.43164730072021484;90.37387084960938
27;1665661720.3783243;46.9755349;7.1803554;0.42100003361701965;1665661720.5501513;-0.020913878455758095;0.5083453059196472;90.33356475830078
28;1665661720.5877552;46.975535;7.1803555;0.5530000329017639;1665661720.7478166;-0.04827874153852463;0.38712048530578613;90.28929138183594
29;1665661720.7956402;46.975535;7.1803555;0.706000030040741;1665661720.9888852;-0.028011925518512726;0.30084049701690674;90.24685668945312
30;1665661721.0240219;46.975535;7.1803555999999995;0.8980000615119934;1665661721.1889627;0.013354780152440071;0.35754072666168213;90.2168197631836
31;1665661721.2192204;46.975535099999995;7.1803557;1.1110000610351562;1665661721.3880663;0.07764186710119247;0.39821186661720276;90.19659423828125
32;1665661721.4222255;46.975535099999995;7.1803557;1.3440001010894775;1665661721.5930262;-0.023599663749337196;0.3683643639087677;90.15931701660156
33;1665661721.6379216;46.975535099999995;7.1803557;1.5970001220703125;1665661721.8282373;-0.054456766694784164;0.409259557723999;90.21327209472656
34;1665661721.8653245;46.975535099999995;7.1803557;1.8720000982284546;1665661722.1483614;-0.14839982986450195;0.27094027400016785;90.2575912475586
35;1665661722.1844742;46.975535099999995;7.1803557;2.1660001277923584;1665661722.3455124;-0.1049269586801529;0.27264294028282166;90.30294799804688
36;1665661722.3835745;46.975535099999995;7.1803557;2.4770002365112305;1665661722.557301;-0.0443783663213253;0.3587951064109802;90.26099395751953
37;1665661722.6109805;46.975535099999995;7.1803557;2.7800002098083496;1665661722.7720208;0.08447296917438507;0.5152806043624878;90.24163055419922
38;1665661722.8081334;46.975535099999995;7.1803558;3.076000213623047;1665661722.993567;0.10865294933319092;0.586336076259613;90.2656021118164
39;1665661723.0326095;46.975535099999995;7.1803558;3.373000144958496;1665661723.201453;0.13092166185379028;0.6251505017280579;90.2917709350586
40;1665661723.241471;46.975535099999995;7.1803558999999995;3.6720001697540283;1665661723.4288604;0.1672922819852829;0.5517395734786987;90.22431182861328
41;1665661723.4786355;46.975535099999995;7.1803558;3.9690001010894775;1665661723.6435792;0.1680261194705963;0.5542317032814026;90.18824768066406
42;1665661723.685548;46.975535;7.1803558;4.267000198364258;1665661723.855368;0.1590551733970642;0.6318423748016357;90.2304458618164
43;1665661723.8924541;46.975535;7.1803558;4.565999984741211;1665661724.077893;0.2553532123565674;0.6890408396720886;90.2337875366211
44;1665661724.1149876;46.9755349;7.1803558;4.868000030517578;1665661724.2818768;0.23474201560020447;0.686576783657074;90.22290802001953
45;1665661724.3150594;46.9755348;7.1803558;5.169000148773193;1665661724.4897614;0.25834640860557556;0.631813645362854;90.24842834472656
46;1665661724.5307534;46.9755348;7.1803558;5.470000267028809;1665661724.7005758;0.26757824420928955;0.4276680648326874;90.23680877685547
47;1665661724.7357109;46.9755347;7.1803557;5.772000312805176;1665661724.922125;0.18923413753509521;0.3647547960281372;90.25248718261719
48;1665661724.9533556;46.975534599999996;7.1803557;6.074000358581543;1665661725.1114695;0.1415700763463974;0.26532021164894104;90.26162719726562
49;1665661725.1524577;46.975534499999995;7.1803555999999995;6.378000259399414;1665661725.3300893;0.06096316874027252;0.1373146027326584;90.24117279052734
50;1665661725.373031;46.9755344;7.1803555;6.685000419616699;1665661725.5291924;0.018493587151169777;0.031049581244587898;90.24539947509766
51;1665661725.5613997;46.9755343;7.1803555;6.994000434875488;1665661725.7185342;-0.022665737196803093;-0.027439730241894722;90.2398681640625
52;1665661725.762452;46.9755342;7.1803554;7.300000190734863;1665661725.946916;0.027353011071681976;-0.07305075973272324;90.22702026367188
53;1665661725.9830253;46.9755342;7.1803554;7.604000568389893;1665661726.25045;0.10156149417161942;-0.029037687927484512;90.22513580322266
54;1665661726.2885103;46.9755341;7.1803554;7.907000541687012;1665661726.4573557;0.13753415644168854;0.033754244446754456;90.23248291015625
55;1665661726.5003;46.9755341;7.1803554;8.210000038146973;1665661726.6710994;0.17313344776630402;0.06558076292276382;90.24564361572266
56;1665661726.7062342;46.9755342;7.1803554;8.513999938964844;1665661726.88484;0.0858258306980133;0.046406492590904236;90.25300598144531
57;1665661726.9199758;46.9755342;7.1803552999999996;8.821000099182129;1665661727.089799;-0.03750525042414665;0.009568617679178715;90.24700927734375
58;1665661727.134695;46.9755342;7.1803552999999996;9.131999969482422;1665661727.2918284;-0.03047306463122368;-0.02827909216284752;90.23550415039062
59;1665661727.334772;46.9755342;7.180355199999999;9.439000129699707;1665661727.5202103;-0.04438912868499756;0.03204936534166336;90.22958374023438
60;1665661727.568035;46.9755342;7.180355199999999;9.744000434875488;1665661727.7300465;-0.02707771770656109;0.10005854815244675;90.2380599975586
61;1665661727.7700644;46.9755342;7.180355199999999;10.050000190734863;1665661727.926223;0.07401122152805328;0.12837065756320953;90.2334976196289
62;1665661727.9584303;46.9755343;7.180355199999999;10.394000053405762;1665661728.130204;0.20601949095726013;0.12827086448669434;90.2177734375
63;1665661728.1653392;46.9755343;7.180355199999999;10.975000381469727;1665661728.3205202;-0.5045196413993835;0.07374543696641922;90.23927307128906
64;1665661728.3576128;46.9755343;7.1803551;11.620000839233398;1665661728.5430498;-0.37114134430885315;0.19941480457782745;90.23387145996094
65;1665661728.5791643;46.9755343;7.180355199999999;12.197000503540039;1665661728.7509334;0.16193844377994537;0.2228156328201294;90.24239349365234
66;1665661728.7958279;46.9755343;7.180355199999999;12.762001037597656;1665661728.9676032;0.1544080674648285;0.2048465460538864;90.23820495605469
67;1665661729.0095725;46.9755343;7.180355199999999;13.330000877380371;1665661729.178416;0.018581274896860123;0.21506299078464508;90.2353286743164
68;1665661729.212577;46.9755344;7.1803552999999996;13.906001091003418;1665661729.3833768;0.0007161292596720159;0.23829951882362366;90.22511291503906
69;1665661729.4282706;46.9755344;7.1803552999999996;14.49100112915039;1665661729.5941877;0.06411165744066238;0.33553817868232727;90.24542999267578
70;1665661729.628349;46.9755344;7.1803552999999996;15.086000442504883;1665661729.803051;0.05467509478330612;0.36920469999313354;90.24686431884766
71;1665661729.8342834;46.975534499999995;7.1803552999999996;15.681000709533691;1665661730.0099602;0.0826592892408371;0.3142918050289154;90.24536895751953
72;1665661730.0411928;46.975534499999995;7.1803554;16.27400016784668;1665661730.2197993;0.1344384253025055;0.170911967754364;90.23482513427734
73;1665661730.2598162;46.9755344;7.1803554;16.867000579833984;1665661730.4267085;0.16407223045825958;0.19486194849014282;90.22866821289062
74;1665661730.4667256;46.9755344;7.1803555;17.463001251220703;1665661730.6228824;0.1267237812280655;0.3037242591381073;90.23644256591797
75;1665661730.6570408;46.975534499999995;7.1803555;18.06100082397461;1665661730.8219867;0.19195568561553955;0.31275030970573425;90.23133087158203
76;1665661730.861025;46.975534499999995;7.1803555;18.657001495361328;1665661731.024015;0.12976691126823425;0.23268964886665344;90.23108673095703
77;1665661731.066957;46.975534499999995;7.1803555;19.25200080871582;1665661731.2416596;0.14655619859695435;0.14507326483726501;90.2397232055664
78;1665661731.287532;46.975534499999995;7.1803555;19.847000122070312;1665661731.44857;0.08973359316587448;0.06368497759103775;90.23226165771484
79;1665661731.4817567;46.9755344;7.1803555;20.43800163269043;1665661731.6652398;0.08185390383005142;0.07456165552139282;90.22581481933594
80;1665661731.69647;46.9755344;7.1803555;21.033000946044922;1665661731.870197;0.1298707127571106;0.1470358818769455;90.236328125
81;1665661731.9160693;46.9755344;7.1803555;21.62900161743164;1665661732.074178;0.10265061259269714;0.14083679020404816;90.24249267578125
82;1665661732.1141934;46.975534499999995;7.1803555;22.220001220703125;1665661732.2732816;0.05947881191968918;0.24566857516765594;90.2354736328125
83;1665661732.3220809;46.975534499999995;7.1803555;22.810001373291016;1665661732.4831173;0.07453405857086182;0.31743332743644714;90.22777557373047
84;1665661732.5231354;46.975534499999995;7.1803555;23.4010009765625;1665661732.6802726;0.09148706495761871;0.24631915986537933;90.23526000976562
85;1665661732.7261417;46.975534499999995;7.1803555999999995;23.99300193786621;1665661732.879379;0.12210556864738464;0.11890454590320587;90.22439575195312
86;1665661732.912554;46.975534499999995;7.1803555999999995;24.5830020904541;1665661733.1526496;0.13480913639068604;0.11328740417957306;90.22776794433594
87;1665661733.199495;46.975534499999995;7.1803555999999995;25.17300033569336;1665661733.8548582;0.2487601935863495;0.1935945451259613;90.23072052001953
88;1665661733.890967;46.975534499999995;7.1803557;25.761001586914062;1665661734.2462614;0.3449252247810364;0.25235989689826965;90.23754119873047
89;1665661734.286242;46.975534499999995;7.1803558;26.34600067138672;1665661734.4648502;0.3705475926399231;0.2628580331802368;90.24407958984375
90;1665661734.504866;46.975534599999996;7.1803558;26.931001663208008;1665661734.6629786;0.3356141448020935;0.3355334401130676;90.24840545654297
91;1665661734.7078748;46.975534599999996;7.1803558;27.51300048828125;1665661734.8689125;0.3136914074420929;0.3233557641506195;90.24176025390625
92;1665661734.9108787;46.975534599999996;7.1803558;28.095001220703125;1665661735.0865562;0.2820131778717041;0.17746968567371368;90.2401123046875
93;1665661735.1265736;46.975534599999996;7.1803558;28.679000854492188;1665661735.2924905;0.3082796335220337;0.1821182519197464;90.22557067871094
94;1665661735.3247304;46.975534499999995;7.1803558;29.264001846313477;1665661735.5003757;0.3371685743331909;0.20291362702846527;90.24031066894531
95;1665661735.5355113;46.975534499999995;7.1803558;29.85000228881836;1665661735.709238;0.3495529294013977;0.2603868544101715;90.23395538330078
96;1665661735.7433975;46.975534499999995;7.1803558;30.43600082397461;1665661735.9161458;0.31451576948165894;0.26986125111579895;90.23284149169922
97;1665661735.9483533;46.975534499999995;7.1803558;31.0210018157959;1665661736.1211052;0.23279957473278046;0.32928475737571716;90.23512268066406
98;1665661736.1581945;46.975534499999995;7.1803558;31.60500144958496;1665661736.3368006;0.18145078420639038;0.3122424781322479;90.24190521240234
99;1665661736.3719332;46.975534499999995;7.1803557;32.191001892089844;1665661736.8979921;0.20354825258255005;0.273220956325531;90.23381042480469
100;1665661736.9350793;46.975534499999995;7.1803557;32.777000427246094;1665661737.1146638;0.19267384707927704;0.23652757704257965;90.24249267578125
101;1665661737.1595583;46.9755344;7.1803557;33.35900115966797;1665661737.3254774;0.13683760166168213;0.22074897587299347;90.23917388916016
102;1665661737.374275;46.9755344;7.1803557;33.94000244140625;1665661737.535315;0.1871001422405243;0.23472531139850616;90.2333755493164
103;1665661737.5782595;46.9755344;7.1803557;34.522003173828125;1665661737.7344155;0.2056216150522232;0.1754571795463562;90.24576568603516
104;1665661737.7754104;46.9755344;7.1803557;35.104000091552734;1665661737.955966;0.08546198159456253;0.09255525469779968;90.23307037353516
105;1665661737.9920769;46.9755343;7.1803557;35.6870002746582;1665661738.1540904;0.03733056038618088;0.15412195026874542;90.2394027709961
106;1665661738.188252;46.9755343;7.1803557;36.272003173828125;1665661738.3473368;0.1369110494852066;0.20104371011257172;90.23762512207031
107;1665661738.3932085;46.9755343;7.1803557;36.86000061035156;1665661738.5542474;0.2053440809249878;0.17573750019073486;90.2471923828125
108;1665661738.5874338;46.9755343;7.1803558;37.44900131225586;1665661738.7533488;0.20562362670898438;0.1636948138475418;90.24311065673828
109;1665661738.7933664;46.9755343;7.1803558;38.03300094604492;1665661738.9641638;0.26017922163009644;0.19470258057117462;90.23735809326172
110;1665661739.0071063;46.9755343;7.1803558;38.61600112915039;1665661739.1720502;0.29964783787727356;0.2037459909915924;90.22901916503906
111;1665661739.2081609;46.9755343;7.1803558;39.202003479003906;1665661739.372127;0.2210610955953598;0.16518107056617737;90.25353240966797
112;1665661739.4267826;46.9755343;7.1803558;39.7920036315918;1665661739.9743176;0.17050044238567352;0.20524658262729645;90.24765014648438
113;1665661740.0084734;46.9755343;7.1803558;40.38100051879883;1665661740.1685343;0.2864830493927002;0.22328118979930878;90.23807525634766
114;1665661740.210504;46.9755343;7.1803558;40.970001220703125;1665661740.367637;0.2863040864467621;0.21085809171199799;90.23709869384766
115;1665661740.4017973;46.9755343;7.1803558;41.55800247192383;1665661740.5755212;0.22464708983898163;0.22506505250930786;90.24199676513672
116;1665661740.6350572;46.9755343;7.1803558;42.14200210571289;1665661740.8936946;0.2395518273115158;0.23767416179180145;90.23532104492188
117;1665661740.9288316;46.9755343;7.1803558;42.724002838134766;1665661741.0986545;0.2559402585029602;0.20255589485168457;90.2355728149414
118;1665661741.1376917;46.9755343;7.1803558;43.310001373291016;1665661741.315325;0.1326468139886856;0.1657140702009201;90.23658752441406
119;1665661741.3524127;46.9755342;7.1803557;43.897003173828125;1665661741.522236;0.09511837363243103;0.11746055632829666;90.25637817382812
120;1665661741.5720105;46.9755342;7.1803557;44.48500061035156;1665661741.929221;0.11881013214588165;0.13680459558963776;90.24512481689453
121;1665661741.957523;46.9755342;7.1803555999999995;45.07100296020508;1665661742.119538;0.17998932301998138;0.13030634820461273;90.23991394042969
122;1665661742.1546733;46.9755342;7.1803555999999995;45.659000396728516;1665661742.3176646;0.2524939477443695;0.10657662898302078;90.23754119873047
123;1665661742.3557324;46.9755342;7.1803555999999995;46.249000549316406;1665661742.5343332;0.24398767948150635;0.09441700577735901;90.23236083984375
124;1665661742.5733728;46.9755342;7.1803555999999995;46.8390007019043;1665661742.73051;0.2297937572002411;0.12107454240322113;90.24288940429688
125;1665661742.7715008;46.9755341;7.1803555999999995;47.43000411987305;1665661742.9344895;0.23917891085147858;-0.022792959585785866;90.24320220947266
126;1665661742.975481;46.9755341;7.1803555999999995;48.02100372314453;1665661743.1394498;0.2573404312133789;0.036520857363939285;90.24950408935547
127;1665661743.1765344;46.9755341;7.1803555;48.612003326416016;1665661743.3561194;0.2575644254684448;0.1072143167257309;90.23719787597656
128;1665661743.391256;46.9755341;7.1803555;49.20500183105469;1665661743.5766916;0.230757474899292;0.08042964339256287;90.23155975341797
129;1665661743.613778;46.9755342;7.1803555;49.798004150390625;1665661743.7767696;0.2290637195110321;0.19016388058662415;90.24214172363281
130;1665661743.8158112;46.9755342;7.1803554;50.39200210571289;1665661743.983681;0.1801651120185852;0.18835097551345825;90.24557495117188
131;1665661744.0168643;46.9755342;7.1803554;50.98800277709961;1665661744.178877;0.23934541642665863;0.09519307315349579;90.24156188964844
132;1665661744.2179163;46.9755342;7.1803554;51.583003997802734;1665661744.3887155;0.25142180919647217;0.03958333283662796;90.23435974121094
133;1665661744.4287307;46.9755342;7.1803554;52.177001953125;1665661744.5897686;0.24926210939884186;0.04046047106385231;90.2280502319336
134;1665661744.6375957;46.9755342;7.1803552999999996;52.77100372314453;1665661744.8074148;0.17882856726646423;0.052710872143507004;90.2404556274414
135;1665661744.8484097;46.9755342;7.1803552999999996;53.368003845214844;1665661745.0231106;0.1206618919968605;0.057974327355623245;90.24150085449219
136;1665661745.0621507;46.9755342;7.1803552999999996;53.96600341796875;1665661745.2544222;0.20291513204574585;0.06070685014128685;90.23982238769531
137;1665661745.2905285;46.9755343;7.1803552999999996;54.56300354003906;1665661745.4525435;0.2653016746044159;0.012053558602929115;90.24188232421875
138;1665661745.4925597;46.9755342;7.1803552999999996;55.16100311279297;1665661745.6623816;0.06783738732337952;-0.10234493017196655;90.24266815185547
139;1665661745.7023983;46.9755343;7.1803552999999996;55.7390022277832;1665661745.8614838;0.007976236753165722;-0.0885227620601654;90.2380599975586
140;1665661745.9063787;46.9755343;7.180355199999999;56.22500228881836;1665661746.075226;0.15776091814041138;-0.05399938300251961;90.24713134765625
141;1665661746.1171944;46.9755343;7.180355199999999;56.643001556396484;1665661746.294824;0.17826539278030396;0.05907706543803215;90.24667358398438
142;1665661746.33679;46.9755344;7.180355199999999;57.00400161743164;1665661746.5046632;0.1050579622387886;0.13830046355724335;90.24202728271484
143;1665661746.5388234;46.9755344;7.180355199999999;57.31200408935547;1665661746.6959562;0.069284588098526;0.13216538727283478;90.25203704833984
144;1665661746.7408543;46.9755344;7.180355199999999;57.58000183105469;1665661746.9106743;0.07394932210445404;0.09619482606649399;90.22786712646484
145;1665661746.9555676;46.975534499999995;7.1803552999999996;57.81200408935547;1665661747.1195364;0.11623384803533554;0.12296750396490097;90.23155212402344
146;1665661747.1585739;46.975534499999995;7.1803552999999996;58.00700378417969;1665661747.7614064;0.15477223694324493;0.27610287070274353;90.23384094238281
147;1665661747.7672594;46.975534599999996;7.1803552999999996;58.17500305175781;1665661747.8219144;2.0885612964630127;-1.6077145338058472;89.70471954345703
148;1665661747.841433;46.9755347;7.1803554;58.31900405883789;1665661747.94684;21.100479125976562;-24.47351837158203;79.98040771484375
149;1665661747.97124;46.975535199999996;7.180354599999999;58.500003814697266;1665661748.1069067;32.345733642578125;-45.984432220458984;67.49978637695312
150;1665661748.1449683;46.9755373;7.180351;58.71600341796875;1665661748.2803702;22.483530044555664;-56.61882781982422;60.40318298339844
151;1665661748.313543;46.975541799999995;7.1803437;58.900001525878906;1665661748.471656;-0.4710868299007416;-58.220863342285156;50.69185256958008
152;1665661748.517525;46.9755489;7.1803329;59.051002502441406;1665661748.6668513;-18.411710739135742;-54.12834167480469;37.68218231201172
153;1665661748.7019866;46.975558299999996;7.1803197999999995;59.176002502441406;1665661748.8552194;-32.29763412475586;-48.30496597290039;23.18930435180664
154;1665661748.8913085;46.9755694;7.1803047;59.27900314331055;1665661749.0654798;-40.05106735229492;-42.82902526855469;9.55517864227295
155;1665661749.103543;46.9755817;7.180288;59.349002838134766;1665661749.2626283;-44.29331588745117;-37.56363296508789;-1.7188498973846436
156;1665661749.2967887;46.975594799999996;7.180269699999999;59.38300323486328;1665661749.4685645;-48.33523178100586;-26.647180557250977;-11.01688289642334
157;1665661749.5066295;46.9756084;7.180250099999999;59.384002685546875;1665661749.6715677;-49.640602111816406;-16.349721908569336;-16.177228927612305
158;1665661749.721347;46.975622699999995;7.1802297;59.380001068115234;1665661749.8794553;-48.56154251098633;-10.133613586425781;-19.22426986694336
159;1665661749.9204469;46.9756377;7.180209199999999;59.35400390625;1665661750.0834384;-48.10042190551758;-7.194938659667969;-24.468982696533203
160;1665661750.1215;46.975653199999996;7.1801889999999995;59.3180046081543;1665661750.2805893;-48.86231231689453;-5.871027946472168;-25.443815231323242
161;1665661750.3157225;46.9756692;7.1801691;59.285003662109375;1665661750.4982314;-44.94345474243164;-3.6337013244628906;-15.503049850463867
162;1665661750.5441062;46.9756856;7.1801498;59.23400115966797;1665661750.7061174;-44.23051071166992;-11.821211814880371;-5.902717590332031
163;1665661750.7412548;46.9757025;7.180131599999999;59.19700241088867;1665661750.9052205;-52.22958755493164;-25.196941375732422;-15.07692813873291
164;1665661750.9413335;46.9757198;7.1801137;59.185001373291016;1665661751.1092043;-62.13309860229492;-28.471088409423828;-33.098880767822266
165;1665661751.1462886;46.975737099999996;7.1800938;59.15500259399414;1665661751.309282;-66.85911560058594;-12.970416069030762;-46.61748123168945
166;1665661751.3453913;46.9757537;7.1800698999999994;59.11900329589844;1665661751.5220468;-60.265296936035156;18.313262939453125;-54.131629943847656
167;1665661751.5571818;46.9757707;7.1800429;59.11100387573242;1665661751.729935;-52.82115936279297;40.71614456176758;-40.63442611694336
168;1665661751.7621396;46.975789299999995;7.180017299999999;59.092002868652344;1665661752.2725813;-54.39616775512695;33.91646194458008;-22.618345260620117
169;1665661752.3077197;46.9758096;7.179996999999999;59.03200149536133;1665661752.4882784;-48.6717414855957;14.406956672668457;-19.587692260742188
170;1665661752.873808;46.975831299999996;7.1799824;59.035003662109375;1665661753.0416772;-52.87514114379883;-36.86394119262695;-19.568225860595703
171;1665661753.0738878;46.9758535;7.1799688999999995;59.103004455566406;1665661753.233951;-63.12493133544922;-91.35662078857422;-1.0568511486053467
172;1665661753.268109;46.975873299999996;7.179950799999999;59.009002685546875;1665661753.4418328;-80.20237731933594;-90.08857727050781;-14.671870231628418
173;1665661753.486733;46.975887;7.179922299999999;58.58900451660156;1665661753.6448436;-38.255924224853516;-12.189000129699707;-95.95741271972656
174;1665661753.6868067;46.9758942;7.1798873;58.228004455566406;1665661753.859558;-14.885631561279297;27.500215530395508;-74.91482543945312
175;1665661753.903477;46.975898799999996;7.1798547;58.47700119018555;1665661754.0674431;-24.273977279663086;87.97974395751953;-74.80841827392578
176;1665661754.1260037;46.9759045;7.179826599999999;58.708003997802734;1665661754.2880197;-53.51430892944336;76.98152923583984;-69.14894104003906
177;1665661754.3807356;46.9759162;7.179807299999999;58.62900161743164;1665661754.53592;-68.13572692871094;-1.611169695854187;-13.183385848999023
178;1665661754.5808134;46.9759356;7.179794599999999;58.53200149536133;1665661754.7242851;-25.986526489257812;-47.34991455078125;-8.240450859069824
179;1665661754.7594202;46.975958;7.179780699999999;58.64500427246094;1665661754.9253373;6.638194561004639;-92.78809356689453;-16.46224594116211
180;1665661754.965357;46.975978;7.1797642999999995;58.61000442504883;1665661755.2182686;-0.9879823327064514;-42.94137191772461;5.4868574142456055
181;1665661755.2446413;46.9759929;7.179742;58.467002868652344;1665661755.3714986;-42.39204788208008;31.44101905822754;24.996362686157227
182;1665661755.4124916;46.976005699999995;7.1797207;58.78700256347656;1665661755.5871928;-59.635677337646484;90.93534088134766;19.701705932617188
183;1665661755.6233056;46.9760165;7.179704;58.92200469970703;1665661755.7784986;-52.31731414794922;50.99444580078125;39.97465896606445
184;1665661755.8087547;46.976023399999995;7.1796980999999995;58.814002990722656;1665661755.972721;-36.1386604309082;13.641156196594238;54.96835708618164
185;1665661756.0088344;46.976028;7.179702799999999;58.79300308227539;1665661756.270397;-27.76595687866211;-9.20720386505127;54.22733688354492
186;1665661756.306508;46.9760323;7.1797106;58.84100341796875;1665661756.4851153;-37.48415756225586;-25.823837280273438;53.65126037597656
187;1665661756.5241551;46.9760377;7.1797192999999995;58.91400146484375;1665661756.695929;-35.190608978271484;-37.55244445800781;44.63268280029297
188;1665661756.7281358;46.9760451;7.1797273;58.97900390625;1665661756.8950303;-31.26687240600586;-49.18210983276367;30.540687561035156
189;1665661756.931142;46.9760546;7.1797324;59.038002014160156;1665661757.1088283;-33.32643127441406;-47.93220901489258;19.488414764404297
190;1665661757.1444244;46.9760658;7.179732899999999;59.086002349853516;1665661757.3074117;-36.31093978881836;-30.492271423339844;10.342879295349121
191;1665661757.352308;46.9760777;7.1797295;59.11300277709961;1665661757.5104184;-31.047901153564453;-5.926321506500244;1.6760540008544922
192;1665661757.5436022;46.9760901;7.179724299999999;59.130001068115234;1665661757.8110244;-14.91738510131836;-4.064812183380127;-1.9804465770721436
193;1665661757.8461618;46.9761022;7.1797191;59.13500213623047;1665661758.0247655;5.289466857910156;-13.619767189025879;-14.606758117675781
194;1665661758.068686;46.976113;7.179713899999999;59.11300277709961;1665661758.2375324;23.55643081665039;-24.732873916625977;-26.86955451965332
195;1665661758.282432;46.976121299999996;7.1797086;59.07600402832031;1665661758.4415143;26.13686752319336;-31.693815231323242;-31.673480987548828
196;1665661758.475674;46.976126099999995;7.1797032;59.0680046081543;1665661758.658182;17.063541412353516;-33.84322738647461;-37.73268508911133
197;1665661758.6923437;46.9761277;7.1796972;59.0880012512207;1665661758.8650942;6.254438877105713;-32.29560089111328;-47.64334487915039
198;1665661758.90023;46.9761272;7.1796907999999995;59.09400177001953;1665661759.2291796;-2.1629600524902344;-25.96588897705078;-58.51823806762695
199;1665661759.26334;46.9761251;7.1796842;59.08100128173828;1665661759.4399931;-7.128507137298584;-15.053644180297852;-69.34716033935547
200;1665661759.4751284;46.9761222;7.1796774999999995;59.05000305175781;1665661759.643974;-9.361176490783691;-0.8289376497268677;-79.6258316040039
201;1665661759.6800869;46.9761191;7.179671;59.00800323486328;1665661759.8518636;-7.721951961517334;1.5478435754776;-88.15435791015625
202;1665661759.8918765;46.976116499999996;7.179664799999999;58.97200393676758;1665661760.0451066;-11.975451469421387;-15.774436950683594;-97.60027313232422
203;1665661760.0948863;46.976113999999995;7.1796589;58.958003997802734;1665661760.2510426;-14.695777893066406;-16.621204376220703;-107.81743621826172
204;1665661760.4355073;46.976110999999996;7.1796533;58.95500183105469;1665661760.899098;-13.942207336425781;-7.715341091156006;-115.0681381225586
205;1665661760.9352102;46.9761075;7.1796479;58.954002380371094;1665661761.1596885;-4.935699462890625;19.29909324645996;-104.83263397216797
206;1665661761.2036073;46.976104299999996;7.179642599999999;58.97200393676758;1665661761.3695273;-5.834880828857422;40.51695251464844;-88.21174621582031
207;1665661761.4163747;46.976102999999995;7.1796375;59.02900314331055;1665661761.5744846;-13.946074485778809;35.39308547973633;-78.4593276977539
208;1665661761.6076694;46.976104199999995;7.179632799999999;59.057003021240234;1665661761.7794414;-37.415916442871094;33.1943473815918;-69.62061309814453
209;1665661761.817504;46.976107899999995;7.179627999999999;59.12900161743164;1665661761.9980636;-54.41571044921875;23.923583984375;-56.95178985595703
210;1665661762.034175;46.9761144;7.1796219;59.21900177001953;1665661762.2024195;-59.76103210449219;8.214934349060059;-45.596065521240234
211;1665661762.2463372;46.976123699999995;7.179613499999999;59.29600143432617;1665661762.415186;-60.825828552246094;-4.716634273529053;-37.930660247802734
212;1665661762.4600794;46.9761354;7.179602;59.375003814697266;1665661762.6289268;-60.6263542175293;-7.7861738204956055;-34.72957992553711
213;1665661762.6640964;46.976148699999996;7.179587199999999;59.45000457763672;1665661762.8465712;-58.98723220825195;-3.1663002967834473;-36.73444366455078
214;1665661762.882685;46.976163299999996;7.1795699;59.50700378417969;1665661763.057386;-55.635643005371094;-1.0470750331878662;-37.867733001708984
215;1665661763.0934966;46.9761789;7.179551099999999;59.54300308227539;1665661763.314073;-52.934757232666016;-0.9678242802619934;-38.729644775390625
216;1665661763.3501835;46.9761952;7.1795313;59.56300354003906;1665661763.5346456;-49.25657653808594;-0.769359290599823;-39.78269958496094
217;1665661763.5736852;46.9762117;7.1795108999999995;59.557003021240234;1665661763.7454584;-46.553504943847656;0.8142744898796082;-40.604801177978516
218;1665661763.779621;46.976228299999995;7.1794902;59.535003662109375;1665661763.9533458;-51.204654693603516;2.458099126815796;-39.852760314941406
219;1665661763.9933622;46.976245;7.1794693999999994;59.518001556396484;1665661764.1573255;-57.357295989990234;-0.3595474064350128;-38.60211181640625
220;1665661764.2002718;46.9762621;7.1794486;59.4890022277832;1665661764.3642368;-57.75108337402344;-2.1280107498168945;-39.813934326171875
221;1665661764.3983977;46.9762797;7.1794271;59.43800354003906;1665661764.5848098;-51.02650833129883;-1.6859720945358276;-41.3117561340332
222;1665661764.6209245;46.976297599999995;7.1794047;59.380001068115234;1665661764.8053834;-45.398067474365234;-0.7660878300666809;-41.69892120361328
223;1665661764.8454003;46.9763154;7.1793819;59.33700180053711;1665661765.0230305;-43.506248474121094;3.5115230083465576;-41.8924674987793
224;1665661765.056213;46.976332899999996;7.1793594;59.294002532958984;1665661765.2164097;-42.359519958496094;3.306103229522705;-38.92677307128906
225;1665661765.2534976;46.9763503;7.1793375;59.24500274658203;1665661765.4272244;-39.32132339477539;0.7019399404525757;-37.699623107910156
226;1665661765.4613838;46.9763673;7.179316399999999;59.191001892089844;1665661765.639014;-35.09011459350586;-1.0867584943771362;-39.56636428833008
227;1665661765.6761017;46.9763838;7.179296099999999;59.13200378417969;1665661765.9161937;-31.66837501525879;-1.5592939853668213;-41.58656692504883
228;1665661765.953281;46.9763995;7.1792767;59.06900405883789;1665661766.1338403;-28.16319465637207;-0.38370412588119507;-42.128387451171875
229;1665661766.169951;46.976414299999995;7.179258099999999;59.00300216674805;1665661766.3544154;-24.166011810302734;0.9396438002586365;-41.1080207824707
230;1665661766.3875973;46.9764281;7.1792406;58.932003021240234;1665661766.5564442;-19.864898681640625;1.6814314126968384;-40.309139251708984
231;1665661766.5915792;46.9764409;7.179224499999999;58.86300277709961;1665661766.7526164;-15.978551864624023;1.4263455867767334;-40.521671295166016
232;1665661766.7887309;46.976452699999996;7.179209999999999;58.79600143432617;1665661767.0600567;-12.623066902160645;0.3524201214313507;-40.873470306396484
233;1665661767.1078777;46.9764632;7.1791969;58.733001708984375;1665661767.2728205;-9.301628112792969;0.10799838602542877;-41.135013580322266
234;1665661767.3069792;46.9764725;7.179185299999999;58.67900466918945;1665661767.4934514;-5.741849899291992;0.613693356513977;-41.38337326049805
235;1665661767.5276217;46.9764808;7.1791751999999995;58.638004302978516;1665661767.6945179;-3.2858338356018066;0.08222169429063797;-41.40757369995117
236;1665661767.7286756;46.976487899999995;7.1791665;58.61100387573242;1665661767.8916674;-1.5338685512542725;-0.6615217924118042;-41.67696762084961
237;1665661767.9336343;46.976493999999995;7.179158999999999;58.59400177001953;1665661768.0917454;0.6688233017921448;-0.16163602471351624;-42.168434143066406
238;1665661768.1444492;46.9764991;7.1791528;58.58400344848633;1665661768.3025572;1.1243350505828857;-0.7478277683258057;-42.45676040649414
239;1665661768.3406239;46.976503199999996;7.179147599999999;58.5780029296875;1665661768.5094678;1.9343394041061401;-0.3837472200393677;-43.08445358276367
240;1665661768.5465603;46.9765066;7.1791434;58.5780029296875;1665661768.704667;1.8780425786972046;-0.6215553283691406;-43.51420974731445
241;1665661768.7524939;46.9765093;7.179139999999999;58.58700180053711;1665661768.9145043;1.8125920295715332;-0.6303335428237915;-44.00482177734375
242;1665661768.948664;46.9765114;7.1791371999999996;58.60000228881836;1665661769.1262956;1.6628892421722412;-0.37685754895210266;-44.52342987060547
243;1665661769.1643586;46.9765131;7.1791351;58.6140022277832;1665661769.3244195;1.1732301712036133;-0.45196250081062317;-45.06604766845703
244;1665661769.3595588;46.9765143;7.1791333999999996;58.630001068115234;1665661769.5332813;0.5848060846328735;-0.4408527612686157;-45.50290298461914
245;1665661769.572321;46.976515299999996;7.1791320999999995;58.647003173828125;1665661769.7519026;0.13367001712322235;-0.3922784626483917;-45.48811340332031
246;1665661769.7909427;46.9765161;7.179131;58.66400146484375;1665661769.9490554;-0.03516006097197533;-0.3051878809928894;-45.281776428222656
247;1665661770.1858346;46.9765168;7.1791301;58.68400192260742;1665661770.3498013;-13.07614803314209;0.4731568396091461;-47.807228088378906
248;1665661770.3868916;46.9765174;7.179129199999999;58.71400451660156;1665661770.6008918;-44.10783767700195;3.3804807662963867;-51.29404067993164
249;1665661770.6320958;46.976518899999995;7.1791269;58.82600402832031;1665661770.7921548;-59.0709228515625;2.586637258529663;-51.07040023803711
250;1665661770.8282702;46.976522499999994;7.1791212;58.974002838134766;1665661771.0019932;-61.71360397338867;-4.423064231872559;-50.07673645019531
251;1665661771.037128;46.9765285;7.1791111999999995;59.10000228881836;1665661771.2069533;-58.99591827392578;-2.387279748916626;-51.054229736328125
252;1665661771.2391598;46.9765364;7.1790968;59.208003997802734;1665661771.4050758;-54.83491134643555;4.716512680053711;-49.92252731323242
253;1665661771.4480202;46.9765458;7.1790793;59.29700469970703;1665661771.6119893;-51.04694366455078;4.742209434509277;-46.377784729003906
254;1665661771.6539543;46.9765565;7.1790606;59.362003326416016;1665661771.8140197;-47.24266052246094;-0.8029367923736572;-46.65743637084961
255;1665661771.8432953;46.976568;7.1790414;59.39200210571289;1665661772.0150743;-43.507598876953125;-3.3451077938079834;-49.90068054199219
256;1665661772.0502057;46.976579799999996;7.1790216;59.39200210571289;1665661772.242478;-45.22431564331055;-3.186173677444458;-51.42356491088867
257;1665661772.2815163;46.9765915;7.1790012999999995;59.388004302978516;1665661772.541129;-50.3616943359375;2.1054515838623047;-50.9523811340332
258;1665661772.5743155;46.9766032;7.1789803;59.387001037597656;1665661772.7353518;-51.95832443237305;2.8963117599487305;-48.3482780456543
259;1665661772.7753687;46.9766154;7.178959;59.36900329589844;1665661772.949094;-51.4716796875;0.5068967342376709;-47.68418502807617
260;1665661772.9891086;46.9766282;7.1789372;59.345001220703125;1665661773.1520987;-50.69600296020508;-1.436934471130371;-49.058502197265625
261;1665661773.193093;46.9766414;7.1789147;59.32100296020508;1665661773.3551044;-50.349609375;-0.8900375962257385;-50.2992057800293
262;1665661773.3990278;46.9766549;7.178891699999999;59.30000305175781;1665661773.5629916;-50.12670135498047;0.9508324861526489;-50.107872009277344
263;1665661773.6235018;46.9766684;7.178868199999999;59.2760009765625;1665661773.7943006;-49.89860916137695;1.7061978578567505;-48.990726470947266
264;1665661773.8411481;46.9766822;7.1788444;59.25100326538086;1665661774.1154015;-49.735069274902344;0.6546476483345032;-48.34108352661133
265;1665661774.1554163;46.9766962;7.1788206;59.230003356933594;1665661774.320358;-49.65028762817383;-0.7319206595420837;-48.83187484741211
266;1665661774.358422;46.976710399999995;7.1787965;59.20900344848633;1665661774.5106807;-49.58607482910156;-0.858924925327301;-49.78749465942383
267;1665661774.5604572;46.9767246;7.1787722;59.19000244140625;1665661774.7146597;-49.47011184692383;0.363936185836792;-50.09054183959961
268;1665661774.7537003;46.9767389;7.1787475999999995;59.17500305175781;1665661774.9303522;-49.3587760925293;1.2982993125915527;-49.44878387451172
269;1665661774.971346;46.9767533;7.1787228999999995;59.160003662109375;1665661775.1343353;-49.29888916015625;0.8530417084693909;-48.67075729370117
270;1665661775.171423;46.9767678;7.1786981999999995;59.14500427246094;1665661775.334413;-42.675537109375;-0.6563596129417419;-48.72457504272461
271;1665661775.3783338;46.9767824;7.1786734999999995;59.1150016784668;1665661775.553035;-26.120580673217773;1.0133212804794312;-49.90019226074219
272;1665661775.591103;46.9767965;7.1786498;59.05900192260742;1665661775.76385;-24.884342193603516;-0.8556048274040222;-48.9093132019043
273;1665661775.8019114;46.976809599999996;7.178627499999999;59.00200271606445;1665661775.97271;-27.025970458984375;-1.4055415391921997;-49.50840759277344
274;1665661776.0097983;46.9768219;7.1786067;58.94400405883789;1665661776.1923082;-25.014080047607422;-1.151685357093811;-50.012786865234375
275;1665661776.2284188;46.976833199999994;7.1785871;58.88500213623047;1665661776.3982415;-21.859424591064453;0.3227024972438812;-49.90985107421875
276;1665661776.4363048;46.976843699999996;7.1785688;58.83000183105469;1665661776.58856;-18.63469123840332;1.2791739702224731;-49.36528015136719
277;1665661776.6324787;46.976853399999996;7.1785521;58.77700424194336;1665661776.7974203;-14.823122024536133;1.0380783081054688;-49.25984573364258
278;1665661776.8472004;46.9768622;7.1785369;58.72700119018555;1665661777.0150661;-10.818798065185547;0.37351489067077637;-49.37250900268555
279;1665661777.0502038;46.9768702;7.178523299999999;58.68000411987305;1665661777.3371432;-7.462637901306152;0.18510906398296356;-49.447837829589844
280;1665661777.3722782;46.9768772;7.178511299999999;58.6410026550293;1665661777.5352693;-4.2711358070373535;0.007549327798187733;-49.50044631958008
281;1665661777.5821168;46.9768834;7.178500799999999;58.61300277709961;1665661777.740227;-1.6137311458587646;-0.06987697631120682;-49.46271514892578
282;1665661777.7861013;46.976888699999996;7.1784918;58.59800338745117;1665661777.944209;0.10063521564006805;0.18882419168949127;-49.498878479003906
283;1665661777.9803224;46.9768932;7.1784843;58.59300231933594;1665661778.150145;1.3889968395233154;0.0684666857123375;-49.61431884765625
284;1665661778.1843023;46.9768969;7.178477999999999;58.596004486083984;1665661778.3502216;2.315951347351074;-0.08364991098642349;-49.5902214050293
285;1665661778.3873086;46.9768999;7.1784729;58.60100173950195;1665661778.5620115;2.427161693572998;-0.15790630877017975;-49.70466995239258
286;1665661778.6039815;46.9769023;7.1784688999999995;58.6150016784668;1665661778.7728248;2.27132248878479;-0.11437643319368362;-49.89217758178711
287;1665661778.812842;46.9769042;7.178465699999999;58.63300323486328;1665661778.9933984;2.135162353515625;-0.5142879486083984;-50.2850227355957
288;1665661779.038296;46.9769058;7.1784633;58.650001525878906;1665661779.1895716;1.619197130203247;-0.5556818842887878;-50.859859466552734
289;1665661779.226663;46.976906899999996;7.1784612999999995;58.6670036315918;1665661779.8932607;0.9784966707229614;-0.40507760643959045;-51.322628021240234
290;1665661779.9274209;46.9769078;7.1784598;58.68400192260742;1665661780.0874822;0.5370189547538757;-0.1986752301454544;-51.29463577270508
291;1665661780.1206686;46.9769085;7.1784585;58.70100402832031;1665661780.2865846;0.3585825264453888;-0.2281450629234314;-51.11289978027344
292;1665661780.3295314;46.9769091;7.1784574;58.71900177001953;1665661780.4866645;4.856032848358154;8.011531829833984;-46.590885162353516
293;1665661780.5208223;46.9769096;7.1784569;58.81300354003906;1665661780.6925986;6.108509540557861;14.195337295532227;-34.80254364013672
294;1665661780.728709;46.9769102;7.1784579;59.163002014160156;1665661780.8907232;-0.6040417551994324;14.984197616577148;-25.055686950683594
295;1665661780.9248822;46.976911;7.178459999999999;59.53300094604492;1665661781.0976334;-19.276899337768555;37.1275520324707;-15.590097427368164
296;1665661781.1444814;46.9769126;7.178464;59.967002868652344;1665661781.2996633;-40.79671096801758;45.57460021972656;-5.894711971282959
297;1665661781.337728;46.976916599999996;7.178471999999999;60.470001220703125;1665661781.5260959;-55.66062927246094;32.84355926513672;5.7932024002075195
298;1665661781.5641572;46.976923899999996;7.178485299999999;60.974002838134766;1665661781.7477634;-55.3208122253418;19.069656372070312;18.623014450073242
299;1665661781.7809484;46.9769346;7.178502399999999;61.48500442504883;1665661781.9507694;-47.724281311035156;13.401379585266113;29.098411560058594
300;1665661781.9917622;46.9769472;7.1785216;61.98600387573242;1665661782.1635358;-42.33885955810547;6.798303604125977;37.36528396606445
301;1665661782.2006226;46.9769606;7.178541699999999;62.452003479003906;1665661782.3675153;-38.9992561340332;-0.36754557490348816;42.821266174316406
302;1665661782.3997247;46.9769741;7.178561999999999;62.8800048828125;1665661782.575607;-37.969322204589844;-0.5189195871353149;46.254478454589844
303;1665661782.6156204;46.976987699999995;7.178582;63.269004821777344;1665661782.7786117;-46.141563415527344;-3.2208337783813477;50.750640869140625
304;1665661782.8147256;46.9770013;7.178601899999999;63.650001525878906;1665661782.9855208;-51.23786163330078;-5.952219486236572;48.70315170288086
305;1665661783.0187032;46.977015099999996;7.1786221999999995;63.99700164794922;1665661783.1816945;-51.03470993041992;-5.456317901611328;44.45335006713867
306;1665661783.2217088;46.977029699999996;7.1786429;64.31300354003906;1665661783.3954363;-48.95709991455078;-0.699748158454895;43.12675857543945
307;1665661783.4422824;46.9770452;7.1786636999999995;64.63300323486328;1665661783.6121066;-48.300724029541016;4.024913787841797;44.89326858520508
308;1665661783.6482162;46.977061;7.1786851;64.96900177001953;1665661783.8087068;-48.948097229003906;2.4797792434692383;46.98780822753906
309;1665661783.8438442;46.9770767;7.1787075;65.31200408935547;1665661784.1268814;-48.860267639160156;-3.3829758167266846;46.529014587402344
310;1665661784.1756785;46.9770925;7.1787304;65.6570053100586;1665661784.335741;-48.16057586669922;-5.147953033447266;43.49264144897461
311;1665661784.4762828;46.977108699999995;7.1787534;66.00300598144531;1665661784.638299;-35.06718444824219;1.7159589529037476;40.2440185546875
312;1665661784.6695318;46.977125199999996;7.1787757999999995;66.31000518798828;1665661784.9506137;-17.670494079589844;7.625149250030518;41.937171936035156
313;1665661785.2102273;46.9771408;7.178797299999999;66.5780029296875;1665661785.375172;-21.975238800048828;4.284765720367432;46.45915985107422
314;1665661785.4142091;46.977154999999996;7.1788172999999995;66.81999969482422;1665661785.6972466;-25.344573974609375;0.7144668102264404;47.29508590698242
315;1665661785.7294536;46.9771679;7.1788362;67.02799987792969;1665661785.9012299;-23.611284255981445;-1.049696922302246;45.592041015625
316;1665661785.9402702;46.977179799999995;7.1788538;67.20600128173828;1665661786.1003323;-19.915313720703125;-0.9886614084243774;44.61007308959961
317;1665661786.1432767;46.977191;7.178870099999999;67.35600280761719;1665661786.3335946;-16.204166412353516;0.14147637784481049;45.07227325439453
318;1665661786.3745868;46.977201199999996;7.178884999999999;67.4800033569336;1665661786.5356226;-12.522186279296875;0.9246780276298523;45.77062225341797
319;1665661786.5756385;46.9772105;7.1788985;67.59000396728516;1665661786.8459868;-9.441554069519043;0.9946439862251282;45.95339584350586
320;1665661786.881122;46.977218799999996;7.1789106;67.70800018310547;1665661787.0470417;-6.153685092926025;0.7240449786186218;45.9379997253418
321;1665661787.0812001;46.977225999999995;7.178921399999999;67.81900024414062;1665661787.2539525;-3.3295066356658936;0.4223460853099823;45.96965026855469
322;1665661787.2968936;46.9772323;7.1789306999999996;67.91699981689453;1665661787.4774535;-1.092130422592163;0.27819496393203735;45.989707946777344
323;1665661787.5106418;46.9772375;7.1789385999999995;68.00300598144531;1665661787.9237592;0.3783920109272003;0.2953902781009674;46.03736114501953
324;1665661787.9628012;46.977242;7.1789453;68.09000396728516;1665661788.1179817;1.2534161806106567;0.32869988679885864;46.15483474731445
325;1665661788.1628795;46.9772457;7.1789507;68.17500305175781;1665661788.3229394;1.894258737564087;0.29544174671173096;46.299774169921875
326;1665661788.3610024;46.977248599999996;7.178955299999999;68.2490005493164;1665661788.5318005;2.187612533569336;0.12633679807186127;46.35125732421875
327;1665661788.5698643;46.977250999999995;7.1789589;68.31900024414062;1665661788.7328563;2.1124041080474854;-0.14633223414421082;46.1972541809082
328;1665661788.7699437;46.977252799999995;7.1789619;68.39000701904297;1665661788.9436688;1.7907052040100098;-0.2705758512020111;45.954654693603516
329;1665661788.9749022;46.9772543;7.1789641;68.44900512695312;1665661789.1320364;1.2882285118103027;-0.27263298630714417;45.86267852783203
330;1665661789.1720521;46.9772554;7.178965799999999;68.50200653076172;1665661789.3448;0.727273166179657;-0.1581185758113861;45.932132720947266
331;1665661789.3818896;46.9772563;7.1789670999999995;68.54900360107422;1665661789.558543;0.18462280929088593;-0.0985231101512909;45.97678756713867
332;1665661789.594655;46.977257099999996;7.1789681;68.59000396728516;1665661789.7566698;-0.20291359722614288;-0.1094544306397438;45.99229049682617
333;1665661789.7966855;46.977257699999996;7.1789689999999995;68.62700653076172;1665661789.980171;6.545210361480713;13.513143539428711;50.905540466308594
334;1665661790.020186;46.977258;7.1789698;68.67500305175781;1665661790.196841;3.6368343830108643;16.272701263427734;61.80694580078125
335;1665661790.240763;46.9772575;7.1789708;68.72100067138672;1665661790.4242454;-13.484053611755371;29.3486385345459;72.35338592529297
336;1665661790.4662158;46.9772561;7.1789724999999995;68.78900146484375;1665661790.640916;-35.21318054199219;40.545684814453125;83.02243041992188
337;1665661790.6760526;46.977252899999996;7.1789762999999995;68.92300415039062;1665661790.8400202;-52.21723556518555;31.178627014160156;95.05867004394531
338;1665661790.8771055;46.977247399999996;7.1789834;69.0510025024414;1665661791.0537596;-58.349952697753906;15.952884674072266;107.32391357421875
339;1665661791.0908484;46.9772398;7.1789944;69.16500091552734;1665661791.259694;-56.24544143676758;11.40863037109375;115.70734405517578
340;1665661791.2987342;46.9772308;7.1790091;69.2560043334961;1665661791.4675806;-52.868587493896484;11.350638389587402;124.7244644165039
341;1665661791.506619;46.9772205;7.1790262;69.33100128173828;1665661791.6735137;-49.511138916015625;3.153546094894409;133.7722930908203
342;1665661791.7184095;46.977209099999996;7.1790442;69.3800048828125;1665661791.8960373;-45.778682708740234;-6.293450355529785;137.4402618408203
343;1665661791.942894;46.9771971;7.179062999999999;69.4010009765625;1665661792.1136844;-42.27323532104492;-9.371769905090332;129.19305419921875
344;1665661792.1517482;46.9771852;7.1790825;69.39100646972656;1665661792.3391402;-36.85794448852539;-3.4890410900115967;111.96929931640625
345;1665661792.369394;46.977174;7.179102599999999;69.34300231933594;1665661792.5265288;-27.148399353027344;3.7903594970703125;99.97882080078125
346;1665661792.569471;46.9771638;7.1791225999999995;69.26700592041016;1665661792.7314866;-37.32369613647461;16.57231330871582;106.13814544677734
347;1665661792.760767;46.977154299999995;7.179142199999999;69.24600219726562;1665661792.9501102;-53.38636779785156;20.65557289123535;124.59385681152344
348;1665661792.9862182;46.9771443;7.1791617;69.23800659179688;1665661793.134569;-62.322479248046875;8.034058570861816;139.17965698242188
349;1665661793.1697052;46.9771322;7.1791811999999995;69.22000122070312;1665661793.3326967;-61.53355407714844;-13.200850486755371;137.58242797851562
350;1665661793.3746634;46.9771183;7.1792017999999995;69.20899963378906;1665661793.5522952;-54.763301849365234;-13.467975616455078;124.65530395507812
351;1665661793.5874314;46.9771043;7.179225199999999;69.19000244140625;1665661793.7455404;-43.04786682128906;0.926503598690033;123.69727325439453
352;1665661793.793365;46.977090999999994;7.1792501;69.17000579833984;1665661793.9758756;-42.303245544433594;8.761999130249023;130.78286743164062
353;1665661794.009057;46.977077799999996;7.1792747;69.1830062866211;1665661794.1632645;-48.842552185058594;4.507144927978516;137.41017150878906
354;1665661794.202302;46.9770642;7.1792985;69.19499969482422;1665661794.3818853;-50.537109375;-4.592819690704346;136.1577606201172
355;1665661794.4121406;46.9770502;7.179322;69.1830062866211;1665661794.5712283;-49.77693176269531;-8.271562576293945;129.01914978027344
356;1665661794.608314;46.9770362;7.179346;69.16000366210938;1665661794.7810647;-49.7901725769043;-2.464852809906006;124.87836456298828
357;1665661794.820106;46.9770226;7.1793708999999994;69.13899993896484;1665661794.9928548;-48.854190826416016;5.936402797698975;127.47554016113281
358;1665661795.0270138;46.9770091;7.1793963;69.11800384521484;1665661795.1880517;-36.77787399291992;7.722675800323486;134.5067901611328
359;1665661795.2231877;46.9769954;7.179420899999999;69.07100677490234;1665661795.3891082;-25.088132858276367;5.954657077789307;137.00967407226562
360;1665661795.439858;46.9769819;7.179443999999999;69.01600646972656;1665661795.5960183;-25.64687728881836;-7.0839715003967285;135.7346954345703
361;1665661795.637987;46.9769691;7.1794652999999995;68.97200012207031;1665661795.8165905;-26.49706268310547;-7.776131629943848;128.35450744628906
362;1665661795.8575814;46.976957399999996;7.1794856;68.92000579833984;1665661796.0439963;-23.995485305786133;-2.8646304607391357;127.00625610351562
363;1665661796.0820618;46.9769467;7.179505;68.86199951171875;1665661796.238218;-21.238628387451172;2.6008412837982178;130.2406005859375
364;1665661796.2792106;46.9769369;7.179523;68.80400085449219;1665661796.5524871;-17.89261245727539;3.707512617111206;132.52294921875
365;1665661796.5876231;46.9769278;7.1795395;68.74400329589844;1665661796.7535398;-14.196808815002441;2.4511265754699707;131.84231567382812
366;1665661796.801365;46.9769194;7.1795542;68.68500518798828;1665661796.9721618;-10.5136137008667;1.1405704021453857;130.7986602783203
367;1665661797.0102282;46.976911799999996;7.1795672999999995;68.63600158691406;1665661797.1663847;-6.734796047210693;0.13119080662727356;130.75540161132812
368;1665661797.205426;46.976904999999995;7.1795788;68.59600067138672;1665661797.363534;-4.077725887298584;0.620030403137207;130.74363708496094
369;1665661797.405503;46.9768991;7.179588799999999;68.56600189208984;1665661797.5684915;-1.8773216009140015;0.8124667406082153;130.66897583007812
370;1665661797.6016788;46.976893999999994;7.179597299999999;68.55000305175781;1665661797.7588115;0.21617387235164642;0.3369775414466858;130.58773803710938
371;1665661797.8037055;46.9768897;7.1796045;68.54500579833984;1665661798.0662477;1.2606836557388306;0.4781555235385895;130.17483520507812
372;1665661798.1043112;46.976886199999996;7.1796104;68.55000305175781;1665661798.277066;2.3606832027435303;-0.11768635362386703;129.9771270751953
373;1665661798.3170788;46.9768833;7.1796150999999995;68.56000518798828;1665661798.480066;2.1119935512542725;0.30567270517349243;129.49790954589844
374;1665661798.5152018;46.976881;7.1796188999999995;68.57400512695312;1665661798.7826238;2.282794952392578;-0.3769468069076538;128.91685485839844
375;1665661798.8206894;46.9768791;7.1796219;68.58700561523438;1665661798.987581;1.8031595945358276;-0.244944229722023;128.0109405517578
376;1665661799.032478;46.976877699999996;7.1796242999999995;68.6030044555664;1665661799.1905885;1.3804715871810913;-0.3137275278568268;127.1871337890625
377;1665661799.2286541;46.9768766;7.179626099999999;68.62300109863281;1665661799.384811;0.995806097984314;-0.2941748797893524;126.7547378540039
378;1665661799.4336085;46.976875799999995;7.1796276;68.64400482177734;1665661799.5956235;0.4664774537086487;-0.033244673162698746;126.96807098388672
379;1665661799.6336868;46.9768751;7.179628699999999;68.66699981689453;1665661799.7986279;0.21408186852931976;0.4409428536891937;127.25468444824219
380;1665661799.8347404;46.976874599999995;7.1796297;68.69000244140625;1665661800.0016353;9.942136764526367;10.376370429992676;132.2261505126953
381;1665661800.0397012;46.9768742;7.1796302999999995;68.62800598144531;1665661800.2026887;8.347834587097168;12.001649856567383;143.6177978515625
382;1665661800.2553961;46.9768738;7.1796302;68.44499969482422;1665661800.4105747;-5.741490364074707;29.60377311706543;155.94375610351562
383;1665661800.4486406;46.9768732;7.1796286;68.32400512695312;1665661800.6184618;-27.04113006591797;39.52806091308594;166.0222625732422
384;1665661800.6575048;46.9768714;7.1796247;68.28400421142578;1665661800.8087785;-38.847415924072266;32.85373306274414;179.5852813720703
385;1665661800.8487942;46.976867899999995;7.179618499999999;68.21600341796875;1665661801.0215447;-32.51677322387695;22.437585830688477;-170.31910705566406
386;1665661801.061568;46.9768633;7.179610599999999;68.08500671386719;1665661801.21967;-22.406396865844727;10.5205078125;-164.4813690185547
387;1665661801.2577336;46.9768581;7.179602099999999;67.91100311279297;1665661801.422676;-24.91269874572754;7.781208038330078;-157.43370056152344
388;1665661801.4587893;46.976852699999995;7.179593499999999;67.74000549316406;1665661801.6178763;-29.302135467529297;6.128060340881348;-147.85836791992188
389;1665661801.6549618;46.976847;7.1795848;67.5780029296875;1665661801.8218555;-31.025367736816406;2.3862857818603516;-138.54132080078125
390;1665661801.8608954;46.976841;7.179576;67.41400146484375;1665661802.0258384;-30.835420608520508;-2.187631130218506;-130.57440185546875
391;1665661802.0707374;46.9768348;7.1795668;67.24700164794922;1665661802.2337236;-30.23311996459961;-4.672966957092285;-129.86126708984375
392;1665661802.2678835;46.976828399999995;7.179557399999999;67.0780029296875;1665661802.4357538;-29.9887638092041;-4.3994059562683105;-133.52816772460938
393;1665661802.4699132;46.976821699999995;7.179548;66.90800476074219;1665661802.637784;-29.791282653808594;-3.0529327392578125;-135.45326232910156
394;1665661802.6729188;46.9768148;7.1795386;66.73400115966797;1665661802.8564045;-29.591201782226562;-1.5208137035369873;-135.6639862060547
395;1665661802.8954482;46.976807699999995;7.1795293;66.55500030517578;1665661803.063317;-29.55438804626465;-0.4140399992465973;-135.50526428222656
396;1665661803.1091871;46.9768006;7.179519999999999;66.37700653076172;1665661803.2790108;-29.56250762939453;0.2642422318458557;-135.4945526123047
397;1665661803.3170784;46.9767935;7.1795105999999995;66.19600677490234;1665661803.4898245;-29.62516212463379;0.6118468642234802;-135.57276916503906
398;1665661803.527887;46.9767863;7.179500999999999;66.01399993896484;1665661803.9856262;-29.48954200744629;0.719020664691925;-135.58157348632812
399;1665661804.0305212;46.976779199999996;7.1794913;65.83000183105469;1665661804.1993687;-29.30451202392578;0.7813737988471985;-135.63214111328125
400;1665661804.236457;46.9767721;7.1794815;65.64600372314453;1665661804.4170165;-29.169164657592773;0.6977969408035278;-135.65000915527344
401;1665661804.4589806;46.976765;7.1794717;65.46100616455078;1665661804.63466;-29.096813201904297;0.6552621126174927;-135.68592834472656
402;1665661804.6727245;46.976757899999996;7.1794617999999994;65.2750015258789;1665661804.831809;-29.142288208007812;0.6223446726799011;-135.7141876220703
403;1665661804.8659687;46.9767509;7.1794519;65.09000396728516;1665661805.0455518;-29.18128204345703;0.6222700476646423;-135.71917724609375
404;1665661805.0797105;46.976743899999995;7.179442;64.9000015258789;1665661805.243677;-29.18450164794922;0.6392604112625122;-135.73252868652344
405;1665661805.2827191;46.9767369;7.1794321;64.71000671386719;1665661805.4427807;-29.018604278564453;0.5251022577285767;-135.72377014160156
406;1665661805.4876754;46.976729899999995;7.179422;64.52000427246094;1665661805.656522;-29.01828956604004;0.47184914350509644;-135.76904296875
407;1665661805.7004457;46.9767229;7.179411999999999;64.33300018310547;1665661805.8624566;-29.010940551757812;0.4979746639728546;-135.77687072753906
408;1665661805.9161348;46.976715899999995;7.179402;64.14700317382812;1665661806.093764;-29.08732795715332;0.566399872303009;-135.79774475097656
409;1665661806.1279228;46.9767089;7.179392;63.961002349853516;1665661806.3055534;-29.049022674560547;0.5014936923980713;-135.7702178955078
410;1665661806.3406894;46.9767018;7.1793819999999995;63.77400207519531;1665661806.508562;-29.114906311035156;0.3691602051258087;-135.79054260253906
411;1665661806.5436969;46.9766949;7.1793719;63.586002349853516;1665661806.7271867;-29.05008316040039;0.30914586782455444;-135.82839965820312
412;1665661806.7603655;46.976687899999995;7.1793618;63.397003173828125;1665661806.937997;-29.119871139526367;0.2880420982837677;-135.8487548828125
413;1665661806.9770353;46.9766809;7.1793518;63.21400451660156;1665661807.1458812;-29.14351463317871;0.23161756992340088;-135.85655212402344
414;1665661807.1800416;46.976673899999994;7.179341699999999;63.03400421142578;1665661807.3459616;-29.09722900390625;0.3076389729976654;-135.87625122070312
415;1665661807.380121;46.9766668;7.1793317;62.849002838134766;1665661807.5557966;-29.149658203125;0.29744309186935425;-135.87176513671875
