;pos_time;latitude;longitude;altitude;alt_time;pitch;roll;yaw
0;1666106414.8345962;46.9755354;7.1803564;-0.03800000250339508;1666106414.8609552;-1.2688310146331787;-0.5676368474960327;96.68175506591797
1;1666106415.160662;46.9755354;7.1803563;-0.039000000804662704;1666106415.1743286;-0.8482322096824646;-0.5992234945297241;96.62332916259766
2;1666106415.3734841;46.9755354;7.1803563;-0.0430000014603138;1666106415.3891022;-1.2197693586349487;-0.5860545635223389;96.30296325683594
3;1666106415.594117;46.9755354;7.1803564;-0.04400000348687172;1666106415.6146147;-1.1093169450759888;-0.46878567337989807;96.57678985595703
4;1666106415.793266;46.9755354;7.1803564;-0.04100000113248825;1666106415.814746;-1.169344425201416;-0.1443445235490799;96.43267822265625
5;1666106416.0109682;46.9755354;7.180356499999999;-0.04100000113248825;1666106416.0256145;-1.5217037200927734;-0.2241189330816269;96.38578033447266
6;1666106416.2101226;46.9755354;7.180356499999999;-0.04100000113248825;1666106416.227697;-1.2089840173721313;-0.24248366057872772;96.39823150634766
7;1666106416.5283804;46.9755354;7.1803564;0.0010000000474974513;1666106416.5459507;-0.8990269899368286;-0.06813950836658478;96.28181457519531
8;1666106416.73339;46.9755354;7.1803564;0.003000000026077032;1666106416.7646282;-1.1829886436462402;-0.16523103415966034;96.29563903808594
9;1666106416.959877;46.9755353;7.180356499999999;0.0;1666106416.9833071;-1.0309505462646484;-0.13240951299667358;96.25662994384766
10;1666106417.3376827;46.975535199999996;7.180356499999999;0.0;1666106417.3601365;-1.4147089719772339;-0.30633851885795593;96.24097442626953
11;1666106417.5378122;46.975535199999996;7.180356499999999;0.003000000026077032;1666106417.5544086;-1.348259449005127;-0.406975656747818;96.16433715820312
12;1666106417.7496583;46.975535199999996;7.1803566;0.00800000037997961;1666106417.7623482;-0.855708658695221;-0.6323537230491638;96.34246063232422
13;1666106417.9433122;46.975535199999996;7.180356499999999;0.007000000216066837;1666106417.9618623;-0.9926387071609497;-0.5516138672828674;96.1641845703125
14;1666106418.2446153;46.9755353;7.1803564;-0.0010000000474974513;1666106418.261215;-1.0108308792114258;-0.5788555145263672;96.12884521484375
15;1666106418.4964833;46.9755353;7.180356499999999;-0.0010000000474974513;1666106418.5199144;-1.2088412046432495;-0.5929006934165955;96.3615493774414
16;1666106418.700522;46.975535199999996;7.180356499999999;0.0010000000474974513;1666106418.7210221;-1.0824192762374878;-0.3410957455635071;96.17455291748047
17;1666106418.8986976;46.975535199999996;7.1803564;0.003000000026077032;1666106418.9231071;-1.1315021514892578;-0.6008198261260986;96.40692138671875
18;1666106419.125186;46.9755353;7.1803564;0.009000000543892384;1666106419.1466634;-1.0575183629989624;-0.5566846132278442;96.51030731201172
19;1666106419.3295994;46.9755353;7.1803564;0.015000000596046448;1666106419.352055;-0.8400029540061951;-0.4355465769767761;96.44692993164062
20;1666106419.541444;46.9755353;7.1803563;0.023000001907348633;1666106419.5629215;-0.6927521228790283;-0.6101993918418884;96.57349395751953
21;1666106419.979625;46.9755353;7.1803563;0.029000001028180122;1666106419.9854848;0.7630711197853088;-0.7586490511894226;96.3982925415039
22;1666106420.1133718;46.9755353;7.1803563;0.04400000348687172;1666106420.123648;1.5157954692840576;-1.7271376848220825;96.49381256103516
23;1666106420.2583678;46.9755354;7.1803561;0.08100000023841858;1666106420.2778945;-1.791655421257019;-0.08085418492555618;96.13994598388672
24;1666106420.4614265;46.9755355;7.1803558;0.14900000393390656;1666106420.4741194;-1.939202070236206;1.6798073053359985;95.76931762695312
25;1666106420.6527703;46.9755355;7.1803558;0.242000013589859;1666106420.668389;-0.3157302141189575;-0.44136056303977966;96.07249450683594
26;1666106420.8450902;46.975535699999995;7.1803558;0.35100001096725464;1666106420.863638;0.8621761202812195;-1.393258810043335;96.51919555664062
27;1666106421.0608392;46.9755359;7.1803557;0.4790000319480896;1666106421.0754843;1.1293284893035889;-0.005384461954236031;96.32806396484375
28;1666106421.2726862;46.975536;7.1803557;0.6310000419616699;1666106421.2902594;1.0475873947143555;1.8418068885803223;95.97193908691406
29;1666106421.4698849;46.975536;7.1803555999999995;0.8030000329017639;1666106421.4855063;-0.6130281090736389;0.18422484397888184;95.96771240234375
30;1666106421.7051594;46.9755359;7.1803554;0.9970000386238098;1666106421.7178538;-3.246556520462036;-0.23476305603981018;95.79269409179688
31;1666106421.9228647;46.975535799999996;7.1803551;1.2120000123977661;1666106421.940434;-4.28279972076416;0.3288247585296631;95.48614501953125
32;1666106422.1288507;46.975535699999995;7.180354899999999;1.4470000267028809;1666106422.145446;-4.348723888397217;-0.6275014877319336;95.6712875366211
33;1666106422.3358123;46.9755356;7.180355199999999;1.693000078201294;1666106422.348503;-2.249826669692993;-0.19047187268733978;100.93002319335938
34;1666106422.5388708;46.9755355;7.1803555999999995;1.9610000848770142;1666106422.5583978;0.32466018199920654;-0.4491173028945923;99.537109375
35;1666106422.7360718;46.9755354;7.180356;2.245000123977661;1666106422.752669;-0.16078197956085205;-0.9059654474258423;98.47392272949219
36;1666106422.9313204;46.9755353;7.180356499999999;2.5340001583099365;1666106422.9547575;1.5722153186798096;-0.8508328795433044;98.08143615722656
37;1666106423.1539032;46.9755353;7.180357;2.824000120162964;1666106423.1695237;2.9347987174987793;-0.8859990239143372;97.58409118652344
38;1666106423.3784413;46.975535199999996;7.180357099999999;3.117000102996826;1666106423.3930829;1.7160354852676392;-0.4702080190181732;97.1133804321289
39;1666106423.6605737;46.975535199999996;7.1803569;3.4130001068115234;1666106423.6800978;-0.9243106842041016;-0.7918508648872375;97.1281967163086
40;1666106423.8763258;46.975535199999996;7.1803566;3.707000255584717;1666106423.8958495;-2.6144680976867676;-0.7091110944747925;97.00238800048828
41;1666106424.1008599;46.975535199999996;7.1803564;4.00100040435791;1666106424.1164784;-1.8861864805221558;-0.9113699197769165;97.47528076171875
42;1666106424.309776;46.975535199999996;7.1803561;4.296000003814697;1666106424.327349;-2.4778778553009033;-0.34141775965690613;97.29314422607422
43;1666106424.506976;46.975535199999996;7.1803558999999995;4.5960001945495605;1666106424.5265028;-2.134225368499756;-0.27504560351371765;96.87986755371094
44;1666106424.7227254;46.975535199999996;7.1803558999999995;4.89900016784668;1666106424.738345;-2.31754207611084;-1.0081778764724731;97.03551483154297
45;1666106424.9794824;46.975535199999996;7.180356199999999;5.195000171661377;1666106424.994126;-0.7716000080108643;0.0438205748796463;96.92672729492188
46;1666106425.194258;46.975535199999996;7.180356499999999;5.488000392913818;1666106425.2108552;1.683311939239502;-0.23779863119125366;97.0184326171875
47;1666106425.4949381;46.975535099999995;7.1803567;5.784000396728516;1666106425.5154405;1.1761400699615479;-0.6625674962997437;97.43804931640625
48;1666106425.964512;46.975535099999995;7.1803569;6.086000442504883;1666106425.9859972;0.1033974140882492;-0.4508575201034546;97.11869812011719
49;1666106426.3999238;46.975535;7.1803573;6.385000228881836;1666106426.4165184;1.9919629096984863;-1.3426557779312134;97.09342193603516
50;1666106426.5932214;46.975535;7.1803574;6.684000492095947;1666106426.6127465;2.3701679706573486;-0.7895625233650208;97.56219482421875
51;1666106426.796277;46.975535;7.180357099999999;6.9830002784729;1666106426.8177564;-1.2535111904144287;-0.7962974309921265;97.23442840576172
52;1666106427.0256946;46.975535;7.180356799999999;7.285000324249268;1666106427.0461974;-2.688948392868042;-0.9786157608032227;96.94644165039062
53;1666106427.2248476;46.975535;7.1803566;7.588000297546387;1666106427.241444;-2.133890390396118;-0.7249138951301575;97.0939712524414
54;1666106427.4386446;46.975535099999995;7.1803564;7.890000343322754;1666106427.4552412;-2.723658323287964;-0.6304212808609009;97.18917083740234
55;1666106427.6446326;46.975535099999995;7.1803563;8.193000793457031;1666106427.659277;-2.0482630729675293;-1.1552973985671997;97.33836364746094
56;1666106427.8525722;46.975535099999995;7.1803564;8.493000030517578;1666106427.86624;-0.7197175025939941;-0.5489324927330017;97.36752319335938
57;1666106428.0478218;46.975535099999995;7.180356799999999;8.792000770568848;1666106428.0644186;0.27230945229530334;-0.3702440857887268;97.05160522460938
58;1666106428.5252032;46.975535099999995;7.1803571999999996;9.089000701904297;1666106428.547658;2.3665425777435303;-0.2576668858528137;97.17042541503906
59;1666106428.7282636;46.975535099999995;7.1803573;9.38900089263916;1666106428.745837;2.118504524230957;-0.6787918210029602;97.47180938720703
60;1666106428.9381535;46.975535099999995;7.1803573;9.690999984741211;1666106428.9537752;0.7722383141517639;-1.191080927848816;97.34044647216797
61;1666106429.1519523;46.975535099999995;7.1803574999999995;9.995000839233398;1666106429.1724534;1.2521148920059204;-0.5655247569084167;97.05496978759766
62;1666106429.3569643;46.975535099999995;7.1803574;10.306000709533691;1666106429.375513;-0.25050175189971924;-0.4939645826816559;97.272705078125
63;1666106429.5502584;46.975535099999995;7.180357;10.675000190734863;1666106429.5766182;-2.3799831867218018;-0.7611995935440063;97.07987976074219
64;1666106429.784559;46.975535199999996;7.1803567;11.16100025177002;1666106429.801153;-3.8003785610198975;-0.63380366563797;97.01680755615234
65;1666106430.000309;46.975535199999996;7.1803569;11.722000122070312;1666106430.0159254;-4.147494316101074;-0.676529049873352;97.23957061767578
66;1666106430.2004385;46.975535199999996;7.1803571999999996;12.309000968933105;1666106430.2180078;-0.6170993447303772;-0.11289061605930328;97.190673828125
67;1666106430.4249716;46.975535199999996;7.1803574999999995;12.907000541687012;1666106430.4415672;1.0259549617767334;-0.5631658434867859;97.49727630615234
68;1666106430.6299822;46.975535199999996;7.1803579;13.504000663757324;1666106430.6456041;2.307626485824585;-0.48051732778549194;97.2792739868164
69;1666106430.8408523;46.975535099999995;7.1803583;14.10300064086914;1666106430.862328;2.0119071006774902;0.09876057505607605;97.23611450195312
70;1666106431.065386;46.975535099999995;7.180358399999999;14.702000617980957;1666106431.0839357;2.263261318206787;-0.17406414449214935;97.36491394042969
71;1666106431.2772384;46.975535099999995;7.180358099999999;15.304000854492188;1666106431.2970326;0.3142160475254059;-0.35795801877975464;97.07381439208984
72;1666106431.50595;46.975535099999995;7.1803579;15.902000427246094;1666106431.5225456;-0.6954382061958313;-0.5233391523361206;97.24993896484375
73;1666106431.6987882;46.975535;7.1803577;16.496000289916992;1666106431.7300286;-0.710800051689148;-0.556334376335144;97.38201141357422
74;1666106431.9155166;46.975535;7.1803574;17.091001510620117;1666106431.9379687;-2.436342239379883;-0.6595412492752075;97.34888458251953
75;1666106432.1361454;46.975535099999995;7.1803571999999996;17.68000030517578;1666106432.1507897;-2.602973461151123;-0.39459583163261414;97.17979431152344
76;1666106432.3440876;46.975535099999995;7.180357099999999;18.266000747680664;1666106432.3626363;-1.6746784448623657;0.09449274092912674;96.93626403808594
77;1666106432.5549536;46.975535;7.1803574;18.85300064086914;1666106432.5735052;0.6432136297225952;-0.5984727144241333;97.20247650146484
78;1666106432.758014;46.975535;7.1803577;19.43600082397461;1666106432.7755857;1.3451170921325684;-0.18344752490520477;97.4349594116211
79;1666106432.9766893;46.975535;7.1803577999999995;20.016000747680664;1666106432.993288;1.2484344244003296;-0.5137196779251099;97.12892150878906
80;1666106433.1699853;46.975535;7.180358;20.597000122070312;1666106433.1865835;1.979003667831421;-0.24216154217720032;97.33265686035156
81;1666106433.3740206;46.975535;7.180358099999999;21.17300033569336;1666106433.390618;1.5471900701522827;-0.825309157371521;97.4478530883789
82;1666106433.5770795;46.975535;7.180358;21.750001907348633;1666106433.5926998;-0.02112913504242897;-0.9800505638122559;97.40888214111328
83;1666106433.7850206;46.975535;7.1803577;22.326000213623047;1666106433.801615;-2.0335047245025635;-0.7222557067871094;97.42668914794922
84;1666106433.9890578;46.975535099999995;7.1803574;22.905000686645508;1666106434.0056512;-2.115032911300659;-0.4541524350643158;97.53289031982422
85;1666106434.1989503;46.975535099999995;7.180357099999999;23.481000900268555;1666106434.2184732;-1.406930685043335;-0.3279891610145569;97.12846374511719
86;1666106434.4117656;46.975535099999995;7.1803569;24.058000564575195;1666106434.4303167;-2.5365521907806396;-0.7044854164123535;97.3046646118164
87;1666106434.628492;46.975535099999995;7.180356799999999;24.636001586914062;1666106434.6450887;-0.8506264686584473;-0.39509111642837524;97.07527160644531
88;1666106434.8247194;46.975535199999996;7.180357;25.21200180053711;1666106434.841315;0.634232223033905;-0.4799633324146271;97.32815551757812
89;1666106435.0336354;46.975535199999996;7.1803574;25.791000366210938;1666106435.05023;1.3751556873321533;-0.4850296378135681;97.10610961914062
90;1666106435.238646;46.975535199999996;7.1803576;26.367000579833984;1666106435.2601218;2.3674304485321045;-0.5260998010635376;97.10877990722656
91;1666106435.4543948;46.975535199999996;7.1803576;26.94900131225586;1666106435.4700136;1.470246434211731;-0.3644428849220276;97.09223937988281
92;1666106435.6623344;46.975535199999996;7.1803574;27.529001235961914;1666106435.677953;-0.7868093848228455;-0.8438629508018494;97.37699127197266
93;1666106435.862464;46.975535199999996;7.1803574;28.10700225830078;1666106435.8780832;-0.6196910738945007;-0.3005998432636261;97.29756927490234
94;1666106436.0664992;46.975535199999996;7.1803573;28.68600082397461;1666106436.08407;-0.8362433910369873;-0.4718288481235504;97.25350189208984
95;1666106436.2783432;46.9755353;7.180357099999999;29.26500129699707;1666106436.2978666;-3.037161350250244;-0.4739692211151123;97.31924438476562
96;1666106436.4765196;46.9755353;7.180357099999999;29.845001220703125;1666106436.493116;-1.7222245931625366;-0.24860571324825287;97.17166137695312
97;1666106436.6805587;46.9755353;7.1803573;30.422000885009766;1666106436.698128;-0.18093672394752502;-0.4216760993003845;97.32842254638672
98;1666106436.8871634;46.9755353;7.1803574;31.00200080871582;1666106436.9047391;0.46208110451698303;-0.3191835582256317;97.52718353271484
99;1666106437.0990126;46.9755353;7.1803574999999995;31.5830020904541;1666106437.1175578;0.6804409623146057;-0.23235240578651428;97.30228424072266
100;1666106437.318663;46.9755353;7.1803577;32.16400146484375;1666106437.3342838;2.3594610691070557;-0.31157833337783813;97.23143005371094
101;1666106437.6935396;46.9755353;7.1803577999999995;32.74500274658203;1666106437.718927;2.5350351333618164;-0.38433465361595154;97.10027313232422
102;1666106437.892696;46.9755354;7.1803577999999995;33.336002349853516;1666106437.9102666;0.5632844567298889;-0.3293432593345642;97.20063018798828
103;1666106438.1006327;46.9755354;7.1803574999999995;33.91100311279297;1666106438.116255;-1.1333818435668945;-0.5038246512413025;97.48690032958984
104;1666106438.311502;46.9755355;7.180357099999999;34.487003326416016;1666106438.3329787;-1.5802439451217651;-0.5598146319389343;97.44365692138672
105;1666106438.5155363;46.9755355;7.1803567;35.06500244140625;1666106438.5321324;-3.0298683643341064;-0.11603023111820221;97.15850830078125
106;1666106438.716642;46.9755356;7.1803564;35.645999908447266;1666106438.739097;-3.2249972820281982;-0.11067552864551544;97.10760498046875
107;1666106438.9187255;46.9755356;7.180356499999999;36.22800064086914;1666106438.9382582;-0.027621110901236534;-0.32678985595703125;97.00669860839844
108;1666106439.126667;46.975535699999995;7.180356799999999;36.81100082397461;1666106439.1432688;1.291334867477417;-0.3102850914001465;97.1629638671875
109;1666106439.3443727;46.975535699999995;7.1803571999999996;37.397003173828125;1666106439.3590102;2.556063413619995;0.03786016255617142;96.99955749511719
110;1666106439.5405927;46.975535699999995;7.1803571999999996;37.987003326416016;1666106439.559139;0.6530309915542603;-0.3960179090499878;97.24349975585938
111;1666106439.7495081;46.975535699999995;7.180357099999999;38.5780029296875;1666106439.7670805;-2.042008876800537;-0.27156466245651245;97.23662567138672
112;1666106439.950614;46.9755356;7.180357099999999;39.16400146484375;1666106439.9691608;-1.7593944072723389;-0.8575235605239868;97.4867172241211
113;1666106440.1683495;46.9755356;7.180357;39.75700378417969;1666106440.1858869;-1.053876280784607;0.038048189133405685;97.30805206298828
114;1666106440.4729354;46.9755356;7.1803569;40.35100173950195;1666106440.490512;-0.6650243401527405;-0.16240713000297546;97.20205688476562
115;1666106440.6789663;46.9755356;7.180357099999999;40.948001861572266;1666106440.6975193;0.9725388288497925;-0.28241947293281555;97.20671844482422
116;1666106440.8869038;46.9755355;7.1803573;41.544002532958984;1666106440.9064288;1.7267930507659912;-0.25696638226509094;97.18538665771484
117;1666106441.107538;46.9755355;7.1803574;42.1410026550293;1666106441.1251063;0.8115832805633545;-0.5381383895874023;97.27094268798828
118;1666106441.3154747;46.9755355;7.1803576;42.737003326416016;1666106441.332072;0.21301887929439545;-0.9582579731941223;97.30191040039062
119;1666106441.5214636;46.9755355;7.1803576;43.33500289916992;1666106441.5380585;-0.7652931809425354;-0.7693690657615662;97.32987213134766
120;1666106441.7215936;46.9755355;7.1803573;43.92900085449219;1666106441.7401414;-2.9188342094421387;-0.17846110463142395;97.3160400390625
121;1666106441.934412;46.9755355;7.180357099999999;44.52300262451172;1666106441.9490576;-0.7512079477310181;-0.5758458971977234;97.20355224609375
122;1666106442.127708;46.9755355;7.180357099999999;45.11600112915039;1666106442.1443055;1.0493173599243164;-0.3075169324874878;97.22068786621094
123;1666106442.3317428;46.9755355;7.1803571999999996;45.707000732421875;1666106442.3483405;1.5957791805267334;-0.250166654586792;97.21151733398438
124;1666106442.5260184;46.9755355;7.1803571999999996;46.29600143432617;1666106442.542611;0.9333330392837524;-0.616905689239502;97.27156829833984
125;1666106442.7388387;46.9755355;7.1803574;46.87900161743164;1666106442.756413;0.09261227399110794;-0.7473216652870178;97.47216796875
126;1666106442.942873;46.9755355;7.1803574;47.457000732421875;1666106442.9663014;-0.46943044662475586;-0.3096855580806732;97.29512023925781
127;1666106443.1635017;46.9755355;7.1803571999999996;48.03600311279297;1666106443.1791222;-1.9137142896652222;-0.4119469225406647;97.06350708007812
128;1666106443.3616807;46.9755355;7.1803569;48.61900329589844;1666106443.3841338;-2.802424430847168;-0.5517253279685974;97.17005920410156
129;1666106443.5784059;46.9755355;7.180357;49.20100402832031;1666106443.5969532;-0.4508656859397888;-0.3795919716358185;97.28169250488281
130;1666106443.7922034;46.9755355;7.180357;49.78700256347656;1666106443.8078218;1.325503945350647;-0.5530992150306702;97.17742919921875
131;1666106444.0118597;46.9755355;7.180357099999999;50.371002197265625;1666106444.0284543;1.1417601108551025;-0.7464684247970581;97.24127960205078
132;1666106444.2080824;46.9755355;7.1803571999999996;50.96000289916992;1666106444.2256541;0.985271155834198;-0.8422211408615112;97.48482513427734
133;1666106444.4101632;46.9755355;7.1803571999999996;51.548004150390625;1666106444.4287133;0.5649172067642212;-0.36279749870300293;97.48332977294922
134;1666106444.6347013;46.9755355;7.180357;52.13900375366211;1666106444.6522713;-1.6545146703720093;-0.5712063312530518;97.3615951538086
135;1666106444.83971;46.9755355;7.1803566;52.730003356933594;1666106444.8553371;-2.6818230152130127;-1.1130352020263672;97.62511444091797
136;1666106445.0476515;46.9755355;7.1803564;53.32100296020508;1666106445.0642464;-2.191030263900757;-0.2899820804595947;97.28237915039062
137;1666106445.2497332;46.9755355;7.1803561;53.91400146484375;1666106445.2663274;-1.5250372886657715;-0.1269666850566864;97.40387725830078
138;1666106445.4508376;46.9755355;7.1803563;54.50700378417969;1666106445.4684098;0.22545316815376282;-0.6014772057533264;97.24271392822266
139;1666106445.656825;46.9755355;7.1803566;55.10000228881836;1666106445.684161;1.9668489694595337;0.2475585639476776;97.22699737548828
140;1666106445.8686693;46.9755355;7.180357;55.66800308227539;1666106445.8862426;1.7905653715133667;-0.3619283437728882;97.34933471679688
141;1666106446.0805137;46.9755355;7.180357099999999;56.182003021240234;1666106446.0971127;0.7971562147140503;-0.246209979057312;97.36582946777344
142;1666106446.2825973;46.9755355;7.180357;56.62900161743164;1666106446.299192;-1.5553878545761108;-0.40275701880455017;97.20685577392578
143;1666106446.4895604;46.9755354;7.180356799999999;57.006004333496094;1666106446.5110383;-1.6936935186386108;-0.5453040599822998;97.25292205810547
144;1666106446.702381;46.9755354;7.180356499999999;57.33100128173828;1666106446.718979;-2.131369113922119;-0.08678052574396133;97.38756561279297
145;1666106446.9073927;46.9755354;7.1803563;57.61000442504883;1666106446.9239912;-1.5121815204620361;-0.3909732699394226;97.13703155517578
146;1666106447.10264;46.9755354;7.1803564;57.845001220703125;1666106447.119237;0.8094152808189392;-0.4527975618839264;96.78511047363281
147;1666106447.3105803;46.9755354;7.180356799999999;58.038002014160156;1666106447.3301048;2.42977237701416;-0.2290196418762207;96.94628143310547
148;1666106447.49997;46.9755353;7.1803569;58.20000457763672;1666106447.5185184;1.8177883625030518;-0.3256888687610626;97.2670669555664
149;1666106447.710841;46.9755353;7.1803569;58.33500289916992;1666106447.7372015;4.040065765380859;-4.189401626586914;94.89376831054688
150;1666106447.9207306;46.9755356;7.1803567;58.452003479003906;1666106447.9441621;15.64609432220459;-18.015283584594727;84.8809585571289
151;1666106448.1335526;46.9755366;7.180355;58.551002502441406;1666106448.1501477;22.346847534179688;-33.28656768798828;71.87120819091797
152;1666106448.335634;46.9755389;7.1803509;58.62700271606445;1666106448.3512564;13.446277618408203;-41.047874450683594;61.94559860229492
153;1666106448.5357661;46.9755426;7.1803446;58.68800354003906;1666106448.5718906;3.178178071975708;-41.0460090637207;52.0424690246582
154;1666106448.7651808;46.975547899999995;7.1803365999999995;58.7390022277832;1666106448.7817795;-4.205385208129883;-39.98674774169922;41.80020523071289
155;1666106448.9819088;46.9755542;7.1803269;58.77700424194336;1666106448.9975278;-12.517782211303711;-37.241825103759766;31.285388946533203
156;1666106449.1722753;46.9755615;7.1803158;58.79300308227539;1666106449.1888707;-18.915607452392578;-33.014591217041016;20.69762420654297
157;1666106449.3841183;46.9755694;7.1803035;58.79700469970703;1666106449.3997395;-22.40973663330078;-29.991878509521484;11.57507038116455
158;1666106449.5930343;46.9755779;7.180290299999999;58.79600143432617;1666106449.6096325;-25.225187301635742;-25.689638137817383;2.46752667427063
159;1666106449.8078084;46.975586899999996;7.1802765;58.79600143432617;1666106449.823431;-28.248859405517578;-17.637054443359375;-9.48035717010498
160;1666106450.008913;46.9755962;7.180262099999999;58.794002532958984;1666106450.0255117;-29.896678924560547;-8.883506774902344;-20.08643341064453
161;1666106450.2217374;46.9756058;7.1802475;58.801002502441406;1666106450.23638;-31.544147491455078;-4.944386959075928;-18.223159790039062
162;1666106450.4160118;46.9756158;7.1802334;58.811004638671875;1666106450.4355333;-31.93396759033203;-12.529776573181152;-1.1526533365249634
163;1666106450.623951;46.975626399999996;7.180219699999999;58.814002990722656;1666106450.6395676;-29.22864532470703;-23.24483299255371;16.304218292236328
164;1666106450.9119413;46.9756378;7.180206399999999;58.814002990722656;1666106450.9304872;-25.955718994140625;-27.854469299316406;28.468774795532227
165;1666106451.1110923;46.9756499;7.1801933;58.81300354003906;1666106451.1286633;-21.20631980895996;-31.45399284362793;40.44636917114258
166;1666106451.3327007;46.9756627;7.180180399999999;58.8180046081543;1666106451.3551536;-13.511075019836426;-36.464542388916016;52.753475189208984
167;1666106451.5318558;46.975676199999995;7.180168;58.823001861572266;1666106451.5494268;-8.010506629943848;-38.15996170043945;54.12639617919922
168;1666106451.7417436;46.975690199999995;7.180155399999999;58.83000183105469;1666106451.759317;-9.681177139282227;-39.251930236816406;37.39155960083008
169;1666106451.9487095;46.975704199999996;7.180142099999999;58.8380012512207;1666106451.9770193;-15.372919082641602;-37.97426223754883;18.696361541748047
170;1666106452.1586013;46.975718099999995;7.180127499999999;58.84100341796875;1666106452.1742208;-20.23778533935547;-34.113861083984375;5.1572585105896
171;1666106452.367518;46.975731599999996;7.1801115;58.83500289916992;1666106452.3929021;-24.916194915771484;-30.679859161376953;-3.6695799827575684
172;1666106452.5695977;46.9757447;7.1800944;58.83000183105469;1666106452.587172;-29.62474250793457;-26.42947006225586;-11.069332122802734
173;1666106452.793158;46.9757575;7.1800764;58.8280029296875;1666106452.8058496;-33.92475509643555;-18.601743698120117;-19.195388793945312
174;1666106452.9884083;46.9757701;7.180057799999999;58.827003479003906;1666106453.0108593;-36.637596130371094;-11.366273880004883;-26.948673248291016
175;1666106453.2920182;46.975782699999996;7.180039;58.8280029296875;1666106453.3134995;-38.263771057128906;-5.8708343505859375;-34.61667251586914
176;1666106453.4970338;46.975795299999994;7.180019799999999;58.829002380371094;1666106453.5146022;-39.010520935058594;-0.9824327826499939;-42.08841323852539
177;1666106453.7078977;46.975808199999996;7.180000499999999;58.83100128173828;1666106453.7244937;-39.04196548461914;4.408069610595703;-46.17671203613281
178;1666106453.901194;46.9758214;7.179981199999999;58.83500289916992;1666106453.918766;-39.972137451171875;6.166609764099121;-43.77149963378906
179;1666106454.1032786;46.975835;7.1799621;58.83400344848633;1666106454.1218245;-41.33786392211914;6.796473026275635;-37.919273376464844
180;1666106454.312192;46.9758491;7.179943499999999;58.83000183105469;1666106454.3317149;-42.49456787109375;1.3631879091262817;-24.930622100830078
181;1666106454.511344;46.975864;7.1799256;58.83000183105469;1666106454.5347762;-42.50251770019531;-7.309902191162109;-12.824861526489258
182;1666106454.725141;46.9758795;7.1799085;58.83500289916992;1666106454.741738;-41.02946472167969;-14.517752647399902;-3.2417244911193848
183;1666106454.9350343;46.9758956;7.1798917;58.83700180053711;1666106454.953586;-39.46962356567383;-20.456634521484375;1.1535229682922363
184;1666106455.1478553;46.975912199999996;7.1798747;58.84400177001953;1666106455.1654277;-39.77793502807617;-19.59462547302246;-12.596085548400879
185;1666106455.369461;46.9759289;7.179856999999999;58.85400390625;1666106455.3860588;-40.702171325683594;-13.479766845703125;-28.003833770751953
186;1666106455.5754502;46.9759453;7.1798385;58.86900329589844;1666106455.6027849;-41.84528732299805;-7.089140892028809;-38.06645584106445
187;1666106455.8878486;46.9759615;7.1798192;58.88300323486328;1666106455.9044461;-42.23128128051758;-1.324263095855713;-45.39151382446289
188;1666106456.0928614;46.9759775;7.1797995;58.89800262451172;1666106456.110431;-42.55773162841797;2.5510764122009277;-46.0067253112793
189;1666106456.3047018;46.9759935;7.179779399999999;58.90900421142578;1666106456.3213003;-43.056602478027344;3.118804931640625;-42.6862907409668
190;1666106456.5136168;46.976009499999996;7.179759;58.913002014160156;1666106456.5292401;-43.493858337402344;2.766667127609253;-41.19677734375
191;1666106456.7117965;46.976025799999995;7.1797385;58.91200256347656;1666106456.7488928;-43.55137634277344;2.6818277835845947;-40.587955474853516
192;1666106456.9236417;46.976042199999995;7.179717999999999;58.913002014160156;1666106456.9402404;-43.40397644042969;1.9747087955474854;-40.08370590209961
193;1666106457.121819;46.9760589;7.1796975;58.910003662109375;1666106457.138414;-43.150001525878906;1.6504056453704834;-40.01872253417969
194;1666106457.3287826;46.976075699999996;7.179677099999999;58.91200256347656;1666106457.3492813;-42.82576370239258;2.0312201976776123;-40.191287994384766
195;1666106457.537696;46.9760925;7.1796565999999995;58.91100311279297;1666106457.5542932;-42.60934066772461;1.4816875457763672;-40.236148834228516
196;1666106457.7339215;46.9761095;7.1796361;58.910003662109375;1666106457.749543;-42.63374328613281;1.3685814142227173;-40.58927917480469
197;1666106457.9330764;46.9761264;7.179615399999999;58.913002014160156;1666106457.9526083;-42.651885986328125;0.8363062739372253;-40.401397705078125
198;1666106458.1371093;46.9761434;7.1795946;58.9170036315918;1666106458.1546826;-42.699790954589844;0.3306284546852112;-40.17794418334961
199;1666106458.345051;46.9761604;7.1795738;58.91800308227539;1666106458.361649;-42.58664321899414;0.4069361686706543;-40.24013137817383
200;1666106458.5539644;46.976177299999996;7.179552999999999;58.923004150390625;1666106458.571538;-42.52750015258789;0.8660335540771484;-40.4935302734375
201;1666106458.7472613;46.976194299999996;7.179532099999999;58.927001953125;1666106458.763857;-42.52232360839844;1.2655855417251587;-40.690860748291016
202;1666106458.9542258;46.976211299999996;7.179511;58.93100357055664;1666106458.9708223;-42.53308868408203;0.9462942481040955;-40.526920318603516
203;1666106459.1709495;46.9762282;7.1794899;58.93700408935547;1666106459.1875486;-42.5867805480957;0.10334998369216919;-40.43073272705078
204;1666106459.3769367;46.9762451;7.179468699999999;58.948001861572266;1666106459.3964643;-42.59505844116211;0.5308696031570435;-40.55599594116211
205;1666106459.588783;46.976262;7.1794476;58.95600128173828;1666106459.606358;-42.48565673828125;0.5391191840171814;-40.17139434814453
206;1666106459.7967231;46.9762789;7.1794264;58.961002349853516;1666106459.8152716;-42.423004150390625;0.703050434589386;-40.253414154052734
207;1666106460.0085757;46.976295699999994;7.1794053;58.96600341796875;1666106460.0417595;-42.15353775024414;1.4871906042099;-40.64496612548828
208;1666106460.2379858;46.9763125;7.179384199999999;58.971004486083984;1666106460.27313;-42.18150329589844;1.5638302564620972;-40.59135818481445
209;1666106460.455685;46.9763294;7.1793632;58.97200393676758;1666106460.472283;-42.108577728271484;1.6558616161346436;-40.532005310058594
210;1666106460.664602;46.976346299999996;7.1793422;58.974002838134766;1666106460.6802225;-41.99183654785156;1.1981983184814453;-40.14015579223633
211;1666106460.8754752;46.9763631;7.1793213;58.97600173950195;1666106460.8930447;-39.70159912109375;0.7325139045715332;-39.92875671386719
212;1666106461.0902438;46.9763799;7.1793005999999995;58.96900177001953;1666106461.1068413;-32.5713005065918;0.5876052379608154;-39.927249908447266
213;1666106461.3050168;46.976396099999995;7.179280599999999;58.96000289916992;1666106461.31966;-24.683992385864258;1.9303927421569824;-40.62282943725586
214;1666106461.5066385;46.9764117;7.179261599999999;58.95000457763672;1666106461.5222578;-15.747294425964355;0.38257086277008057;-39.82073974609375
215;1666106461.6940787;46.9764261;7.1792437;58.93400192260742;1666106461.7116477;-5.284395217895508;-1.1848889589309692;-39.03870391845703
216;1666106461.894209;46.9764391;7.1792275;58.91100311279297;1666106461.9137294;5.583019733428955;0.9844702482223511;-39.76162338256836
217;1666106462.1060524;46.976450199999995;7.1792136;58.86600112915039;1666106462.1197197;6.930218696594238;2.8549232482910156;-41.402915954589844
218;1666106462.3188705;46.9764597;7.1792020999999995;58.827003479003906;1666106462.3374186;2.426999092102051;2.3099889755249023;-42.20278549194336
219;1666106462.5141215;46.9764676;7.1791925999999995;58.80500411987305;1666106462.549264;-1.6482603549957275;0.6965195536613464;-42.93753433227539
220;1666106462.7415853;46.976474499999995;7.179184599999999;58.803001403808594;1666106462.7581806;-3.234497547149658;-2.488034725189209;-42.82544708251953
221;1666106462.954405;46.9764805;7.1791778;58.81200408935547;1666106462.9710016;-3.748481512069702;-0.5483672618865967;-43.79460144042969
222;1666106463.169178;46.976486;7.1791715;58.8280029296875;1666106463.185777;-2.933420419692993;-1.398239254951477;-44.08209991455078
223;1666106463.4005475;46.976490999999996;7.179165599999999;58.840003967285156;1666106463.419096;-1.311874508857727;-2.268428087234497;-44.91028594970703
224;1666106463.6211784;46.976495299999996;7.1791602;58.84800338745117;1666106463.6436336;1.433617353439331;-0.47882702946662903;-45.651763916015625
225;1666106463.8408344;46.976499;7.1791553;58.853004455566406;1666106463.8515735;-2.9255588054656982;-0.9766917824745178;-45.494728088378906
226;1666106464.0507245;46.9765023;7.1791507;58.85700225830078;1666106464.0663457;-3.8281099796295166;-0.13241328299045563;-45.83028030395508
227;1666106464.2430491;46.9765052;7.179146599999999;58.85900115966797;1666106464.2703805;-0.9732274413108826;0.6752360463142395;-46.27045822143555
228;1666106464.4753916;46.9765075;7.1791434;58.85900115966797;1666106464.4929638;-0.9038757085800171;-1.15376615524292;-45.81888961791992
229;1666106464.6999254;46.9765096;7.1791405;58.86600112915039;1666106464.719454;0.17763125896453857;0.3182137906551361;-46.49397659301758
230;1666106464.9205573;46.9765115;7.1791377999999995;58.87600326538086;1666106464.9928;4.159494876861572;0.5080981254577637;-46.58673095703125
231;1666106465.172431;46.9765131;7.1791355999999995;58.884002685546875;1666106465.1909757;3.1614766120910645;-1.0092401504516602;-46.93463897705078
232;1666106465.383296;46.9765143;7.1791338;58.89200210571289;1666106465.3959863;0.9914360642433167;-1.437819004058838;-47.29981231689453
233;1666106465.5804982;46.976515299999996;7.179132399999999;58.90300369262695;1666106465.5990453;-1.1539610624313354;-0.43544110655784607;-47.80104064941406
234;1666106465.793319;46.976516;7.179131399999999;58.9160041809082;1666106465.8099139;-0.798183023929596;0.5679987668991089;-48.01702880859375
235;1666106466.0139484;46.976516499999995;7.1791304;58.93100357055664;1666106466.0305455;1.016335129737854;0.3238520622253418;-48.00688171386719
236;1666106466.223385;46.976517099999995;7.1791293;58.945003509521484;1666106466.2390022;-4.339515209197998;1.242906928062439;-48.887264251708984
237;1666106466.4303465;46.9765179;7.1791282;58.95600128173828;1666106466.446941;-26.964088439941406;0.9285061359405518;-51.03959274291992
238;1666106466.630475;46.976519599999996;7.1791256;58.95600128173828;1666106466.6490257;-45.32083511352539;4.435184478759766;-52.317378997802734
239;1666106466.8393908;46.976522599999996;7.179120999999999;58.9160041809082;1666106466.856964;-45.19678497314453;3.619231700897217;-50.783390045166016
240;1666106467.0385444;46.976526799999995;7.1791142;58.8380012512207;1666106467.056119;-29.840299606323242;-0.8169395923614502;-49.13467025756836
241;1666106467.251367;46.9765318;7.1791059;58.77100372314453;1666106467.2650335;-24.885494232177734;-1.1692274808883667;-48.99623107910156
242;1666106467.4632115;46.9765374;7.179096599999999;58.77400207519531;1666106467.4807837;-35.65510177612305;-0.08645014464855194;-49.03095245361328
243;1666106467.7648716;46.9765436;7.179085799999999;58.81500244140625;1666106467.7970915;-37.08745574951172;0.6416236162185669;-49.64003372192383
244;1666106467.965976;46.976550599999996;7.1790737;58.86700439453125;1666106467.9835482;-35.50791931152344;-1.9632421731948853;-49.65476608276367
245;1666106468.1709914;46.9765581;7.1790603;58.91400146484375;1666106468.1875818;-36.49497985839844;-0.5828943848609924;-50.665767669677734
246;1666106468.3818657;46.9765661;7.1790461;58.95500183105469;1666106468.3974764;-36.44474792480469;1.3100980520248413;-50.54310607910156
247;1666106468.5849204;46.9765744;7.1790312;58.9900016784668;1666106468.6005344;-35.15853500366211;1.4104341268539429;-50.101112365722656
248;1666106468.7918773;46.9765832;7.1790156;59.01700210571289;1666106468.814332;-35.34801483154297;0.23397865891456604;-49.56562805175781
249;1666106468.996889;46.9765923;7.1789996;59.0420036315918;1666106469.0173898;-37.08246994018555;1.328092336654663;-49.727447509765625
250;1666106469.3875394;46.9766018;7.1789833;59.060001373291016;1666106469.4090266;-36.40515899658203;1.9481565952301025;-49.94805908203125
251;1666106469.5905976;46.9766115;7.1789665;59.07500457763672;1666106469.6081686;-35.648956298828125;0.8695070147514343;-49.98884963989258
252;1666106469.7907267;46.9766215;7.1789491;59.083003997802734;1666106469.810259;-36.78987121582031;0.7443152666091919;-49.846580505371094
253;1666106470.0006192;46.9766318;7.178931599999999;59.0880012512207;1666106470.0279546;-37.10434341430664;3.382662773132324;-51.15742492675781
254;1666106470.2153938;46.976642399999996;7.1789137;59.092002868652344;1666106470.232967;-36.345516204833984;4.262470245361328;-52.018577575683594
255;1666106470.4116168;46.976653299999995;7.1788956;59.08900451660156;1666106470.4301682;-37.48774337768555;2.8290977478027344;-52.01993942260742
256;1666106470.618581;46.9766644;7.1788773;59.086002349853516;1666106470.63518;-38.80794143676758;1.7016977071762085;-51.74331283569336
257;1666106470.8255486;46.9766757;7.1788589;59.08700180053711;1666106470.844093;-38.615779876708984;4.780970573425293;-53.417240142822266
258;1666106471.0188422;46.976687399999996;7.1788400999999995;59.08400344848633;1666106471.0539863;-38.55007553100586;5.383010387420654;-53.894569396972656
259;1666106471.236541;46.9766992;7.1788208;59.07500457763672;1666106471.2531374;-38.81193161010742;2.107921838760376;-51.330684661865234
260;1666106471.4366739;46.976710999999995;7.178801099999999;59.06900405883789;1666106471.4561954;-38.61338806152344;-3.069328546524048;-46.0162353515625
261;1666106472.0399895;46.9767231;7.1787811999999995;59.06300354003906;1666106472.0634198;-38.4197998046875;-7.84459114074707;-42.34933090209961
262;1666106472.2820985;46.9767351;7.1787608;59.05500411987305;1666106472.3123603;-38.43001174926758;-6.578272342681885;-43.44609832763672
263;1666106472.4783237;46.9767472;7.1787402;59.051002502441406;1666106472.5115159;-38.97185134887695;-3.2645668983459473;-45.81364440917969
264;1666106472.6755223;46.9767593;7.1787193;59.04700469970703;1666106472.6950467;-39.234195709228516;-1.4451541900634766;-47.496116638183594
265;1666106472.8649132;46.976771299999996;7.1786978999999995;59.0410041809082;1666106472.8815112;-39.455055236816406;-2.885404586791992;-47.04947280883789
266;1666106473.0679762;46.9767833;7.1786761;59.03900146484375;1666106473.0826168;-39.56250762939453;-3.1238391399383545;-46.62438201904297
267;1666106473.263222;46.976795599999996;7.1786543;59.038002014160156;1666106473.2807972;-38.19013977050781;-3.860856771469116;-46.3745002746582
268;1666106473.4692073;46.976807799999996;7.1786325;59.02800369262695;1666106473.4916635;-31.449193954467773;-2.962169647216797;-47.40892028808594
269;1666106473.7972267;46.9768198;7.1786113;59.018001556396484;1666106473.8206565;-23.101804733276367;-1.293555736541748;-48.50736999511719
270;1666106473.9954028;46.9768313;7.178590799999999;59.00100326538086;1666106474.0198147;-15.450218200683594;-2.4040067195892334;-47.3138542175293
271;1666106474.1965098;46.9768419;7.178571499999999;58.98100280761719;1666106474.223845;-6.012902736663818;1.5095305442810059;-47.776145935058594
272;1666106474.4103072;46.9768513;7.1785543;58.95100402832031;1666106474.4288538;3.4406542778015137;2.370410680770874;-47.9622917175293
273;1666106474.5938385;46.9768596;7.178539499999999;58.90400314331055;1666106474.6182475;3.7982687950134277;3.8370869159698486;-49.374267578125
274;1666106474.8105645;46.9768669;7.178527;58.86000442504883;1666106474.8271613;3.205918312072754;2.2980427742004395;-49.499061584472656
275;1666106475.0214345;46.9768733;7.1785163999999995;58.82600402832031;1666106475.0380347;6.058278560638428;2.0626959800720215;-50.00537109375
276;1666106475.225469;46.9768787;7.178507799999999;58.81200408935547;1666106475.2440193;2.6787209510803223;1.4325026273727417;-50.27841567993164
277;1666106475.4343848;46.9768835;7.1785004;58.80900192260742;1666106475.45196;-0.11854679882526398;-0.09751895070075989;-50.610595703125
278;1666106475.6423266;46.9768876;7.1784938;58.81500244140625;1666106475.657946;0.21963797509670258;1.113055944442749;-51.13441467285156
279;1666106475.841477;46.976891099999996;7.178488199999999;58.82100296020508;1666106475.8600254;-0.024477515369653702;-0.47972315549850464;-50.77101135253906
280;1666106476.0494158;46.976893999999994;7.1784835;58.82400131225586;1666106476.0992072;-6.6057844161987305;-1.1561071872711182;-50.91488265991211
281;1666106476.2866454;46.9768967;7.1784792;58.83100128173828;1666106476.3051982;-5.084327697753906;0.16011662781238556;-52.15980911254883
282;1666106476.8023987;46.9768991;7.178475199999999;58.84100341796875;1666106476.8238754;-0.6956629157066345;-0.4646305441856384;-52.140113830566406
283;1666106477.0064332;46.9769012;7.178471699999999;58.846004486083984;1666106477.0230296;1.267251968383789;-1.0423604249954224;-52.40656280517578
284;1666106477.2338984;46.976903199999995;7.1784684;58.85100173950195;1666106477.2514718;2.5504846572875977;-0.5612289309501648;-52.77053451538086
285;1666106477.4408607;46.9769048;7.1784656;58.85700225830078;1666106477.4574566;1.703293800354004;-2.414027452468872;-53.29969024658203
286;1666106477.6312315;46.976906;7.1784634;58.868003845214844;1666106477.6468513;0.1822870522737503;-3.8458969593048096;-53.4777946472168
287;1666106477.841121;46.976906899999996;7.1784614;58.87600326538086;1666106477.857719;-2.9028825759887695;-0.4043039381504059;-53.81926345825195
288;1666106478.0480876;46.9769076;7.1784596;58.88600158691406;1666106478.064683;0.8142853379249573;1.7975176572799683;-53.52912902832031
289;1666106478.2472403;46.976908099999996;7.1784582;58.8900032043457;1666106478.264812;2.3270769119262695;2.306065559387207;-52.8178596496582
290;1666106478.4649415;46.976908699999996;7.178457;58.89500427246094;1666106478.4825118;2.128815174102783;-1.4843322038650513;-52.22300338745117
291;1666106478.6758108;46.976909299999996;7.1784558;58.90900421142578;1666106478.6914303;2.2046916484832764;5.288365840911865;-49.34602355957031
292;1666106478.8896046;46.97691;7.1784555;58.9430046081543;1666106478.9062011;1.8574689626693726;12.4619140625;-42.57349395751953
293;1666106479.1024287;46.9769108;7.1784561;58.9900016784668;1666106479.118049;0.7766166925430298;9.576725959777832;-33.090309143066406
294;1666106479.4050634;46.9769119;7.1784573;59.05800247192383;1666106479.4284918;-1.8304719924926758;9.039151191711426;-21.76817512512207
295;1666106479.612028;46.9769132;7.178458999999999;59.160003662109375;1666106479.630574;-9.864888191223145;12.32598876953125;-10.221497535705566
296;1666106479.8248456;46.9769151;7.1784615;59.30900192260742;1666106479.8394907;-11.87158489227295;12.873103141784668;1.7390272617340088
297;1666106480.0171654;46.976917199999995;7.178465;59.52800369262695;1666106480.0337646;-8.54782485961914;10.398765563964844;14.047720909118652
298;1666106480.2407272;46.976919699999996;7.1784694;59.84400177001953;1666106480.2573254;-13.911323547363281;8.495501518249512;23.70150375366211
299;1666106480.4457366;46.9769225;7.1784747;60.259002685546875;1666106480.4613569;-30.75375747680664;9.909087181091309;32.8017463684082
300;1666106480.65173;46.9769262;7.178481799999999;60.704002380371094;1666106480.6732025;-43.086639404296875;3.622070074081421;42.90690994262695
301;1666106480.8606403;46.976931;7.1784911;61.08900451660156;1666106480.8752837;-34.99046325683594;-1.8778340816497803;49.74967575073242
302;1666106481.0705307;46.9769369;7.178501499999999;61.43300247192383;1666106481.0900657;-22.07461929321289;-3.2889881134033203;50.67100143432617
303;1666106481.2931142;46.976943399999996;7.1785122999999995;61.820003509521484;1666106481.3214273;-32.377197265625;-6.120014190673828;49.96442413330078
304;1666106481.598678;46.976950699999996;7.1785236999999995;62.20600128173828;1666106481.6152742;-37.2977409362793;-2.3373725414276123;47.1746711730957
305;1666106481.8056407;46.9769589;7.1785362;62.55800247192383;1666106481.8349307;-37.51866149902344;-0.404983252286911;45.76797103881836
306;1666106482.0184639;46.9769678;7.1785495;62.894004821777344;1666106482.0536082;-36.77097702026367;-2.2439515590667725;45.56574630737305
307;1666106482.2400694;46.976977299999994;7.1785634;63.21200180053711;1666106482.2547138;-35.34067916870117;-0.266083300113678;44.372310638427734
308;1666106482.9030693;46.9769873;7.178578099999999;63.509002685546875;1666106482.9196649;-36.183372497558594;2.0179898738861084;43.08824920654297
309;1666106483.1100302;46.9769978;7.178593299999999;63.785003662109375;1666106483.1276019;-37.253849029541016;-0.7487269639968872;44.54662322998047
310;1666106483.3326137;46.9770088;7.1786091;64.05000305175781;1666106483.3570209;-38.17851257324219;-0.7245283722877502;45.69688415527344
311;1666106483.537626;46.9770201;7.1786255;64.30599975585938;1666106483.5630085;-39.06122970581055;0.6473165154457092;45.229881286621094
312;1666106483.9149709;46.9770319;7.1786426;64.56100463867188;1666106483.9237561;-39.656246185302734;-1.0082625150680542;45.32134246826172
313;1666106484.0594544;46.9770441;7.1786601999999995;64.81800079345703;1666106484.0741038;-40.661415100097656;-1.1566448211669922;45.44760513305664
314;1666106484.4021182;46.9770567;7.1786784;65.08700561523438;1666106484.4167602;-41.30683898925781;-0.20818570256233215;45.130409240722656
315;1666106484.5934582;46.9770697;7.178697;65.34900665283203;1666106484.6129835;-41.16421127319336;-0.4909030497074127;45.239646911621094
316;1666106484.8004239;46.977083099999994;7.1787163;65.60200500488281;1666106484.8160415;-41.376014709472656;-0.003192601026967168;45.0434455871582
317;1666106485.0142195;46.9770968;7.178736;65.84700012207031;1666106485.037651;-41.5501594543457;-0.050577834248542786;44.99715805053711
318;1666106485.234854;46.9771108;7.178756099999999;66.08800506591797;1666106485.247542;-41.55016326904297;0.23442424833774567;44.91978073120117
319;1666106485.536509;46.9771249;7.1787766;66.31900024414062;1666106485.5531054;-37.992027282714844;0.18747277557849884;44.992095947265625
320;1666106485.7356656;46.977139;7.178796999999999;66.54400634765625;1666106485.752259;-30.675771713256836;0.4986460506916046;44.84042739868164
321;1666106486.076517;46.9771528;7.178817;66.7490005493164;1666106486.0911615;-24.528888702392578;0.6094529032707214;45.07029724121094
322;1666106486.2717636;46.977166;7.1788362;66.93700408935547;1666106486.2893355;-17.31877899169922;0.5516813397407532;45.0645751953125
323;1666106486.4836137;46.9771784;7.1788542;67.11100006103516;1666106486.5031333;-10.426668167114258;0.47963809967041016;44.98451232910156
324;1666106486.7022893;46.9771897;7.1788707;67.27300262451172;1666106486.7188857;-4.7446608543396;0.566107988357544;44.93110275268555
325;1666106486.911206;46.9771997;7.1788853999999995;67.42500305175781;1666106486.926826;5.954500675201416;0.7745148539543152;44.79008483886719
326;1666106487.134763;46.9772083;7.1788981;67.55599975585938;1666106487.2460887;7.904402256011963;0.34945735335350037;44.494815826416016
327;1666106487.5379527;46.9772154;7.1789084999999995;67.69300079345703;1666106487.5496666;4.966815948486328;-5.250326633453369;44.804874420166016
328;1666106487.7576053;46.9772215;7.178917599999999;67.82100677490234;1666106487.7761538;6.044012069702148;1.6054824590682983;43.1174430847168
329;1666106487.9870224;46.977226699999996;7.1789252;67.94600677490234;1666106488.0045958;3.61538028717041;-2.0221049785614014;44.49053192138672
330;1666106488.193012;46.9772312;7.1789315;68.06400299072266;1666106488.218393;-2.042020559310913;3.1988613605499268;44.09425354003906
331;1666106488.4234056;46.977235;7.1789369999999995;68.16699981689453;1666106488.438046;-5.048152923583984;1.333339810371399;44.49301528930664
332;1666106488.623534;46.977238299999996;7.178941999999999;68.25800323486328;1666106488.640131;-4.912189483642578;-1.9864225387573242;45.089500427246094
333;1666106488.841236;46.977241299999996;7.1789463;68.34400177001953;1666106488.8529518;-3.764517068862915;-2.6642873287200928;44.75482177734375
334;1666106489.0521028;46.977244;7.1789502;68.41500091552734;1666106489.0696778;-0.816929817199707;0.19903545081615448;44.05838394165039
335;1666106489.2610211;46.9772465;7.1789539;68.4729995727539;1666106489.2873793;2.0732007026672363;-2.2566330432891846;42.8643913269043
336;1666106489.8726022;46.9772488;7.178957;68.52000427246094;1666106489.8901732;-0.3347466289997101;-0.6606460213661194;42.789215087890625
337;1666106490.0776112;46.9772509;7.1789594999999995;68.56300354003906;1666106490.097138;-1.847573161125183;5.104326248168945;42.68339157104492
338;1666106490.2748132;46.9772525;7.1789619;68.60800170898438;1666106490.2914097;-1.3630996942520142;0.6685689687728882;44.34719467163086
339;1666106490.4847057;46.9772538;7.178964;68.6500015258789;1666106490.5022786;1.7305620908737183;-4.526123523712158;45.4613037109375
340;1666106490.68093;46.9772549;7.1789656;68.67900085449219;1666106490.6985018;2.8515403270721436;-0.5923684239387512;44.586181640625
341;1666106490.8888686;46.977256;7.1789672;68.70600128173828;1666106490.906443;2.140751600265503;2.706958770751953;43.920413970947266
342;1666106491.0997424;46.9772569;7.178968599999999;68.72500610351562;1666106491.116335;-0.460460901260376;1.143654465675354;43.53947830200195
343;1666106491.2901046;46.977257699999996;7.178969599999999;68.74700164794922;1666106491.3076794;-1.982570767402649;-0.8026329874992371;43.74946975708008
344;1666106491.5146425;46.9772582;7.1789704;68.77300262451172;1666106491.5341702;3.2086544036865234;5.826109886169434;45.64057922363281
345;1666106491.7177;46.9772584;7.178971499999999;68.78900146484375;1666106491.737224;6.561224460601807;13.68932056427002;52.25496292114258
346;1666106491.916856;46.9772578;7.1789727999999995;68.80400085449219;1666106492.0437663;1.1598050594329834;14.983137130737305;60.05588150024414
347;1666106492.237077;46.9772566;7.1789748;68.81400299072266;1666106492.2595146;-13.339284896850586;28.85781478881836;67.13192749023438
348;1666106492.4537857;46.9772545;7.178978;68.80500030517578;1666106492.4694073;-23.48568344116211;31.409473419189453;80.04105377197266
349;1666106492.6656308;46.9772511;7.1789827;68.77000427246094;1666106492.684182;-30.233854293823242;20.5113582611084;96.23822784423828
350;1666106492.8716187;46.9772466;7.178989199999999;68.71300506591797;1666106492.887237;-29.417171478271484;12.618855476379395;108.78939056396484
351;1666106493.071748;46.9772414;7.178997;68.67900085449219;1666106493.089322;-29.60409164428711;8.242966651916504;118.64530944824219
352;1666106493.2855625;46.9772354;7.179005999999999;68.70800018310547;1666106493.3099594;-32.61363220214844;-0.12691812217235565;129.14141845703125
353;1666106493.4915338;46.9772288;7.1790161999999995;68.76000213623047;1666106493.509106;-33.2076416015625;-2.652860164642334;135.91673278808594
354;1666106493.6936154;46.9772216;7.1790275;68.802001953125;1666106493.7102127;-36.91181182861328;-6.074184894561768;135.81747436523438
355;1666106493.9083886;46.977214;7.17904;68.83600616455078;1666106493.9308398;-37.50754165649414;-4.116247177124023;131.9530792236328
356;1666106494.1075408;46.9772061;7.1790537;68.86600494384766;1666106494.1270678;-36.20610046386719;-1.5387113094329834;130.35601806640625
357;1666106494.3369586;46.9771977;7.1790685;68.88200378417969;1666106494.3603892;-36.915733337402344;-1.0266284942626953;130.61402893066406
358;1666106494.538066;46.977188999999996;7.179083899999999;68.9000015258789;1666106494.554663;-38.8397216796875;-0.8870156407356262;130.61996459960938
359;1666106494.7547925;46.977179899999996;7.179100099999999;68.91600036621094;1666106494.7752907;-38.52885437011719;-0.5476441383361816;130.54200744628906
360;1666106494.9549196;46.9771704;7.1791171;68.927001953125;1666106494.9695654;-39.88344192504883;-0.450560063123703;130.6315460205078
361;1666106495.2702467;46.977160399999995;7.179134899999999;68.93099975585938;1666106495.289774;-41.141014099121094;-0.7474992275238037;130.6822509765625
362;1666106495.4781897;46.977150099999996;7.1791532;68.93800354003906;1666106495.496736;-40.769920349121094;0.20323975384235382;130.46060180664062
363;1666106495.7007704;46.9771394;7.179172299999999;68.93700408935547;1666106495.7173667;-41.023475646972656;0.2700522840023041;130.63320922851562
364;1666106495.9057806;46.9771283;7.179191899999999;68.93600463867188;1666106495.9340918;-42.01729965209961;0.2705703675746918;130.58590698242188
365;1666106496.1020067;46.977117;7.179211899999999;68.94000244140625;1666106496.1254354;-41.35007095336914;0.3602551221847534;130.52049255371094
366;1666106496.3118978;46.9771053;7.1792324;68.94200134277344;1666106496.3470416;-41.42032241821289;0.37718579173088074;130.54849243164062
367;1666106496.5266695;46.9770933;7.1792533;68.94000244140625;1666106496.5442443;-41.904483795166016;0.38761189579963684;130.5158233642578
368;1666106496.750229;46.9770812;7.1792745;68.94000244140625;1666106496.7717059;-41.846649169921875;0.42593082785606384;130.489501953125
369;1666106496.9415722;46.9770687;7.179296099999999;68.94000244140625;1666106496.960121;-41.8548698425293;0.3700767457485199;130.5240020751953
370;1666106497.1690407;46.977056;7.179317999999999;68.93800354003906;1666106497.1856334;-42.17318344116211;0.20715422928333282;130.52003479003906
371;1666106497.383812;46.9770432;7.1793401999999995;68.94000244140625;1666106497.4033384;-42.35676574707031;0.779156506061554;130.2627410888672
372;1666106497.570275;46.977030199999994;7.179362599999999;68.93900299072266;1666106497.588823;-42.41983413696289;1.084994912147522;130.63758850097656
373;1666106497.7586899;46.977016899999995;7.1793853;68.94000244140625;1666106497.7791898;-42.650856018066406;0.19206157326698303;130.6282958984375
374;1666106497.9519835;46.977003599999996;7.179408199999999;68.94100189208984;1666106497.9744382;-41.081790924072266;0.6609886288642883;130.2623291015625
375;1666106498.1462576;46.976990199999996;7.1794312;68.93500518798828;1666106498.1628535;-34.32437515258789;0.3312576115131378;130.53311157226562
376;1666106498.365912;46.976977;7.1794537;68.9280014038086;1666106498.3776262;-27.40187644958496;-0.16793622076511383;130.341552734375
377;1666106498.5679972;46.9769643;7.179475399999999;68.91200256347656;1666106498.5845892;-20.10747718811035;-0.7874572277069092;130.14605712890625
378;1666106498.7593374;46.976952499999996;7.1794958;68.89400482177734;1666106498.778863;-12.721506118774414;-0.4204268157482147;129.9274139404297
379;1666106498.9770386;46.976941599999996;7.1795145;68.87600708007812;1666106498.9916835;-7.30668830871582;-0.4382651448249817;130.04647827148438
380;1666106499.177172;46.9769319;7.1795314;68.86700439453125;1666106499.1927888;5.3679704666137695;-0.46675610542297363;130.22940063476562
381;1666106499.36949;46.9769235;7.1795459;68.84300231933594;1666106499.3938954;6.675131797790527;-0.7172467708587646;130.2245330810547
382;1666106499.5793812;46.976916599999996;7.1795580999999995;68.82300567626953;1666106499.5979288;3.435722589492798;-0.0941900834441185;130.18475341796875
383;1666106499.7814615;46.9769106;7.1795686;68.81200408935547;1666106499.8000133;4.432314872741699;1.2014516592025757;130.4384307861328
384;1666106500.0079503;46.976905699999996;7.179577399999999;68.82100677490234;1666106500.0225933;2.9336936473846436;0.16987344622612;131.24488830566406
385;1666106500.2119865;46.9769015;7.179584999999999;68.83900451660156;1666106500.2295601;-0.5288980007171631;-1.4864314794540405;131.90707397460938
386;1666106500.419926;46.9768976;7.1795915;68.8530044555664;1666106500.4335935;-0.47554415464401245;1.1179736852645874;130.9027099609375
387;1666106500.6171281;46.9768942;7.179596999999999;68.85900115966797;1666106500.6342885;-4.427092552185059;-4.326471328735352;131.5292205810547
388;1666106500.8187988;46.9768913;7.179602;68.86500549316406;1666106500.835394;-6.089416027069092;2.3747551441192627;129.8634490966797
389;1666106501.0130696;46.976888699999996;7.1796066;68.87200164794922;1666106501.0267377;-3.4177281856536865;-0.9951142072677612;129.8505401611328
390;1666106501.2282727;46.9768864;7.1796108;68.88200378417969;1666106501.248777;0.600726842880249;0.34903082251548767;129.57318115234375
391;1666106501.444998;46.976884299999995;7.1796145;68.89000701904297;1666106501.4615955;0.8441247940063477;2.3781609535217285;129.67015075683594
392;1666106501.639271;46.9768824;7.179617899999999;68.89400482177734;1666106501.6539166;1.068642497062683;1.2332345247268677;130.01148986816406
393;1666106501.836472;46.976880699999995;7.1796204999999995;68.89200592041016;1666106501.8511162;-0.6241811513900757;0.32386472821235657;130.1624755859375
394;1666106502.0424604;46.9768793;7.1796226;68.89100646972656;1666106502.0600348;-2.197361946105957;0.20110194385051727;129.67869567871094
395;1666106502.2543035;46.976878;7.1796245;68.89100646972656;1666106502.2709007;-0.13410164415836334;-0.33028796315193176;129.0845489501953
396;1666106502.4720078;46.976876999999995;7.1796261999999995;68.89700317382812;1666106502.491533;2.9517483711242676;-0.509989857673645;128.33226013183594
397;1666106502.6760411;46.9768761;7.1796276;68.9010009765625;1666106502.6936152;2.8907740116119385;-0.748832106590271;127.98675537109375
398;1666106502.8849618;46.976875299999996;7.1796289;68.9020004272461;1666106502.9015546;0.7427821755409241;-0.5992485880851746;128.15594482421875
399;1666106503.0860627;46.9768748;7.1796298;68.9000015258789;1666106503.1026583;0.2059936225414276;0.7321526408195496;128.60801696777344
400;1666106503.2979102;46.9768744;7.1796302999999995;68.85700225830078;1666106503.3213365;1.539957046508789;6.368493556976318;133.2300567626953
401;1666106503.508775;46.9768739;7.1796305;68.72100067138672;1666106503.525373;4.527817726135254;9.529522895812988;143.13858032226562
402;1666106503.6962154;46.976873399999995;7.179629899999999;68.53700256347656;1666106503.7137864;1.1654165983200073;19.201650619506836;154.11306762695312
403;1666106504.0017805;46.9768725;7.1796282;68.34900665283203;1666106504.0173998;-9.78424072265625;34.8305778503418;162.05909729003906
404;1666106504.2009318;46.9768706;7.1796247;68.1520004272461;1666106504.2165523;-24.113012313842773;33.95270919799805;170.3352813720703
405;1666106504.43523;46.9768675;7.179619199999999;67.94400024414062;1666106504.4469452;-31.682165145874023;23.440704345703125;-174.80174255371094
406;1666106504.645123;46.9768634;7.1796118;67.7540054321289;1666106504.6626992;-30.156034469604492;18.047941207885742;-159.63905334472656
407;1666106504.8452508;46.976858299999996;7.1796028;67.58700561523438;1666106504.8686812;-32.49504470825195;9.18488883972168;-149.9340362548828
408;1666106505.049288;46.9768525;7.179592899999999;67.43700408935547;1666106505.0668592;-30.82158851623535;0.8475223779678345;-142.58291625976562
409;1666106505.2913938;46.976845999999995;7.1795824999999995;67.29300689697266;1666106505.3177533;-28.526798248291016;-6.3348259925842285;-135.20993041992188
410;1666106505.4954305;46.9768391;7.1795722;67.14500427246094;1666106505.51105;-23.99539566040039;-8.414565086364746;-129.7899932861328
411;1666106505.7668245;46.9768318;7.1795621;66.99200439453125;1666106505.7843988;-19.369422912597656;-7.86076021194458;-131.5375213623047
412;1666106506.0167441;46.976824099999995;7.1795522;66.83000183105469;1666106506.0362701;-21.341421127319336;-4.539672374725342;-134.08029174804688
413;1666106506.2344449;46.9768165;7.1795425999999996;66.6570053100586;1666106506.2539725;-22.817604064941406;-1.9891778230667114;-134.6195831298828
414;1666106506.4706976;46.9768088;7.1795332;66.4729995727539;1666106506.483387;-23.199800491333008;-0.21061153709888458;-134.590576171875
415;1666106506.664968;46.9768012;7.1795237;66.29100036621094;1666106506.6805866;-20.85189437866211;1.0811738967895508;-134.31607055664062
416;1666106506.859241;46.976793699999995;7.179513999999999;66.0979995727539;1666106506.876814;-23.602439880371094;1.7464350461959839;-134.1327362060547
417;1666106507.0740142;46.9767862;7.179504;65.89800262451172;1666106507.0964658;-25.155380249023438;1.7565593719482422;-134.40048217773438
