;pos_time;latitude;longitude;altitude;alt_time;pitch;roll;yaw
0;1665667678.6586902;46.9755389;7.1803531;-0.017000000923871994;1665667678.8109436;-0.08785669505596161;-0.7867944836616516;89.95120239257812
1;1665667678.8724303;46.9755389;7.1803532;-0.014000000432133675;1665667679.029569;-0.36196184158325195;-0.625164270401001;89.9521713256836
2;1665667679.1876836;46.9755389;7.1803532;-0.01100000087171793;1665667679.3467689;-0.2746824622154236;-0.8435733914375305;90.04313659667969
3;1665667679.4043534;46.9755389;7.1803531;-0.009000000543892384;1665667679.914804;-0.42967158555984497;-0.6391816139221191;89.99185943603516
4;1665667679.9801962;46.975539;7.1803531;-0.00800000037997961;1665667680.1109817;-0.3600905239582062;-0.8542504906654358;90.15287780761719
5;1665667680.180277;46.975539;7.1803532;-0.006000000052154064;1665667680.3305862;-0.4273754060268402;-0.7796722054481506;90.13189697265625
6;1665667680.3998787;46.9755389;7.1803532;-0.007000000216066837;1665667680.5335913;-0.25070720911026;-0.6903175711631775;89.97881317138672
7;1665667680.5882475;46.9755389;7.1803532;-0.009000000543892384;1665667680.7366028;-0.4286859333515167;-0.6630004644393921;90.0191650390625
8;1665667680.798093;46.9755389;7.1803532;-0.012000000104308128;1665667680.9396114;-0.262127161026001;-0.7172037363052368;90.06859588623047
9;1665667681.004027;46.9755389;7.1803532;-0.014000000432133675;1665667681.2441225;-0.3780815005302429;-0.6256670951843262;89.98314666748047
10;1665667681.3056118;46.9755389;7.180353299999999;-0.013000000268220901;1665667681.4607985;-0.1983242630958557;-0.8821233510971069;90.15756225585938
11;1665667681.5261884;46.9755389;7.1803533999999996;-0.012000000104308128;1665667681.6579506;-0.3177604675292969;-0.8308464288711548;90.16506958007812
12;1665667681.7233431;46.975539;7.1803533999999996;-0.01100000087171793;1665667681.8677921;-0.3190285563468933;-0.6683115363121033;90.11073303222656
13;1665667681.946847;46.9755389;7.180353299999999;0.0;1665667682.0883694;-0.28278201818466187;-0.709553062915802;89.92945098876953
14;1665667682.1576653;46.9755389;7.180353299999999;-0.0010000000474974513;1665667682.2927978;-0.08381151407957077;-0.7804974317550659;90.24983215332031
15;1665667682.3533096;46.9755389;7.180353299999999;-0.0010000000474974513;1665667682.506542;-0.16806191205978394;-0.7121831774711609;90.14509582519531
16;1665667682.5738888;46.9755389;7.1803533999999996;-0.0010000000474974513;1665667682.715408;-0.3719678521156311;-0.8247942924499512;90.18253326416016
17;1665667682.7886078;46.9755389;7.1803533999999996;-0.003000000026077032;1665667682.9359846;-0.16093650460243225;-0.651550829410553;90.04256439208984
18;1665667683.0150414;46.9755389;7.1803535;-0.004000000189989805;1665667683.168163;-0.29032349586486816;-0.4343952238559723;90.086181640625
19;1665667683.2306254;46.9755389;7.1803535;-0.004000000189989805;1665667683.3712265;-0.2812100350856781;-0.5263419151306152;89.87567901611328
20;1665667683.4487906;46.9755389;7.1803533999999996;0.0;1665667683.5893335;-0.10110559314489365;-0.5136246681213379;90.08011627197266
21;1665667683.65863;46.9755389;7.1803533999999996;0.0020000000949949026;1665667683.8050315;-0.21791216731071472;-0.7123326659202576;89.83637237548828
22;1665667683.862615;46.9755389;7.1803533999999996;0.00800000037997961;1665667684.010969;-0.12341509759426117;-0.7407507300376892;89.65782165527344
23;1665667684.087096;46.9755389;7.1803533999999996;0.010000000707805157;1665667684.2286184;0.3555810749530792;-0.46026375889778137;89.30628204345703
24;1665667684.296937;46.9755389;7.180353299999999;0.01600000075995922;1665667684.4462655;1.2144845724105835;0.23992174863815308;88.78416442871094
25;1665667684.523373;46.9755389;7.1803532;0.03200000151991844;1665667684.6531816;0.5714276432991028;-0.5690643787384033;88.97660827636719
26;1665667684.7200623;46.9755389;7.1803531;0.06800000369548798;1665667684.866004;0.37272191047668457;0.24894730746746063;88.97819519042969
27;1665667684.92215;46.975538799999995;7.180352999999999;0.12600000202655792;1665667685.0773845;0.24433621764183044;0.35816964507102966;88.96659088134766
28;1665667685.1544852;46.9755387;7.1803529;0.19600000977516174;1665667685.305305;0.861264169216156;-1.6165497303009033;89.07413482666016
29;1665667685.3677697;46.9755386;7.1803528;0.33800002932548523;1665667685.5161216;0.4625374972820282;-1.4778486490249634;89.15055084228516
30;1665667685.583469;46.9755385;7.1803526;0.4570000171661377;1665667685.728894;0.13861577212810516;-1.8245658874511719;89.25460052490234
31;1665667685.7972138;46.9755384;7.1803525;0.6190000176429749;1665667685.9406867;-0.18552878499031067;-1.3474466800689697;89.34014892578125
32;1665667686.0065897;46.9755384;7.180352399999999;0.7880000472068787;1665667686.1812954;0.23878924548625946;-1.029564619064331;89.41838073730469
33;1665667686.2466874;46.9755385;7.1803523;0.9900000691413879;1665667686.3960156;-0.9082455039024353;-0.6320368051528931;89.45289611816406
34;1665667686.4692197;46.9755386;7.1803522;1.2130000591278076;1665667686.6000035;-0.7147957682609558;-0.08405815064907074;89.43649291992188
35;1665667686.66149;46.9755386;7.1803523;1.4260001182556152;1665667686.796179;-0.04879983887076378;-0.49496597051620483;89.280029296875
36;1665667686.8596199;46.9755386;7.180352399999999;1.6920000314712524;1665667686.9923556;0.12469354271888733;-0.8349424004554749;89.17557525634766
37;1665667687.0557952;46.9755386;7.1803525;1.9560000896453857;1665667687.1914618;0.07437177002429962;-0.3174055814743042;89.00977325439453
38;1665667687.2509985;46.9755386;7.1803526;2.25600004196167;1665667687.4364402;0.5387827157974243;-0.6029331684112549;88.86477661132812
39;1665667687.5115936;46.9755386;7.1803526;2.573000192642212;1665667687.6550627;0.061983123421669006;-0.8185634016990662;88.7528076171875
40;1665667687.7194822;46.9755386;7.1803526;2.9040000438690186;1665667687.8697848;-0.17843107879161835;-0.673698902130127;88.74168395996094
41;1665667687.92737;46.9755386;7.180352699999999;3.253000259399414;1665667688.0688906;0.26301681995391846;-0.7688883543014526;88.70885467529297
42;1665667688.1342866;46.9755386;7.1803528;3.569000244140625;1665667688.2689714;0.008303588256239891;-0.506168782711029;88.72149658203125
43;1665667688.3499818;46.9755386;7.1803528;3.8990001678466797;1665667688.495404;0.12637023627758026;-0.6340635418891907;88.7494888305664
44;1665667688.5549421;46.9755387;7.1803528;4.229000091552734;1665667688.696462;0.16933755576610565;-0.6602631211280823;88.79978942871094
45;1665667688.7628288;46.9755387;7.1803529;4.555000305175781;1665667688.895567;-0.16335809230804443;-0.7444984912872314;88.76509857177734
46;1665667688.9560773;46.9755387;7.1803529;4.885000228881836;1665667689.2049608;0.46257326006889343;-0.6032319664955139;88.70802307128906
47;1665667689.2771845;46.9755387;7.1803529;5.201000213623047;1665667689.4187062;0.04874429106712341;-0.6089358329772949;88.65589141845703
48;1665667689.4958117;46.9755387;7.180352999999999;5.544000148773193;1665667689.6324522;0.2595975399017334;-0.7528820633888245;88.71102142333984
49;1665667689.703699;46.9755387;7.180352999999999;5.866000175476074;1665667689.8442445;0.12821952998638153;-0.5656899809837341;88.76665496826172
50;1665667689.8998742;46.9755387;7.180352999999999;6.195000171661377;1665667690.05018;0.11139722168445587;-0.915954053401947;88.76195526123047
51;1665667690.1136208;46.9755387;7.180352999999999;6.514000415802002;1665667690.257092;0.07879548519849777;-0.6172401309013367;88.73242950439453
52;1665667690.309798;46.975538799999995;7.180352999999999;6.832000255584717;1665667690.447416;-0.06257820129394531;-0.5395578145980835;88.7705307006836
53;1665667690.5079255;46.975538799999995;7.1803531;7.152000427246094;1665667690.663112;0.1834382265806198;-0.8062591552734375;88.73353576660156
54;1665667690.7265508;46.975538799999995;7.1803531;7.453000545501709;1665667690.86124;-0.017939411103725433;-0.6004794836044312;88.72164916992188
55;1665667690.9471278;46.975538799999995;7.1803531;7.76900053024292;1665667691.0964599;0.017561161890625954;-0.6243723034858704;88.74456787109375
56;1665667691.1559927;46.9755389;7.1803531;8.072000503540039;1665667691.2926335;0.01450070459395647;-0.718195378780365;88.7599868774414
57;1665667691.353146;46.9755389;7.1803532;8.380000114440918;1665667691.5015028;0.15292315185070038;-0.6207146048545837;88.7385025024414
58;1665667691.568845;46.9755389;7.1803532;8.687000274658203;1665667691.703534;0.12180402129888535;-0.6532841324806213;88.7311782836914
59;1665667691.7699003;46.9755389;7.180353299999999;8.991000175476074;1665667691.9094687;0.24338558316230774;-0.7388989925384521;88.75178527832031
60;1665667691.9885268;46.9755389;7.180353299999999;9.304000854492188;1665667692.1222396;0.22525066137313843;-0.6657461524009705;88.76683807373047
61;1665667692.1925104;46.9755389;7.1803533999999996;9.599000930786133;1665667692.3340337;0.23703967034816742;-0.7387792468070984;88.76821899414062
62;1665667692.4052813;46.9755389;7.1803533999999996;9.902000427246094;1665667692.5448496;0.30370309948921204;-0.7829064726829529;88.7647705078125
63;1665667692.6063368;46.9755389;7.1803533999999996;10.202000617980957;1665667692.7468839;0.3009381592273712;-0.4396810531616211;88.7337875366211
64;1665667692.8093457;46.9755389;7.1803533999999996;10.612000465393066;1665667692.9752672;0.1994684338569641;-0.5054237842559814;88.74259948730469
65;1665667693.1392362;46.9755389;7.1803533999999996;11.165000915527344;1665667693.2797823;0.25568002462387085;-0.8181474804878235;88.7410888671875
66;1665667693.3451748;46.9755389;7.1803533999999996;11.735000610351562;1665667693.4749815;0.32059192657470703;-0.5096830129623413;88.74642181396484
67;1665667693.5403757;46.9755389;7.1803533999999996;12.32300090789795;1665667693.6877537;0.053545352071523666;-0.6064545512199402;88.74357604980469
68;1665667693.7560713;46.9755389;7.1803533999999996;12.91100025177002;1665667693.904424;0.23044469952583313;-0.8104356527328491;88.74566650390625
69;1665667693.968843;46.9755389;7.1803533999999996;13.504000663757324;1665667694.1113365;0.22396141290664673;-0.6454321146011353;88.73916625976562
70;1665667694.167946;46.9755389;7.1803533999999996;14.100000381469727;1665667694.3075147;0.24409574270248413;-0.7710487842559814;88.7470474243164
71;1665667694.3670518;46.9755389;7.1803533999999996;14.69800090789795;1665667694.5154042;0.3155614137649536;-0.7359901666641235;88.72881317138672
72;1665667694.5846992;46.9755389;7.1803533999999996;15.295001029968262;1665667694.7389097;0.21709534525871277;-0.7242417931556702;88.74385070800781
73;1665667694.7964923;46.9755389;7.1803533999999996;15.88800048828125;1665667694.9380145;0.16835561394691467;-0.7830398678779602;88.7529525756836
74;1665667695.006333;46.9755389;7.1803533999999996;16.485000610351562;1665667695.1351676;0.16895925998687744;-0.8577209115028381;88.7547607421875
75;1665667695.2005582;46.9755389;7.180353299999999;17.08300018310547;1665667695.3342721;0.20816990733146667;-0.8111740350723267;88.7646713256836
76;1665667695.4035676;46.9755389;7.180353299999999;17.676000595092773;1665667695.5392332;0.19040203094482422;-0.7056195139884949;88.75931549072266
77;1665667695.6095073;46.9755389;7.180353299999999;18.273000717163086;1665667695.7471218;0.23234093189239502;-0.7978332042694092;88.74305725097656
78;1665667695.8144655;46.975539;7.180353299999999;18.8700008392334;1665667695.9608657;0.18984656035900116;-0.7182108163833618;88.75968170166016
79;1665667696.0340667;46.975539;7.180353299999999;19.46700096130371;1665667696.172661;0.15976014733314514;-0.8072779178619385;88.75457763671875
80;1665667696.24098;46.975539;7.180353299999999;20.066001892089844;1665667696.3727403;0.060031957924366;-0.7515017986297607;88.74613189697266
81;1665667696.431303;46.975539;7.1803533999999996;20.66900062561035;1665667696.585511;0.2501123547554016;-0.8629014492034912;88.74739074707031
82;1665667696.6528559;46.975539;7.1803533999999996;21.273000717163086;1665667696.802184;0.25892314314842224;-0.727471113204956;88.73075103759766
83;1665667696.8685515;46.975539;7.1803535;21.878000259399414;1665667697.0100741;0.05359721928834915;-0.7658600807189941;88.74446868896484
84;1665667697.0803475;46.975539;7.1803535;22.479001998901367;1665667697.2208903;0.2718636393547058;-0.6899712085723877;88.73865509033203
85;1665667697.2853072;46.975539;7.1803536;23.078001022338867;1665667697.430731;0.1826115995645523;-0.706203043460846;88.73857116699219
86;1665667697.498077;46.975539;7.1803536;23.676000595092773;1665667697.6259334;0.1824786216020584;-0.632861852645874;88.74589538574219
87;1665667697.6971812;46.975539;7.1803536;24.279001235961914;1665667697.8318677;0.09038955718278885;-0.7346909642219543;88.74110412597656
88;1665667697.8972623;46.975539;7.1803536;24.881000518798828;1665667698.0319498;0.05199545994400978;-0.6525307893753052;88.73280334472656
89;1665667698.0924618;46.9755391;7.1803536;25.479001998901367;1665667698.226176;0.2033323496580124;-0.591229259967804;88.74101257324219
90;1665667698.3120654;46.9755391;7.1803536999999995;26.07400131225586;1665667698.9123075;0.27194514870643616;-0.5756940245628357;88.74312591552734
91;1665667698.970869;46.9755391;7.1803538;26.668001174926758;1665667699.107509;0.3072035014629364;-0.5477479696273804;88.74494934082031
92;1665667699.1777806;46.9755391;7.1803538;27.26300048828125;1665667699.3163722;0.10167205333709717;-0.5738722681999207;88.74420928955078
93;1665667699.394454;46.9755391;7.1803538;27.86100196838379;1665667699.539878;0.24007974565029144;-0.5842887759208679;88.74102783203125
94;1665667699.605279;46.9755391;7.1803538;28.463001251220703;1665667699.7477665;0.1974821239709854;-0.4238307476043701;88.7402572631836
95;1665667699.8121839;46.9755391;7.1803538;29.06300163269043;1665667699.942968;0.17619319260120392;-0.5024766325950623;88.74205780029297
96;1665667700.0093374;46.9755391;7.1803539;29.663002014160156;1665667700.1498823;0.4237758219242096;-0.5314347147941589;88.72525024414062
97;1665667700.2250328;46.9755391;7.1803539999999995;30.26300048828125;1665667700.4661062;0.3010598421096802;-0.6454898118972778;88.74388122558594
98;1665667700.5315018;46.975539;7.1803539999999995;30.864002227783203;1665667700.6632612;0.2525617480278015;-0.8533164858818054;88.73310089111328
99;1665667700.72475;46.975539;7.1803539999999995;31.466001510620117;1665667700.8633404;0.2696353495121002;-0.6947833895683289;88.73278045654297
100;1665667701.0302372;46.9755389;7.1803539999999995;32.07200241088867;1665667701.1668794;0.10743263363838196;-0.7104055881500244;88.73231506347656
101;1665667701.238126;46.975539;7.1803539999999995;32.68000030517578;1665667701.3845296;0.27380117774009705;-0.6422719955444336;88.73834228515625
102;1665667701.4616332;46.975539;7.1803539999999995;33.28600311279297;1665667701.59144;0.3015279471874237;-0.6201311349868774;88.7474136352539
103;1665667701.6558583;46.975539;7.1803541;33.89200210571289;1665667701.8042111;0.17821533977985382;-0.49584391713142395;88.73664855957031
104;1665667701.8588672;46.975539;7.1803541;34.49500274658203;1665667702.0189328;0.3817621171474457;-0.5603902339935303;88.74667358398438
105;1665667702.0843236;46.975539;7.1803541;35.09300231933594;1665667702.2248673;0.06645996123552322;-0.5516241192817688;88.74788665771484
106;1665667702.2961175;46.9755389;7.1803539999999995;35.68800354003906;1665667702.4376378;0.10200700163841248;-0.6646661758422852;88.74662017822266
107;1665667702.4952235;46.9755389;7.1803539999999995;36.28200149536133;1665667702.6250293;0.21724924445152283;-0.7190924882888794;88.7450942993164
108;1665667702.687494;46.9755389;7.1803541;36.87200164794922;1665667702.8163283;0.18293496966362;-0.6112997531890869;88.74332427978516
109;1665667702.8826952;46.9755389;7.1803541;37.461002349853516;1665667703.0232413;0.28435030579566956;-0.6207872629165649;88.73428344726562
110;1665667703.0925372;46.9755389;7.1803541;38.04800033569336;1665667703.2447925;0.2962587773799896;-0.5829901099205017;88.74662780761719
111;1665667703.3072572;46.9755389;7.1803541;38.63199996948242;1665667703.4507298;0.23713241517543793;-0.5807207226753235;88.74010467529297
112;1665667703.5151465;46.975538799999995;7.1803542;39.21500015258789;1665667703.667405;0.2316080927848816;-0.4620836675167084;88.73515319824219
113;1665667703.72499;46.975538799999995;7.1803542;39.80000305175781;1665667703.8713875;0.284150093793869;-0.6401521563529968;88.73780822753906
114;1665667704.0412133;46.975538799999995;7.1803542;40.38300323486328;1665667704.1768777;0.36232641339302063;-0.5790135860443115;88.73719787597656
115;1665667704.2364137;46.975538799999995;7.1803542;40.961002349853516;1665667704.382817;0.26886624097824097;-0.5298908352851868;88.74298858642578
116;1665667704.4550457;46.975538799999995;7.1803541;41.53900146484375;1665667704.5897286;0.09279470145702362;-0.5164692401885986;88.72367095947266
117;1665667704.6541448;46.9755387;7.1803541;42.117000579833984;1665667704.9401145;0.24987533688545227;-0.6100048422813416;88.72879791259766
118;1665667704.996723;46.9755387;7.1803541;42.69900131225586;1665667705.1362932;0.1547248810529709;-0.5415604710578918;88.74618530273438
119;1665667705.2046142;46.9755387;7.1803541;43.281002044677734;1665667705.3510156;0.21218988299369812;-0.6226179003715515;88.74087524414062
120;1665667705.4251883;46.9755387;7.1803541;43.862003326416016;1665667705.5608563;0.263630211353302;-0.5592702031135559;88.73777770996094
121;1665667705.6281977;46.9755386;7.1803541;44.44300079345703;1665667705.7638624;0.1935293972492218;-0.5371390581130981;88.7457504272461
122;1665667705.8282783;46.9755386;7.1803539999999995;45.02400207519531;1665667705.9854157;0.1564774513244629;-0.6805678606033325;88.74214172363281
123;1665667706.050809;46.9755386;7.1803539;45.60700225830078;1665667706.197209;0.18697111308574677;-0.5791288018226624;88.72651672363281
124;1665667706.2587001;46.9755386;7.1803539;46.18800354003906;1665667706.4197397;0.08857175707817078;-0.6356614828109741;88.74195098876953
125;1665667706.4890342;46.9755386;7.1803539;46.76900100708008;1665667707.0063171;0.16181960701942444;-0.6001943945884705;88.74880981445312
126;1665667707.07659;46.9755385;7.1803538;47.35000228881836;1665667707.2366545;0.19618304073810577;-0.6996267437934875;88.7517318725586
127;1665667707.2981458;46.9755385;7.1803538;47.93400192260742;1665667707.441615;0.26273855566978455;-0.8293442130088806;88.7536392211914
128;1665667707.505057;46.9755384;7.1803538;48.51900100708008;1665667707.6612163;0.2805710732936859;-0.8335010409355164;88.74681091308594
129;1665667707.7256327;46.9755384;7.1803538;49.10300064086914;1665667707.8661773;0.27799662947654724;-0.7136996388435364;88.74925231933594
130;1665667707.9257143;46.9755384;7.1803538;49.68400192260742;1665667708.0760195;0.35438764095306396;-0.7725606560707092;88.74615478515625
131;1665667708.1492186;46.9755385;7.1803538;50.259002685546875;1665667708.283909;0.30405884981155396;-0.6223170161247253;88.73971557617188
132;1665667708.344421;46.9755385;7.1803536999999995;50.8380012512207;1665667708.4771583;0.3357028067111969;-0.6884815096855164;88.75719451904297
133;1665667708.536693;46.9755385;7.1803536;51.419002532958984;1665667708.689927;0.1825743466615677;-0.7430700659751892;88.74566650390625
134;1665667708.747512;46.9755385;7.1803535;52.005001068115234;1665667708.8929348;0.23579534888267517;-0.5488211512565613;88.74088287353516
135;1665667708.9632075;46.9755385;7.1803535;52.592002868652344;1665667709.112538;0.3023860454559326;-0.8129035234451294;88.74267578125
136;1665667709.1779282;46.9755385;7.1803533999999996;53.177001953125;1665667709.3077412;0.2289220243692398;-0.6541768312454224;88.75078582763672
137;1665667709.3662982;46.9755385;7.1803533999999996;53.75700378417969;1665667709.5048914;0.18926116824150085;-0.7233770489692688;88.73902893066406
138;1665667709.5673554;46.9755386;7.180353299999999;54.3380012512207;1665667709.7000916;0.13944177329540253;-0.6473858952522278;88.74191284179688
139;1665667709.7732918;46.9755386;7.1803532;54.919002532958984;1665667709.9089558;0.08083384484052658;-0.5900718569755554;88.74417114257812
140;1665667709.9733741;46.9755386;7.1803531;55.49900436401367;1665667710.1178226;-0.20538650453090668;-0.6612758636474609;88.74849700927734
141;1665667710.1851656;46.9755386;7.180352999999999;56.03700256347656;1665667710.3247383;-0.10954276472330093;-0.746187686920166;88.73661804199219
142;1665667710.3823187;46.9755387;7.180352999999999;56.500003814697266;1665667710.5257943;-0.019982224330306053;-0.6488171815872192;88.75450134277344
143;1665667710.5814235;46.9755387;7.1803529;56.89400100708008;1665667710.724899;-0.1370721012353897;-0.8253920674324036;88.75115966796875
144;1665667710.785411;46.9755387;7.1803529;57.228004455566406;1665667710.9220526;-0.07206661999225616;-0.7887184619903564;88.74694061279297
145;1665667710.9854898;46.975538799999995;7.1803529;57.50800323486328;1665667711.1318917;-0.05776144564151764;-0.6277472972869873;88.7440185546875
146;1665667711.2070434;46.975538799999995;7.1803529;57.74500274658203;1665667711.3553972;-0.0047209677286446095;-0.5947735905647278;88.74848937988281
147;1665667711.4227405;46.975538799999995;7.1803529;57.94400405883789;1665667711.5593822;-0.05558488517999649;-0.531212329864502;88.74555969238281
148;1665667711.6325817;46.9755389;7.180352999999999;58.112003326416016;1665667711.7809358;-0.030819252133369446;-0.5718884468078613;88.7514877319336
149;1665667711.8424225;46.9755389;7.180352999999999;58.24900436401367;1665667711.9722314;4.4269819259643555;-5.437097072601318;87.19824981689453
150;1665667712.033721;46.975539;7.1803529;58.37200164794922;1665667712.185003;21.41470718383789;-28.259450912475586;75.83567810058594
151;1665667712.255275;46.9755398;7.1803517;58.5160026550293;1665667712.3880086;28.2597713470459;-48.0819091796875;66.1817626953125
152;1665667712.463162;46.975542399999995;7.1803476999999996;58.695003509521484;1665667712.6105382;14.873053550720215;-54.270530700683594;60.90351104736328
153;1665667712.6798353;46.975547299999995;7.1803403999999995;58.845001220703125;1665667712.8096437;-4.694703578948975;-57.35497283935547;46.17886734008789
154;1665667712.8691797;46.9755548;7.180330199999999;58.978004455566406;1665667712.9999642;-20.56694221496582;-53.56461715698242;30.674360275268555
155;1665667713.0858562;46.975564;7.1803177;59.06900405883789;1665667713.2244482;-31.042490005493164;-45.08729934692383;15.779817581176758
156;1665667713.288863;46.9755744;7.180302999999999;59.14900207519531;1665667713.440143;-38.69721984863281;-35.367706298828125;2.7537031173706055
157;1665667713.5065112;46.9755855;7.1802869;59.19000244140625;1665667713.649984;-41.42828369140625;-26.645231246948242;-7.094249248504639
158;1665667713.709523;46.975597;7.180269999999999;59.19900131225586;1665667713.8568978;-41.22651290893555;-18.635709762573242;-14.390690803527832
159;1665667713.9203384;46.975609;7.180252599999999;59.19900131225586;1665667714.0569792;-41.89544677734375;-11.425607681274414;-20.35171127319336
160;1665667714.1213946;46.9756212;7.1802354;59.215003967285156;1665667714.2707255;-44.50218200683594;-12.85688304901123;-23.925851821899414
161;1665667714.3292854;46.975633599999995;7.1802182;59.20100402832031;1665667714.4756875;-45.550987243652344;-8.403373718261719;-32.078338623046875
162;1665667714.5410779;46.9756463;7.180200699999999;59.19900131225586;1665667714.6855264;-44.950443267822266;-1.0281810760498047;-34.928794860839844
163;1665667714.7440877;46.975659099999994;7.1801832999999995;59.18700408935547;1665667714.885608;-38.82969665527344;2.197075605392456;-22.503063201904297
164;1665667714.955879;46.9756722;7.1801664999999995;59.16100311279297;1665667715.113016;-29.1760196685791;-0.7356987595558167;-6.767698764801025
165;1665667715.1696255;46.975685299999995;7.180151599999999;59.130001068115234;1665667715.3013873;-13.187843322753906;0.0016798111610114574;6.5365705490112305
166;1665667715.3677533;46.9756977;7.1801388;59.079002380371094;1665667715.5200117;-3.7492566108703613;-5.73677921295166;13.571590423583984
167;1665667715.58345;46.9757086;7.1801281999999995;59.03600311279297;1665667715.7249737;-5.604848384857178;-16.31319808959961;4.829017639160156
168;1665667715.7835317;46.975718099999995;7.1801186999999995;59.000003814697266;1665667715.9406679;-15.140867233276367;-28.098251342773438;-10.049527168273926
169;1665667715.999228;46.9757264;7.180109099999999;58.97500228881836;1665667716.1397731;-35.7236442565918;-31.008960723876953;-23.080129623413086
170;1665667716.2051656;46.9757338;7.1800983;58.96400451660156;1665667716.3935366;-37.16099548339844;-16.550500869750977;-38.45140838623047
171;1665667716.457951;46.9757408;7.1800858;58.96400451660156;1665667716.5936167;-49.55949020385742;-2.7696502208709717;-46.10560989379883
172;1665667716.6580331;46.975747999999996;7.1800717999999994;58.99900436401367;1665667716.808339;-53.54595184326172;3.8138599395751953;-44.18006134033203
173;1665667716.876657;46.975756499999996;7.1800565999999995;59.02300262451172;1665667717.006469;-41.092994689941406;-0.23805217444896698;-26.93052101135254
174;1665667717.0855227;46.9757661;7.1800410999999995;59.04700469970703;1665667717.2182605;-31.154762268066406;0.41081544756889343;-15.557454109191895
175;1665667717.2846298;46.9757762;7.1800266;59.0420036315918;1665667717.420292;-18.10401725769043;8.941099166870117;-5.5023417472839355
176;1665667717.4934955;46.975786;7.1800142;59.02400207519531;1665667717.6252553;-8.085936546325684;28.622663497924805;3.8437118530273438
177;1665667717.6847906;46.975794799999996;7.1800051;59.00100326538086;1665667717.8302135;-12.460044860839844;34.05331802368164;12.708498001098633
178;1665667717.9278166;46.9758022;7.1800007;58.99800109863281;1665667718.0703108;-14.165091514587402;32.92914962768555;22.403928756713867
179;1665667718.1308239;46.975808199999996;7.180000499999999;59.009002685546875;1665667718.2664897;-19.2106990814209;26.44137954711914;26.985990524291992
180;1665667718.329929;46.9758132;7.1800033;58.996002197265625;1665667718.4773076;-18.805591583251953;11.643882751464844;18.585176467895508
181;1665667718.5358667;46.9758177;7.180008099999999;59.00100326538086;1665667718.667627;-12.436391830444336;-0.32353267073631287;3.3212876319885254
182;1665667718.7300932;46.9758219;7.1800134;58.978004455566406;1665667718.8803968;-13.650723457336426;-20.292749404907227;-8.253786087036133
183;1665667718.9409077;46.975826;7.180017299999999;58.948001861572266;1665667719.0785258;-1.543084740638733;-29.77750587463379;-21.397056579589844
184;1665667719.1400156;46.975829399999995;7.1800188;58.9430046081543;1665667719.2727501;15.62983512878418;-36.350341796875;-28.702957153320312
185;1665667719.3459496;46.9758311;7.1800174;58.9890022277832;1665667719.4855213;15.386272430419922;-31.531631469726562;-29.42586326599121
186;1665667719.5460353;46.9758309;7.180014099999999;59.018001556396484;1665667719.7051213;9.569793701171875;-22.989381790161133;-40.4453010559082
187;1665667719.7675843;46.9758292;7.1800098;59.040000915527344;1665667719.891537;-0.031410329043865204;-21.945768356323242;-51.3730583190918
188;1665667719.9500976;46.9758268;7.1800051;59.0260009765625;1665667720.212643;-12.686036109924316;-13.282310485839844;-53.883541107177734
189;1665667720.2809625;46.975823999999996;7.18;59.01000213623047;1665667720.4107711;-19.365001678466797;4.633922576904297;-43.3133430480957
190;1665667720.4790926;46.9758218;7.1799946;58.99200439453125;1665667720.6303735;-28.66161346435547;10.38448715209961;-37.07856750488281
191;1665667720.6889338;46.9758212;7.1799895;58.987003326416016;1665667720.9456222;-31.403493881225586;10.489870071411133;-36.1307487487793
192;1665667720.9924734;46.975822699999995;7.1799845;59.02300262451172;1665667721.1203287;-47.25518798828125;7.55718994140625;-35.28803634643555
193;1665667721.1720564;46.9758261;7.1799792;59.070003509521484;1665667721.2960095;-54.15997314453125;2.725090503692627;-35.29878616333008
194;1665667721.3506644;46.975831899999996;7.179972599999999;59.1150016784668;1665667721.4980428;-53.47025680541992;-1.7170944213867188;-37.81842803955078
195;1665667721.5585563;46.9758401;7.1799639;59.178001403808594;1665667721.6864135;-55.079872131347656;-0.2841101288795471;-41.916847229003906
196;1665667721.7625482;46.9758499;7.1799529;59.237003326416016;1665667721.8982034;-55.17808151245117;3.252272844314575;-41.679481506347656
197;1665667721.9548125;46.975860999999995;7.179939999999999;59.26900100708008;1665667722.0836446;-53.651981353759766;0.29760491847991943;-39.63676834106445
198;1665667722.1470847;46.9758734;7.1799257999999995;59.28300094604492;1665667722.2905588;-50.70553207397461;-1.2958869934082031;-40.1573486328125
199;1665667722.3569257;46.975886599999995;7.1799102999999995;59.30500411987305;1665667722.5189435;-47.25028610229492;-1.0795714855194092;-40.58138656616211
200;1665667722.5804331;46.9759003;7.1798939;59.32400131225586;1665667722.7239034;-46.6483039855957;1.6601847410202026;-40.7049446105957
201;1665667722.8068655;46.9759142;7.1798771;59.33000183105469;1665667722.9493635;-49.90243911743164;-0.9149467945098877;-39.31944274902344
202;1665667723.0069454;46.9759283;7.179859899999999;59.333003997802734;1665667723.1601796;-50.25699996948242;-1.2693285942077637;-40.19829559326172
203;1665667723.2245944;46.9759427;7.1798423;59.33000183105469;1665667723.3612366;-50.510398864746094;0.06591343134641647;-40.91316604614258
204;1665667723.4178472;46.9759574;7.1798242;59.32400131225586;1665667723.9175591;-51.089054107666016;0.3006950318813324;-40.575096130371094
205;1665667723.9282944;46.975972299999995;7.1798058;59.30900192260742;1665667724.0180871;-49.833248138427734;0.2975579798221588;-40.27355194091797
206;1665667724.0424876;46.975987499999995;7.1797868;59.30800247192383;1665667724.1859605;-50.91374588012695;0.5174416303634644;-40.49085998535156
207;1665667724.2132893;46.976002799999996;7.179767699999999;59.29300308227539;1665667724.342124;-51.07233810424805;0.1139581948518753;-40.3170280456543
208;1665667724.3733544;46.9760184;7.179748399999999;59.2760009765625;1665667724.523659;-49.65850067138672;0.13216222822666168;-40.28852844238281
209;1665667724.5568414;46.9760342;7.1797287999999995;59.26700210571289;1665667724.732524;-50.55487060546875;0.4310076832771301;-40.55950927734375
210;1665667724.766684;46.976050099999995;7.179709;59.25700378417969;1665667724.932605;-51.02162170410156;0.2563594877719879;-40.60236358642578
211;1665667724.9735963;46.9760661;7.179689199999999;59.23800277709961;1665667725.1463497;-50.21773910522461;0.4139266312122345;-40.607913970947266
212;1665667725.1863656;46.976082299999995;7.179669199999999;59.23200225830078;1665667725.3464355;-51.6973876953125;0.3060440421104431;-40.675357818603516
213;1665667725.383518;46.9760986;7.1796489999999995;59.21600341796875;1665667725.5728636;-50.708919525146484;0.08708149194717407;-40.63811492919922
214;1665667725.6079998;46.9761149;7.1796286;59.19900131225586;1665667725.7709923;-49.16332244873047;0.7354898452758789;-40.8363037109375
215;1665667725.819796;46.9761314;7.179608099999999;59.18700408935547;1665667725.9818113;-50.80167770385742;0.7169501185417175;-40.68058776855469
216;1665667726.0228016;46.976147999999995;7.179587499999999;59.17400360107422;1665667726.2141008;-50.63022994995117;0.1431902050971985;-40.45808029174805
217;1665667726.2638762;46.9761646;7.179567;59.156002044677734;1665667726.438581;-50.36284255981445;-0.011946232989430428;-40.53615188598633
218;1665667726.4688358;46.9761813;7.179546299999999;59.15800094604492;1665667726.6454935;-51.40960693359375;0.2915100157260895;-40.894535064697266
219;1665667726.6845357;46.976198;7.1795255;59.143001556396484;1665667726.8494802;-49.656349182128906;0.6286488175392151;-40.8903923034668
220;1665667726.8826623;46.9762148;7.1795046;59.13600158691406;1665667727.052489;-50.10946273803711;0.5609193444252014;-40.598655700683594
221;1665667727.0876262;46.9762316;7.1794837;59.130001068115234;1665667727.2457376;-51.395294189453125;0.28167879581451416;-40.584842681884766
222;1665667727.2896564;46.976248399999996;7.179462699999999;59.118003845214844;1665667727.4614336;-50.23219299316406;0.0942734107375145;-40.57468795776367
223;1665667727.5024278;46.976265299999994;7.1794417;59.11300277709961;1665667727.693724;-50.84569549560547;0.7662380337715149;-40.951026916503906
224;1665667727.732766;46.9762822;7.179420599999999;59.10200119018555;1665667727.8947792;-50.4543571472168;0.26040416955947876;-40.57292556762695
225;1665667727.9289393;46.9762991;7.1793995;59.09300231933594;1665667728.2168636;-49.50883102416992;-0.009990241378545761;-40.28266906738281
226;1665667728.2520018;46.9763161;7.1793784;59.09700393676758;1665667728.4159665;-50.76261901855469;0.7251309156417847;-40.79841995239258
227;1665667728.452082;46.976333;7.1793572;59.09700393676758;1665667728.6287353;-49.801353454589844;0.233632430434227;-40.50373077392578
228;1665667728.6677773;46.97635;7.1793360999999996;59.095001220703125;1665667728.8405287;-45.50074005126953;0.05852899327874184;-40.55718994140625
229;1665667728.885428;46.976366999999996;7.179315;59.095001220703125;1665667729.0650108;-32.70799255371094;-2.8269577026367188;-39.283485412597656
230;1665667729.1001456;46.976383299999995;7.1792945999999995;59.07200241088867;1665667729.3665972;-31.21271324157715;0.6834539175033569;-40.526702880859375
231;1665667729.40271;46.9763988;7.1792751;59.06200408935547;1665667729.5822947;-30.338407516479492;2.101172924041748;-40.2323112487793
232;1665667729.9141357;46.9764133;7.1792568;59.03700256347656;1665667730.0907905;-25.758493423461914;1.4348647594451904;-39.77161407470703
233;1665667730.1230004;46.976427;7.1792399;59.000003814697266;1665667730.276233;-22.6406192779541;1.137464165687561;-40.48426055908203
234;1665667730.3094182;46.9764396;7.1792243;58.96400451660156;1665667730.4743602;-19.362537384033203;0.32659944891929626;-40.953365325927734
235;1665667730.5085227;46.9764511;7.179210299999999;58.93000411987305;1665667730.671516;-14.830244064331055;0.8425092697143555;-41.37051773071289
236;1665667730.7056792;46.9764614;7.1791977;58.89800262451172;1665667730.869645;-11.769375801086426;0.3381994664669037;-40.96990966796875
237;1665667730.9213734;46.9764705;7.1791865999999995;58.868003845214844;1665667731.083388;-8.707234382629395;-0.27388259768486023;-40.83492660522461
238;1665667731.1243837;46.9764785;7.1791769;58.84100341796875;1665667731.291281;-4.970551013946533;0.24930930137634277;-41.14658737182617
239;1665667731.3283653;46.9764854;7.1791686;58.81700134277344;1665667731.5118554;-3.481463670730591;-0.5804435610771179;-41.187591552734375
240;1665667731.5508945;46.9764912;7.1791616;58.79700469970703;1665667731.7109616;-2.139207601547241;-0.6942458152770996;-41.433895111083984
241;1665667731.749024;46.976496;7.1791557;58.785003662109375;1665667731.9217775;-0.9785571098327637;-0.3996914029121399;-41.71702575683594
242;1665667731.9578898;46.976499999999994;7.1791507999999995;58.77900314331055;1665667732.1257632;-0.4953575134277344;-0.4910846948623657;-41.75918960571289
243;1665667732.1716342;46.976503199999996;7.1791468;58.775001525878906;1665667732.336582;-0.7770688533782959;-0.8247823119163513;-41.915225982666016
244;1665667732.37562;46.9765059;7.1791434999999995;58.7760009765625;1665667732.5444684;-0.677536129951477;-0.5960948467254639;-42.11388397216797
245;1665667732.5835083;46.976507999999995;7.1791408;58.78200149536133;1665667732.7445536;-1.5417706966400146;-1.5042184591293335;-42.2317008972168
246;1665667732.7796862;46.9765097;7.1791385;58.7920036315918;1665667732.9670787;-1.553754448890686;-1.1799877882003784;-42.028011322021484
247;1665667733.0090466;46.976511099999996;7.179136499999999;58.80400466918945;1665667733.1642327;-1.954849362373352;-1.8311623334884644;-41.48237609863281
248;1665667733.2032716;46.976512299999996;7.179134899999999;58.82600402832031;1665667733.3740742;-1.7994384765625;-1.8046298027038574;-41.25774002075195
249;1665667733.4092114;46.976513399999995;7.1791335;58.845001220703125;1665667733.5722015;-1.387363076210022;-1.6792631149291992;-41.425758361816406
250;1665667733.6112418;46.9765144;7.1791322;58.86100387573242;1665667733.7869232;-1.1954118013381958;-1.3345186710357666;-41.29426956176758
251;1665667733.82206;46.9765151;7.179131;58.87400436401367;1665667733.969435;-1.2339668273925781;-1.6452287435531616;-41.24848937988281
252;1665667734.0055478;46.976515899999995;7.1791301;58.887001037597656;1665667734.1792777;-1.513721227645874;0.30707815289497375;-41.547237396240234
253;1665667734.2261283;46.9765166;7.1791293;58.89600372314453;1665667734.3998556;-24.581893920898438;1.4342279434204102;-46.27204132080078
254;1665667734.4369426;46.9765175;7.1791284;58.915000915527344;1665667734.6048174;-46.30496597290039;1.1338376998901367;-52.104103088378906
255;1665667734.6526423;46.976519499999995;7.1791256;58.948001861572266;1665667734.8175883;-54.65160369873047;9.254048347473145;-52.62763977050781
256;1665667734.8527205;46.9765237;7.179119399999999;59.03200149536133;1665667735.0332828;-56.81825256347656;-6.314555644989014;-50.80427169799805
257;1665667735.0684192;46.9765295;7.1791101;59.10600280761719;1665667735.2245796;-58.41307067871094;-1.493377923965454;-50.741703033447266
258;1665667735.2606921;46.976536599999996;7.179097;59.16800308227539;1665667735.495907;-55.656394958496094;3.8174169063568115;-51.2161865234375
259;1665667735.5339723;46.9765454;7.1790807999999995;59.23100280761719;1665667735.708678;-53.982215881347656;0.3637571930885315;-47.25163650512695
260;1665667735.7399108;46.976555499999996;7.1790629;59.26700210571289;1665667735.9292543;-52.26268005371094;0.058047033846378326;-48.83926773071289
261;1665667735.9673185;46.9765665;7.1790438;59.290000915527344;1665667736.1293342;-48.22370529174805;-0.43265771865844727;-48.62858963012695
262;1665667736.1644728;46.9765781;7.1790239;59.29900360107422;1665667736.3372273;-46.329872131347656;-2.1539463996887207;-48.831600189208984
263;1665667736.3723602;46.976589999999995;7.179003499999999;59.30800247192383;1665667736.5499964;-49.86153793334961;0.15532085299491882;-50.61671447753906
264;1665667736.585132;46.976602;7.178982599999999;59.30900192260742;1665667736.76862;-51.17298889160156;1.0862133502960205;-49.93917465209961
265;1665667736.8018036;46.9766143;7.1789612;59.30400466918945;1665667736.977486;-51.575706481933594;0.7266336679458618;-48.988616943359375
266;1665667737.0145717;46.9766269;7.1789393;59.29900360107422;1665667737.1775663;-51.9898796081543;0.21539027988910675;-49.059513092041016
267;1665667737.2302697;46.9766398;7.1789171;59.28200149536133;1665667737.3883815;-50.78005599975586;-0.008644419722259045;-49.526458740234375
268;1665667737.429377;46.9766531;7.1788944;59.28200149536133;1665667737.5991993;-51.295284271240234;0.055313773453235626;-49.752010345458984
269;1665667737.641167;46.976666599999994;7.178871399999999;59.272003173828125;1665667737.8158755;-50.68514633178711;0.5602630972862244;-49.80170440673828
270;1665667737.8539374;46.9766803;7.1788479999999995;59.26400375366211;1665667738.0198567;-49.96247482299805;0.5118841528892517;-49.37975311279297
271;1665667738.0559702;46.976694099999996;7.1788244;59.26100158691406;1665667738.214084;-51.61601257324219;0.5218479037284851;-49.49090576171875
272;1665667738.2599576;46.976707999999995;7.1788006;59.25400161743164;1665667738.4327066;-51.575870513916016;-0.047453105449676514;-49.40918731689453
273;1665667738.4688218;46.976721999999995;7.1787768;59.2390022277832;1665667738.651333;-51.82007598876953;0.19156360626220703;-49.69335174560547
274;1665667738.692325;46.9767362;7.1787526999999995;59.22900390625;1665667738.8826473;-51.58359146118164;0.3233262896537781;-49.801361083984375
275;1665667738.9265702;46.9767505;7.1787282999999995;59.217002868652344;1665667739.110055;-50.69413757324219;0.03407492861151695;-49.46092224121094
276;1665667739.1490958;46.9767649;7.1787037;59.217002868652344;1665667739.3482025;-48.624027252197266;0.4466010630130768;-49.70618438720703
277;1665667739.385293;46.9767793;7.1786791;59.20500183105469;1665667739.552186;-36.060646057128906;2.962677240371704;-50.77777099609375
278;1665667739.5892725;46.9767935;7.1786549;59.182003021240234;1665667739.7688584;-28.491840362548828;4.525613307952881;-49.838863372802734
279;1665667739.8206067;46.976807099999995;7.1786322;59.1660041809082;1665667739.9991977;-33.787010192871094;-4.985803127288818;-44.23915481567383
280;1665667740.0343368;46.97682;7.1786109;59.1400032043457;1665667740.1963484;-27.275495529174805;-6.056224346160889;-48.052337646484375
281;1665667740.2314844;46.976831999999995;7.1785907;59.10600280761719;1665667740.417904;-23.03162956237793;-0.30009573698043823;-51.871585845947266
282;1665667740.4588964;46.976843099999996;7.1785717;59.070003509521484;1665667740.6326234;-20.297157287597656;-0.492196649312973;-50.355735778808594
283;1665667740.6736157;46.9768531;7.1785543;59.02900314331055;1665667740.8297782;-14.734894752502441;-0.02419198676943779;-49.83271408081055
284;1665667740.8658898;46.9768621;7.1785385999999995;58.987003326416016;1665667741.0444982;-10.663801193237305;0.39151501655578613;-49.722816467285156
285;1665667741.0845134;46.9768699;7.1785248;58.948001861572266;1665667741.2484832;-7.357071399688721;0.9495151042938232;-49.91609191894531
286;1665667741.3089945;46.9768768;7.178512899999999;58.91400146484375;1665667741.4602742;-4.047539710998535;0.7547501921653748;-49.941383361816406
287;1665667741.4993153;46.9768827;7.1785027999999995;58.888004302978516;1665667741.6749961;-1.618909478187561;0.33526700735092163;-49.91539764404297
288;1665667741.7159903;46.9768876;7.1784944;58.86700439453125;1665667741.8819115;-0.5938632488250732;0.6566952466964722;-50.172908782958984
289;1665667741.9180248;46.9768918;7.178487499999999;58.84800338745117;1665667742.1063917;0.3086436986923218;-0.5214943885803223;-50.239524841308594
290;1665667742.2820718;46.9768951;7.1784818999999995;58.840003967285156;1665667742.4011447;-0.10321412980556488;-0.7936528325080872;-50.339393615722656
291;1665667742.4362812;46.976897799999996;7.1784773;58.83900451660156;1665667742.5875626;-0.21142971515655518;-1.7427113056182861;-50.41261672973633
292;1665667742.622697;46.9768999;7.178473599999999;58.84400177001953;1665667742.7730029;-1.1279832124710083;-0.40617072582244873;-50.63361358642578
293;1665667742.805212;46.9769016;7.1784704999999995;58.85000228881836;1665667742.9697907;-1.3219242095947266;0.28444331884384155;-50.61936569213867
294;1665667743.0059023;46.9769031;7.178468;58.85900115966797;1665667743.168895;-1.9677506685256958;0.8748020529747009;-50.84638595581055
295;1665667743.2098863;46.976904399999995;7.1784661;58.8650016784668;1665667743.3894725;-2.352679967880249;0.2564336657524109;-51.53506851196289
296;1665667743.4324164;46.9769055;7.178464399999999;58.86700439453125;1665667743.60224;-2.3534398078918457;-0.5274710655212402;-52.516845703125
297;1665667743.6354268;46.9769065;7.1784627;58.87000274658203;1665667743.7974417;-2.4201691150665283;-1.1360262632369995;-53.07611083984375
298;1665667743.8325758;46.9769073;7.1784612;58.87400436401367;1665667743.9987297;-1.8687644004821777;-1.2964222431182861;-53.07349395751953
299;1665667744.0328891;46.976908099999996;7.1784598;58.875003814697266;1665667744.2144308;-1.150955080986023;-0.40236884355545044;-52.84523391723633
300;1665667744.2505395;46.976908699999996;7.1784586;58.87700271606445;1665667744.4164608;-1.0213629007339478;0.3024228811264038;-52.748252868652344
301;1665667744.453549;46.976909299999996;7.1784576;58.880001068115234;1665667744.616542;4.542293071746826;8.172895431518555;-48.14749526977539
302;1665667744.658508;46.976909899999995;7.178457;58.94900131225586;1665667744.818575;4.237048625946045;10.914945602416992;-36.63323211669922
303;1665667744.8595679;46.976910499999995;7.1784574;59.13200378417969;1665667745.030367;-4.898983478546143;30.419939041137695;-26.531814575195312
304;1665667745.066483;46.9769114;7.178458999999999;59.39500427246094;1665667745.26168;-22.6579532623291;46.19480895996094;-16.932767868041992
305;1665667745.2997465;46.9769139;7.178463799999999;59.73200225830078;1665667745.4607866;-43.839107513427734;40.01718521118164;-5.116735458374023
306;1665667745.498854;46.9769188;7.1784731;60.10900115966797;1665667745.6608658;-51.80706787109375;27.539621353149414;9.593729972839355
307;1665667745.7194273;46.9769272;7.178486899999999;60.54700469970703;1665667745.8775392;-52.33271026611328;22.34709358215332;23.826351165771484
308;1665667745.9117;46.976937899999996;7.178503999999999;61.012001037597656;1665667746.086406;-52.22290802001953;9.420378684997559;34.6185302734375
309;1665667746.1254442;46.976949999999995;7.1785238;61.4900016784668;1665667746.311862;-46.83666229248047;-2.699230909347534;39.58600616455078
310;1665667746.352857;46.976963399999995;7.178545;61.974002838134766;1665667746.5187757;-41.72235107421875;-1.578674077987671;39.573917388916016
311;1665667746.5529344;46.976977399999996;7.178565799999999;62.43000411987305;1665667746.723736;-39.9659309387207;4.338498592376709;43.73841857910156
312;1665667746.7647316;46.9769916;7.1785863;62.849002838134766;1665667746.9286985;-42.97207260131836;-3.575277090072632;54.111019134521484
313;1665667746.985306;46.977005399999996;7.178606899999999;63.263004302978516;1665667747.1531787;-46.812339782714844;-10.26737117767334;51.70246124267578
314;1665667747.1883142;46.977019399999996;7.1786275999999996;63.656002044677734;1665667747.3630214;-50.0153694152832;-5.200592517852783;43.339134216308594
315;1665667747.40206;46.977033999999996;7.178648099999999;64.03300476074219;1665667747.5523655;-50.969696044921875;2.5649187564849854;42.096736907958984
316;1665667747.5962844;46.9770493;7.178668699999999;64.40800476074219;1665667747.7768478;-50.43877410888672;1.553545594215393;45.656700134277344
317;1665667747.8100312;46.977064899999995;7.178690199999999;64.78500366210938;1665667747.9671674;-48.86787414550781;-2.303300619125366;46.30815124511719
318;1665667748.0071833;46.9770805;7.1787123;65.16200256347656;1665667748.161391;-48.4754753112793;-1.7523468732833862;44.255794525146484
319;1665667748.2101917;46.9770964;7.1787347;65.5580062866211;1665667748.3868515;-48.133602142333984;1.9840853214263916;43.46880340576172
320;1665667748.4200325;46.9771125;7.1787570999999994;65.93800354003906;1665667748.5840013;-37.451351165771484;1.3547203540802002;46.17490005493164
321;1665667748.623042;46.9771284;7.1787795;66.28900146484375;1665667748.8114123;-26.301998138427734;6.439165115356445;43.895652770996094
322;1665667748.8485017;46.9771435;7.1788013;66.62700653076172;1665667749.0173478;-26.53321075439453;16.434589385986328;38.17637634277344
323;1665667749.052484;46.977157299999995;7.1788221;66.9330062866211;1665667749.3169816;-29.495723724365234;-14.814525604248047;53.042083740234375
324;1665667749.357006;46.9771699;7.1788419999999995;67.19200134277344;1665667749.5170643;-22.28330421447754;-12.074865341186523;43.398765563964844
325;1665667749.5531766;46.977182;7.1788601;67.41300201416016;1665667749.7395947;-18.110960006713867;1.5664680004119873;39.14951705932617
326;1665667749.7796092;46.9771936;7.1788761;67.60200500488281;1665667749.9474819;-14.459933280944824;-1.4028007984161377;44.759544372558594
327;1665667749.9874985;46.977204099999994;7.178890399999999;67.7560043334961;1665667750.1573226;-11.524110794067383;1.968182921409607;45.51605224609375
328;1665667750.1992896;46.9772135;7.178903099999999;67.88800048828125;1665667750.3661902;-7.658486843109131;2.659210443496704;46.138648986816406
329;1665667750.407181;46.9772215;7.1789143;68.00900268554688;1665667750.5838387;-4.342405796051025;2.8243296146392822;46.09103775024414
330;1665667750.6258085;46.9772283;7.178923999999999;68.11400604248047;1665667750.788797;-1.9545652866363525;2.87935209274292;46.184471130371094
331;1665667750.8258855;46.977233899999995;7.178932199999999;68.2040023803711;1665667751.0074234;-0.3067052364349365;2.243694543838501;46.347843170166016
332;1665667751.0493903;46.9772384;7.1789393;68.28300476074219;1665667751.22605;0.32447710633277893;1.42922842502594;46.255184173583984
333;1665667751.2699678;46.977241899999996;7.1789451;68.3550033569336;1665667751.4368663;0.523540198802948;0.6243345141410828;45.939125061035156
334;1665667751.4827366;46.9772448;7.1789498;68.41900634765625;1665667751.6545174;0.2189835160970688;-0.18986845016479492;45.40196990966797
335;1665667751.6916049;46.977247;7.1789537;68.47600555419922;1665667751.8458104;-0.4684046804904938;-0.7327579259872437;44.716636657714844
336;1665667751.8848581;46.9772489;7.1789568;68.52799987792969;1665667752.0536993;-1.1431286334991455;-1.113271951675415;44.0120964050293
337;1665667752.0956683;46.977250399999996;7.1789594;68.57300567626953;1665667752.2645183;-1.7781261205673218;-1.1066813468933105;43.32175827026367
338;1665667752.3045356;46.9772517;7.1789615;68.61400604248047;1665667752.4811926;-2.401089906692505;-1.2271595001220703;42.76090621948242
339;1665667752.5260923;46.977252799999995;7.1789632;68.64900207519531;1665667752.6754165;-2.519404649734497;-0.9532879590988159;42.43626022338867
340;1665667752.7115276;46.9772539;7.1789646;68.6820068359375;1665667752.8745215;-2.6698877811431885;-0.581147313117981;42.58066940307617
341;1665667752.9184403;46.9772549;7.178965799999999;68.70899963378906;1665667753.0804586;-2.3172545433044434;-0.07051336765289307;43.235591888427734
342;1665667753.1341388;46.977255799999995;7.1789669;68.73300170898438;1665667753.632875;-1.8804616928100586;0.10324983298778534;43.54630661010742
343;1665667753.6689885;46.9772567;7.178967999999999;68.75300598144531;1665667753.8280768;-1.399040699005127;0.35801246762275696;43.47336196899414
344;1665667753.8632145;46.9772575;7.1789689;68.76900482177734;1665667754.0340147;4.622564315795898;9.609339714050293;46.73008728027344
345;1665667754.0701313;46.977258;7.1789698;68.78600311279297;1665667754.392212;3.4380407333374023;15.420661926269531;57.52165222167969
346;1665667754.412706;46.9772579;7.1789708;68.80400085449219;1665667754.5366578;-12.59432601928711;35.79963302612305;67.87185668945312
347;1665667754.5610592;46.9772567;7.1789726;68.84700012207031;1665667754.7016015;-33.11652755737305;44.35774230957031;79.33311462402344
348;1665667754.7318656;46.9772537;7.1789765;68.91300201416016;1665667754.882163;-49.97591781616211;27.065954208374023;96.56758880615234
349;1665667754.9241328;46.9772481;7.1789838999999995;69.00700378417969;1665667755.1993654;-55.35188293457031;16.430400848388672;110.06842803955078
350;1665667755.222791;46.9772405;7.1789951;69.11400604248047;1665667755.3438137;-56.14305877685547;12.434683799743652;117.76457214355469
351;1665667755.3721168;46.977231599999996;7.1790091;69.19000244140625;1665667755.5273035;-54.815921783447266;7.6158552169799805;125.73664855957031
352;1665667755.5556056;46.9772214;7.1790251;69.24500274658203;1665667755.7303147;-51.82793426513672;1.2237964868545532;131.5527801513672
353;1665667755.7674003;46.9772101;7.1790427999999995;69.29700469970703;1665667755.9108734;-47.375789642333984;-4.955978870391846;135.01634216308594
354;1665667755.9489386;46.9771983;7.1790616;69.33900451660156;1665667756.1090024;-44.78655242919922;-7.875402450561523;133.8386688232422
355;1665667756.391069;46.977186499999995;7.179081099999999;69.35600280761719;1665667756.479883;-42.308868408203125;-5.144425868988037;122.2367172241211
356;1665667756.5189245;46.9771751;7.1791011;69.34600067138672;1665667756.649707;-35.68046569824219;2.796082019805908;108.25633239746094
357;1665667756.6819174;46.9771644;7.179121599999999;69.33600616455078;1665667756.8175836;-41.058597564697266;17.04364776611328;106.73953247070312
358;1665667756.8536942;46.977154299999995;7.179142;69.33600616455078;1665667757.012782;-50.69614791870117;14.818419456481934;123.70819854736328
359;1665667757.0606062;46.9771437;7.1791624;69.33500671386719;1665667757.2070084;-58.185646057128906;2.4149656295776367;136.70773315429688
360;1665667757.243121;46.977131799999995;7.1791829;69.34500122070312;1665667757.4109917;-58.82657241821289;-6.122828006744385;131.49234008789062
361;1665667757.445154;46.9771189;7.1792044;69.34400177001953;1665667757.6081462;-50.375911712646484;0.2477947622537613;126.03213500976562
362;1665667757.648162;46.9771058;7.1792273;69.32200622558594;1665667757.8062751;-42.25212860107422;1.6252022981643677;127.98220825195312
363;1665667757.844338;46.9770928;7.179250799999999;69.3290023803711;1665667758.0034268;-46.256622314453125;1.6057103872299194;129.5398712158203
364;1665667758.0434434;46.9770798;7.1792739;69.33600616455078;1665667758.2064357;-50.40532302856445;0.1143987625837326;130.16763305664062
365;1665667758.2415736;46.977066799999996;7.179297;69.3280029296875;1665667758.4153032;-51.65843200683594;0.7424501776695251;129.43991088867188
366;1665667758.4592273;46.9770537;7.1793203;69.31900024414062;1665667758.6358814;-53.12772750854492;1.190376877784729;129.3783416748047
367;1665667758.6778512;46.9770403;7.1793439;69.30500030517578;1665667758.8310804;-52.33498001098633;0.9798888564109802;129.80227661132812
368;1665667758.8710973;46.977026699999996;7.1793678;69.29300689697266;1665667759.0487309;-51.4779052734375;0.8128236532211304;130.0818328857422
369;1665667759.0906963;46.9770128;7.179392;69.29199981689453;1665667759.2800417;-45.389286041259766;1.1982022523880005;129.8729705810547
370;1665667759.3249414;46.976999;7.1794161999999995;69.26900482177734;1665667759.4908588;-33.50792694091797;2.455063581466675;130.0202178955078
371;1665667759.521115;46.9769854;7.1794398;69.24700164794922;1665667759.693872;-32.191375732421875;2.0099406242370605;130.8553009033203
372;1665667759.7338867;46.9769723;7.179462099999999;69.2280044555664;1665667759.9046845;-32.03923034667969;-4.264110088348389;132.6079864501953
373;1665667759.9583657;46.97696;7.1794832;69.19700622558594;1665667760.1213615;-26.577659606933594;0.5193822383880615;128.65267944335938
374;1665667760.155521;46.9769485;7.1795032;69.15900421142578;1665667760.311681;-22.905170440673828;0.40543612837791443;129.36007690429688
375;1665667760.3507223;46.976937899999996;7.179521599999999;69.11700439453125;1665667760.5166404;-19.014074325561523;0.3655397593975067;130.0828094482422
376;1665667760.5556831;46.9769283;7.179538399999999;69.06900024414062;1665667760.730388;-14.012887954711914;0.896537721157074;130.15469360351562
377;1665667760.7664976;46.976919599999995;7.1795534;69.02300262451172;1665667760.9616985;-9.67320728302002;0.6933884024620056;130.17112731933594
378;1665667761.000741;46.976912;7.179566599999999;68.9800033569336;1665667761.1764216;-6.150813579559326;0.6598913669586182;130.1920623779297
379;1665667761.2369325;46.9769054;7.179577999999999;68.94400024414062;1665667761.3901653;-3.006206750869751;0.7183704376220703;130.34323120117188
380;1665667761.4282308;46.9768997;7.1795876;68.91400146484375;1665667761.5902462;-0.33844563364982605;-0.14499294757843018;130.34205627441406
381;1665667761.6292892;46.9768951;7.1795955;68.89000701904297;1665667761.8108258;0.45061635971069336;0.1476498693227768;130.29302978515625
382;1665667761.8547437;46.9768913;7.1796019;68.87000274658203;1665667762.0245721;0.3818008601665497;0.5849012136459351;130.21044921875
383;1665667762.0616598;46.9768882;7.179607;68.8550033569336;1665667762.23441;0.6539428234100342;-0.39747297763824463;130.21168518066406
384;1665667762.2959003;46.9768858;7.1796111;68.84300231933594;1665667762.4540112;-0.7673859000205994;0.46210089325904846;129.95501708984375
385;1665667762.4920752;46.9768839;7.179614399999999;68.83399963378906;1665667762.6589727;-1.287702202796936;-0.2358115017414093;129.94772338867188
386;1665667762.7272935;46.9768823;7.1796171;68.82600402832031;1665667762.8785748;-2.088843822479248;-0.2327176034450531;129.787841796875
387;1665667762.9156625;46.976881;7.1796193;68.81800079345703;1665667763.0815856;-2.9643380641937256;-0.1381814181804657;129.67970275878906
388;1665667763.1255066;46.9768799;7.1796212;68.81400299072266;1665667763.2826402;-2.9600093364715576;-0.02915952354669571;129.6651611328125
389;1665667763.3187509;46.976878899999996;7.179622999999999;68.81300354003906;1665667763.483697;-3.157816171646118;0.22964802384376526;129.78501892089844
390;1665667763.5198112;46.9768781;7.1796245;68.81300354003906;1665667763.6818264;-2.94400954246521;0.2058718353509903;130.04852294921875
391;1665667763.7316043;46.9768773;7.179626;68.81500244140625;1665667763.9004514;-2.600883722305298;0.21507936716079712;130.29527282714844
392;1665667763.9316823;46.9768766;7.1796273;68.81800079345703;1665667764.1015081;-2.025287628173828;0.29373225569725037;130.3212127685547
393;1665667764.1298149;46.976875899999996;7.1796285;68.82300567626953;1665667764.3923566;-1.4608440399169922;0.2217775285243988;130.24871826171875
394;1665667764.4323761;46.976875299999996;7.179629599999999;68.8280029296875;1665667764.595366;3.3888914585113525;6.5153045654296875;132.70828247070312
395;1665667764.638314;46.976874599999995;7.1796305;68.79100036621094;1665667764.8159428;6.705317974090576;11.365832328796387;142.2198486328125
396;1665667764.8598657;46.976874099999996;7.179630899999999;68.64400482177734;1665667765.0209038;-3.384826183319092;26.046199798583984;154.4872589111328
397;1665667765.0687313;46.976873399999995;7.1796302;68.47400665283203;1665667765.2219617;-23.711462020874023;39.86680603027344;165.47421264648438
398;1665667765.26393;46.9768719;7.1796278;68.31800079345703;1665667765.4337547;-38.45143508911133;34.4415397644043;-179.15492248535156
399;1665667765.4737716;46.9768689;7.1796226999999995;68.1780014038086;1665667765.7353404;-37.960575103759766;24.31189727783203;-165.67247009277344
400;1665667765.7763333;46.9768645;7.1796153;68.04700469970703;1665667765.9578717;-32.73446273803711;13.232900619506836;-158.32205200195312
401;1665667765.999839;46.9768593;7.1796066;67.89500427246094;1665667766.1784477;-32.7891845703125;8.426836013793945;-153.5516357421875
402;1665667766.2174876;46.976853399999996;7.179597299999999;67.75200653076172;1665667766.397075;-34.0248908996582;4.923330307006836;-146.40847778320312
403;1665667766.4341602;46.976847299999996;7.179587799999999;67.58800506591797;1665667766.5912986;-32.23912811279297;-0.13884510099887848;-138.64077758789062
404;1665667766.6293612;46.9768408;7.1795782;67.41900634765625;1665667766.7894282;-31.47634506225586;-4.281413555145264;-130.95814514160156
405;1665667766.836274;46.9768341;7.179568499999999;67.25;1665667767.0090272;-31.31254005432129;-6.045032501220703;-129.30526733398438
406;1665667767.0461156;46.976827199999995;7.1795588;67.0780029296875;1665667767.2012997;-30.878047943115234;-4.233997344970703;-132.72312927246094
407;1665667767.2442446;46.9768202;7.1795493;66.9020004272461;1665667767.4013827;-31.337596893310547;-2.3803353309631348;-134.85018920898438
408;1665667767.4394486;46.9768131;7.1795399;66.73300170898438;1665667767.6121993;-31.880765914916992;-1.2610589265823364;-135.20697021484375
409;1665667767.6502626;46.976805999999996;7.1795307;66.5510025024414;1665667767.8044734;-31.98440170288086;-0.5404268503189087;-135.07940673828125
410;1665667767.8464408;46.9767989;7.179521299999999;66.36600494384766;1665667768.1002007;-32.75724792480469;0.17752237617969513;-135.06173706054688
411;1665667768.1363153;46.9767918;7.1795119;66.1820068359375;1665667768.3051648;-33.07095718383789;0.7532089948654175;-135.11485290527344
412;1665667768.3471303;46.976784699999996;7.1795024;65.99800109863281;1665667768.5111017;-32.96940612792969;0.7773234248161316;-135.1484832763672
413;1665667768.5550208;46.9767776;7.1794927;65.81300354003906;1665667768.7199657;-32.962257385253906;1.0480612516403198;-135.26148986816406
414;1665667768.7658367;46.9767705;7.1794828;65.62800598144531;1665667768.9756775;-32.90944290161133;1.0193321704864502;-135.2814178466797
415;1665667769.008863;46.976763399999996;7.1794728;65.43700408935547;1665667769.1562405;-32.69541549682617;0.7449163198471069;-135.3429718017578
416;1665667769.2050407;46.9767564;7.179462699999999;65.24700164794922;1665667769.3602242;-32.63868713378906;0.7297785878181458;-135.4479217529297
417;1665667769.3973138;46.976749299999994;7.179452599999999;65.0570068359375;1665667769.565186;-32.716636657714844;0.4942082464694977;-135.4534149169922
