;pos_time;latitude;longitude;altitude;alt_time;pitch;roll;yaw
0;1665761660.566626;46.975534499999995;7.180356;-0.015000000596046448;1665761660.7149765;-1.163379192352295;-1.1046804189682007;92.49276733398438
1;1665761660.7686598;46.975534499999995;7.180356;-0.01600000075995922;1665761660.9111516;-1.2300091981887817;-1.200616478919983;92.5337142944336
2;1665761660.9755695;46.975534499999995;7.180356;-0.01600000075995922;1665761661.1219702;-1.3964595794677734;-1.1125271320343018;92.36962127685547
3;1665761661.1893146;46.975534499999995;7.180356;-0.01900000125169754;1665761661.3269284;-1.0279650688171387;-1.1156773567199707;92.48121643066406
4;1665761661.3874402;46.975534499999995;7.1803558999999995;-0.020000001415610313;1665761661.546529;-1.2679224014282227;-1.1840134859085083;92.47686004638672
5;1665761661.6128988;46.975534499999995;7.1803558999999995;-0.01900000125169754;1665761661.7593007;-1.517693281173706;-0.9864075183868408;92.363525390625
6;1665761661.8305457;46.975534499999995;7.1803558999999995;-0.01900000125169754;1665761661.9730406;-1.4401087760925293;-1.0792382955551147;92.311767578125
7;1665761662.0403852;46.975534499999995;7.1803558999999995;-0.020000001415610313;1665761662.1721442;-1.3861503601074219;-1.1776455640792847;92.34034729003906
8;1665761662.2287524;46.975534499999995;7.1803558999999995;-0.017000000923871994;1665761662.3790567;-1.3793331384658813;-1.096131682395935;92.33792114257812
9;1665761662.4405468;46.9755344;7.1803558999999995;-0.012000000104308128;1665761662.593779;-1.3958224058151245;-1.2729955911636353;92.47362518310547
10;1665761662.6689308;46.9755344;7.1803558999999995;-0.012000000104308128;1665761662.9100022;-1.5092048645019531;-1.0402525663375854;92.33198547363281
11;1665761662.9871073;46.9755344;7.1803558999999995;-0.013000000268220901;1665761663.1227689;-1.3101000785827637;-1.0143191814422607;92.27336120605469
12;1665761663.2047524;46.9755344;7.1803558;-0.014000000432133675;1665761663.3355377;-1.1361463069915771;-1.0353143215179443;92.4677963256836
13;1665761663.3970249;46.9755344;7.1803557;-0.01900000125169754;1665761663.6449285;-1.0570193529129028;-1.0039063692092896;92.33161926269531
14;1665761663.7044654;46.9755344;7.1803557;-0.024000000208616257;1665761663.8508646;-1.1951297521591187;-0.9787823557853699;92.1298828125
15;1665761663.9299197;46.9755344;7.1803557;-0.0020000000949949026;1665761664.0870557;-1.28200364112854;-0.9181772470474243;92.17127990722656
16;1665761664.1514716;46.9755344;7.1803557;-0.005000000353902578;1665761664.2929924;-1.0463885068893433;-0.9012749195098877;92.12960052490234
17;1665761664.3593664;46.9755344;7.1803557;-0.00800000037997961;1665761664.498928;-1.0036098957061768;-0.8157858848571777;92.14725494384766
18;1665761664.5692003;46.9755344;7.1803558;-0.009000000543892384;1665761664.707793;-1.2084938287734985;-1.0685663223266602;92.31299591064453
19;1665761664.7692797;46.9755343;7.1803558999999995;-0.009000000543892384;1665761664.918197;-1.3294028043746948;-0.7851941585540771;92.32111358642578
20;1665761664.980659;46.9755343;7.180356;-0.006000000052154064;1665761665.2217839;-1.2430824041366577;-0.6410777568817139;92.39117431640625
21;1665761665.273511;46.9755343;7.180356;0.0;1665761665.4130764;-1.2138837575912476;-0.8894035220146179;92.1333999633789
22;1665761665.471638;46.9755343;7.1803558999999995;-0.0020000000949949026;1665761665.6082785;-1.3111549615859985;-0.6799458861351013;92.12808990478516
23;1665761666.055284;46.9755343;7.1803558;-0.003000000026077032;1665761666.2046134;-1.2075756788253784;-0.8540765047073364;92.3548355102539
24;1665761666.265124;46.9755343;7.1803558;-0.007000000216066837;1665761666.413526;-1.377841830253601;-0.8500274419784546;92.28072357177734
25;1665761666.4877024;46.9755343;7.1803558;-0.00800000037997961;1665761666.6428607;-1.2251369953155518;-0.6079819202423096;92.15390014648438
26;1665761666.7097423;46.9755343;7.1803558;-0.005000000353902578;1665761666.849307;-1.085463285446167;-0.9092285633087158;92.3319320678711
27;1665761666.9068909;46.9755343;7.1803558;0.0;1665761667.0737863;-0.9197237491607666;-0.7823337912559509;92.12435913085938
28;1665761667.1362548;46.9755343;7.1803558;0.007000000216066837;1665761667.2670383;-0.08617108315229416;-1.2696881294250488;92.8426284790039
29;1665761667.3294995;46.9755343;7.1803558;0.02800000086426735;1665761667.4861727;0.2800387442111969;-1.697490930557251;92.59233093261719
30;1665761667.555789;46.9755343;7.1803557;0.07700000703334808;1665761667.7100508;-0.4919506311416626;-1.565452218055725;91.9873275756836
31;1665761667.7666597;46.9755344;7.1803555999999995;0.14900000393390656;1665761667.9110606;-1.3499122858047485;-1.5881620645523071;92.50442504882812
32;1665761667.9764526;46.975534499999995;7.1803554;0.2460000067949295;1665761668.1424217;-1.448477029800415;-1.286487340927124;92.58772277832031
33;1665761668.1980553;46.975534499999995;7.1803552999999996;0.36900001764297485;1665761668.3293478;-1.25115168094635;-1.0904734134674072;92.9716796875
34;1665761668.3927875;46.975534599999996;7.1803552999999996;0.5100000500679016;1665761668.5596843;-1.3077970743179321;-0.47661077976226807;94.02262115478516
35;1665761668.6201947;46.9755347;7.1803552999999996;0.6730000376701355;1665761668.7783082;-1.7262574434280396;-0.44694802165031433;94.41204833984375
36;1665761668.8358912;46.9755348;7.1803552999999996;0.859000027179718;1665761668.994005;-1.263897180557251;-0.5362614393234253;93.92675018310547
37;1665761669.0525658;46.9755349;7.1803554;1.068000078201294;1665761669.1931083;-0.9311619997024536;-0.47969385981559753;92.83817291259766
38;1665761669.2477646;46.9755349;7.1803554;1.3000000715255737;1665761669.406852;-1.0374243259429932;-0.44548529386520386;92.55731201171875
39;1665761669.4634602;46.975535;7.1803555;1.558000087738037;1665761669.6147387;-0.8532567024230957;-0.2818562686443329;93.96073150634766
40;1665761669.6762269;46.975535;7.1803555999999995;1.8330000638961792;1665761669.831411;-0.5852619409561157;-0.7367400527000427;94.5983657836914
41;1665761669.9055893;46.975535;7.1803555999999995;2.129000186920166;1665761670.0480819;-0.9815670847892761;-0.7427758574485779;95.28298950195312
42;1665761670.1085947;46.9755349;7.1803555999999995;2.439000129699707;1665761670.2569463;-1.3559719324111938;-0.6902561783790588;94.35200500488281
43;1665761670.3223395;46.9755349;7.1803555999999995;2.754000186920166;1665761670.4872825;-1.3519456386566162;-0.46968838572502136;94.19580841064453
44;1665761670.550723;46.9755349;7.1803555999999995;3.073000192642212;1665761670.6863883;-1.1643677949905396;-0.5939838290214539;94.91340637207031
45;1665761670.74202;46.9755348;7.1803557;3.392000198364258;1665761670.8846924;-0.9996905326843262;-0.7417252063751221;95.63712310791016
46;1665761670.9491074;46.9755348;7.1803557;3.7090001106262207;1665761671.0925806;-0.8723811507225037;-0.9116472601890564;95.26927185058594
47;1665761671.176517;46.9755347;7.1803558;4.027000427246094;1665761671.3151095;-0.7456466555595398;-0.9607152342796326;94.54077911376953
48;1665761671.3785462;46.9755347;7.1803558;4.3420000076293945;1665761671.5288532;-0.7670941352844238;-0.8627722263336182;93.7186508178711
49;1665761671.5893617;46.975534599999996;7.1803558999999995;4.659000396728516;1665761671.7289314;-0.8629080057144165;-0.578720211982727;93.76123046875
50;1665761671.8177462;46.975534599999996;7.1803558999999995;4.978000164031982;1665761671.9768364;-0.8786219358444214;-0.7951815128326416;94.25498962402344
51;1665761672.0500357;46.975534499999995;7.1803558999999995;5.300000190734863;1665761672.1876516;-0.7815030813217163;-1.1162834167480469;95.46769714355469
52;1665761672.264754;46.975534499999995;7.1803558999999995;5.621000289916992;1665761672.4082265;-0.8523994088172913;-1.1534967422485352;94.99213409423828
53;1665761672.467764;46.9755344;7.1803558999999995;5.939000129699707;1665761672.6141622;-0.9971686005592346;-1.4120129346847534;94.2596206665039
54;1665761672.674677;46.9755344;7.1803558999999995;6.261000156402588;1665761672.8259556;-0.9035769104957581;-1.2551885843276978;93.7710189819336
55;1665761672.9079387;46.9755343;7.1803558999999995;6.581000328063965;1665761673.0533643;-0.7632358074188232;-1.0473341941833496;93.47415924072266
56;1665761673.6262743;46.9755343;7.1803558999999995;6.902000427246094;1665761673.7629182;-0.866573691368103;-1.0224281549453735;94.06116485595703
57;1665761673.8322117;46.9755342;7.1803558;7.2220001220703125;1665761673.9961786;-1.1794449090957642;-0.7277998924255371;95.15911102294922
58;1665761674.0498579;46.9755342;7.1803558;7.5400004386901855;1665761674.1816168;-1.223879337310791;-0.7102866768836975;95.53995513916016
59;1665761674.2411535;46.9755342;7.1803558;7.854000568389893;1665761674.3875558;-0.9090283513069153;-0.6459380388259888;95.30995178222656
60;1665761674.4763691;46.9755342;7.1803558;8.166000366210938;1665761674.6286285;-0.6267410516738892;-0.6540963649749756;94.87877655029297
61;1665761674.6910927;46.9755342;7.1803558;8.482000350952148;1665761674.84042;-1.0787546634674072;-1.113987922668457;93.85777282714844
62;1665761674.8989792;46.9755341;7.1803557;8.795000076293945;1665761675.0580676;-1.6344265937805176;-1.3786022663116455;93.69686126708984
63;1665761675.1215076;46.9755341;7.1803557;9.110000610351562;1665761675.277666;-1.1566624641418457;-1.8109986782073975;93.14863586425781
64;1665761675.3391566;46.975533999999996;7.1803558;9.421000480651855;1665761675.4914098;-0.6041387915611267;-2.143205165863037;93.67555236816406
65;1665761675.5528984;46.975533999999996;7.180356;9.738000869750977;1665761675.7227216;-0.15167219936847687;-2.5622615814208984;94.87572479248047
66;1665761675.7861617;46.9755341;7.180356;10.047000885009766;1665761675.9296353;-0.0016346563352271914;-2.0314557552337646;95.06428527832031
67;1665761675.9842908;46.9755341;7.1803561;10.367000579833984;1665761676.1502116;0.22300782799720764;-2.5922913551330566;95.16130065917969
68;1665761676.2097461;46.9755342;7.180356199999999;10.793000221252441;1665761676.3834755;-0.0625024288892746;-1.6685932874679565;95.24745178222656
69;1665761676.4459395;46.9755342;7.180356199999999;11.302000999450684;1665761676.595267;-0.16313810646533966;0.20902791619300842;95.2697525024414
70;1665761676.6635869;46.9755343;7.1803561;11.836000442504883;1665761676.8070598;0.5476080179214478;1.2591947317123413;94.66207122802734
71;1665761676.869523;46.9755344;7.180356;12.38800048828125;1665761677.0452032;0.5950604677200317;0.5353606939315796;94.53282165527344
72;1665761677.1105938;46.975534499999995;7.1803558;12.949000358581543;1665761677.7469478;0.3098174035549164;-0.3813059329986572;94.73371124267578
73;1665761677.8094108;46.975534499999995;7.1803555999999995;13.527000427246094;1665761677.9411693;0.18988770246505737;-0.7665466666221619;95.56519317626953
74;1665761678.0143712;46.975534499999995;7.1803552999999996;14.123001098632812;1665761678.1549127;-1.5635117292404175;-1.0204565525054932;95.32588195800781
75;1665761678.2398255;46.975534499999995;7.180354899999999;14.72900104522705;1665761678.3667076;-3.7129547595977783;-0.7919580340385437;94.31251525878906
76;1665761678.424289;46.975534499999995;7.1803547;15.343000411987305;1665761678.5658114;-3.7316441535949707;-0.7534091472625732;93.77766418457031
77;1665761678.6292508;46.975534499999995;7.1803548;15.960000991821289;1665761678.8078575;-1.9234611988067627;-0.9294342398643494;94.32124328613281
78;1665761678.8586113;46.975534499999995;7.180355;16.57400131225586;1665761679.0030582;-0.8841240406036377;-0.8652898669242859;95.271240234375
79;1665761679.0577142;46.9755344;7.1803552999999996;17.189001083374023;1665761679.194356;-0.8034563660621643;-0.9442314505577087;95.646484375
80;1665761679.2587683;46.9755344;7.1803555999999995;17.80500030517578;1665761679.4012651;-0.7468287348747253;-0.9522947072982788;94.95823669433594
81;1665761679.4754443;46.9755344;7.1803558;18.421001434326172;1665761679.6189146;-0.5897720456123352;-0.983395516872406;94.22545623779297
82;1665761679.6862574;46.9755344;7.180356;19.0310001373291;1665761679.8241627;-0.7614594101905823;-0.7965903282165527;93.75076293945312
83;1665761679.9090738;46.9755344;7.1803561;19.643001556396484;1665761680.1647875;-0.8558319807052612;-0.8175814747810364;94.33097839355469
84;1665761680.236033;46.9755344;7.180356199999999;20.257001876831055;1665761680.3677926;-0.8414862751960754;-0.9256744384765625;95.50270080566406
85;1665761680.4429452;46.9755344;7.180356199999999;20.876001358032227;1665761680.5961788;-0.9103659987449646;-0.9306588172912598;95.38514709472656
86;1665761680.6596174;46.9755344;7.180356199999999;21.492000579833984;1665761680.803089;-1.0139178037643433;-0.7701380252838135;94.56678771972656
87;1665761680.8645794;46.9755344;7.1803563;22.11100196838379;1665761681.0012186;-1.0463932752609253;-0.8741708397865295;93.73027801513672
88;1665761681.062707;46.9755344;7.1803563;22.725000381469727;1665761681.2120361;-0.946012020111084;-0.8666062951087952;94.0333480834961
89;1665761681.2705932;46.9755344;7.1803563;23.339000701904297;1665761681.4257782;-0.9461605548858643;-0.8065112829208374;94.7863540649414
90;1665761681.4911711;46.9755344;7.180356199999999;23.950000762939453;1665761681.6326907;-1.082584023475647;-1.0948071479797363;95.5058364868164
91;1665761681.697106;46.9755344;7.1803563;24.562000274658203;1665761681.9567237;-0.9062145352363586;-0.9195504784584045;95.19013977050781
92;1665761682.0221155;46.9755344;7.1803563;25.172000885009766;1665761682.1685157;-0.8093333840370178;-0.7891928553581238;93.95675659179688
93;1665761682.2270753;46.9755344;7.1803563;25.783000946044922;1665761682.390068;-0.9762790203094482;-0.799286425113678;93.7715835571289
94;1665761682.4505796;46.9755344;7.1803564;26.397001266479492;1665761682.5999053;-1.141156554222107;-0.8938531279563904;94.74839782714844
95;1665761682.6682258;46.9755344;7.1803564;27.012001037597656;1665761682.8263392;-1.0191636085510254;-0.8381345272064209;95.32386016845703
96;1665761682.890753;46.9755344;7.1803564;27.617000579833984;1665761683.039106;-0.9306419491767883;-0.8960153460502625;94.96517181396484
97;1665761683.1005943;46.9755344;7.1803564;28.222002029418945;1665761683.2401636;-1.0651278495788574;-0.8220697045326233;93.79312896728516
98;1665761683.3036003;46.9755344;7.1803564;28.82600212097168;1665761683.4744005;-0.83208829164505;-0.7753511667251587;93.6545639038086
99;1665761683.5271075;46.9755344;7.1803564;29.426000595092773;1665761683.6803403;-0.8608310222625732;-0.8033552765846252;93.94477081298828
100;1665761683.7554927;46.9755343;7.1803564;30.025001525878906;1665761683.9204347;-0.7599188089370728;-0.96071857213974;94.7912826538086
101;1665761683.990705;46.9755343;7.1803564;30.6200008392334;1665761684.1380816;-0.921862781047821;-0.9910476803779602;95.26332092285156
102;1665761684.304001;46.9755343;7.1803564;31.207000732421875;1665761684.9462085;-1.0035667419433594;-0.9633741974830627;95.1906967163086
103;1665761685.0125782;46.9755343;7.1803563;31.795001983642578;1665761685.1492178;-0.8934324383735657;-0.8773196339607239;93.77281951904297
104;1665761685.2155848;46.9755343;7.1803563;32.38199996948242;1665761685.371745;-0.8917103409767151;-0.8729563355445862;93.62747192382812
105;1665761685.4322584;46.9755343;7.1803563;32.967002868652344;1665761685.578658;-1.2574121952056885;-1.0058283805847168;94.32600402832031
106;1665761685.6391687;46.9755343;7.180356199999999;33.557003021240234;1665761685.7845924;-1.071852207183838;-0.9021315574645996;95.2911376953125
107;1665761685.84413;46.9755344;7.180356199999999;34.145999908447266;1665761685.9983375;-1.012431025505066;-1.0271178483963013;95.14064025878906
108;1665761686.0617766;46.9755344;7.180356199999999;34.73400115966797;1665761686.215008;-0.7826328873634338;-0.7432520985603333;94.27458190917969
109;1665761686.2755218;46.9755344;7.180356199999999;35.31500244140625;1665761686.436565;-0.9058391451835632;-0.8195451498031616;94.06033325195312
110;1665761686.5087864;46.9755344;7.180356199999999;35.9010009765625;1665761686.6512814;-1.0272082090377808;-0.8562214970588684;94.28606414794922
111;1665761686.7156963;46.9755344;7.1803561;36.49100112915039;1665761686.8718586;-1.126933217048645;-0.6800104975700378;94.82740783691406
112;1665761686.9343226;46.975534499999995;7.1803561;37.08000183105469;1665761687.5677893;-0.9720074534416199;-1.0081437826156616;95.26158142089844
113;1665761687.6283026;46.975534499999995;7.1803561;37.67100143432617;1665761687.7825098;-1.0349934101104736;-0.7672730684280396;94.54631042480469
114;1665761687.8586373;46.975534499999995;7.1803561;38.26100158691406;1665761687.9991817;-0.9474800825119019;-0.6664437651634216;93.88307189941406
115;1665761688.063598;46.975534499999995;7.1803561;38.84600067138672;1665761688.209021;-1.0450379848480225;-0.7529863119125366;93.728515625
116;1665761688.2685566;46.975534499999995;7.1803561;39.435001373291016;1665761688.4061725;-1.0767899751663208;-0.7199809551239014;94.87084197998047
117;1665761688.4696145;46.975534499999995;7.1803561;40.02400207519531;1665761689.1167026;-0.9137418270111084;-0.863584578037262;95.42159271240234
118;1665761689.1850212;46.975534499999995;7.180356;40.611000061035156;1665761689.341185;-0.8783321976661682;-0.768506646156311;95.40803527832031
119;1665761689.404623;46.975534499999995;7.180356;41.20100021362305;1665761689.5412638;-0.9590550661087036;-0.8401790857315063;94.27916717529297
120;1665761689.606654;46.975534499999995;7.180356;41.7920036315918;1665761689.7540302;-1.060684323310852;-0.7203601002693176;93.39518737792969
121;1665761689.8135657;46.975534599999996;7.1803558999999995;42.37900161743164;1665761689.955086;-1.1744552850723267;-0.7385019063949585;93.8285903930664
122;1665761690.0263333;46.975534599999996;7.1803558;42.96500015258789;1665761690.1746838;-1.133887529373169;-0.7526817321777344;94.97339630126953
123;1665761690.2498376;46.975534599999996;7.1803558;43.55500030517578;1665761690.3825738;-1.121529459953308;-0.631487250328064;95.23248291015625
124;1665761690.4469876;46.975534599999996;7.1803557;44.14400100708008;1665761690.602369;-1.1020071506500244;-0.6799308061599731;94.63412475585938
125;1665761690.669716;46.9755347;7.1803557;44.73600387573242;1665761690.825874;-1.123471736907959;-0.44837597012519836;93.72017669677734
126;1665761690.8951712;46.9755347;7.1803557;45.32600402832031;1665761691.0386417;-1.1862140893936157;-0.3046535551548004;93.75333404541016
127;1665761691.1137931;46.9755347;7.1803557;45.9170036315918;1665761691.2436004;-1.1595956087112427;-0.5909558534622192;94.6442642211914
128;1665761691.3031414;46.9755347;7.1803557;46.50400161743164;1665761691.9406734;-1.0979351997375488;-0.7160175442695618;95.21639251708984
129;1665761692.0021627;46.975534599999996;7.1803555999999995;47.09300231933594;1665761692.1544166;-1.010533094406128;-0.7045473456382751;94.87972259521484
130;1665761692.2110262;46.975534599999996;7.1803555999999995;47.68000411987305;1665761692.345715;-1.140374779701233;-0.9199829697608948;93.97135925292969
131;1665761692.405257;46.975534499999995;7.1803555999999995;48.2660026550293;1665761692.5643387;-1.1423720121383667;-0.7952890396118164;93.49828338623047
132;1665761692.63168;46.975534499999995;7.1803555999999995;48.85400390625;1665761692.766371;-1.0856502056121826;-0.7629954218864441;93.98290252685547
133;1665761692.826886;46.9755344;7.1803555999999995;49.44300079345703;1665761692.9791355;-1.195374608039856;-0.9673243165016174;95.10733032226562
134;1665761693.0425758;46.9755344;7.1803555999999995;50.03200149536133;1665761693.1782465;-1.138127088546753;-0.8996192216873169;95.16515350341797
135;1665761693.2407055;46.9755344;7.1803555999999995;50.62600326538086;1665761693.385152;-1.297082781791687;-0.9226190447807312;94.73982238769531
136;1665761693.4495711;46.9755344;7.1803555999999995;51.22500228881836;1665761693.5930421;-1.340937614440918;-0.6664181351661682;93.57803344726562
137;1665761693.681855;46.9755344;7.1803555999999995;51.8280029296875;1665761693.911215;-1.2870548963546753;-0.739559531211853;93.83152770996094
138;1665761693.9756346;46.9755344;7.1803557;52.42900085449219;1665761694.1152005;-1.026705026626587;-0.7667403221130371;95.18376159667969
139;1665761694.1805925;46.9755344;7.1803557;53.02800369262695;1665761694.3308964;-0.8822556734085083;-0.7144932150840759;95.88225555419922
140;1665761694.3933625;46.9755344;7.1803558;53.621002197265625;1665761694.541713;-0.9339257478713989;-0.8941868543624878;95.00531768798828
141;1665761695.0618505;46.9755344;7.1803558;54.21900177001953;1665761695.2043467;-1.094422698020935;-0.8040940165519714;93.97904968261719
142;1665761695.273643;46.9755344;7.1803558;54.816001892089844;1665761695.4112587;-1.2231569290161133;-0.8138014674186707;93.90472412109375
143;1665761695.4747329;46.9755344;7.1803558;55.41400146484375;1665761695.6171956;-1.5211917161941528;-0.7516559958457947;94.92283630371094
144;1665761695.680636;46.9755344;7.1803558;55.987003326416016;1665761695.854363;-1.6562365293502808;-0.8978292942047119;94.93472290039062
145;1665761695.9168267;46.975534499999995;7.1803558;56.49500274658203;1665761696.0563967;-1.3684087991714478;-0.9423601031303406;95.12808227539062
146;1665761696.1120267;46.975534499999995;7.1803558999999995;56.9170036315918;1665761696.2545295;-1.10990309715271;-0.8316338658332825;95.25115966796875
147;1665761696.3277225;46.975534499999995;7.180356;57.27700424194336;1665761696.468277;-0.9014430046081543;-0.9725003242492676;95.69284057617188
148;1665761696.5317068;46.975534499999995;7.180356;57.583003997802734;1665761696.6776013;-0.8004021048545837;-0.8258792161941528;94.88816833496094
149;1665761696.742996;46.975534599999996;7.1803561;57.83400344848633;1665761696.8786578;-0.8495920300483704;-0.5077958106994629;94.21864318847656
150;1665761696.9518604;46.975534599999996;7.1803561;58.03900146484375;1665761697.0855732;-0.8046228289604187;-0.3430238664150238;93.69339752197266
151;1665761697.1431572;46.9755347;7.1803561;58.2130012512207;1665761697.2827218;1.121025562286377;-3.7081141471862793;92.79752349853516
152;1665761697.3510432;46.9755348;7.180356;58.355003356933594;1665761697.4886575;14.165765762329102;-22.028200149536133;86.78669738769531
153;1665761697.553074;46.9755354;7.1803554;58.50100326538086;1665761697.7004514;29.04428482055664;-36.50615692138672;79.48751831054688
154;1665761697.7716997;46.9755374;7.1803529;58.634002685546875;1665761697.9132197;29.807756423950195;-50.80049133300781;68.75540924072266
155;1665761697.9747083;46.9755416;7.1803471;58.73500442504883;1665761698.597394;14.741680145263672;-58.4937629699707;54.02353286743164
156;1665761698.60813;46.9755483;7.180337199999999;58.801002502441406;1665761698.7428184;-7.585595607757568;-56.36844253540039;37.252525329589844
157;1665761698.7760031;46.9755572;7.1803235;58.836002349853516;1665761698.883365;-23.998254776000977;-47.713035583496094;19.126237869262695
158;1665761698.9194758;46.9755675;7.1803067;58.86600112915039;1665761699.0326898;-35.06745910644531;-36.10200119018555;1.119742751121521
159;1665761699.5987694;46.9755786;7.1802874;58.900001525878906;1665761699.7285774;-39.91970443725586;-23.312849044799805;-13.506000518798828
160;1665761699.819346;46.9755902;7.1802667;58.923004150390625;1665761699.952082;-43.2562141418457;-13.565427780151367;-16.146230697631836
161;1665761700.0077147;46.9756025;7.1802452;58.94000244140625;1665761700.1556075;-48.02420425415039;-17.931175231933594;0.6626175045967102
162;1665761700.2307875;46.975615999999995;7.1802239;58.94600296020508;1665761700.383013;-49.058021545410156;-35.361759185791016;23.93227195739746
163;1665761700.4386442;46.975631;7.1802031;58.919002532958984;1665761700.5889485;-33.07222366333008;-49.85597610473633;54.85594940185547
164;1665761700.6504397;46.975648;7.1801834;58.84700393676758;1665761700.7978134;-20.238248825073242;-42.328033447265625;75.99727630615234
165;1665761700.895412;46.975666399999994;7.1801654;58.74500274658203;1665761701.034982;-14.083057403564453;-31.25051498413086;73.70975494384766
166;1665761701.0925663;46.975685399999996;7.180149999999999;58.66800308227539;1665761701.2526307;1.5553396940231323;-39.980228424072266;68.5240707397461
167;1665761701.31314;46.9757046;7.180136;58.65300369262695;1665761701.4439247;13.379279136657715;-50.59966278076172;52.825103759765625
168;1665761701.5054123;46.9757238;7.1801216;58.665000915527344;1665761701.6684048;5.376591682434082;-54.00587463378906;23.581445693969727
169;1665761701.7337978;46.975742399999994;7.1801052;58.63600158691406;1665761701.8762944;-3.540463924407959;-43.69915008544922;-0.7539035677909851
170;1665761701.9582775;46.9757593;7.1800862;58.58900451660156;1665761702.1037035;-9.87056827545166;-35.606510162353516;-11.750022888183594
171;1665761702.1671414;46.975774099999995;7.1800659;58.573001861572266;1665761702.2998774;-21.506664276123047;-30.38865089416504;-20.278095245361328
172;1665761702.3721006;46.9757871;7.1800447;58.60400390625;1665761702.534116;-35.78031921386719;-21.826313018798828;-27.676054000854492
173;1665761702.5936525;46.9757989;7.1800223999999995;58.68300247192383;1665761702.7410288;-48.09197998046875;-7.617839336395264;-33.712520599365234
174;1665761702.8327732;46.9758107;7.1799994;58.7760009765625;1665761702.9733162;-56.879051208496094;4.044356346130371;-38.13413619995117
175;1665761703.0387094;46.975823399999996;7.179976;58.84400177001953;1665761703.1798759;-61.334957122802734;9.095176696777344;-35.55875778198242
176;1665761703.2511241;46.975837899999995;7.1799526;58.8640022277832;1665761703.3955686;-57.796939849853516;2.3388917446136475;-18.76078224182129
177;1665761703.4716992;46.9758542;7.179929899999999;58.8180046081543;1665761703.6259074;-48.128665924072266;-3.2632641792297363;-6.573136806488037
178;1665761703.6854405;46.9758719;7.1799086999999995;58.74100112915039;1665761703.8357465;-42.257408142089844;-8.439667701721191;2.4275529384613037
179;1665761703.8962572;46.9758904;7.179889299999999;58.678001403808594;1665761704.0621793;-37.420745849609375;-18.384798049926758;11.20448112487793
180;1665761704.128545;46.9759094;7.1798714;58.64500427246094;1665761704.2651844;-16.415563583374023;-6.415744781494141;18.35021209716797
181;1665761704.3247206;46.9759282;7.179855;58.65800094604492;1665761704.4789288;2.8159124851226807;-6.3188934326171875;12.361187934875488
182;1665761704.541394;46.9759454;7.1798402999999995;58.71000289916992;1665761704.684875;16.139984130859375;-16.200578689575195;0.4605199694633484
183;1665761704.7492805;46.97596;7.179826599999999;58.76400375366211;1665761704.9083736;16.483638763427734;-36.13803482055664;-5.907696723937988
184;1665761704.964002;46.975972;7.179812699999999;58.77300262451172;1665761705.1123538;0.033033356070518494;-39.9686164855957;-16.667198181152344
185;1665761705.171889;46.975981499999996;7.1797974;58.71900177001953;1665761705.3124347;-16.69774627685547;-18.5294189453125;-36.38884735107422
186;1665761705.3875844;46.9759892;7.1797811;58.65500259399414;1665761705.534962;-25.451393127441406;-5.705117225646973;-45.87844467163086
187;1665761705.5915685;46.9759958;7.1797644;58.63200378417969;1665761705.736993;-32.14585494995117;3.2920470237731934;-49.367591857910156
188;1665761705.7984827;46.9760023;7.1797474;58.65200424194336;1665761705.9321947;-39.16514205932617;10.715702056884766;-45.22515869140625
189;1665761705.9936807;46.9760097;7.179730299999999;58.71900177001953;1665761706.1400821;-45.73973846435547;7.2468719482421875;-33.132606506347656
190;1665761706.2005956;46.976018499999995;7.1797134;58.7920036315918;1665761706.3548007;-50.530738830566406;-3.785600185394287;-19.407724380493164
191;1665761706.4153125;46.9760291;7.1796966;58.86600112915039;1665761706.5539055;-53.92851257324219;-10.92225456237793;-8.96049690246582
192;1665761706.619297;46.976041599999995;7.1796798;58.92200469970703;1665761706.7598403;-56.065059661865234;-16.62241554260254;-1.1198163032531738
193;1665761706.8223052;46.9760561;7.1796631;58.952003479003906;1665761706.964801;-55.091087341308594;-23.083066940307617;8.603275299072266
194;1665761707.0360487;46.976072599999995;7.1796466;58.96200180053711;1665761707.1814728;-51.618587493896484;-27.066261291503906;18.600061416625977
195;1665761707.2380805;46.976091;7.1796307;58.95000457763672;1665761707.8754082;-46.17844009399414;-30.45897102355957;31.99453353881836
196;1665761707.938848;46.9761108;7.179615699999999;58.91800308227539;1665761708.0813484;-38.888023376464844;-35.291358947753906;45.84731674194336
197;1665761708.1438107;46.9761318;7.1796022;58.87000274658203;1665761708.2892332;-16.576446533203125;-29.58669090270996;49.064781188964844
198;1665761708.3487706;46.9761533;7.1795898;58.840003967285156;1665761708.5020006;13.200963973999023;-5.595027446746826;38.904293060302734
199;1665761708.5615356;46.9761734;7.179577999999999;58.86900329589844;1665761709.0680804;36.77668380737305;2.96805739402771;16.53786849975586
200;1665761709.1373792;46.9761903;7.1795667;58.846004486083984;1665761709.270112;31.48785400390625;-6.89708137512207;5.064770221710205
201;1665761709.3296502;46.9762038;7.1795566;58.69000244140625;1665761709.4760516;25.911882400512695;-10.366392135620117;-1.8256398439407349
202;1665761709.5375373;46.9762138;7.179547299999999;58.47600173950195;1665761709.6761289;23.26922035217285;-14.904682159423828;-10.82764720916748
203;1665761709.744483;46.9762212;7.1795385;58.24900436401367;1665761709.8996353;20.697866439819336;-16.38691520690918;-21.636974334716797
204;1665761709.9620955;46.9762263;7.179530199999999;58.0410041809082;1665761710.1104505;18.840896606445312;-15.712279319763184;-31.87851333618164
205;1665761710.1719384;46.9762292;7.1795222999999995;57.85900115966797;1665761710.3124804;16.457035064697266;-14.947920799255371;-41.336734771728516
206;1665761710.3993487;46.9762304;7.179514999999999;57.72300338745117;1665761710.538914;12.979621887207031;-15.123724937438965;-50.47093200683594
207;1665761710.5994236;46.9762299;7.1795084;57.63900375366211;1665761710.7546086;8.835894584655762;-17.251842498779297;-59.81948471069336
208;1665761710.8160968;46.976228;7.1795025;57.61000442504883;1665761710.9507854;4.2971510887146;-16.655447006225586;-62.952266693115234
209;1665761711.030815;46.976225;7.1794971;57.62300109863281;1665761711.1615992;-0.37041929364204407;8.730591773986816;-52.529056549072266
210;1665761711.228944;46.976221599999995;7.1794921;57.67100143432617;1665761711.3724144;-10.574953079223633;17.86558723449707;-43.87763595581055
211;1665761711.436832;46.976219099999994;7.1794877999999995;57.74700164794922;1665761711.5783534;-17.268579483032227;9.785529136657715;-40.39964294433594
212;1665761711.6661918;46.976217899999995;7.1794838;57.833003997802734;1665761711.7930727;-23.18096923828125;6.589846611022949;-39.31399154663086
213;1665761711.850659;46.9762181;7.1794796;57.936004638671875;1665761712.0058427;-27.395416259765625;10.56806468963623;-27.934900283813477
214;1665761712.0751374;46.9762199;7.179475099999999;58.052001953125;1665761712.2127547;-33.31398010253906;8.453132629394531;-16.039113998413086
215;1665761712.2859514;46.976223499999996;7.1794709999999995;58.17000198364258;1665761712.4235694;-38.697410583496094;1.5805323123931885;-4.946256637573242
216;1665761712.4909165;46.9762288;7.1794671;58.285003662109375;1665761712.6334085;-42.158164978027344;-3.2896761894226074;5.523688793182373
217;1665761712.6948955;46.9762359;7.1794633999999995;58.38900375366211;1665761712.8549674;-40.939064025878906;-6.3171491622924805;11.326963424682617
218;1665761712.9174237;46.976244799999996;7.1794601;58.49700164794922;1665761713.065778;-42.27519226074219;-3.192769765853882;0.7650769352912903
219;1665761713.130193;46.9762555;7.1794571;58.63300323486328;1665761713.268784;-43.2735595703125;5.4967827796936035;-9.528682708740234
220;1665761713.3312469;46.976267799999995;7.1794544;58.77300262451172;1665761713.4756968;-43.645626068115234;10.2274169921875;-18.557645797729492
221;1665761713.5401118;46.9762813;7.1794519;58.875003814697266;1665761713.683585;-41.9373779296875;17.11606216430664;-28.622480392456055
222;1665761713.7450721;46.976295799999995;7.1794496;58.954002380371094;1665761714.0227602;-36.55790328979492;20.80333709716797;-36.32073974609375
223;1665761714.0588646;46.9763113;7.1794476;59.006004333496094;1665761714.1593897;-28.246551513671875;20.384817123413086;-47.76396179199219
224;1665761714.7093196;46.9763272;7.179445599999999;59.035003662109375;1665761714.8454218;-15.358236312866211;7.489062786102295;-60.95146560668945
225;1665761714.899101;46.9763428;7.1794433;59.035003662109375;1665761715.0347652;-4.3444647789001465;-17.222827911376953;-72.33272552490234
226;1665761715.0972283;46.9763568;7.1794407;59.005001068115234;1665761715.2319176;2.991655111312866;-38.86493682861328;-75.97623443603516
227;1665761715.302188;46.976368;7.179437999999999;58.8900032043457;1665761715.431996;-3.49237322807312;-23.312604904174805;-84.87509155273438
228;1665761715.4925082;46.976375999999995;7.1794354;58.68400192260742;1665761715.628176;-9.669965744018555;-23.980539321899414;-93.48360443115234
229;1665761715.6886907;46.9763819;7.1794325;58.445003509521484;1665761715.8272786;-15.054240226745605;-22.651887893676758;-102.25294494628906
230;1665761715.8965743;46.976385799999996;7.1794294999999995;58.20600128173828;1665761716.028334;-16.78925895690918;-16.650726318359375;-108.88849639892578
231;1665761716.0878685;46.9763881;7.1794262;57.96200180053711;1665761716.2303677;-12.239355087280273;-20.513574600219727;-117.01911163330078
232;1665761716.7925403;46.9763891;7.179423;57.70700454711914;1665761716.927228;-10.067301750183105;-18.1975040435791;-129.5729522705078
233;1665761716.9887173;46.976389;7.179420299999999;57.445003509521484;1665761717.121454;-10.108646392822266;-11.444690704345703;-134.9055938720703
234;1665761717.2824965;46.9763879;7.1794183;57.176002502441406;1665761717.4318218;-8.141152381896973;-8.202542304992676;-135.01666259765625
235;1665761717.4884312;46.976386;7.1794161;56.92100143432617;1665761717.6299477;-7.006613731384277;-9.125734329223633;-133.1169891357422
236;1665761717.6933882;46.9763835;7.1794138;56.68700408935547;1665761718.0810268;-7.051403999328613;-5.637215614318848;-132.1722869873047
237;1665761718.147395;46.9763807;7.179411399999999;56.465003967285156;1665761718.2908685;-7.80109167098999;3.6902379989624023;-132.09939575195312
238;1665761718.3533306;46.9763777;7.1794085999999995;56.263004302978516;1665761718.4860675;-6.9213972091674805;3.621875286102295;-131.61572265625
239;1665761719.01399;46.976374799999995;7.1794052;56.079002380371094;1665761719.0618153;-3.5518410205841064;3.8232266902923584;-130.7375030517578
240;1665761719.0803602;46.9763721;7.1794015;55.910003662109375;1665761719.6655579;-5.675278186798096;0.06256920844316483;-128.9695281982422
241;1665761719.71631;46.9763698;7.179398;55.76100158691406;1665761719.8148878;-5.993774890899658;1.169658899307251;-128.9716339111328
242;1665761719.865675;46.9763673;7.1793945;55.637001037597656;1665761719.9954472;-6.293050289154053;-0.04193692281842232;-129.06069946289062
243;1665761720.0530286;46.9763648;7.179390799999999;55.53400421142578;1665761720.1808856;-6.864293575286865;-1.8871521949768066;-128.88241577148438
244;1665761720.2374938;46.976361999999995;7.179386999999999;55.45000076293945;1665761720.3643732;-6.413686275482178;-1.5521808862686157;-129.37442016601562
245;1665761721.0170395;46.976359099999996;7.179383199999999;55.384002685546875;1665761721.13611;-7.652207374572754;1.4069322347640991;-129.68104553222656
246;1665761721.202478;46.9763561;7.179379099999999;55.33100128173828;1665761721.3381414;-7.257800579071045;1.6363929510116577;-131.8495330810547
247;1665761721.4035342;46.9763532;7.1793752;55.30500411987305;1665761721.552865;-6.2026495933532715;3.3632447719573975;-133.09390258789062
248;1665761721.6182547;46.9763504;7.1793708999999994;55.30000305175781;1665761721.7636795;-5.989231109619141;2.7210536003112793;-131.77288818359375
249;1665761721.8212647;46.9763476;7.1793662;55.316001892089844;1665761721.9588795;-6.605205059051514;1.1565511226654053;-129.17198181152344
250;1665761722.033054;46.9763448;7.1793613;55.355003356933594;1665761722.1814091;-8.380301475524902;1.5257571935653687;-127.57071685791016
251;1665761722.239966;46.9763422;7.179355999999999;55.410003662109375;1665761722.3883176;-6.197133541107178;13.364768981933594;-123.70471954345703
252;1665761722.4517617;46.97634;7.179350299999999;55.487003326416016;1665761722.5923042;0.4393058121204376;16.07217788696289;-112.06385040283203
253;1665761722.6606226;46.976338899999995;7.1793445;55.60200119018555;1665761722.8001926;1.512334942817688;15.912017822265625;-101.55597686767578
254;1665761722.8616796;46.9763391;7.1793396;55.75400161743164;1665761723.006128;-0.7315509915351868;16.593782424926758;-93.08578491210938
255;1665761723.0695665;46.976340199999996;7.179335099999999;55.93100357055664;1665761723.236464;-2.8170790672302246;17.11217498779297;-84.41027069091797
256;1665761723.3067362;46.9763421;7.1793314;56.13300323486328;1665761723.455087;-4.8267059326171875;14.507997512817383;-74.4441146850586
257;1665761723.5214548;46.9763447;7.1793283;56.35400390625;1665761723.6961584;-6.9541754722595215;11.77917194366455;-65.27940368652344
258;1665761723.765454;46.976347499999996;7.179325599999999;56.58700180053711;1665761723.9079514;-7.743694305419922;7.866225242614746;-55.96212387084961
259;1665761723.9782221;46.9763507;7.1793230999999995;56.83200454711914;1665761724.1431675;-13.85783576965332;7.54489278793335;-46.53277587890625
260;1665761724.2036777;46.976354199999996;7.1793207;57.092002868652344;1665761724.3510542;-26.9522705078125;4.363446235656738;-36.360172271728516
261;1665761724.4135194;46.976358399999995;7.1793178;57.35200119018555;1665761724.5413766;-34.50019073486328;-2.9318275451660156;-32.16327667236328
262;1665761724.602862;46.9763635;7.1793138;57.58000183105469;1665761724.749776;-36.744476318359375;-3.612443685531616;-33.73219299316406
263;1665761724.8356647;46.976369899999995;7.1793083;57.772003173828125;1665761724.966448;-35.533775329589844;-2.1536145210266113;-35.87543869018555
264;1665761725.026961;46.976377299999996;7.1793014;57.935001373291016;1665761725.1596963;-34.224117279052734;-1.2475733757019043;-38.40937423706055
265;1665761725.234852;46.9763855;7.1792932;58.08900451660156;1665761725.3636806;-37.16305160522461;-0.02440410479903221;-41.498924255371094
266;1665761725.421267;46.9763945;7.1792839;58.243003845214844;1665761725.5637662;-36.49327087402344;0.793034553527832;-42.96683883666992
267;1665761725.6262267;46.9764039;7.1792736999999995;58.36900329589844;1665761725.7657924;-39.89891815185547;2.3632700443267822;-42.66614532470703
268;1665761725.8311856;46.976414;7.1792628;58.46600341796875;1665761725.9824677;-39.25466537475586;-0.756340503692627;-42.20111846923828
269;1665761726.0527444;46.9764246;7.1792511999999995;58.53400421142578;1665761726.1825466;-38.01020050048828;-0.866387128829956;-45.19861602783203
270;1665761726.2567194;46.976435699999996;7.179238799999999;58.58700180053711;1665761726.4070241;-30.70757293701172;-2.0622546672821045;-46.430206298828125
271;1665761726.9539187;46.9764469;7.1792257;58.6150016784668;1665761727.007602;-22.63921356201172;-0.3677577078342438;-45.24530029296875
272;1665761727.0261433;46.9764577;7.1792126;58.631004333496094;1665761727.1003187;-17.070880889892578;-1.243693470954895;-45.281551361083984
273;1665761727.1452143;46.976467799999995;7.179199799999999;58.643001556396484;1665761727.3452973;-10.110462188720703;1.3849350214004517;-50.209747314453125
274;1665761727.387262;46.9764773;7.1791877;58.647003173828125;1665761727.507311;-0.4420798122882843;-0.5493754744529724;-49.94847106933594
275;1665761727.5600145;46.976486;7.179176699999999;58.6510009765625;1665761727.6913168;8.00101375579834;-2.6369071006774902;-49.7176513671875
276;1665761727.7459693;46.9764933;7.179167199999999;58.6400032043457;1665761727.876759;11.556875228881836;-3.012838363647461;-51.39271926879883
277;1665761727.9411743;46.9764991;7.1791594;58.61000442504883;1665761728.0865946;13.655470848083496;-2.653172254562378;-52.500728607177734
278;1665761728.1422248;46.9765036;7.1791531;58.551002502441406;1665761728.2856984;13.6441068649292;-5.81884765625;-53.17385482788086
279;1665761728.3442588;46.976506699999995;7.179148199999999;58.47300338745117;1665761728.476017;10.594901084899902;0.4384298622608185;-53.43339538574219
280;1665761728.545316;46.9765088;7.1791443;58.39600372314453;1665761728.681955;6.015135765075684;3.241340398788452;-52.84635543823242
281;1665761728.7434468;46.976510399999995;7.1791415;58.33200454711914;1665761728.902532;1.3443453311920166;0.7505477070808411;-52.290916442871094
282;1665761728.9591372;46.9765119;7.1791393;58.28900146484375;1665761729.0996811;0.49502262473106384;1.7145694494247437;-52.634037017822266
283;1665761729.1631231;46.9765133;7.1791374;58.26700210571289;1665761729.3026886;1.0324788093566895;1.0429346561431885;-53.85966873168945
284;1665761729.3632023;46.976514699999996;7.1791355;58.272003173828125;1665761729.5008218;1.1786211729049683;-0.3207171857357025;-55.07222366333008
285;1665761729.5623066;46.976515899999995;7.1791338;58.302001953125;1665761729.6979713;0.7402666211128235;1.5013505220413208;-56.936058044433594
286;1665761729.7614105;46.9765168;7.1791320999999995;58.35900115966797;1665761729.9068356;1.7148126363754272;1.1116306781768799;-56.64663314819336
287;1665761729.9722242;46.976517799999996;7.1791309;58.44200134277344;1665761730.2251382;2.169250965118408;-1.154193639755249;-56.06105422973633
288;1665761730.2807748;46.9765186;7.1791301999999995;58.531002044677734;1665761730.4213223;-13.95604419708252;1.1854956150054932;-51.99765396118164
289;1665761730.4789062;46.976519599999996;7.179129499999999;58.618003845214844;1665761730.6135945;-31.695051193237305;-2.052041530609131;-49.57570266723633
290;1665761730.680938;46.976521299999995;7.179127599999999;58.70700454711914;1665761730.8205044;-42.7462158203125;-3.8677480220794678;-49.7968635559082
291;1665761731.052118;46.9765241;7.1791233;58.77400207519531;1665761731.2092533;-42.937232971191406;0.4211271107196808;-53.15584182739258
292;1665761731.2697673;46.9765282;7.179116499999999;58.785003662109375;1665761731.4190948;-33.020774841308594;0.26838168501853943;-52.868526458740234
293;1665761731.485461;46.9765334;7.1791073;58.77800369262695;1665761731.62796;-30.72638702392578;-1.7644106149673462;-50.565120697021484
294;1665761731.6826143;46.9765393;7.1790965;58.816001892089844;1665761731.826091;-33.77012634277344;-2.2635815143585205;-48.62739181518555
295;1665761731.8856215;46.9765458;7.1790844;58.89500427246094;1665761732.0261667;-37.45891189575195;-0.4804558753967285;-49.911319732666016
296;1665761732.0974162;46.9765528;7.1790715;58.94700241088867;1665761732.2321029;-42.59502410888672;-0.428683876991272;-49.28384017944336
297;1665761732.3023744;46.9765606;7.1790574;58.99800109863281;1665761732.4390147;-45.349456787109375;0.4647679924964905;-49.976226806640625
298;1665761732.497574;46.9765693;7.1790419;59.0420036315918;1665761732.6400712;-45.646846771240234;0.10259765386581421;-49.0240592956543
299;1665761732.6996078;46.9765788;7.1790251;59.073001861572266;1665761732.838201;-46.31425857543945;1.073655605316162;-50.46332931518555
300;1665761732.9006913;46.9765892;7.1790069;59.09300231933594;1665761733.0470679;-47.08378601074219;1.007473349571228;-50.36729431152344
301;1665761733.1085522;46.9766002;7.1789876999999995;59.108001708984375;1665761733.25007;-47.5943603515625;0.4898602366447449;-49.993656158447266
302;1665761733.312534;46.976611999999996;7.1789676;59.11900329589844;1665761733.9355302;-48.02885437011719;0.20244276523590088;-49.94783020019531
303;1665761733.996041;46.9766243;7.1789467;59.125003814697266;1665761734.1365876;-48.02153396606445;-0.36906033754348755;-49.28957748413086
304;1665761734.1931944;46.9766371;7.178924899999999;59.12300109863281;1665761734.847663;-47.90507125854492;-0.8942711353302002;-48.668426513671875
305;1665761734.9169593;46.9766504;7.178902399999999;59.1150016784668;1665761735.069214;-47.83305358886719;-1.2957714796066284;-48.261775970458984
306;1665761735.1258228;46.976664;7.1788791;59.103004455566406;1665761735.2644165;-47.720741271972656;-1.1050931215286255;-48.191680908203125
307;1665761735.3317595;46.9766779;7.1788554;59.092002868652344;1665761735.4849916;-47.30504608154297;-0.9154860377311707;-48.58131790161133
308;1665761735.54941;46.9766921;7.1788311;59.07500457763672;1665761735.700688;-47.00772476196289;-0.8275070786476135;-48.93870544433594
309;1665761735.7592468;46.9767065;7.178806499999999;59.05900192260742;1665761735.9007666;-46.95839309692383;-0.5672584772109985;-49.33225631713867
310;1665761735.9671323;46.976721;7.1787814999999995;59.0410041809082;1665761736.1106067;-46.797245025634766;-0.5699648857116699;-49.23542785644531
311;1665761736.1691666;46.9767357;7.178756099999999;59.02100372314453;1665761736.310686;-46.711238861083984;-0.4500740170478821;-49.4039306640625
312;1665761736.3721735;46.976750599999995;7.1787304999999995;59.006004333496094;1665761736.514672;-46.76572036743164;-0.5811337828636169;-48.89667510986328
313;1665761736.5790856;46.9767655;7.1787047;58.99700164794922;1665761736.726941;-45.376502990722656;-0.7488753199577332;-48.945621490478516
314;1665761736.7884307;46.9767806;7.1786787;58.980003356933594;1665761736.9375596;-35.85662078857422;1.7276756763458252;-49.2719841003418
315;1665761737.0070586;46.976795499999994;7.178653;58.954002380371094;1665761737.1602879;-27.695852279663086;-1.2135767936706543;-49.63736343383789
316;1665761737.228611;46.976810099999994;7.1786281999999995;58.92200469970703;1665761737.3720806;-20.69644546508789;-0.7708358764648438;-49.75217056274414
317;1665761737.430644;46.9768238;7.1786046;58.893001556396484;1665761737.5780172;-13.78305721282959;-1.0040396451950073;-49.43544006347656
318;1665761737.640479;46.976836399999996;7.1785827;58.868003845214844;1665761737.7839515;-7.63223123550415;-0.2964033782482147;-49.416255950927734
319;1665761737.8434906;46.976847899999996;7.1785628;58.85600280761719;1665761737.9928164;-2.8215084075927734;-0.23155857622623444;-49.457881927490234
320;1665761738.053331;46.9768581;7.178545;58.83900451660156;1665761738.1958234;3.1652441024780273;-1.3202694654464722;-48.908382415771484
321;1665761738.2631729;46.976867;7.1785293999999995;58.81700134277344;1665761738.4027355;9.643253326416016;1.4894742965698242;-50.09659957885742
322;1665761738.4681275;46.9768744;7.1785163;58.77700424194336;1665761738.610623;12.837408065795898;-0.48393771052360535;-50.505245208740234
323;1665761738.6789432;46.9768805;7.1785057;58.71900177001953;1665761738.8272984;11.258347511291504;-1.429351806640625;-50.338523864746094
324;1665761738.885856;46.976884999999996;7.1784975;58.66200256347656;1665761739.0507996;8.345060348510742;-1.6997079849243164;-49.264381408691406
325;1665761739.106433;46.9768884;7.178491299999999;58.62800216674805;1665761739.2450233;1.6007471084594727;0.3052781820297241;-47.86640167236328
326;1665761739.308463;46.976891099999996;7.1784864;58.63300323486328;1665761739.46072;-0.9056119322776794;-0.45576605200767517;-47.113101959228516
327;1665761739.518306;46.9768933;7.1784823;58.6670036315918;1665761739.6549437;-3.1993467807769775;0.26821213960647583;-47.573570251464844
328;1665761739.727168;46.9768954;7.178478699999999;58.70700454711914;1665761739.8628316;-2.9889912605285645;0.44104817509651184;-47.779327392578125
329;1665761739.919441;46.9768974;7.1784754;58.74800109863281;1665761740.07335;-2.0868797302246094;1.1850507259368896;-48.1162109375
330;1665761740.1368012;46.9768994;7.1784722;58.78400421142578;1665761740.2822218;0.11705616116523743;0.14844219386577606;-48.20252227783203
331;1665761740.3407824;46.976901399999996;7.178469199999999;58.81700134277344;1665761740.4969413;1.0391112565994263;-0.15067759156227112;-48.63169479370117
332;1665761740.5633097;46.9769033;7.178466299999999;58.846004486083984;1665761740.7106848;1.622207522392273;0.39825838804244995;-48.73084259033203
333;1665761740.7751067;46.9769049;7.1784639;58.86900329589844;1665761740.9117436;0.8001996874809265;0.3259517550468445;-48.91191101074219
334;1665761740.977135;46.976906199999995;7.178462;58.8900032043457;1665761741.2221086;-0.2205362468957901;0.020240474492311478;-49.58554458618164
335;1665761741.2875016;46.9769073;7.1784604;58.90700149536133;1665761741.4309754;-1.4440889358520508;-0.3168509602546692;-49.9233283996582
336;1665761741.495392;46.976908099999996;7.1784592;58.923004150390625;1665761741.631053;-2.4356613159179688;-0.29058703780174255;-50.17546081542969
337;1665761741.6915662;46.9769088;7.1784582;58.936004638671875;1665761741.8350368;-3.290745973587036;0.008073361590504646;-50.25832748413086
338;1665761741.8955579;46.9769094;7.1784574999999995;58.94900131225586;1665761742.0331745;-1.0887397527694702;9.0587739944458;-44.31931686401367
339;1665761742.0946648;46.97691;7.1784569;59.00400161743164;1665761742.2478964;1.9916497468948364;8.1408109664917;-34.233612060546875
340;1665761742.3093827;46.9769108;7.178457099999999;59.13300323486328;1665761742.440167;-1.4056602716445923;13.811073303222656;-23.563724517822266
341;1665761742.5045817;46.9769116;7.1784582;59.329002380371094;1665761742.6626964;-6.75605583190918;15.472155570983887;-13.143805503845215
342;1665761742.7339435;46.9769126;7.1784605;59.5880012512207;1665761742.8940067;-11.591312408447266;13.686616897583008;-3.563002109527588
343;1665761742.9594;46.9769139;7.1784637;59.9010009765625;1665761743.1106803;-20.822216033935547;19.600488662719727;7.748682022094727
344;1665761743.2785506;46.9769158;7.178468;60.26000213623047;1665761743.43471;-32.01887512207031;18.747730255126953;20.259653091430664
345;1665761743.4903498;46.976918399999995;7.1784741;60.63300323486328;1665761743.625032;-39.14749526977539;12.998393058776855;31.292102813720703
346;1665761743.697254;46.9769223;7.1784821;60.99800109863281;1665761743.8417037;-41.82478332519531;5.657885551452637;39.56413650512695
347;1665761743.9129493;46.976927499999995;7.1784924;61.35200119018555;1665761744.074966;-43.25668716430664;-0.8990153670310974;44.015220642089844
348;1665761744.1403596;46.976934;7.1785045;61.70700454711914;1665761744.2994478;-46.9444694519043;3.2771170139312744;31.759910583496094
349;1665761744.3609385;46.976942099999995;7.1785179999999995;62.02100372314453;1665761744.5200365;-46.09358215332031;12.177301406860352;20.06292152404785
350;1665761744.5844529;46.9769517;7.1785327;62.302001953125;1665761745.020156;-44.72819519042969;19.19362449645996;12.20045280456543
351;1665761745.0582197;46.9769629;7.1785486999999994;62.5680046081543;1665761745.1294694;-42.41587448120117;24.499755859375;4.720841884613037
352;1665761745.1665564;46.9769753;7.1785656;62.82400131225586;1665761745.2690413;-37.16032409667969;30.91777801513672;-5.919363021850586
353;1665761745.3110032;46.976988999999996;7.1785837;63.079002380371094;1665761745.4203176;-30.921152114868164;34.48046875;-13.372385025024414
354;1665761745.4739947;46.977003499999995;7.1786027;63.342002868652344;1665761745.6243007;-30.09096336364746;34.721092224121094;-0.9660823941230774
355;1665761745.6799328;46.9770185;7.178622799999999;63.6150016784668;1665761745.8185236;-28.994871139526367;26.976099014282227;16.96748924255371
356;1665761745.87318;46.977033399999996;7.1786442;63.91100311279297;1665761746.00982;-31.180980682373047;18.14912986755371;28.68117904663086
357;1665761746.074235;46.9770477;7.178666499999999;64.23800659179688;1665761746.2186847;-37.37697982788086;8.260517120361328;35.05231475830078
358;1665761746.2777998;46.9770614;7.1786889;64.60000610351562;1665761746.406658;-45.966609954833984;3.35447359085083;39.94996643066406
359;1665761746.4642391;46.977075299999996;7.178711799999999;64.98500061035156;1665761746.6184504;-50.79051971435547;-2.791147470474243;45.53352355957031
360;1665761746.700434;46.97709;7.1787353;65.3530044555664;1665761746.9297931;-50.37894058227539;-7.219367027282715;48.24943923950195
361;1665761746.9932318;46.977105599999994;7.1787595;65.69800567626953;1665761747.143541;-45.167930603027344;-7.762167930603027;45.042877197265625
362;1665761747.2020974;46.9771222;7.1787838;66.04300689697266;1665761747.3504481;-35.89694595336914;-4.846877098083496;43.13368225097656
363;1665761747.4060814;46.977139099999995;7.178807399999999;66.38800048828125;1665761747.5622413;-26.308515548706055;-1.8313159942626953;43.09542465209961
364;1665761747.613969;46.9771557;7.1788295;66.71500396728516;1665761747.7496326;-16.570491790771484;0.1992526352405548;43.07307434082031
365;1665761747.8120968;46.9771716;7.178850499999999;67.01100158691406;1665761747.9623992;-6.710496425628662;1.624656081199646;43.65093994140625
366;1665761748.0180306;46.9771862;7.17887;67.27200317382812;1665761748.1449125;1.0430097579956055;2.5078437328338623;44.22409439086914
367;1665761748.201519;46.9771991;7.1788875999999995;67.50300598144531;1665761748.3449907;6.573783874511719;2.691585063934326;44.099266052246094
368;1665761748.406484;46.977210299999996;7.178903099999999;67.7040023803711;1665761748.5509267;10.986672401428223;2.4212141036987305;44.2093391418457
369;1665761748.6104622;46.9772197;7.1789163;67.8810043334961;1665761748.75296;12.508203506469727;1.3362094163894653;44.080684661865234
370;1665761748.8173754;46.977227199999994;7.1789271999999995;68.04400634765625;1665761748.9598708;14.98643684387207;0.6352683901786804;44.53877639770508
371;1665761749.0311182;46.9772332;7.1789356;68.18500518798828;1665761749.1726382;13.841514587402344;1.1088371276855469;42.793487548828125
372;1665761749.2497463;46.977237599999995;7.1789423;68.30000305175781;1665761749.3883357;8.086150169372559;-0.6369527578353882;43.028724670410156
373;1665761749.451776;46.9772408;7.1789476;68.39000701904297;1665761749.6040318;0.284923255443573;-0.8397545218467712;42.357120513916016
374;1665761749.6713767;46.977243099999995;7.1789515999999995;68.4729995727539;1665761750.027119;-7.020346164703369;-1.6337695121765137;41.42496109008789
375;1665761750.1003208;46.977244999999996;7.1789549;68.55400085449219;1665761750.2330563;-8.718096733093262;-2.1008217334747314;39.91168212890625
376;1665761750.295518;46.977246799999996;7.1789578999999994;68.625;1665761750.4409432;-7.815081596374512;-2.0485291481018066;38.162437438964844
377;1665761750.5102396;46.977248599999996;7.1789603;68.68700408935547;1665761750.652736;-6.496592044830322;-0.10625402629375458;37.47111511230469
378;1665761750.7210567;46.977250399999996;7.1789627;68.74200439453125;1665761750.8625748;-4.523110866546631;-0.20870643854141235;36.95360565185547
379;1665761750.926016;46.977252199999995;7.1789651;68.78900146484375;1665761751.074367;-1.8924109935760498;-0.1488833874464035;35.577030181884766
380;1665761751.2334547;46.9772539;7.1789673;68.8290023803711;1665761751.383758;0.0839865431189537;-1.120586633682251;34.172027587890625
381;1665761751.4501293;46.9772554;7.178969299999999;68.86600494384766;1665761752.0436409;3.091350793838501;-0.7131921052932739;33.757904052734375
382;1665761752.109003;46.9772568;7.178971;68.89300537109375;1665761752.2388098;3.8270835876464844;-0.27679315209388733;34.21638870239258
383;1665761752.296393;46.977258;7.1789722;68.91699981689453;1665761752.4500482;6.950835227966309;6.778587341308594;37.13814926147461
384;1665761752.5105567;46.9772587;7.178973099999999;68.93700408935547;1665761752.656959;10.698468208312988;12.580636024475098;44.75526809692383
385;1665761752.7145412;46.9772587;7.1789741;68.9530029296875;1665761752.855087;4.102231979370117;28.818042755126953;56.25117111206055
386;1665761752.9224315;46.977257699999996;7.1789754;68.96900177001953;1665761753.0659087;-9.763940811157227;47.317955017089844;66.77690124511719
387;1665761753.12544;46.9772551;7.1789784;68.96400451660156;1665761753.2786715;-21.206762313842773;34.89889907836914;78.79846954345703
388;1665761753.352846;46.9772506;7.178983499999999;68.9280014038086;1665761753.5031557;-29.278240203857422;23.777910232543945;89.7552261352539
389;1665761753.5626857;46.9772447;7.178990499999999;68.90900421142578;1665761753.7003028;-37.36593246459961;19.871694564819336;101.46465301513672
390;1665761753.759839;46.977237699999996;7.1789993999999995;68.9330062866211;1665761753.899407;-41.948978424072266;13.009119987487793;114.52069854736328
391;1665761753.9726048;46.9772296;7.1790103;68.99500274658203;1665761754.1072948;-41.84286880493164;7.2254533767700195;125.43019104003906
392;1665761754.1687806;46.977220599999995;7.179022799999999;69.05400085449219;1665761754.3063986;-43.283668518066406;1.3974233865737915;123.71590423583984
393;1665761754.388381;46.977210799999995;7.1790367999999996;69.10400390625;1665761754.5406375;-44.55665588378906;7.734007358551025;108.57157135009766
394;1665761754.6011496;46.977200599999996;7.1790527;69.14400482177734;1665761754.7329087;-45.007633209228516;14.79212474822998;99.21077728271484
395;1665761754.802205;46.9771901;7.1790704;69.16500091552734;1665761754.9652026;-42.80890655517578;22.062654495239258;89.76449584960938
396;1665761755.0325446;46.9771795;7.1790897;69.16900634765625;1665761755.1716495;-36.44837951660156;26.263713836669922;79.05396270751953
397;1665761755.2497296;46.9771688;7.1791104;69.16100311279297;1665761755.482994;-25.219425201416016;24.71426773071289;64.44145965576172
398;1665761755.548386;46.9771581;7.179132;69.14600372314453;1665761755.6820998;-16.354162216186523;24.482688903808594;55.329856872558594
399;1665761755.7455392;46.9771481;7.179153899999999;69.13200378417969;1665761755.8870595;-14.376246452331543;31.792787551879883;68.25728607177734
400;1665761755.9739234;46.9771382;7.1791754999999995;69.12600708007812;1665761756.1076338;-21.41669464111328;37.51277160644531;89.41529083251953
401;1665761756.1691241;46.9771277;7.1791965;69.12700653076172;1665761756.3018591;-35.99647903442383;30.995052337646484;108.42479705810547
402;1665761756.3818934;46.977115999999995;7.1792167;69.14400482177734;1665761756.6053946;-45.784366607666016;18.209476470947266;119.05606842041016
403;1665761756.6688352;46.9771029;7.1792362999999995;69.16600036621094;1665761756.80645;-49.03493118286133;7.225470542907715;124.27376556396484
404;1665761756.8845387;46.9770891;7.179256499999999;69.17400360107422;1665761757.024099;-48.8184814453125;-1.9228932857513428;128.769775390625
405;1665761757.109989;46.9770748;7.1792777999999995;69.16699981689453;1665761757.2466269;-48.617637634277344;-5.878964424133301;133.81813049316406
406;1665761757.3051891;46.9770605;7.1793004;69.15900421142578;1665761757.4437792;-48.58155059814453;-7.596827030181885;133.12582397460938
407;1665761757.5052712;46.977046099999995;7.1793242;69.14700317382812;1665761757.628242;-48.704010009765625;-5.851721286773682;130.47532653808594
408;1665761757.691681;46.9770317;7.1793491;69.1310043334961;1665761757.832225;-49.05260467529297;-2.6178102493286133;129.09046936035156
409;1665761757.9005475;46.977017499999995;7.1793748;69.12000274658203;1665761758.038162;-48.892913818359375;-0.8695036768913269;128.62850952148438
410;1665761758.1172192;46.9770031;7.1794014;69.1050033569336;1665761758.2606912;-41.6446533203125;1.1412395238876343;129.13059997558594
411;1665761758.325105;46.9769887;7.1794284;69.07600402832031;1665761758.4529634;-33.40021896362305;0.23657545447349548;130.2335662841797
412;1665761758.534746;46.976974399999996;7.179454799999999;69.04100036621094;1665761758.6635785;-24.844993591308594;1.2425330877304077;129.9276885986328
413;1665761758.7250657;46.9769606;7.1794803;69.0040054321289;1665761758.8626835;-14.732669830322266;1.6467307806015015;130.12747192382812
414;1665761758.9329555;46.976947599999995;7.1795041;68.97200012207031;1665761759.0666654;-5.180205345153809;2.5654377937316895;130.10963439941406
415;1665761759.1271772;46.9769357;7.179525699999999;68.95000457763672;1665761759.277483;3.516895294189453;2.698195219039917;129.42283630371094
416;1665761759.3379946;46.976925099999995;7.179544399999999;68.93700408935547;1665761759.4775612;9.3180570602417;1.5619679689407349;129.5242919921875
417;1665761759.5468602;46.976915999999996;7.1795602999999995;68.91900634765625;1665761759.6883852;14.150485038757324;2.679048776626587;127.70999908447266
