;pos_time;latitude;longitude;altitude;alt_time;pitch;roll;yaw
0;1673371652.3408923;47.1306424;7.240619799999999;0.017000000923871994;1673371652.387331;-0.02266579493880272;-0.3543398380279541;90.34329986572266
1;1673371652.5479755;47.1306424;7.2406197;0.01900000125169754;1673371652.5902095;-0.062239401042461395;-0.3856087028980255;90.32056427001953
2;1673371652.7481637;47.1306424;7.2406197;0.01900000125169754;1673371652.7965367;-0.05135403573513031;-0.23759102821350098;90.44561004638672
3;1673371652.975698;47.1306424;7.2406197;0.018000001087784767;1673371653.008445;0.059654682874679565;-0.14442287385463715;90.35832214355469
4;1673371653.1477065;47.1306424;7.2406196;0.01900000125169754;1673371653.1912115;0.21314671635627747;-0.16403862833976746;90.35598754882812
5;1673371653.3489687;47.1306425;7.2406196;0.01900000125169754;1673371653.3935177;-0.06684450805187225;0.0771242305636406;90.30622863769531
6;1673371653.5523126;47.1306425;7.240619499999999;0.018000001087784767;1673371653.5938644;-0.18679532408714294;-0.20982059836387634;90.38142395019531
7;1673371653.7362902;47.1306425;7.240619499999999;0.01600000075995922;1673371653.776338;-0.14014703035354614;-0.02468477003276348;90.28811645507812
8;1673371653.91803;47.1306425;7.2406196;0.015000000596046448;1673371653.9521902;-0.21700671315193176;-0.09988396614789963;90.32601928710938
9;1673371654.1096046;47.1306425;7.2406196;0.015000000596046448;1673371654.1486464;0.15026670694351196;-0.1955472081899643;90.36417388916016
10;1673371654.332503;47.1306425;7.2406196;0.014000000432133675;1673371654.3696332;0.08658336102962494;-0.007488979957997799;90.4619140625
11;1673371654.5309112;47.1306425;7.2406196;0.00800000037997961;1673371654.5719066;0.16737815737724304;-0.3143194019794464;90.48141479492188
12;1673371654.7331583;47.1306424;7.2406196;0.004000000189989805;1673371654.779054;-0.2050275355577469;-0.10609996318817139;90.42039489746094
13;1673371654.935322;47.1306424;7.2406196;0.0020000000949949026;1673371654.9782748;-0.3025534749031067;-0.15148361027240753;90.35710906982422
14;1673371655.1435263;47.1306424;7.2406196;0.0010000000474974513;1673371655.1850762;-0.3972437083721161;-0.2923435866832733;90.49613952636719
15;1673371655.390424;47.1306425;7.2406197;0.006000000052154064;1673371655.4245842;-0.2985953390598297;0.01239848230034113;90.296142578125
16;1673371655.5422435;47.1306425;7.2406197;0.006000000052154064;1673371655.5744598;-0.38546130061149597;-0.18635937571525574;90.40739440917969
17;1673371655.7181652;47.1306425;7.2406197;0.007000000216066837;1673371655.7651463;-0.4132617712020874;-0.22218920290470123;90.48603820800781
18;1673371655.9279993;47.1306425;7.2406197;0.009000000543892384;1673371655.9639547;-0.38986635208129883;-0.06905356794595718;90.53343200683594
19;1673371656.119854;47.1306425;7.2406197;0.010000000707805157;1673371656.1650546;-0.3541807532310486;-0.16999520361423492;90.51892852783203
20;1673371656.3243117;47.1306424;7.240619799999999;0.013000000268220901;1673371656.3659105;-0.5126427412033081;-0.3526992201805115;90.54557037353516
21;1673371656.5137842;47.1306424;7.2406198999999996;0.013000000268220901;1673371656.5527356;-0.908504843711853;-0.2628387212753296;90.64968872070312
22;1673371656.7038276;47.1306424;7.24062;0.0;1673371656.7520766;-0.9770164489746094;-0.28169113397598267;90.64102172851562
23;1673371656.9212542;47.1306424;7.24062;0.004000000189989805;1673371656.961219;-0.7240617275238037;-0.4828457236289978;90.47874450683594
24;1673371657.118774;47.1306424;7.24062;0.00800000037997961;1673371657.1639545;-0.7991045117378235;-0.22736284136772156;90.6286849975586
25;1673371657.3122354;47.1306424;7.2406201;0.004000000189989805;1673371657.3544672;-0.9435187578201294;-0.3291504681110382;90.5932846069336
26;1673371657.5250394;47.1306424;7.2406201;0.0;1673371657.5640984;-0.9617490768432617;-0.5536660552024841;90.78775024414062
27;1673371657.7149854;47.1306424;7.2406201999999995;-0.004000000189989805;1673371657.759821;-1.0213438272476196;-0.4436442255973816;91.06645965576172
28;1673371657.904895;47.1306424;7.2406201999999995;-0.007000000216066837;1673371657.9465487;-1.282568335533142;-0.38651415705680847;91.25103759765625
29;1673371658.1091635;47.1306424;7.2406203;-0.009000000543892384;1673371658.1561832;-1.139843463897705;-0.2764090299606323;92.22623443603516
30;1673371658.2999487;47.1306424;7.2406207;-0.004000000189989805;1673371658.3449175;0.9489132165908813;-0.2649056315422058;93.95870971679688
31;1673371658.5019689;47.1306425;7.2406219;0.006000000052154064;1673371658.5469453;4.770954132080078;-0.11617644131183624;93.16911315917969
32;1673371658.722098;47.1306425;7.2406241;0.01900000125169754;1673371658.7639568;12.127615928649902;-0.09912674874067307;94.6759033203125
33;1673371658.9390025;47.1306425;7.2406269;0.03100000135600567;1673371658.9848576;16.294729232788086;1.8194607496261597;96.41915130615234
34;1673371659.1231318;47.130642599999995;7.2406304;0.04200000315904617;1673371659.1599593;17.155941009521484;3.1647567749023438;95.9263916015625
35;1673371659.3169427;47.130642699999996;7.2406345;0.06800000369548798;1673371659.3620598;17.594215393066406;0.9894999265670776;94.47679138183594
36;1673371659.5290556;47.1306428;7.2406391;0.10500000417232513;1673371659.5735543;18.790124893188477;1.8617267608642578;94.0524673461914
37;1673371659.7379196;47.130642699999996;7.240644;0.1469999998807907;1673371659.798976;20.33245277404785;3.22979474067688;93.95875549316406
38;1673371659.9964864;47.130642599999995;7.2406489999999994;0.1940000057220459;1673371660.0478115;22.21388053894043;1.2390286922454834;93.19869995117188
39;1673371660.209472;47.1306425;7.2406542;0.24000000953674316;1673371660.2416968;24.209257125854492;0.6130551695823669;92.70992279052734
40;1673371660.3825357;47.1306424;7.240659099999999;0.28700000047683716;1673371660.4196255;26.202213287353516;2.3800301551818848;92.89276123046875
41;1673371660.6169183;47.1306424;7.2406635999999995;0.3410000205039978;1673371660.6526158;28.28887939453125;1.8243263959884644;92.55177307128906
42;1673371660.7810357;47.1306423;7.2406676999999995;0.39000001549720764;1673371660.8288584;30.446901321411133;0.066063791513443;91.93724822998047
43;1673371660.968531;47.1306423;7.2406711999999995;0.43400001525878906;1673371661.0114744;32.5401725769043;1.3725402355194092;92.09793853759766
44;1673371661.1550498;47.1306422;7.2406739;0.4660000205039978;1673371661.1979938;34.73265838623047;1.8095327615737915;92.0750732421875
45;1673371661.3542793;47.1306422;7.2406758;0.4930000305175781;1673371661.3992438;36.908531188964844;0.2875503599643707;91.58892059326172
46;1673371661.5507104;47.1306422;7.240676499999999;0.5170000195503235;1673371661.5917025;39.13779067993164;0.9481682777404785;91.74888610839844
47;1673371661.7500436;47.130642099999996;7.240676199999999;0.5430000424385071;1673371661.795948;41.30449295043945;1.2609360218048096;91.71528625488281
48;1673371661.9476116;47.130642099999996;7.240674599999999;0.5660000443458557;1673371661.9867167;43.51259231567383;0.7739943265914917;91.56805419921875
49;1673371662.13561;47.130642099999996;7.2406716;0.5840000510215759;1673371662.1820173;45.65882110595703;0.6819287538528442;91.4700927734375
50;1673371662.3490312;47.130642099999996;7.2406672;0.5960000157356262;1673371662.388567;45.55944061279297;1.047722339630127;91.50853729248047
51;1673371662.5350523;47.130641999999995;7.2406615;0.6010000109672546;1673371662.5775654;41.341529846191406;0.4825449287891388;91.28193664550781
52;1673371662.7437792;47.130642099999996;7.2406551;0.612000048160553;1673371662.7818837;35.13349914550781;0.6441959738731384;91.36113739013672
53;1673371662.933759;47.130642099999996;7.2406482;0.6720000505447388;1673371662.9755926;32.717891693115234;0.5995364785194397;91.34178161621094
54;1673371663.1300032;47.130642099999996;7.2406416;0.7330000400543213;1673371663.1715343;26.93189811706543;0.21538370847702026;91.24090576171875
55;1673371663.333116;47.130642099999996;7.2406356999999995;0.781000018119812;1673371663.3746707;23.170101165771484;0.679716944694519;91.3238754272461
56;1673371663.5278282;47.130642099999996;7.240630899999999;0.8300000429153442;1673371663.5866501;21.127132415771484;0.15467442572116852;91.15084838867188
57;1673371663.7499075;47.130642099999996;7.2406273;0.8870000243186951;1673371663.7949052;20.55525016784668;-0.24391233921051025;90.88642120361328
58;1673371663.9895074;47.1306422;7.2406251;0.9500000476837158;1673371664.0256193;21.61474609375;0.8338153958320618;91.1207275390625
59;1673371664.1660073;47.1306423;7.240623599999999;1.0230000019073486;1673371664.2089503;22.63022232055664;2.2717554569244385;91.45250701904297
60;1673371664.3616576;47.1306424;7.2406229;1.1040000915527344;1673371664.4086504;24.117895126342773;-0.7504865527153015;90.36819458007812
61;1673371664.5816138;47.1306425;7.2406226;1.1950000524520874;1673371664.6226149;25.8976993560791;0.49940547347068787;90.5906982421875
62;1673371664.7763712;47.1306425;7.2406226;1.2990000247955322;1673371664.8124845;27.22507667541504;2.4052469730377197;91.24957275390625
63;1673371664.9581134;47.1306425;7.240622699999999;1.4170000553131104;1673371664.994226;28.286151885986328;-0.471435010433197;90.41722869873047
64;1673371665.1288102;47.130642599999995;7.2406228;1.5490000247955322;1673371665.166455;28.829626083374023;0.5370186567306519;90.36675262451172
65;1673371665.348784;47.130642599999995;7.2406228;1.696000099182129;1673371665.4112983;29.127979278564453;1.1961228847503662;87.16365051269531
66;1673371665.5484736;47.130642699999996;7.240622699999999;1.8540000915527344;1673371665.5841396;28.988441467285156;-0.2661890983581543;86.86197662353516
67;1673371665.7443333;47.1306428;7.2406223;2.0280001163482666;1673371665.7864296;28.628713607788086;-0.1304556280374527;86.8830337524414
68;1673371665.9500067;47.1306428;7.2406219;2.2130000591278076;1673371665.9954402;28.26518440246582;2.382432699203491;87.71100616455078
69;1673371666.1643915;47.130642699999996;7.2406215;2.4070000648498535;1673371666.2151434;28.23548698425293;0.37908434867858887;87.23395538330078
70;1673371666.3598812;47.130642699999996;7.240621099999999;2.5950000286102295;1673371666.4155555;27.664073944091797;-0.6779141426086426;87.0245361328125
71;1673371666.5679414;47.130642699999996;7.2406207;2.7810001373291016;1673371666.6319618;27.380285263061523;1.9813246726989746;88.03839874267578
72;1673371666.7789958;47.130642699999996;7.2406203;2.9640002250671387;1673371666.822916;27.21415901184082;1.317405104637146;87.85533142089844
73;1673371666.988058;47.130642699999996;7.2406201;3.1470000743865967;1673371667.0270798;27.03302001953125;-0.6484849452972412;87.13321685791016
74;1673371667.1702178;47.130642599999995;7.2406198999999996;3.3330001831054688;1673371667.211221;27.045108795166016;1.9039713144302368;87.86221313476562
75;1673371667.3591816;47.1306425;7.240619799999999;3.5190000534057617;1673371667.4001744;27.072351455688477;0.8365218043327332;87.91967010498047
76;1673371667.572823;47.1306423;7.240619799999999;3.703000068664551;1673371667.6186962;27.214948654174805;-1.7259808778762817;87.15776824951172
77;1673371667.7662117;47.1306423;7.240619799999999;3.891000270843506;1673371667.8081815;27.40862274169922;1.0550802946090698;87.84770965576172
78;1673371667.984079;47.1306423;7.2406198999999996;4.080000400543213;1673371668.024093;27.453948974609375;1.382371425628662;87.95832061767578
79;1673371668.18342;47.1306423;7.24062;4.271000385284424;1673371668.2234955;27.74803924560547;-1.2829657793045044;87.27672576904297
80;1673371668.382822;47.1306423;7.2406201;4.465000152587891;1673371668.425846;27.788787841796875;0.6998084783554077;87.83018493652344
81;1673371668.553764;47.1306422;7.2406201;4.656000137329102;1673371668.5931396;27.92084503173828;1.3797106742858887;88.1003646850586
82;1673371668.7517292;47.1306422;7.2406201;4.8510003089904785;1673371668.7927744;27.808250427246094;-1.3764586448669434;87.2532958984375
83;1673371668.9533947;47.1306423;7.2406201;5.043000221252441;1673371668.994922;27.77242088317871;0.2690962851047516;87.56403350830078
84;1673371669.1469893;47.1306424;7.2406201;5.2330002784729;1673371669.1846209;27.819324493408203;2.145048141479492;88.150634765625
85;1673371669.3377318;47.1306424;7.2406201;5.4210004806518555;1673371669.3794496;27.67829132080078;-0.6186160445213318;87.40345764160156
86;1673371669.5269892;47.1306425;7.2406201;5.61400032043457;1673371669.5690997;27.68036651611328;-0.03711066395044327;87.47158813476562
87;1673371669.7213554;47.1306425;7.2406201999999995;5.811000347137451;1673371669.768386;27.7858943939209;2.2617945671081543;88.17156219482422
88;1673371669.936435;47.1306424;7.2406203;6.005000114440918;1673371669.9791036;27.771249771118164;0.06383897364139557;87.61997985839844
89;1673371670.1338837;47.1306425;7.2406203;6.202000141143799;1673371670.1774058;27.964462280273438;-0.6449044346809387;87.3606948852539
90;1673371670.3341203;47.1306425;7.2406203;6.39300012588501;1673371670.375649;27.865938186645508;2.272613525390625;88.11581420898438
91;1673371670.5323513;47.130642599999995;7.2406203;6.584000110626221;1673371670.5729065;27.8223934173584;0.33696693181991577;87.59647369384766
92;1673371670.7335696;47.130642599999995;7.2406201999999995;6.779000282287598;1673371670.772193;27.796890258789062;-0.7915012836456299;87.18858337402344
93;1673371670.939051;47.1306425;7.2406203;6.975000381469727;1673371670.9835372;27.852962493896484;2.072087287902832;88.13516235351562
94;1673371671.161589;47.1306425;7.2406203;7.173000335693359;1673371671.2104404;27.81119728088379;0.49210959672927856;87.80345916748047
95;1673371671.3619921;47.1306425;7.2406203;7.367000579833984;1673371671.402007;27.720008850097656;-1.1041114330291748;87.1610336303711
96;1673371671.560301;47.1306425;7.2406201999999995;7.564000129699707;1673371671.5985043;27.779560089111328;1.8298982381820679;88.06793212890625
97;1673371671.753502;47.1306425;7.2406201999999995;7.759000301361084;1673371671.7955196;27.733509063720703;1.229255199432373;87.93938446044922
98;1673371671.9582477;47.1306425;7.2406201999999995;7.956000328063965;1673371672.0007493;27.796871185302734;-1.0858850479125977;87.14840698242188
99;1673371672.1585228;47.1306425;7.2406201999999995;8.153000831604004;1673371672.2010694;27.69685173034668;1.3753055334091187;87.81661224365234
100;1673371672.351339;47.1306424;7.2406201999999995;8.354000091552734;1673371672.3929782;27.944711685180664;1.2250841856002808;87.86783599853516
101;1673371672.5478508;47.1306424;7.2406201999999995;8.558000564575195;1673371672.5918176;27.81076431274414;-1.2877583503723145;87.0924072265625
102;1673371672.7590423;47.1306424;7.2406203;8.766000747680664;1673371672.803054;27.819082260131836;0.8741650581359863;87.70913696289062
103;1673371672.95999;47.1306424;7.2406203;8.969000816345215;1673371672.9990716;27.882400512695312;1.866242527961731;88.16041564941406
104;1673371673.1548157;47.1306424;7.2406201999999995;9.167000770568848;1673371673.1904857;27.840639114379883;-0.8761898279190063;87.26786041259766
105;1673371673.3375013;47.1306424;7.2406201999999995;9.368000030517578;1673371673.3731809;27.809560775756836;-0.1737881898880005;87.43497467041016
106;1673371673.5254004;47.1306423;7.2406201999999995;9.57300090789795;1673371673.5704067;27.60592269897461;2.147000789642334;88.23470306396484
107;1673371673.7388337;47.1306424;7.2406201999999995;9.780000686645508;1673371673.7916603;27.74903106689453;-0.3964763879776001;87.47753143310547
108;1673371673.9587479;47.1306425;7.2406201999999995;9.984000205993652;1673371674.0091789;27.722501754760742;-0.3889367878437042;87.33386993408203
109;1673371674.1921673;47.1306425;7.2406201;10.19800090789795;1673371674.2312088;27.630605697631836;2.215442419052124;88.09549713134766
110;1673371674.3886454;47.1306425;7.240619799999999;10.506000518798828;1673371674.4335585;27.241975784301758;0.5407372713088989;87.77526092529297
111;1673371674.5937328;47.1306425;7.2406193;10.886000633239746;1673371674.6337829;28.561233520507812;-0.6445596814155579;87.25727081298828
112;1673371674.7882998;47.1306425;7.2406188;11.285000801086426;1673371674.830384;26.588987350463867;1.509568214416504;87.92147827148438
113;1673371674.9778955;47.1306425;7.2406182999999995;11.691000938415527;1673371675.0190175;26.08452606201172;1.6611384153366089;87.99446868896484
114;1673371675.1706111;47.1306425;7.2406179999999996;12.10300064086914;1673371675.210927;25.470321655273438;-0.8898853659629822;87.2259292602539
115;1673371675.3528318;47.130642599999995;7.2406178;12.520000457763672;1673371675.402164;25.417211532592773;1.1471188068389893;87.67557525634766
116;1673371675.563773;47.130642599999995;7.2406178;12.937000274658203;1673371675.6053371;25.57203483581543;1.693131923675537;87.95158386230469
117;1673371675.7600994;47.130642599999995;7.2406178;13.345000267028809;1673371675.8045707;25.723861694335938;-0.9489063024520874;87.20480346679688
118;1673371675.9610631;47.130642599999995;7.2406179999999996;13.755001068115234;1673371676.0089502;26.223648071289062;0.7312858700752258;87.5828857421875
119;1673371676.170179;47.1306425;7.2406182999999995;14.168000221252441;1673371676.2122483;26.675853729248047;2.065349817276001;88.10342407226562
120;1673371676.3737001;47.130642599999995;7.2406185999999995;14.577000617980957;1673371676.4137318;26.942668914794922;-0.8819001317024231;87.25090789794922
121;1673371676.5557156;47.130642599999995;7.2406188;14.986001014709473;1673371676.5943353;27.1270694732666;0.23127704858779907;87.55191040039062
122;1673371676.7505846;47.130642599999995;7.240619;15.399001121520996;1673371676.7935627;27.298927307128906;1.8959989547729492;88.12696838378906
123;1673371676.9529371;47.130642599999995;7.2406191;15.802000999450684;1673371676.9955492;27.16141700744629;-0.4496079087257385;87.47767639160156
124;1673371677.142686;47.1306425;7.240619199999999;16.204999923706055;1673371677.1871505;27.20612335205078;-0.3705071806907654;87.39720916748047
125;1673371677.3399825;47.1306425;7.240619199999999;16.610000610351562;1673371677.3826253;27.031763076782227;2.0005407333374023;88.07624816894531
126;1673371677.5402856;47.130642599999995;7.240619199999999;17.019001007080078;1673371677.5828497;26.971206665039062;0.0060859667137265205;87.51239776611328
127;1673371677.735466;47.130642699999996;7.240619199999999;17.421001434326172;1673371677.780291;26.95541000366211;-0.3715690076351166;87.33554077148438
128;1673371677.9372756;47.130642699999996;7.240619199999999;17.825000762939453;1673371677.9788725;27.011898040771484;2.107511520385742;87.9211654663086
129;1673371678.1410284;47.130642699999996;7.240619199999999;18.226001739501953;1673371678.187276;26.93218994140625;0.9700221419334412;87.75768280029297
130;1673371678.3565347;47.130642699999996;7.240619199999999;18.623001098632812;1673371678.3990989;26.756452560424805;-0.874855101108551;87.22470092773438
131;1673371678.5552678;47.130642599999995;7.240619199999999;19.02800178527832;1673371678.6003675;26.864723205566406;1.6363009214401245;87.91450500488281
132;1673371678.7465668;47.130642599999995;7.240619199999999;19.43400001525879;1673371678.7899332;26.845767974853516;1.1306155920028687;87.8350830078125
133;1673371678.9516628;47.130642699999996;7.240619199999999;19.838001251220703;1673371678.9953876;26.858327865600586;-0.9641677141189575;87.23931121826172
134;1673371679.1600373;47.130642699999996;7.240619199999999;20.2450008392334;1673371679.2007537;26.86861801147461;1.5965617895126343;87.84932708740234
135;1673371679.348878;47.130642699999996;7.2406193;20.6510009765625;1673371679.3884683;26.881988525390625;1.6796233654022217;87.91445922851562
136;1673371679.5443282;47.130642699999996;7.240619199999999;21.049001693725586;1673371679.5819688;26.75578498840332;-0.7914108037948608;87.20612335205078
137;1673371679.735947;47.130642699999996;7.2406193;21.451000213623047;1673371679.7763295;26.842342376708984;1.0693895816802979;87.72817993164062
138;1673371679.9519842;47.130642699999996;7.2406193;21.85300064086914;1673371679.9954765;27.09548568725586;1.8847651481628418;87.93415832519531
139;1673371680.1489432;47.130642699999996;7.2406194;22.25800132751465;1673371680.191232;26.96110725402832;-0.8037253022193909;87.23765563964844
140;1673371680.3634226;47.130642699999996;7.2406194;22.659000396728516;1673371680.4099097;26.909086227416992;0.8633790016174316;87.61351776123047
141;1673371680.5751283;47.130642699999996;7.2406194;23.062000274658203;1673371680.6240206;27.019346237182617;2.381359338760376;88.17135620117188
142;1673371680.7794538;47.130642699999996;7.2406194;23.464000701904297;1673371680.816695;26.843364715576172;-0.40796199440956116;87.451171875
143;1673371680.9647212;47.130642699999996;7.2406194;23.858001708984375;1673371681.0033178;26.933752059936523;0.35367923974990845;87.55552673339844
144;1673371681.1634128;47.130642699999996;7.2406194;24.259000778198242;1673371681.2040908;26.752960205078125;2.386387586593628;88.05937957763672
145;1673371681.3364305;47.130642699999996;7.2406194;24.66200065612793;1673371681.3799179;26.86836814880371;-0.2719566226005554;87.34444427490234
146;1673371681.5435305;47.130642699999996;7.2406194;25.064001083374023;1673371681.5877028;26.802946090698242;0.14933453500270844;87.38394927978516
147;1673371681.7380238;47.130642699999996;7.2406194;25.46900177001953;1673371681.7834795;26.958711624145508;2.446747064590454;88.09680938720703
148;1673371681.9399369;47.130642699999996;7.240619499999999;25.867000579833984;1673371681.9825969;26.9361572265625;0.3496376872062683;87.58479309082031
149;1673371682.132331;47.130642699999996;7.240619499999999;26.26000213623047;1673371682.1734247;26.86701774597168;-0.4698958098888397;87.37256622314453
150;1673371682.326022;47.130642599999995;7.240619499999999;26.661001205444336;1673371682.3720787;26.767871856689453;2.1112961769104004;88.15497589111328
151;1673371682.534902;47.130642599999995;7.2406194;27.06100082397461;1673371682.5792582;26.94902992248535;0.6191269159317017;87.73915100097656
152;1673371682.7315307;47.130642699999996;7.240619499999999;27.463001251220703;1673371682.7715487;26.919010162353516;-0.5289130210876465;87.19383239746094
153;1673371682.9386811;47.130642699999996;7.240619499999999;27.86600112915039;1673371682.9841802;26.880386352539062;2.198667526245117;87.95211791992188
154;1673371683.1471958;47.130642699999996;7.240619499999999;28.273000717163086;1673371683.1883986;26.8913631439209;0.7563217282295227;87.76815032958984
155;1673371683.3406413;47.130642699999996;7.240619499999999;28.679000854492188;1673371683.3837023;26.823627471923828;-0.6653739213943481;87.2384033203125
156;1673371683.5387812;47.130642699999996;7.240619499999999;29.075000762939453;1673371683.5791042;26.841230392456055;1.7719594240188599;87.93289184570312
157;1673371683.7354827;47.130642699999996;7.240619499999999;29.47800064086914;1673371683.78013;26.867624282836914;1.455711007118225;87.93009185791016
158;1673371683.9387271;47.130642699999996;7.240619499999999;29.880001068115234;1673371683.9788308;26.81256103515625;-0.619775652885437;87.22334289550781
159;1673371684.1370213;47.1306428;7.2406196;30.283000946044922;1673371684.1825109;26.945589065551758;1.600230097770691;87.86165618896484
160;1673371684.3575811;47.130642699999996;7.2406196;30.689001083374023;1673371684.4030252;26.878097534179688;1.9304801225662231;88.05018615722656
161;1673371684.583227;47.130642699999996;7.2406196;31.09400177001953;1673371684.6194603;26.927480697631836;-0.5477511286735535;87.3528060913086
162;1673371684.7789788;47.130642699999996;7.2406196;31.487001419067383;1673371684.8224692;26.806882858276367;0.807474672794342;87.66895294189453
163;1673371684.9802513;47.130642599999995;7.2406196;31.88100242614746;1673371685.0247777;26.87462043762207;2.1948349475860596;88.07537078857422
164;1673371685.1806674;47.130642699999996;7.2406197;32.27900314331055;1673371685.2163482;26.938922882080078;-0.5538424253463745;87.23441314697266
165;1673371685.3699856;47.130642699999996;7.2406197;32.67900085449219;1673371685.4120224;26.951356887817383;0.5579073429107666;87.4378890991211
166;1673371685.5815995;47.130642599999995;7.240619799999999;33.08000183105469;1673371685.616502;27.160612106323242;2.219362497329712;88.06036376953125
167;1673371685.8149197;47.130642599999995;7.240619799999999;33.48200225830078;1673371685.862757;27.015474319458008;-0.6062619090080261;87.29218292236328
168;1673371686.0193517;47.130642599999995;7.240619799999999;33.88199996948242;1673371686.0545394;27.109994888305664;0.21470870077610016;87.42191314697266
169;1673371686.1742148;47.130642599999995;7.240619799999999;34.272003173828125;1673371686.2118325;26.869888305664062;2.4122157096862793;88.18920135498047
170;1673371686.3485851;47.130642599999995;7.2406197;34.67000198364258;1673371686.3906708;26.921905517578125;0.16059161722660065;87.61809539794922
171;1673371686.5522742;47.130642699999996;7.2406197;35.066001892089844;1673371686.5996628;26.952770233154297;-0.03283661976456642;87.39971160888672
172;1673371686.7554948;47.130642699999996;7.2406197;35.4630012512207;1673371686.7941542;26.9249210357666;2.48124361038208;88.11908721923828
173;1673371686.946041;47.130642599999995;7.2406196;35.86300277709961;1673371686.9911044;26.911890029907227;0.538223922252655;87.646240234375
174;1673371687.162752;47.130642599999995;7.2406196;36.263999938964844;1673371687.211162;26.84352684020996;-0.5723279118537903;87.21942138671875
175;1673371687.3648522;47.130642599999995;7.2406196;36.65400314331055;1673371687.4039476;26.848581314086914;2.188467025756836;87.90345764160156
176;1673371687.5607452;47.130642699999996;7.240619499999999;37.04800033569336;1673371687.6019874;26.857454299926758;1.1826460361480713;87.7654800415039
177;1673371687.7538767;47.130642699999996;7.240619499999999;37.445003509521484;1673371687.7954073;26.866708755493164;-0.7204623818397522;87.24317169189453
178;1673371687.9545882;47.130642699999996;7.240619499999999;37.84300231933594;1673371687.995155;26.702287673950195;1.9124325513839722;87.9980239868164
179;1673371688.1461363;47.130642599999995;7.240619499999999;38.24500274658203;1673371688.1925647;26.77834701538086;1.4693243503570557;87.95318603515625
180;1673371688.3533068;47.130642599999995;7.240619499999999;38.64600372314453;1673371688.4001532;26.807689666748047;-0.8549032211303711;87.22759246826172
181;1673371688.5584667;47.130642599999995;7.2406194;39.04600143432617;1673371688.6090138;26.84300994873047;1.4268540143966675;87.73907470703125
182;1673371688.7649746;47.130642599999995;7.2406194;39.4370002746582;1673371688.8157046;26.716859817504883;1.9449528455734253;87.9681167602539
183;1673371688.963535;47.130642699999996;7.2406194;39.83700180053711;1673371689.007039;26.795127868652344;-0.7029969096183777;87.14830017089844
184;1673371689.171239;47.130642699999996;7.2406193;40.23800277709961;1673371689.2211347;26.694787979125977;0.8246855735778809;87.58295440673828
185;1673371689.3755047;47.130642599999995;7.2406193;40.6400032043457;1673371689.4143417;26.704143524169922;2.123905658721924;88.08689880371094
186;1673371689.568146;47.130642599999995;7.2406193;41.044002532958984;1673371689.610799;26.66609764099121;-0.49400386214256287;87.36320495605469
187;1673371689.770896;47.130642699999996;7.2406193;41.445003509521484;1673371689.8036828;26.661224365234375;0.8696598410606384;87.6531982421875
188;1673371689.9540412;47.130642699999996;7.2406193;41.8380012512207;1673371689.9936368;26.652767181396484;2.3994252681732178;88.06866455078125
189;1673371690.1485603;47.130642699999996;7.2406193;42.23400115966797;1673371690.1910958;26.74222183227539;0.0791172906756401;87.49980926513672
190;1673371690.3537343;47.130642699999996;7.2406193;42.637001037597656;1673371690.3999157;26.779029846191406;0.08623037487268448;87.43780517578125
191;1673371690.5487068;47.130642599999995;7.2406194;43.04500198364258;1673371690.5898721;26.750652313232422;2.564612865447998;88.1221694946289
192;1673371690.7422602;47.130642599999995;7.2406194;43.45100021362305;1673371690.7843537;26.847822189331055;0.07376809418201447;87.5542221069336
193;1673371690.9383342;47.1306425;7.2406194;43.85400390625;1673371690.9866195;26.750272750854492;-0.4990045130252838;87.2227554321289
194;1673371691.1437726;47.1306425;7.240619499999999;44.25600051879883;1673371691.19214;26.839183807373047;2.331188678741455;88.04147338867188
195;1673371691.3735313;47.1306425;7.240619499999999;44.647003173828125;1673371691.4092085;26.760936737060547;0.5249153971672058;87.71353912353516
196;1673371691.5551686;47.1306425;7.240619499999999;45.044002532958984;1673371691.6017723;26.66754150390625;-0.6017588376998901;87.28937530517578
197;1673371691.7544105;47.1306425;7.240619499999999;45.445003509521484;1673371691.7975988;26.779077529907227;2.169799566268921;88.06686401367188
198;1673371691.954458;47.1306425;7.240619499999999;45.85100173950195;1673371691.9950316;26.70792007446289;1.0105262994766235;87.8361587524414
199;1673371692.1466916;47.1306425;7.240619499999999;46.255001068115234;1673371692.185742;26.83193588256836;-0.768608808517456;87.22456359863281
200;1673371692.3375561;47.130642599999995;7.2406196;46.659000396728516;1673371692.3814776;26.792768478393555;2.056793689727783;87.86734771728516
201;1673371692.5595858;47.130642599999995;7.2406196;47.053001403808594;1673371692.6046503;26.834388732910156;1.5626477003097534;87.87458038330078
202;1673371692.7730157;47.130642599999995;7.2406196;47.45600128173828;1673371692.816661;26.79262351989746;-0.4725351929664612;87.1483154296875
203;1673371692.9578803;47.130642599999995;7.2406196;47.85900115966797;1673371693.0036213;26.735918045043945;1.6729795932769775;87.75934600830078
204;1673371693.1699173;47.130642599999995;7.2406196;48.242000579833984;1673371693.211605;27.088945388793945;1.9549822807312012;88.17202758789062
205;1673371693.3735087;47.130642599999995;7.240619799999999;48.57500076293945;1673371693.4167147;26.886154174804688;-0.5224142670631409;87.14659118652344
206;1673371693.552784;47.1306425;7.2406201;48.85700225830078;1673371693.5938482;27.09026527404785;1.1247278451919556;87.84260559082031
207;1673371693.7562733;47.1306425;7.2406204999999995;49.09600067138672;1673371693.83517;27.59290313720703;2.134368419647217;88.10303497314453
208;1673371694.0023344;47.1306425;7.240621;49.28400421142578;1673371694.0444314;30.474594116210938;2.193329095840454;87.59111022949219
209;1673371694.2036574;47.1306423;7.2406212;49.454002380371094;1673371694.24095;42.81256103515625;-10.478221893310547;79.14253234863281
210;1673371694.3846648;47.1306424;7.24062;49.61000061035156;1673371694.4271653;48.697750091552734;-26.69679832458496;67.00415802001953
211;1673371694.5889928;47.130643299999996;7.2406166;49.74100112915039;1673371694.630612;42.40633010864258;-32.728153228759766;60.23873519897461
212;1673371694.814735;47.130645099999995;7.2406109999999995;49.8640022277832;1673371694.847912;31.567827224731445;-38.54280471801758;50.95587921142578
213;1673371694.991088;47.1306479;7.2406041;49.95900344848633;1673371695.0316668;22.649641036987305;-38.11234664916992;40.21903610229492
214;1673371695.1761081;47.1306513;7.2405963;50.02700424194336;1673371695.2149575;8.393001556396484;-45.0606689453125;28.810815811157227
215;1673371695.3646069;47.1306556;7.2405878999999995;50.092002868652344;1673371695.406296;-10.669377326965332;-49.453155517578125;17.603391647338867
216;1673371695.5454142;47.130660899999995;7.2405786999999995;50.13100051879883;1673371695.5934048;-30.398937225341797;-47.42203903198242;5.973851203918457
217;1673371695.7621617;47.130667599999995;7.240568799999999;50.143001556396484;1673371695.8092265;-39.92265701293945;-40.099609375;-6.14384126663208
218;1673371695.9592757;47.1306756;7.240558099999999;50.137001037597656;1673371696.0025449;-45.15009689331055;-35.61334228515625;-15.053899765014648
219;1673371696.160273;47.1306848;7.2405463999999995;50.124000549316406;1673371696.1984932;-50.21221160888672;-31.765623092651367;-25.52109718322754
220;1673371696.362279;47.130694899999995;7.240533699999999;50.09700393676758;1673371696.4090939;-48.72261428833008;-24.1142578125;-35.25585174560547
221;1673371696.5667987;47.1307054;7.2405202;50.031002044677734;1673371696.6119401;-43.79082107543945;-17.829492568969727;-40.66099166870117
222;1673371696.7763865;47.130716299999996;7.2405066;49.97500228881836;1673371696.818887;-44.97697448730469;-14.082179069519043;-46.05436706542969
223;1673371696.9710717;47.1307273;7.240493;49.93800354003906;1673371697.011638;-48.342037200927734;-11.007166862487793;-53.46685791015625
224;1673371697.1604066;47.1307385;7.240479;49.91200256347656;1673371697.2029412;-47.7891731262207;-7.014031887054443;-56.40494155883789
225;1673371697.3662808;47.130749599999994;7.2404649999999995;49.87800216674805;1673371697.407832;-43.61458969116211;-7.039865970611572;-52.72623825073242
226;1673371697.5597172;47.1307609;7.2404512;49.85100173950195;1673371697.599235;-43.90140151977539;-7.970430850982666;-50.41975402832031
227;1673371697.7523465;47.1307724;7.2404378;49.827003479003906;1673371697.7925007;-46.078041076660156;-9.341085433959961;-49.61979675292969
228;1673371697.9511425;47.130784;7.240424399999999;49.816001892089844;1673371698.0002387;-47.461727142333984;-10.62326431274414;-49.37040328979492
229;1673371698.1831074;47.1307957;7.2404109;49.816001892089844;1673371698.2236454;-47.601444244384766;-11.636096954345703;-49.453758239746094
230;1673371698.4478178;47.130807499999996;7.2403973;49.82500076293945;1673371698.5165164;-47.80048370361328;-15.430668830871582;-51.89991760253906
231;1673371698.6430287;47.130818999999995;7.240383199999999;49.827003479003906;1673371698.676262;-45.89749526977539;-10.25739574432373;-63.51118850708008
232;1673371698.8209438;47.130829999999996;7.2403688;49.829002380371094;1673371698.8523235;-44.00480651855469;-3.258540391921997;-73.66048431396484
233;1673371698.993799;47.1308404;7.240354399999999;49.83000183105469;1673371699.0299547;-42.49968338012695;2.823960542678833;-82.42794036865234
234;1673371699.190773;47.1308503;7.2403401;49.81900405883789;1673371699.2344434;-40.04925537109375;7.923287868499756;-91.0905990600586
235;1673371699.3855088;47.1308595;7.240326;49.803001403808594;1673371699.427216;-37.3099365234375;12.601322174072266;-100.14364624023438
236;1673371699.5742755;47.130868199999995;7.240312299999999;49.79300308227539;1673371699.62031;-34.180423736572266;16.786392211914062;-109.63147735595703
237;1673371699.7636614;47.1308763;7.2402991;49.7920036315918;1673371699.8188615;-31.7264461517334;20.83726692199707;-119.73747253417969
238;1673371700.0184014;47.1308837;7.240286299999999;49.80600357055664;1673371700.084803;-31.724102020263672;28.636735916137695;-130.03102111816406
239;1673371700.234663;47.1308906;7.2402735;49.83500289916992;1673371700.2698302;-28.922679901123047;38.44668197631836;-140.40402221679688
240;1673371700.3953362;47.1308971;7.2402603;49.874000549316406;1673371700.4407914;-25.754756927490234;42.96027755737305;-147.43577575683594
241;1673371700.592741;47.1309033;7.240246399999999;49.92100143432617;1673371700.6332922;-25.399906158447266;43.406734466552734;-146.08653259277344
242;1673371700.784259;47.1309092;7.2402318;49.96600341796875;1673371700.822874;-30.679920196533203;39.063533782958984;-141.4438018798828
243;1673371700.9846709;47.130914999999995;7.2402166;50.0260009765625;1673371701.022269;-31.6491756439209;25.279367446899414;-130.34664916992188
244;1673371701.1754124;47.1309202;7.2402017;50.08000183105469;1673371701.220378;-26.39553451538086;3.724536418914795;-116.8060073852539
245;1673371701.3694358;47.1309247;7.2401883;50.125003814697266;1673371701.4100626;-20.79552459716797;-2.766907215118408;-109.09712982177734
246;1673371701.5729907;47.1309283;7.240177;50.1510009765625;1673371701.612695;-20.759811401367188;5.284536361694336;-99.63352966308594
247;1673371701.7715678;47.1309316;7.2401677;50.17000198364258;1673371701.8148408;-34.05331039428711;22.781700134277344;-90.59970092773438
248;1673371701.9610357;47.1309356;7.2401591;50.19900131225586;1673371702.0049772;-51.270362854003906;33.1706428527832;-83.394287109375
249;1673371702.1865647;47.1309417;7.2401506;50.19600296020508;1673371702.2283118;-52.80095672607422;20.38168716430664;-68.53359985351562
250;1673371702.3853943;47.13095;7.2401421;50.182003021240234;1673371702.4259639;-45.0212287902832;10.545801162719727;-57.97898483276367
251;1673371702.6009843;47.1309599;7.2401339;50.17000198364258;1673371702.6389637;-46.8734245300293;5.040055751800537;-53.4350471496582
252;1673371702.7913306;47.1309708;7.240126;50.14600372314453;1673371702.831754;-35.15572738647461;-4.322686672210693;-45.14561080932617
253;1673371702.990038;47.130981899999995;7.2401184999999995;49.83000183105469;1673371703.026027;-2.2582194805145264;-1.929751992225647;-41.46158981323242
254;1673371703.1766105;47.130993;7.2401116;49.14900207519531;1673371703.2181628;48.35769271850586;12.49759578704834;-31.920562744140625
255;1673371703.382228;47.1310042;7.240104799999999;48.06800079345703;1673371703.4178884;69.61628723144531;138.13467407226562;86.37677764892578
256;1673371703.5689318;47.1310155;7.240098;46.62600326538086;1673371703.6079853;35.41328430175781;169.41380310058594;109.46468353271484
257;1673371703.771133;47.1310266;7.2400917;44.82400131225586;1673371703.8080058;23.66273307800293;174.5522918701172;105.84485626220703
258;1673371703.968586;47.1310376;7.240085799999999;42.65400314331055;1673371704.0154188;38.24700927734375;173.66732788085938;102.9421157836914
259;1673371704.1598084;47.131048299999996;7.2400804;40.12600326538086;1673371704.2048006;80.39981842041016;137.19406127929688;70.22298431396484
260;1673371704.3599358;47.131059;7.240075099999999;37.23400115966797;1673371704.3998003;32.180728912353516;1.9209036827087402;-60.01594543457031
261;1673371704.5627787;47.1310697;7.2400695;33.941001892089844;1673371704.605887;-31.123769760131836;-7.0526909828186035;-55.8560791015625
262;1673371704.7670019;47.1310802;7.240064599999999;30.262001037597656;1673371704.8071628;-61.86515808105469;-23.15903663635254;-42.32377624511719
263;1673371704.96403;47.1310905;7.2400601;26.261001586914062;1673371705.0069795;-54.486087799072266;-19.16591453552246;-48.1872444152832
264;1673371705.1578786;47.1311007;7.240056099999999;21.93000030517578;1673371705.2017808;-6.596202373504639;-7.988460540771484;-59.21624755859375
265;1673371705.3663483;47.1311107;7.2400527;17.21500015258789;1673371705.4060614;59.63187026977539;1.4533110857009888;-62.586822509765625
266;1673371705.5589805;47.1311208;7.240049099999999;12.110000610351562;1673371705.6108916;80.8531494140625;173.1687774658203;102.70738983154297
267;1673371705.7708974;47.1311308;7.2400455;6.713000297546387;1673371705.8108892;88.62640380859375;-71.86078643798828;-144.84739685058594
268;1673371705.9597678;47.1311408;7.240041799999999;1.0180000066757202;1673371706.0048983;-0.028097903355956078;7.120316982269287;-73.54885864257812
269;1673371706.1608002;47.131144899999995;7.240045599999999;0.3440000116825104;1673371706.203723;-16.87347412109375;7.994741916656494;-70.96245574951172
270;1673371706.3705668;47.131146699999995;7.2400581;0.36900001764297485;1673371706.4147918;-9.985760688781738;9.815581321716309;-64.07160949707031
271;1673371706.5752678;47.1311482;7.2400725999999995;0.42600002884864807;1673371706.617881;-1.5043208599090576;4.639689922332764;-61.67038345336914
272;1673371706.778838;47.13115;7.240085199999999;0.4480000138282776;1673371706.8275015;-0.856956422328949;8.890823364257812;-61.71012878417969
273;1673371706.9869306;47.1311523;7.2400978;0.4780000150203705;1673371707.0329094;-0.8282874226570129;8.696574211120605;-61.65335464477539
274;1673371707.197509;47.1311543;7.2401075;0.4930000305175781;1673371707.23984;-0.9144700765609741;8.300457954406738;-61.41729736328125
275;1673371707.3877397;47.1311561;7.2401148;0.5010000467300415;1673371707.4268184;-1.101396918296814;7.952148914337158;-61.151336669921875
276;1673371707.576062;47.131157599999995;7.2401199;0.5080000162124634;1673371707.6196337;-1.2228386402130127;7.665505409240723;-60.96457290649414
277;1673371707.7820094;47.1311602;7.2401282;0.5049999952316284;1673371707.8289082;-1.1886320114135742;7.515718460083008;-60.95625305175781
278;1673371707.9831293;47.1311635;7.2401386;0.4910000264644623;1673371708.022759;-1.2199649810791016;7.437113285064697;-60.94526290893555
279;1673371708.1910653;47.131167399999995;7.24015;0.48600003123283386;1673371708.2318168;-1.2049543857574463;6.894781112670898;-60.8875617980957
280;1673371708.3695154;47.131171699999996;7.240162199999999;0.4710000157356262;1673371708.410767;-1.151157021522522;6.39549446105957;-60.74595642089844
281;1673371708.5650074;47.131176499999995;7.240174799999999;0.45500001311302185;1673371708.6096637;-1.1694281101226807;6.203757286071777;-60.63383483886719
282;1673371708.7570221;47.1311815;7.2401877;0.4400000274181366;1673371708.801972;-1.1225239038467407;5.717018127441406;-60.53743362426758
283;1673371708.9686997;47.131187;7.240200799999999;0.4190000295639038;1673371709.0189724;-1.0832428932189941;5.548424243927002;-60.36244201660156
284;1673371709.1839771;47.1311927;7.240214099999999;0.3960000276565552;1673371709.228867;-1.0750283002853394;5.443084239959717;-60.226158142089844
285;1673371709.3979387;47.1311988;7.2402276;0.37400001287460327;1673371709.43691;-1.0568430423736572;5.291191577911377;-60.076744079589844
286;1673371709.5879602;47.131205099999995;7.2402412;0.3530000150203705;1673371709.63137;-1.031518578529358;4.972164630889893;-59.999759674072266
287;1673371709.777861;47.131211799999996;7.240254999999999;0.3320000171661377;1673371709.8150315;-0.9854917526245117;4.7320332527160645;-59.87919998168945
288;1673371709.9768562;47.1312188;7.240268899999999;0.3100000023841858;1673371710.0229318;-0.9692738056182861;4.575685501098633;-59.74970626831055
289;1673371710.186009;47.1312261;7.240283;0.28600001335144043;1673371710.231822;-0.9624196887016296;4.507177352905273;-59.63239669799805
290;1673371710.3922062;47.131233699999996;7.2402973;0.2600000202655792;1673371710.4369378;-0.9316129088401794;4.493076324462891;-59.517433166503906
291;1673371710.5939171;47.131241599999996;7.2403116;0.23600001633167267;1673371710.6380136;-0.9174836874008179;4.503815650939941;-59.372249603271484
292;1673371710.7899892;47.1312497;7.2403261;0.2110000103712082;1673371710.8317885;-0.9973375797271729;4.501245975494385;-59.230072021484375
293;1673371710.992006;47.1312582;7.2403407;0.1900000125169754;1673371711.032269;-1.0259374380111694;4.528573036193848;-59.100101470947266
294;1673371711.202897;47.1312668;7.2403555;0.1680000126361847;1673371711.242568;-0.9916971921920776;4.576079845428467;-58.940330505371094
295;1673371711.4009693;47.1312758;7.2403704;0.14800000190734863;1673371711.4450765;-0.9541932940483093;4.600900173187256;-58.795692443847656
296;1673371711.6147144;47.131285;7.2403854;0.12800000607967377;1673371711.6629243;-0.9632948040962219;4.688264846801758;-58.66490936279297
297;1673371711.8240724;47.131294399999994;7.2404006;0.10900000482797623;1673371711.8620992;-0.9584527611732483;4.7676262855529785;-58.52988815307617
298;1673371712.0019224;47.1313041;7.2404158999999995;0.09200000762939453;1673371712.0440476;-0.9060332775115967;4.847270488739014;-58.374271392822266
299;1673371712.1828334;47.1313141;7.240431399999999;0.07000000029802322;1673371712.2248201;-0.9159590601921082;4.9136552810668945;-58.26826477050781
300;1673371712.3960612;47.1313235;7.2404456999999995;0.05100000277161598;1673371712.439944;-0.914472222328186;4.972463607788086;-58.15868377685547
301;;;;;1673371712.6390932;-0.8901116251945496;5.0534257888793945;-58.0313606262207
302;;;;;1673371712.8360105;-1.0014710426330566;4.7601237297058105;-57.928627014160156
303;;;;;1673371713.0179048;-0.9666564464569092;4.69833517074585;-57.81161880493164
304;;;;;1673371713.2477603;-0.9233939051628113;4.685575485229492;-57.672454833984375
305;;;;;1673371713.4458327;-0.9212347269058228;4.730908393859863;-57.58662796020508
306;;;;;1673371713.652529;-0.9016332626342773;4.80856466293335;-57.472923278808594
307;;;;;1673371713.8686862;-0.8698914647102356;4.8680338859558105;-57.363731384277344
