;pos_time;latitude;longitude;altitude;alt_time;pitch;roll;yaw
0;1673368986.7406912;47.1306424;7.2406201999999995;-0.023000001907348633;1673368986.8194814;0.02022596262395382;-0.37417975068092346;90.13607025146484
1;1673368986.9470205;47.1306424;7.2406201999999995;-0.02200000174343586;1673368987.0200765;0.22660794854164124;-0.20837609469890594;90.05039978027344
2;1673368987.1486905;47.1306424;7.2406201999999995;-0.024000000208616257;1673368987.2247584;0.041134823113679886;-0.2191552221775055;90.29046630859375
3;1673368987.3498998;47.1306424;7.2406201999999995;-0.02500000037252903;1673368987.430551;-0.032206278294324875;-0.2953283190727234;90.0853500366211
4;1673368987.5535936;47.1306423;7.2406201999999995;-0.02500000037252903;1673368987.6234045;-0.13517361879348755;-0.05654793977737427;90.13605499267578
5;1673368987.7609324;47.1306423;7.2406203;-0.026000000536441803;1673368987.8292692;-0.10797170549631119;-0.338901162147522;90.23812866210938
6;1673368987.962396;47.1306423;7.2406203;-0.027000000700354576;1673368988.0376678;-0.17735572159290314;-0.0938025712966919;90.24425506591797
7;1673368988.163675;47.1306423;7.2406203;-0.02800000086426735;1673368988.2380116;-0.1336897313594818;-0.2076874077320099;90.18962097167969
8;1673368988.365148;47.1306423;7.2406203;-0.03100000135600567;1673368988.4306054;0.048942964524030685;-0.09864781051874161;90.07838439941406
9;1673368988.5504444;47.1306424;7.2406201999999995;-0.03100000135600567;1673368988.6226509;0.005993637256324291;-0.30798205733299255;90.2809829711914
10;1673368988.7434254;47.1306424;7.2406201999999995;-0.030000001192092896;1673368988.8216448;-0.1313590109348297;-0.09932037442922592;90.10094451904297
11;1673368988.9402163;47.1306424;7.2406201999999995;-0.03100000135600567;1673368989.0214536;-0.10970017313957214;-0.2060292363166809;90.09004974365234
12;1673368989.1448436;47.1306424;7.2406201999999995;-0.03200000151991844;1673368989.2330909;-0.1137414425611496;-0.18762756884098053;90.21166229248047
13;1673368989.3666372;47.1306425;7.2406201999999995;-0.036000002175569534;1673368989.4417892;-0.28108954429626465;-0.10450471192598343;90.04839324951172
14;1673368989.555632;47.1306425;7.2406203;0.0010000000474974513;1673368989.6283934;-0.21531130373477936;-0.17370706796646118;89.98873138427734
15;1673368989.757478;47.1306425;7.2406201999999995;0.0;1673368989.8370757;-0.2640363276004791;-0.14021940529346466;89.97180938720703
16;1673368989.96097;47.1306425;7.2406201;0.0;1673368990.0323906;-0.15228937566280365;-0.16308949887752533;90.04004669189453
17;1673368990.1560104;47.1306425;7.2406201;0.0;1673368990.2253282;0.01859910413622856;-0.22326138615608215;89.99282836914062
18;1673368990.3597932;47.1306425;7.24062;-0.0020000000949949026;1673368990.4367437;-0.09631964564323425;-0.19968529045581818;90.02445220947266
19;1673368990.618885;47.1306425;7.2406198999999996;-0.0010000000474974513;1673368990.6938937;0.1402377188205719;-0.4716129004955292;90.19141387939453
20;1673368990.801454;47.1306425;7.240619799999999;-0.004000000189989805;1673368990.8698797;-0.03616342693567276;0.13049043715000153;89.9832534790039
21;1673368991.0017157;47.1306425;7.240619799999999;-0.006000000052154064;1673368991.0667787;0.02512395568192005;-0.28880277276039124;90.05802917480469
22;1673368991.1725464;47.1306425;7.240619799999999;0.0;1673368991.2407017;0.025144513696432114;-0.01865353435277939;89.95600128173828
23;1673368991.3516586;47.1306425;7.2406198999999996;0.0;1673368991.4226768;-0.06379575282335281;-0.04093710705637932;90.1273193359375
24;1673368991.5469205;47.1306425;7.2406198999999996;0.0010000000474974513;1673368991.6248271;0.0053487783297896385;-0.10001679509878159;90.19459533691406
25;1673368991.7611322;47.1306425;7.240619799999999;0.0020000000949949026;1673368991.8390672;0.14236536622047424;0.07181807607412338;90.1317138671875
26;1673368991.972928;47.1306424;7.240619799999999;0.0;1673368992.048728;-0.01330019161105156;-0.4440396726131439;90.16236114501953
27;1673368992.1807215;47.1306424;7.240619799999999;-0.0020000000949949026;1673368992.2537277;0.006208261474967003;-0.09424687176942825;89.98716735839844
28;1673368992.3616412;47.1306424;7.2406198999999996;0.0;1673368992.440074;-0.0021510424558073282;-0.10976331681013107;90.04782104492188
29;1673368992.5776207;47.1306423;7.2406198999999996;0.0010000000474974513;1673368992.6489089;0.09170831739902496;-0.19966262578964233;90.04985809326172
30;1673368992.7786603;47.1306423;7.2406198999999996;0.0;1673368992.8517926;-0.06279048323631287;-0.2878713309764862;90.05685424804688
31;1673368992.9796755;47.1306424;7.2406198999999996;-0.003000000026077032;1673368993.0626814;-0.22014056146144867;-0.2236190140247345;90.53264617919922
32;1673368993.1827593;47.1306424;7.2406198999999996;-0.007000000216066837;1673368993.245957;-0.8696257472038269;-0.32136309146881104;90.30703735351562
33;1673368993.367719;47.1306424;7.24062;-0.006000000052154064;1673368993.4435925;-1.7481497526168823;-0.9463312029838562;90.5705337524414
34;1673368993.5778835;47.1306424;7.2406201;0.009000000543892384;1673368993.660511;-0.5221703052520752;-2.1058568954467773;90.6252670288086
35;1673368993.790503;47.1306424;7.2406201999999995;0.04800000041723251;1673368993.8797135;-0.033295679837465286;2.6296684741973877;90.27543640136719
36;1673368994.009718;47.1306424;7.2406201999999995;0.11100000888109207;1673368994.0748088;1.247705340385437;-1.2753510475158691;90.16463470458984
37;1673368994.229628;47.1306424;7.2406201999999995;0.18300001323223114;1673368994.2948072;1.1513159275054932;-3.232915163040161;90.05062866210938
38;1673368994.4231772;47.1306424;7.2406201;0.26500001549720764;1673368994.4930217;0.7320201396942139;2.179107427597046;89.94087219238281
39;1673368994.6224797;47.1306424;7.2406201;0.367000013589859;1673368994.7011948;0.32550886273384094;0.7313416600227356;89.92678833007812
40;1673368994.8528724;47.1306425;7.2406201;0.48600003123283386;1673368994.914514;-0.5069803595542908;-2.8061654567718506;90.28541564941406
41;1673368995.0207417;47.130642699999996;7.2406201;0.6160000562667847;1673368995.082039;-0.11007202416658401;1.8043158054351807;90.22205352783203
42;1673368995.1899552;47.130642699999996;7.2406201;0.7600000500679016;1673368995.261333;0.21835622191429138;1.3766149282455444;90.01480865478516
43;1673368995.3751874;47.130642599999995;7.2406201;0.9180000424385071;1673368995.446185;0.31353509426116943;-3.003229856491089;90.02718353271484
44;1673368995.5690665;47.130642599999995;7.24062;1.0850000381469727;1673368995.6418726;0.4579218327999115;0.27859073877334595;89.83583068847656
45;1673368995.775121;47.1306425;7.24062;1.2660000324249268;1673368995.854927;0.5405350923538208;1.7876070737838745;89.77476501464844
46;1673368995.9742446;47.1306425;7.24062;1.4570000171661377;1673368996.041989;0.10828374326229095;-2.805100440979004;90.22032928466797
47;1673368996.1862464;47.130642599999995;7.2406201;1.6530001163482666;1673368996.2572534;-0.3112845718860626;-0.561568021774292;90.0573959350586
48;1673368996.3733375;47.130642699999996;7.2406201;1.8510000705718994;1673368996.440806;-0.15880540013313293;2.8031840324401855;89.75138092041016
49;1673368996.56057;47.130642699999996;7.2406201;2.0480000972747803;1673368996.6337738;0.10348594933748245;-2.012467861175537;89.83262634277344
50;1673368996.7463248;47.130642699999996;7.2406201;2.247000217437744;1673368996.82835;0.485837459564209;-1.352615475654602;89.82606506347656
51;1673368996.9652615;47.130642699999996;7.24062;2.443000078201294;1673368997.0418332;0.7268547415733337;2.8432860374450684;89.78089141845703
52;1673368997.1761878;47.130642699999996;7.24062;2.640000104904175;1673368997.268645;0.6133650541305542;-0.9245384931564331;90.05635833740234
53;1673368997.3889499;47.1306428;7.24062;2.8390002250671387;1673368997.4559069;0.10757201164960861;-1.1368682384490967;89.87260437011719
54;1673368997.5812137;47.1306428;7.24062;3.0400002002716064;1673368997.671813;-0.30428582429885864;2.8094403743743896;89.55934143066406
55;1673368997.8022304;47.130642699999996;7.24062;3.241000175476074;1673368997.8798742;-0.23771469295024872;-1.0411412715911865;89.85608673095703
56;1673368997.998592;47.130642599999995;7.24062;3.44100022315979;1673368998.0742936;0.44777196645736694;-2.908233642578125;90.06745910644531
57;1673368998.1969051;47.1306425;7.24062;3.63700008392334;1673368998.2727187;0.6535483002662659;1.9962146282196045;89.82792663574219
58;1673368998.4012868;47.1306424;7.24062;3.832000255584717;1673368998.4760854;0.5603485703468323;-0.2590712904930115;89.98516845703125
59;1673368998.596853;47.1306424;7.24062;4.025000095367432;1673368998.669814;0.4583641588687897;-2.635096788406372;89.9902572631836
60;1673368998.7983189;47.1306425;7.24062;4.2220001220703125;1673368998.8732033;0.13961829245090485;0.8835314512252808;89.815673828125
61;1673368998.9920495;47.1306424;7.24062;4.420000076293945;1673368999.0589318;-0.3885301649570465;1.07208251953125;89.78268432617188
62;1673368999.17776;47.1306423;7.2406198999999996;4.62600040435791;1673368999.243398;-0.06122016906738281;-3.273824453353882;90.0953140258789
63;1673368999.3539603;47.1306423;7.2406198999999996;4.836000442504883;1673368999.4234178;0.31322410702705383;0.31074953079223633;90.24742126464844
64;1673368999.5448513;47.1306423;7.240619799999999;5.0360002517700195;1673368999.6142058;0.634701669216156;2.1253716945648193;89.8436508178711
65;1673368999.7416842;47.1306424;7.2406197;5.241000175476074;1673368999.82326;0.3854605555534363;-2.390911340713501;89.84016418457031
66;1673368999.959506;47.130642599999995;7.2406196;5.450000286102295;1673369000.03888;-0.024259256199002266;-0.43720725178718567;89.7554702758789
67;1673369000.1673396;47.1306425;7.240619499999999;5.6570000648498535;1673369000.2405443;-0.7065894603729248;2.7437686920166016;89.64518737792969
68;1673369000.3607059;47.1306424;7.2406194;5.861000061035156;1673369000.431957;-0.6816022992134094;-1.5061452388763428;90.00977325439453
69;1673369000.5479712;47.1306424;7.2406194;6.066000461578369;1673369000.626061;-0.6492423415184021;-1.8144298791885376;89.8297348022461
70;1673369000.7647288;47.1306424;7.240619499999999;6.264000415802002;1673369000.8541996;-0.01880553737282753;2.7978429794311523;89.76610565185547
71;1673369000.9950905;47.1306424;7.240619499999999;6.467000484466553;1673369001.0659444;0.7828786373138428;-0.9696728587150574;89.82453918457031
72;1673369001.1887689;47.1306424;7.240619499999999;6.6710004806518555;1673369001.2632587;0.22103463113307953;-2.5138816833496094;89.93031311035156
73;1673369001.4135427;47.1306424;7.240619499999999;6.877000331878662;1673369001.48259;-0.07001959532499313;2.3728866577148438;89.81765747070312
74;1673369001.5994763;47.1306423;7.2406196;7.078000545501709;1673369001.6625245;-0.2803418040275574;-0.10539063066244125;89.75880432128906
75;1673369001.7770758;47.1306422;7.2406196;7.276000499725342;1673369001.8547263;-0.400021493434906;-3.385422706604004;90.11467742919922
76;1673369001.9760568;47.1306422;7.2406197;7.475000381469727;1673369002.0395405;-0.23309822380542755;0.7279564738273621;89.82373809814453
77;1673369002.1791713;47.1306423;7.240619799999999;7.674000263214111;1673369002.255877;0.17510096728801727;1.646659255027771;89.83784484863281
78;1673369002.366841;47.1306423;7.240619799999999;7.871000289916992;1673369002.442173;0.6649327278137207;-2.9273571968078613;89.85960388183594
79;1673369002.6028314;47.1306424;7.2406198999999996;8.068000793457031;1673369002.6742804;0.6062523722648621;0.21682193875312805;89.7369155883789
80;1673369002.8271627;47.1306424;7.2406198999999996;8.271000862121582;1673369002.889249;0.518456757068634;2.3253653049468994;89.81761932373047
81;1673369003.0149038;47.1306423;7.24062;8.47800064086914;1673369003.0867858;0.08439640700817108;-2.394153118133545;89.9312973022461
82;1673369003.2064748;47.1306423;7.24062;8.681000709533691;1673369003.285143;-0.5164579749107361;-1.5005966424942017;89.78374481201172
83;1673369003.3942442;47.1306423;7.24062;8.879000663757324;1673369003.4629855;-0.4115723669528961;2.554500102996826;89.49009704589844
84;1673369003.591224;47.1306423;7.24062;9.082000732421875;1673369003.6698506;-0.15183617174625397;-1.7067948579788208;89.91157531738281
85;1673369003.8193598;47.1306424;7.2406198999999996;9.282000541687012;1673369003.9035668;0.3431786894798279;-2.663645029067993;90.05732727050781
86;1673369004.0223997;47.1306424;7.2406198999999996;9.483000755310059;1673369004.091425;0.7162139415740967;2.410796642303467;89.66734313964844
87;1673369004.2033083;47.1306423;7.24062;9.6850004196167;1673369004.2752624;0.07434125244617462;-0.3135184049606323;89.98625183105469
88;1673369004.4006968;47.1306422;7.2406201;9.884000778198242;1673369004.487242;-0.07955337315797806;-2.9941539764404297;90.20819854736328
89;1673369004.6328938;47.1306423;7.2406201;10.082000732421875;1673369004.6977532;-0.23776859045028687;1.6238584518432617;89.74781799316406
90;1673369004.813465;47.1306424;7.2406201999999995;10.309000015258789;1673369004.8851118;-0.11144602298736572;1.2265381813049316;89.79236602783203
91;1673369005.0048296;47.1306424;7.2406201999999995;10.63900089263916;1673369005.077877;-0.33646076917648315;-2.772632122039795;90.0098648071289
92;1673369005.2364533;47.1306425;7.2406201999999995;11.011000633239746;1673369005.3272753;0.14351940155029297;0.43259376287460327;89.9190673828125
93;1673369005.4321225;47.1306424;7.2406201999999995;11.403000831604004;1673369005.517313;0.28419679403305054;1.9856667518615723;89.79632568359375
94;1673369005.6283126;47.1306423;7.2406201999999995;11.801000595092773;1673369005.6977372;0.4587900638580322;-2.6754589080810547;89.82649993896484
95;1673369005.8345408;47.1306423;7.2406201999999995;12.199000358581543;1673369005.9024642;0.19598747789859772;-0.6149381399154663;89.83832550048828
96;1673369006.032922;47.1306423;7.2406201999999995;12.597000122070312;1673369006.1088214;-0.2669607102870941;2.4621775150299072;89.55801391601562
97;1673369006.2225888;47.1306423;7.2406201999999995;13.00200080871582;1673369006.3129215;-0.3021969199180603;-1.806748628616333;90.09236907958984
98;1673369006.423798;47.1306424;7.2406201999999995;13.408000946044922;1673369006.4907606;-0.5607101321220398;-1.2776851654052734;90.0125503540039
99;1673369006.6084955;47.1306424;7.2406201999999995;13.815000534057617;1673369006.6756384;-0.042259663343429565;2.4366869926452637;89.79086303710938
100;1673369006.8041832;47.1306422;7.2406203;14.22800064086914;1673369006.8769395;0.20715729892253876;-1.2365213632583618;89.82350158691406
101;1673369006.999562;47.1306422;7.2406203;14.63900089263916;1673369007.067467;0.27796095609664917;-2.586178779602051;89.92564392089844
102;1673369007.1774576;47.1306422;7.2406203;15.04800033569336;1673369007.2448053;0.21791507303714752;1.8833998441696167;89.7711410522461
103;1673369007.366918;47.1306423;7.2406203;15.450000762939453;1673369007.451867;0.022282831370830536;0.2350175976753235;89.83776092529297
104;1673369007.581927;47.1306424;7.2406203;15.849000930786133;1673369007.6595712;-0.1768733561038971;-2.403291702270508;90.13644409179688
105;1673369007.7929757;47.1306424;7.2406204;16.255001068115234;1673369007.8677087;-0.36012402176856995;1.3776997327804565;89.69535064697266
106;1673369007.988213;47.1306423;7.2406204;16.667001724243164;1673369008.065985;-0.2610979378223419;1.843462347984314;89.64157104492188
107;1673369008.2035902;47.1306423;7.2406204;17.079999923706055;1673369008.253494;0.01652628183364868;-3.044614553451538;89.93253326416016
108;1673369008.3847377;47.1306423;7.2406204;17.494001388549805;1673369008.4615068;0.23929032683372498;0.2379024624824524;89.9927978515625
109;1673369008.5887196;47.1306423;7.2406204;17.904001235961914;1673369008.6521728;0.17475774884223938;1.9094607830047607;89.8121109008789
110;1673369008.7737055;47.1306424;7.2406204;18.317001342773438;1673369008.8430226;0.4525785446166992;-1.9075024127960205;89.81289672851562
111;1673369008.9531507;47.1306425;7.2406204;18.733001708984375;1673369009.028487;0.28304243087768555;-1.0873759984970093;89.87635803222656
112;1673369009.1690311;47.1306425;7.2406204999999995;19.143001556396484;1673369009.2501526;0.28684449195861816;2.613036632537842;89.74011993408203
113;1673369009.3733644;47.1306424;7.2406206;19.552000045776367;1673369009.4428625;0.10691562294960022;-0.7359078526496887;89.96882629394531
114;1673369009.5647836;47.1306424;7.2406206;19.964000701904297;1673369009.6376681;0.163881316781044;-2.4165704250335693;89.89656066894531
115;1673369009.7644374;47.1306425;7.2406204999999995;20.376001358032227;1673369009.8369806;0.11600229889154434;1.9532570838928223;89.81281280517578
116;1673369009.962421;47.1306425;7.2406204999999995;20.7810001373291;1673369010.033721;0.20439188182353973;0.6955313086509705;89.75330352783203
117;1673369010.1677194;47.130642599999995;7.2406204;21.189001083374023;1673369010.242044;0.29007431864738464;-2.5460829734802246;89.9763412475586
118;1673369010.3730319;47.130642599999995;7.2406204;21.59800148010254;1673369010.4463809;0.5170927047729492;1.0739920139312744;89.77713012695312
119;1673369010.5742104;47.1306425;7.2406203;22.011001586914062;1673369010.6495526;0.2904738187789917;1.4446128606796265;89.82984161376953
120;1673369010.799349;47.1306425;7.2406203;22.422000885009766;1673369010.8598635;0.268851101398468;-2.9382388591766357;90.02129364013672
121;1673369010.9822323;47.1306425;7.2406203;22.82900047302246;1673369011.0535522;-0.17358802258968353;0.14472271502017975;89.7192153930664
122;1673369011.2070277;47.1306425;7.2406201999999995;23.22800064086914;1673369011.2814806;-0.24710004031658173;2.095935106277466;89.73900604248047
123;1673369011.4022496;47.130642599999995;7.2406201;23.62900161743164;1673369011.4681818;-0.394651859998703;-2.0129761695861816;90.02395629882812
124;1673369011.6027315;47.130642699999996;7.24062;24.027000427246094;1673369011.6844873;-0.38102656602859497;-0.5351719260215759;90.03070831298828
125;1673369011.805756;47.130642699999996;7.24062;24.429000854492188;1673369011.879707;-0.29476696252822876;2.639984607696533;89.60379791259766
126;1673369012.0013344;47.130642599999995;7.2406198999999996;24.8330020904541;1673369012.077105;-0.03809129819273949;-0.6465296745300293;89.84465026855469
127;1673369012.1960468;47.130642599999995;7.2406198999999996;25.235000610351562;1673369012.262622;0.18088260293006897;-2.059170961380005;89.93477630615234
128;1673369012.382197;47.130642699999996;7.2406198999999996;25.634000778198242;1673369012.4576244;0.08482201397418976;2.058906316757202;89.7602767944336
129;1673369012.5772917;47.130642699999996;7.2406198999999996;26.025001525878906;1673369012.6525855;-0.008481440134346485;0.28757351636886597;89.91903686523438
130;1673369012.7810316;47.1306428;7.24062;26.417001724243164;1673369012.8523366;-0.15911328792572021;-2.042511224746704;90.0165023803711
131;1673369012.9716396;47.1306428;7.24062;26.81300163269043;1673369013.0400085;-0.49006444215774536;2.0240166187286377;89.73654174804688
132;1673369013.1712773;47.130642699999996;7.2406198999999996;27.2080020904541;1673369013.240556;-0.3224168121814728;0.8891491293907166;89.64419555664062
133;1673369013.3651006;47.130642599999995;7.2406198999999996;27.60700225830078;1673369013.443919;-0.20658665895462036;-2.6298553943634033;90.0250015258789
134;1673369013.5670242;47.130642599999995;7.2406198999999996;28.006000518798828;1673369013.6353862;0.19036522507667542;0.8284612894058228;89.88658905029297
135;1673369013.7671118;47.130642599999995;7.2406198999999996;28.399002075195312;1673369013.8463418;0.31129857897758484;2.265322685241699;89.8907241821289
136;1673369013.9781153;47.130642599999995;7.24062;28.792001724243164;1673369014.052474;0.3347074091434479;-2.498595952987671;89.8709716796875
137;1673369014.1806948;47.130642599999995;7.24062;29.18600082397461;1673369014.2533417;0.2770264148712158;-0.5414979457855225;89.83406829833984
138;1673369014.3867095;47.130642599999995;7.24062;29.580001831054688;1673369014.4609938;-0.09582151472568512;2.3554539680480957;89.55671691894531
139;1673369014.599886;47.1306424;7.24062;29.974000930786133;1673369014.6810608;-0.18524886667728424;-1.7286173105239868;89.9644775390625
140;1673369014.7993007;47.1306424;7.24062;30.371002197265625;1673369014.8638504;-0.2290046215057373;-1.3842049837112427;89.98035430908203
141;1673369014.9770153;47.1306425;7.24062;30.766000747680664;1673369015.0483556;-0.059439945966005325;2.3873541355133057;89.79647064208984
142;1673369015.160546;47.1306425;7.24062;31.158000946044922;1673369015.233068;0.4974457919597626;-0.38885778188705444;89.74807739257812
143;1673369015.3566566;47.130642599999995;7.24062;31.549001693725586;1673369015.4286826;0.1828947216272354;-1.904016137123108;89.91300201416016
144;1673369015.562354;47.130642599999995;7.24062;31.94300079345703;1673369015.6367345;0.3596983551979065;1.838037371635437;89.83677673339844
145;1673369015.7599578;47.1306425;7.24062;32.34300231933594;1673369015.8351865;0.24493511021137238;1.4216011762619019;89.91422271728516
146;1673369015.9559133;47.1306424;7.24062;32.742000579833984;1673369016.0336113;0.08205556869506836;-2.7742645740509033;90.04536437988281
147;1673369016.167967;47.1306424;7.2406201;33.14200210571289;1673369016.238137;-0.3368680477142334;0.47664153575897217;89.78474426269531
148;1673369016.3717825;47.1306424;7.2406201;33.53600311279297;1673369016.4470987;-0.33431166410446167;2.3068244457244873;89.60706329345703
149;1673369016.5742254;47.1306424;7.24062;33.935001373291016;1673369016.6549857;-0.4371037781238556;-2.4990665912628174;89.92951965332031
150;1673369016.7823975;47.1306425;7.24062;34.336002349853516;1673369016.8529;-0.1343199908733368;-1.145939826965332;90.03849792480469
151;1673369016.9757755;47.1306425;7.24062;34.736000061035156;1673369017.0549104;0.1121896505355835;2.425811290740967;89.67823791503906
152;1673369017.1986496;47.1306424;7.24062;35.137001037597656;1673369017.2948806;0.3366524577140808;-1.5084030628204346;89.9071273803711
153;1673369017.4223955;47.1306424;7.2406201;35.53700256347656;1673369017.49151;0.11396786570549011;-2.0773279666900635;89.82735443115234
154;1673369017.6063309;47.1306425;7.2406201;35.93400192260742;1673369017.6775358;-0.2784300148487091;2.567539930343628;89.76287078857422
155;1673369017.7961955;47.1306425;7.2406201;36.32500076293945;1673369017.86476;-0.22285807132720947;0.8697201013565063;89.87137603759766
156;1673369017.997746;47.130642599999995;7.2406201;36.71900177001953;1673369018.074302;-0.5069008469581604;-2.4245927333831787;90.17086029052734
157;1673369018.198203;47.130642699999996;7.2406201;37.117000579833984;1673369018.2745292;-0.5909457206726074;1.555275559425354;89.71709442138672
158;1673369018.4196572;47.130642699999996;7.2406201;37.5150032043457;1673369018.485802;-0.1877680867910385;2.090214729309082;89.69635772705078
159;1673369018.6146588;47.130642599999995;7.2406201999999995;37.9170036315918;1673369018.6938298;0.037401583045721054;-2.818540573120117;89.82799530029297
160;1673369018.8113117;47.130642699999996;7.2406201999999995;38.31500244140625;1673369018.9066043;0.1637853980064392;-0.1996268928050995;89.8594970703125
161;1673369019.019452;47.130642699999996;7.2406201999999995;38.70600128173828;1673369019.0962067;0.13394972681999207;2.459433078765869;89.81887817382812
162;1673369019.2110798;47.130642699999996;7.2406203;39.10000228881836;1673369019.2859552;0.09171688556671143;-1.798659324645996;90.00894165039062
163;1673369019.406659;47.1306428;7.2406203;39.49500274658203;1673369019.477281;0.0803835317492485;-0.9136766791343689;89.93816375732422
164;1673369019.5947173;47.130642699999996;7.2406204;39.89200210571289;1673369019.6688862;-0.24928195774555206;2.7075302600860596;89.68856811523438
165;1673369019.7986007;47.130642599999995;7.2406204999999995;40.288002014160156;1673369019.8670263;0.009902626276016235;-0.7836220860481262;89.92129516601562
166;1673369020.0078914;47.130642599999995;7.2406204999999995;40.68800354003906;1673369020.0798523;0.02251582406461239;-2.2096259593963623;90.10212707519531
167;1673369020.203589;47.130642599999995;7.2406204999999995;41.0880012512207;1673369020.2819939;0.42684251070022583;2.222113609313965;90.03448486328125
168;1673369020.4222255;47.130642599999995;7.2406204;41.483001708984375;1673369020.5132244;0.4004441201686859;0.499570369720459;89.75424194335938
169;1673369020.6281257;47.130642699999996;7.2406204;41.884002685546875;1673369020.6991792;0.41460296511650085;-2.1706268787384033;89.877197265625
170;1673369020.8152637;47.130642699999996;7.2406204;42.28700256347656;1673369020.8809626;0.3528938293457031;0.7312142252922058;89.70967102050781
171;1673369021.056587;47.130642599999995;7.2406204;42.69000244140625;1673369021.1325014;0.2815878689289093;1.9413379430770874;89.8203353881836
172;1673369021.2345822;47.1306425;7.2406204;43.09300231933594;1673369021.2976632;0.08676829934120178;-2.5154242515563965;89.94361114501953
173;1673369021.4135723;47.1306425;7.2406204;43.49400329589844;1673369021.4826252;-0.03242857754230499;-0.3863808214664459;89.91588592529297
174;1673369021.601015;47.1306425;7.2406204;43.88800048828125;1673369021.6684818;-0.0710444450378418;2.195068359375;89.62320709228516
175;1673369021.7953973;47.1306425;7.2406203;44.28300094604492;1673369021.8773868;-0.17594802379608154;-1.9121999740600586;89.92341613769531
176;1673369022.04586;47.130642599999995;7.2406201999999995;44.677001953125;1673369022.1152997;-0.33754679560661316;-1.412827491760254;89.948974609375
177;1673369022.2652636;47.130642599999995;7.2406201;45.07200241088867;1673369022.34369;-0.11091656982898712;2.7178947925567627;89.76154327392578
178;1673369022.5151286;47.1306425;7.24062;45.47200393676758;1673369022.5678878;-0.016947831958532333;-0.32453468441963196;89.81485748291016
179;1673369022.6643019;47.1306425;7.2406198999999996;45.875003814697266;1673369022.722055;-0.15163153409957886;-2.0976762771606445;89.8808364868164
180;1673369022.8256972;47.130642599999995;7.2406198999999996;46.2760009765625;1673369022.8916492;-0.4012480080127716;1.9959437847137451;89.73885345458984
181;1673369023.0073938;47.130642599999995;7.24062;46.67100143432617;1673369023.0757477;-0.6296807527542114;1.0788863897323608;89.86644744873047
182;1673369023.1947236;47.130642699999996;7.24062;47.07100296020508;1673369023.2689931;-0.6097972989082336;-2.2887866497039795;90.0743408203125
183;1673369023.396124;47.130642699999996;7.24062;47.47100067138672;1673369023.4719112;-0.5485039949417114;1.139531135559082;89.78372955322266
184;1673369023.583787;47.130642599999995;7.24062;47.868003845214844;1673369023.6859033;-0.10822227597236633;1.211543321609497;89.82467651367188
185;1673369023.8259566;47.1306425;7.24062;48.2390022277832;1673369023.8997378;-0.19753627479076385;-2.879143476486206;89.64005279541016
186;1673369024.0359457;47.1306425;7.2406198999999996;48.557003021240234;1673369024.106798;-0.2482515573501587;0.6913857460021973;89.78028869628906
187;1673369024.2360559;47.1306425;7.24062;48.820003509521484;1673369024.3065681;-0.2466472089290619;2.3865151405334473;89.8836441040039
188;1673369024.4177105;47.1306425;7.24062;49.0420036315918;1673369024.4911747;-0.2754858434200287;-2.8006980419158936;90.08748626708984
189;1673369024.614822;47.130642599999995;7.2406201;49.22900390625;1673369024.6813433;-0.09573320299386978;0.03291938453912735;89.79593658447266
190;1673369024.7859278;47.130642599999995;7.2406201;49.387001037597656;1673369024.8493674;16.224681854248047;0.5977587103843689;86.9491195678711
191;1673369024.9697013;47.1306425;7.240619199999999;49.525001525878906;1673369025.0391004;31.356443405151367;-20.322654724121094;74.04768371582031
192;1673369025.1924572;47.1306429;7.2406160999999996;49.6400032043457;1673369025.270765;27.65306854248047;-28.501636505126953;65.62904357910156
193;1673369025.4138935;47.1306444;7.240610299999999;49.73100280761719;1673369025.4841862;12.277422904968262;-33.239501953125;56.744354248046875
194;1673369025.6404853;47.130646899999995;7.2406022;49.80500411987305;1673369025.7041705;0.8301565051078796;-29.699819564819336;45.98355484008789
195;1673369025.8162367;47.1306503;7.2405928;49.86900329589844;1673369025.9228883;-8.55467700958252;-38.74627685546875;35.266868591308594
196;1673369026.0397036;47.130654899999996;7.240582099999999;49.932003021240234;1673369026.1098514;-23.928483963012695;-45.06053924560547;25.112995147705078
197;1673369026.219595;47.1306611;7.2405697;49.993003845214844;1673369026.2846682;-39.665794372558594;-45.401268005371094;14.780523300170898
198;1673369026.403567;47.1306696;7.2405548;50.047000885009766;1673369026.470588;-49.22193145751953;-41.94686508178711;2.6763193607330322
199;1673369026.60208;47.130680299999995;7.2405368999999995;50.0880012512207;1673369026.6774037;-55.43856430053711;-35.10572052001953;-9.836179733276367
200;1673369026.7966177;47.1306927;7.2405159;50.099002838134766;1673369026.8610806;-55.36179733276367;-24.530784606933594;-19.487350463867188
201;1673369026.9848948;47.130706499999995;7.240492499999999;50.07600402832031;1673369027.06119;-53.79254913330078;-17.036470413208008;-25.924894332885742
202;1673369027.1867847;47.1307213;7.240467499999999;50.031002044677734;1673369027.2723567;-53.102359771728516;-12.012163162231445;-32.36674118041992
203;1673369027.419213;47.130736999999996;7.2404413;49.97500228881836;1673369027.4940848;-51.224666595458984;-7.789412021636963;-38.722503662109375
204;1673369027.6265187;47.1307532;7.2404142;49.915000915527344;1673369027.6964102;-48.49285125732422;-3.4638049602508545;-45.198707580566406
205;1673369027.798708;47.1307696;7.240386699999999;49.855003356933594;1673369027.8670847;-45.79554748535156;2.9923930168151855;-51.53706359863281
206;1673369027.9800096;47.130786199999996;7.2403588999999995;49.80800247192383;1673369028.0588262;-45.63411331176758;6.707640647888184;-51.49134063720703
207;1673369028.1882792;47.1308029;7.2403314;49.78000259399414;1673369028.2650197;-46.72186279296875;5.998976230621338;-48.6886100769043
208;1673369028.3867705;47.13082;7.2403042;49.76700210571289;1673369028.4616036;-47.64907455444336;4.162100791931152;-46.88616943359375
209;1673369028.585782;47.1308375;7.240277099999999;49.7650032043457;1673369028.66115;-48.41170120239258;2.6021363735198975;-46.02601623535156
210;1673369028.7941473;47.130855399999994;7.24025;49.768001556396484;1673369028.8652925;-48.35062026977539;1.358399510383606;-45.611167907714844
211;1673369028.9752562;47.1308734;7.2402229;49.77700424194336;1673369029.0530608;-48.73969650268555;0.4619181454181671;-45.43205261230469
212;1673369029.197866;47.1308916;7.240195699999999;49.790000915527344;1673369029.2734237;-48.86820983886719;-0.07690533995628357;-45.4487419128418
213;1673369029.3931258;47.1309099;7.2401684;49.801002502441406;1673369029.4752579;-48.40602493286133;-0.1724429577589035;-45.64195251464844
214;1673369029.6296868;47.1309283;7.2401409999999995;49.81300354003906;1673369029.6962633;-48.13003158569336;-0.28707554936408997;-45.85607147216797
215;1673369029.8169181;47.1309468;7.2401135;49.82600402832031;1673369029.892201;-47.86802291870117;-0.2359578162431717;-46.05803680419922
216;1673369030.0212207;47.1309652;7.2400858999999995;49.79900360107422;1673369030.097069;-33.0893669128418;-0.7650051712989807;-46.15675735473633
217;1673369030.2262268;47.1309833;7.2400587;49.48600387573242;1673369030.297051;5.776444911956787;-2.046992540359497;-46.82719421386719
218;1673369030.406065;47.1310012;7.2400319;48.80400085449219;1673369030.483975;65.913818359375;-8.458769798278809;-52.531986236572266
219;1673369030.6155355;47.131018999999995;7.240005099999999;47.7130012512207;1673369030.6889327;55.208824157714844;-175.0944366455078;140.508056640625
220;1673369030.821933;47.1310368;7.2399784;46.2400016784668;1673369030.900868;21.038742065429688;-179.15966796875;133.90139770507812
221;1673369031.0570512;47.1310544;7.239952;44.41200256347656;1673369031.1132188;15.447964668273926;-178.44618225097656;131.15106201171875
222;1673369031.2149713;47.1310717;7.239926199999999;42.211002349853516;1673369031.2762153;38.8382568359375;-175.94024658203125;134.01902770996094
223;1673369031.3830006;47.1310886;7.2399008;39.64900207519531;1673369031.4562035;83.64667510986328;-59.30506134033203;-109.27181243896484
224;1673369031.589046;47.1311055;7.2398754;36.742000579833984;1673369031.6652226;12.409504890441895;-2.222877025604248;-54.13187789916992
225;1673369031.7840502;47.131122399999995;7.23985;33.43400192260742;1673369031.8529465;-47.6185302734375;1.2025492191314697;-50.00978469848633
226;1673369031.9671297;47.131138899999996;7.239825199999999;29.733001708984375;1673369032.0593047;-67.56846618652344;-2.977379083633423;-43.594181060791016
227;1673369032.1881988;47.131155199999995;7.239800799999999;25.711000442504883;1673369032.253974;-45.907772064208984;-2.697042465209961;-42.07387924194336
228;1673369032.3740788;47.131171099999996;7.2397768;21.363000869750977;1673369032.4552965;16.621967315673828;-0.60700523853302;-40.91870880126953
229;1673369032.597153;47.131186799999995;7.239753299999999;16.617000579833984;1673369032.6762478;83.33843994140625;38.049747467041016;-3.7590320110321045
230;1673369032.7971013;47.131202599999995;7.239729499999999;11.518000602722168;1673369032.8752415;67.09644317626953;163.12017822265625;119.84547424316406
231;1673369032.992171;47.131218399999995;7.239706;6.123000144958496;1673369033.0711668;80.1497573852539;68.16809844970703;26.034038543701172
232;1673369033.1930094;47.131234;7.2396825;0.4320000112056732;1673369033.2662253;-15.105000495910645;-1.3635427951812744;-38.73312759399414
233;1673369033.3839855;47.131234799999994;7.2396804999999995;0.6960000395774841;1673369033.464099;-22.861778259277344;0.30885905027389526;-42.136573791503906
234;1673369033.5922315;47.1312345;7.239683299999999;0.9390000700950623;1673369033.6709876;-25.428813934326172;-0.07385726273059845;-42.98939895629883
235;1673369033.799363;47.1312347;7.2396854;1.1380000114440918;1673369033.8829749;-4.62932825088501;-0.9477133750915527;-42.90140151977539
236;1673369034.014244;47.1312352;7.239686;1.2710000276565552;1673369034.086545;-3.7950778007507324;-0.9133397936820984;-42.27600860595703
237;1673369034.201045;47.1312356;7.2396854;1.3640000820159912;1673369034.2743719;-3.2276954650878906;-1.5845750570297241;-42.26010513305664
238;1673369034.3892026;47.131236;7.2396845999999995;1.4260001182556152;1673369034.4583874;-3.1745293140411377;-1.5647789239883423;-42.23508834838867
239;1673369034.606258;47.1312362;7.239684;1.5420000553131104;1673369034.7120183;-3.125976800918579;-1.487632393836975;-42.20004653930664
240;1673369034.8420198;47.1312364;7.2396831;1.6010000705718994;1673369034.943178;-3.1812849044799805;-1.504926323890686;-42.17991638183594
241;1673369035.049785;47.131236799999996;7.2396822;1.624000072479248;1673369035.118996;-3.135126829147339;-1.4667437076568604;-42.151527404785156
242;1673369035.2408042;47.1312371;7.2396812;1.6250001192092896;1673369035.3133209;-3.0475285053253174;-1.4775983095169067;-42.10992431640625
243;1673369035.4551535;47.131237399999996;7.2396803;1.6160000562667847;1673369035.5239842;-3.015026807785034;-1.4173932075500488;-42.113861083984375
244;1673369035.6429772;47.1312377;7.2396796;1.599000096321106;1673369035.7070916;-3.0008387565612793;-1.3824483156204224;-42.070186614990234
245;1673369035.830166;47.131237899999995;7.2396788;1.5770000219345093;1673369035.9130723;-2.9302475452423096;-1.313129186630249;-42.016605377197266
246;1673369036.0286076;47.1312382;7.239677899999999;1.6110000610351562;1673369036.0990946;-2.883812189102173;-1.3087025880813599;-41.981666564941406
247;1673369036.2122836;47.1312384;7.239677299999999;1.6130000352859497;1673369036.2880871;-2.7964987754821777;-1.2159615755081177;-41.93437576293945
248;1673369036.4039707;47.131238499999995;7.2396768;1.5950000286102295;1673369036.4684846;-2.7021384239196777;-1.181574821472168;-41.881309509277344
249;1673369036.578149;47.1312387;7.2396764;1.5660001039505005;1673369036.6497395;-2.6177403926849365;-1.115235447883606;-41.83687973022461
250;1673369036.7814233;47.1312388;7.2396761;1.5360000133514404;1673369036.8649688;-2.5540449619293213;-1.092287540435791;-41.771766662597656
251;1673369036.9980145;47.1312389;7.2396758;1.499000072479248;1673369037.0698164;-2.529968738555908;-1.0182995796203613;-41.7441520690918
252;1673369037.1789591;47.131239199999996;7.2396752;1.50600004196167;1673369037.2531378;-2.505760431289673;-0.9979209899902344;-41.691246032714844
253;1673369037.3754818;47.1312393;7.2396747999999995;1.4920001029968262;1673369037.4497395;-2.406237840652466;-0.9219989776611328;-41.6462516784668
254;1673369037.575694;47.1312394;7.239674699999999;1.4640001058578491;1673369037.6568708;-2.2816808223724365;-0.905044436454773;-41.58047866821289
255;1673369037.7895036;47.1312394;7.239674699999999;1.4320000410079956;1673369037.8629174;-2.2797694206237793;-0.8333237767219543;-41.528079986572266
256;1673369038.0050993;47.1312394;7.239674699999999;1.3980001211166382;1673369038.079558;-2.257197141647339;-0.8041601181030273;-41.5089225769043
257;1673369038.2074156;47.1312394;7.239674699999999;1.3630000352859497;1673369038.2759798;-2.167442560195923;-0.7426611185073853;-41.47438430786133
258;1673369038.389043;47.1312393;7.2396747999999995;1.3280000686645508;1673369038.4648082;-2.222642183303833;-0.7373525500297546;-41.46142578125
259;1673369038.5912995;47.1312395;7.239674399999999;1.3160001039505005;1673369038.6611648;-2.125497341156006;-0.7153387665748596;-41.46975326538086
260;1673369038.7836628;47.1312396;7.2396743;1.2920000553131104;1673369038.858943;-2.057121753692627;-0.6544021964073181;-41.47382736206055
261;1673369038.9751372;47.1312395;7.2396743;1.25600004196167;1673369039.0512538;-2.07366943359375;-0.5801977515220642;-41.46620559692383
262;1673369039.1736062;47.1312395;7.239674399999999;1.215000033378601;1673369039.2508707;-2.0769760608673096;-0.5287526249885559;-41.49345397949219
263;1673369039.3839843;47.1312395;7.239674399999999;1.1730000972747803;1673369039.4627485;-2.005030632019043;-0.46814262866973877;-41.51906204223633
264;1673369039.5853446;47.1312395;7.2396745;1.1340000629425049;1673369039.65958;-1.9672362804412842;-0.5270621180534363;-41.53623580932617
265;1673369039.8079603;47.1312396;7.2396742;1.1040000915527344;1673369039.8836432;-1.9743117094039917;-0.536785900592804;-41.58478927612305
266;1673369040.0130575;47.1312396;7.239674099999999;1.0700000524520874;1673369040.0848837;-1.9973524808883667;-0.6302235126495361;-41.56976318359375
267;1673369040.2035716;47.1312396;7.239674099999999;1.0520000457763672;1673369040.2750807;-1.9013382196426392;-0.6044546961784363;-41.59831619262695
268;1673369040.4052083;47.1312396;7.239674099999999;-0.005000000353902578;;;;
