;pos_time;latitude;longitude;altitude;alt_time;pitch;roll;yaw
0;1673371735.5351615;47.1306425;7.24062;-0.04700000211596489;1673371735.5820432;-0.06710987538099289;0.23731611669063568;89.93345642089844
1;1673371735.729764;47.1306424;7.24062;-0.04500000178813934;1673371735.7687733;0.11982784420251846;0.09773463755846024;90.08477783203125
2;1673371735.9335625;47.1306424;7.24062;-0.04400000348687172;1673371735.982412;0.10089212656021118;0.09701366722583771;90.00511169433594
3;1673371736.1528356;47.1306424;7.2406201;-0.04500000178813934;1673371736.1958013;0.044368501752614975;0.18765844404697418;90.03510284423828
4;1673371736.3538835;47.1306423;7.2406201;-0.0430000014603138;1673371736.3948748;-0.17210045456886292;0.0837961956858635;90.12496185302734
5;1673371736.552132;47.1306423;7.2406201;-0.04400000348687172;1673371736.5962243;-0.25970956683158875;0.20869944989681244;89.96304321289062
6;1673371736.7502813;47.1306423;7.2406201;-0.04800000041723251;1673371736.7951818;-0.2376188486814499;-0.05340553820133209;90.18492889404297
7;1673371736.982681;47.1306423;7.24062;-0.049000002443790436;1673371737.018808;-0.09525227546691895;0.1703369915485382;90.04790496826172
8;1673371737.1528926;47.1306424;7.24062;-0.049000002443790436;1673371737.192954;0.09678754955530167;0.10535892099142075;90.07089233398438
9;1673371737.3316813;47.1306424;7.24062;-0.046000003814697266;1673371737.37268;0.08003052324056625;-0.058498118072748184;90.20404815673828
10;1673371737.534091;47.1306424;7.24062;-0.04400000348687172;1673371737.5741594;-0.19190776348114014;0.02699856087565422;90.18146514892578
11;1673371737.7296507;47.1306424;7.24062;-0.04200000315904617;1673371737.7784512;-0.10038509964942932;0.21973919868469238;89.97874450683594
12;1673371737.9238782;47.1306424;7.24062;-0.04200000315904617;1673371737.960966;-0.26439353823661804;-0.10352416336536407;90.23780822753906
13;1673371738.1251516;47.1306425;7.2406198999999996;-0.04700000211596489;1673371738.1661353;-0.10543704032897949;0.06774771958589554;90.21185302734375
14;1673371738.3170853;47.1306425;7.2406198999999996;-0.0010000000474974513;1673371738.3594666;-0.23552395403385162;-0.06938397139310837;90.12902069091797
15;1673371738.5197563;47.130642599999995;7.240619799999999;-0.003000000026077032;1673371738.5617306;0.03353177756071091;-0.08345019072294235;90.11895751953125
16;1673371738.7156117;47.130642599999995;7.240619799999999;-0.004000000189989805;1673371738.7621765;0.023484276607632637;-0.18442241847515106;90.04116821289062
17;1673371738.9254239;47.130642599999995;7.240619799999999;-0.0020000000949949026;1673371738.9654377;-0.2604494094848633;-0.038139909505844116;90.13302612304688
18;1673371739.1109931;47.130642599999995;7.240619799999999;-0.0020000000949949026;1673371739.14927;-0.13056762516498566;-0.11158513277769089;90.21578216552734
19;1673371739.3111758;47.130642599999995;7.2406198999999996;-0.005000000353902578;1673371739.354835;-0.26817965507507324;0.12944775819778442;90.18439483642578
20;1673371739.5262797;47.130642599999995;7.2406198999999996;-0.005000000353902578;1673371739.5748773;-0.7661035656929016;-0.048047345131635666;90.16571807861328
21;1673371739.7509658;47.130642599999995;7.2406198999999996;-0.007000000216066837;1673371739.7970686;-0.6080266237258911;-0.010724373161792755;90.33682250976562
22;1673371739.945697;47.1306425;7.2406198999999996;-0.0020000000949949026;1673371739.9902792;-0.6572157144546509;-0.8174823522567749;90.31782531738281
23;1673371740.1552076;47.1306425;7.2406198999999996;0.0;1673371740.215841;-0.8809682726860046;-0.24296803772449493;90.17976379394531
24;1673371740.3608963;47.1306425;7.2406198999999996;0.0010000000474974513;1673371740.4098766;-0.8249772191047668;-0.252621054649353;90.19298553466797
25;1673371740.560967;47.1306425;7.2406198999999996;0.0;1673371740.6049626;-0.8406792283058167;0.032356809824705124;90.19680786132812
26;1673371740.7598789;47.1306425;7.240619799999999;-0.0020000000949949026;1673371740.8009791;-0.7818148136138916;-0.39635923504829407;90.26655578613281
27;1673371740.9480646;47.1306425;7.240619799999999;-0.007000000216066837;1673371740.991176;-1.207584023475647;-0.270209938287735;90.15208435058594
28;1673371741.1548588;47.1306425;7.240619799999999;-0.0020000000949949026;1673371741.1929164;-2.4770591259002686;-0.43271180987358093;90.3834457397461
29;1673371741.3441694;47.1306425;7.2406198999999996;0.0010000000474974513;1673371741.3880305;-3.3863165378570557;-0.24063870310783386;90.89493560791016
30;1673371741.5499346;47.1306425;7.2406207;0.0010000000474974513;1673371741.5907466;2.682556629180908;-0.6799513697624207;92.6290054321289
31;1673371741.7318006;47.130642599999995;7.2406226;0.010000000707805157;1673371741.7705336;2.708122968673706;0.08710794895887375;92.6762466430664
32;1673371741.9301395;47.130642599999995;7.2406257;0.03500000014901161;1673371741.974826;8.684699058532715;-1.0850603580474854;93.4028549194336
33;1673371742.1323612;47.130642699999996;7.2406298;0.05900000408291817;1673371742.1719446;14.235109329223633;-0.7076148986816406;92.3840103149414
34;1673371742.336089;47.1306428;7.2406346;0.0820000022649765;1673371742.378866;15.579821586608887;2.386502265930176;92.54499816894531
35;1673371742.5279448;47.130643;7.24064;0.11100000888109207;1673371742.5649724;16.520584106445312;1.47630774974823;92.0013427734375
36;1673371742.717988;47.1306431;7.2406459;0.14300000667572021;1673371742.7592304;18.080617904663086;-0.3232457935810089;91.29759979248047
37;1673371742.9121854;47.130643199999994;7.240652;0.17600001394748688;1673371742.9569948;19.81978988647461;1.2758946418762207;91.38406372070312
38;1673371743.1224117;47.130643199999994;7.2406583;0.2070000171661377;1673371743.1653957;21.726560592651367;2.1510801315307617;91.4151382446289
39;1673371743.376658;47.130643199999994;7.240664499999999;0.24300001561641693;1673371743.4157057;23.75197982788086;0.09105360507965088;90.87923431396484
40;1673371743.5905435;47.130643199999994;7.2406706;0.281000018119812;1673371743.6299534;25.8419189453125;0.17143607139587402;90.70647430419922
41;1673371743.7727864;47.130643199999994;7.240676199999999;0.32200002670288086;1673371743.8136039;27.95127296447754;1.8838553428649902;90.95542907714844
42;1673371743.9520154;47.130643199999994;7.2406812;0.367000013589859;1673371743.9911582;30.062410354614258;0.6771373152732849;90.67204284667969
43;1673371744.1344955;47.130643199999994;7.2406856;0.4140000343322754;1673371744.175571;32.20875549316406;-0.19313356280326843;90.38825225830078
44;1673371744.3625426;47.130643199999994;7.240689;0.46400001645088196;1673371744.4026053;34.42269515991211;1.2637673616409302;90.70848083496094
45;1673371744.5478344;47.130643199999994;7.240691399999999;0.5139999985694885;1673371744.5946956;36.56739044189453;0.9141829013824463;90.60662841796875
46;1673371744.756685;47.130643199999994;7.2406928;0.5680000185966492;1673371744.7996688;38.75537872314453;0.06431229412555695;90.257568359375
47;1673371744.9560423;47.1306431;7.2406929;0.6290000081062317;1673371744.9950821;41.017799377441406;0.8780192136764526;90.45476531982422
48;1673371745.1645746;47.1306431;7.240691699999999;0.690000057220459;1673371745.2055655;43.1728401184082;0.6610546112060547;90.2805404663086
49;1673371745.3627217;47.1306431;7.2406891;0.7520000338554382;1673371745.4076183;45.37677001953125;0.5234206914901733;90.17479705810547
50;1673371745.555979;47.130643;7.2406849;0.8140000104904175;1673371745.5959954;47.605472564697266;0.7724860906600952;90.44013214111328
51;1673371745.7486892;47.1306429;7.2406789;0.8770000338554382;1673371745.7867632;47.40327072143555;0.70867520570755;90.49605560302734
52;1673371745.951892;47.1306428;7.2406716;0.9380000233650208;1673371745.994821;42.435211181640625;0.6118326783180237;90.34589385986328
53;1673371746.156059;47.130642699999996;7.240663499999999;0.999000072479248;1673371746.2030642;37.330326080322266;0.40508896112442017;90.24981689453125
54;1673371746.351686;47.130642599999995;7.2406552;1.0570000410079956;1673371746.3887746;31.609270095825195;0.2961827218532562;90.31044006347656
55;1673371746.537264;47.1306425;7.240647399999999;1.1110000610351562;1673371746.5951126;26.243072509765625;-0.09911827743053436;90.15762329101562
56;1673371746.7567508;47.1306424;7.2406405;1.1570000648498535;1673371746.8008652;22.232330322265625;0.1690288484096527;90.24288940429688
57;1673371746.9553556;47.1306424;7.2406349;1.2000000476837158;1673371746.991519;19.949132919311523;0.14016585052013397;90.22314453125
58;1673371747.1460338;47.1306424;7.2406307;1.2430000305175781;1673371747.183294;19.64527702331543;-0.30076104402542114;90.00179290771484
59;1673371747.371411;47.1306424;7.2406279;1.287000060081482;1673371747.4104533;20.748605728149414;0.15560412406921387;90.10563659667969
60;1673371747.5677025;47.1306424;7.2406261999999995;1.3390001058578491;1673371747.6115959;22.404417037963867;1.5833656787872314;90.59150695800781
61;1673371747.762086;47.1306425;7.2406253;1.406000018119812;1673371747.8031743;24.2011661529541;-0.04425319284200668;90.05475616455078
62;1673371748.01172;47.130642599999995;7.240624899999999;1.4900001287460327;1673371748.048849;26.06719398498535;-0.9355891346931458;89.67048645019531
63;1673371748.2163365;47.130642599999995;7.2406248;1.5870001316070557;1673371748.249069;27.665929794311523;2.3437023162841797;87.49497985839844
64;1673371748.403833;47.130642599999995;7.2406248;1.693000078201294;1673371748.4406655;28.881832122802734;-0.5317634344100952;87.1708984375
65;1673371748.5876594;47.130642599999995;7.2406247;1.811000108718872;1673371748.6351514;29.653377532958984;-1.2701505422592163;86.63741302490234
66;1673371748.7815282;47.130642599999995;7.2406245;1.9410001039505005;1673371748.8225405;29.700929641723633;1.6442675590515137;87.40584564208984
67;1673371749.007468;47.130642699999996;7.2406239999999995;2.0840001106262207;1673371749.0776992;29.545047760009766;0.6083855628967285;87.11918640136719
68;1673371749.2058911;47.1306428;7.2406235;2.240000009536743;1673371749.2387342;29.145809173583984;-0.6464337110519409;86.51241302490234
69;1673371749.379211;47.1306428;7.2406228;2.4070000648498535;1673371749.4202056;28.501209259033203;1.9429785013198853;87.58505249023438
70;1673371749.566691;47.1306428;7.240622;2.5860002040863037;1673371749.6019726;27.86612319946289;1.3946409225463867;87.72087097167969
71;1673371749.745328;47.130642699999996;7.2406213;2.7750000953674316;1673371749.7912104;27.220355987548828;-1.058255672454834;86.83283996582031
72;1673371749.949327;47.130642699999996;7.2406207;2.9630000591278076;1673371749.995406;26.559669494628906;1.1888598203659058;87.50817108154297
73;1673371750.15886;47.130642699999996;7.2406201;3.1520001888275146;1673371750.2057211;26.30357551574707;2.219444751739502;87.74553680419922
74;1673371750.3375444;47.1306428;7.240619799999999;3.3410000801086426;1673371750.374614;26.28265953063965;-0.8351784348487854;86.84172821044922
75;1673371750.5303802;47.130642699999996;7.2406197;3.5290002822875977;1673371750.5758107;26.436786651611328;0.5197774171829224;87.2923583984375
76;1673371750.7448452;47.130642599999995;7.2406197;3.7200002670288086;1673371750.787884;26.908750534057617;1.6319026947021484;87.78656768798828
77;1673371750.9480138;47.1306425;7.2406197;3.9110002517700195;1673371750.9940875;27.074501037597656;-1.5260154008865356;86.87745666503906
78;1673371751.1532872;47.1306424;7.240619799999999;4.1020002365112305;1673371751.2148416;27.312097549438477;-0.3188300132751465;87.23816680908203
79;1673371751.3946822;47.1306424;7.24062;4.2920002937316895;1673371751.4410954;27.64398956298828;1.8138391971588135;87.95075988769531
80;1673371751.5880773;47.1306424;7.2406201;4.4810004234313965;1673371751.6345413;27.9029483795166;-0.4893052875995636;87.22042846679688
81;1673371751.7847612;47.1306425;7.2406203;4.674000263214111;1673371751.8248045;28.019819259643555;-0.6371383666992188;87.17660522460938
82;1673371751.9781733;47.1306425;7.2406203;4.869000434875488;1673371752.0106106;27.96879768371582;2.2491302490234375;87.88540649414062
83;1673371752.143266;47.1306425;7.2406203;5.063000202178955;1673371752.1844165;27.877849578857422;0.0019375266274437308;87.4326171875
84;1673371752.3275158;47.1306425;7.2406203;5.25700044631958;1673371752.3662677;27.819612503051758;-1.0772963762283325;86.895263671875
85;1673371752.5175786;47.1306425;7.2406201999999995;5.451000213623047;1673371752.5713832;27.60462760925293;1.7601407766342163;87.69823455810547
86;1673371752.7281423;47.130642599999995;7.2406201999999995;5.645000457763672;1673371752.7726922;27.705053329467773;0.8636717796325684;87.57408905029297
87;1673371752.924769;47.130642699999996;7.2406203;5.841000080108643;1673371752.9674673;27.655309677124023;-1.0210988521575928;86.93010711669922
88;1673371753.1300404;47.130642699999996;7.2406203;6.038000106811523;1673371753.1730316;27.736042022705078;1.6180933713912964;87.66034698486328
89;1673371753.3411713;47.130642699999996;7.2406203;6.236000061035156;1673371753.3822083;27.694368362426758;1.3697012662887573;87.70162963867188
90;1673371753.5316494;47.130642699999996;7.2406203;6.433000087738037;1673371753.5712724;27.648757934570312;-1.2218351364135742;86.8097152709961
91;1673371753.7246435;47.130642699999996;7.2406203;6.63200044631958;1673371753.7652912;27.714496612548828;1.1720428466796875;87.4784164428711
92;1673371753.9221961;47.130642699999996;7.2406201999999995;6.829000473022461;1673371753.9687998;27.753644943237305;1.7785671949386597;87.74185943603516
93;1673371754.130838;47.1306428;7.2406201999999995;7.025000095367432;1673371754.172863;27.707557678222656;-0.9906818270683289;86.91058349609375
94;1673371754.3429947;47.130642699999996;7.2406201999999995;7.225000381469727;1673371754.384111;27.599170684814453;0.7113088369369507;87.3371353149414
95;1673371754.5531962;47.130642699999996;7.2406201999999995;7.423000335693359;1673371754.59529;27.69878578186035;1.9299272298812866;87.75720977783203
96;1673371754.7698257;47.130642699999996;7.2406201;7.623000144958496;1673371754.8069148;27.704498291015625;-1.0874218940734863;86.92886352539062
97;1673371754.963672;47.130642599999995;7.2406201;7.820000171661377;1673371755.030594;27.615673065185547;0.2751833200454712;87.2164535522461
98;1673371755.1910446;47.130642699999996;7.24062;8.016000747680664;1673371755.2242477;27.50353240966797;2.3376879692077637;87.79935455322266
99;1673371755.358539;47.130642699999996;7.24062;8.214000701904297;1673371755.4034474;27.624835968017578;-0.5343912839889526;86.96044921875
100;1673371755.5775015;47.130642699999996;7.24062;8.414999961853027;1673371755.624328;27.600908279418945;-0.06465567648410797;87.05968475341797
101;1673371755.7729943;47.130642699999996;7.24062;8.618000030517578;1673371755.8228545;27.616872787475586;2.4043760299682617;87.99543762207031
102;1673371755.969569;47.130642599999995;7.24062;8.822999954223633;1673371756.0105631;27.645174026489258;-0.13598603010177612;87.25430297851562
103;1673371756.1608655;47.130642599999995;7.24062;9.02400016784668;1673371756.199905;27.735918045043945;-0.5408493280410767;86.9592056274414
104;1673371756.3610978;47.130642599999995;7.24062;9.225000381469727;1673371756.407947;27.724224090576172;2.088941812515259;87.79474639892578
105;1673371756.5596685;47.130642599999995;7.24062;9.427000045776367;1673371756.6006606;27.737285614013672;0.4536283314228058;87.33068084716797
106;1673371756.7784789;47.130642599999995;7.24062;9.632000923156738;1673371756.819677;27.6900691986084;-0.78628009557724;86.88097381591797
107;1673371756.9719632;47.130642599999995;7.2406201;9.836000442504883;1673371757.0118296;27.749916076660156;1.8265167474746704;87.78958129882812
108;1673371757.190091;47.1306425;7.24062;10.041000366210938;1673371757.2262492;27.716981887817383;1.0373917818069458;87.72801208496094
109;1673371757.3732555;47.1306425;7.2406198999999996;10.270000457763672;1673371757.4149191;26.976425170898438;-0.9901783466339111;86.93001556396484
110;1673371757.5647585;47.130642599999995;7.240619499999999;10.613000869750977;1673371757.6205413;28.02265167236328;0.9061822891235352;87.41309356689453
111;1673371757.778493;47.130642599999995;7.240618899999999;11.010000228881836;1673371757.8166008;27.893678665161133;1.8509478569030762;87.74835968017578
112;1673371757.9604821;47.130642599999995;7.2406182999999995;11.415000915527344;1673371757.9991438;26.27520751953125;-0.6614726185798645;87.0129165649414
113;1673371758.1459317;47.130642599999995;7.2406178;11.82300090789795;1673371758.184981;25.571317672729492;0.686059296131134;87.28778839111328
114;1673371758.3318615;47.130642599999995;7.2406175;12.22900104522705;1673371758.3738425;25.082307815551758;1.9698143005371094;87.76524353027344
115;1673371758.5377564;47.130642599999995;7.240617299999999;12.632000923156738;1673371758.586131;25.06209945678711;-0.8536579608917236;87.02506256103516
116;1673371758.7502606;47.130642599999995;7.2406174;13.022000312805176;1673371758.790378;25.413185119628906;0.5570375919342041;87.25460052490234
117;1673371759.0033913;47.130642599999995;7.240617599999999;13.410000801086426;1673371759.0414643;25.8531436920166;2.280940532684326;87.7874755859375
118;1673371759.1792376;47.130642699999996;7.2406179999999996;13.794000625610352;1673371759.218313;26.38656997680664;-0.4584163427352905;87.04753875732422
119;1673371759.3670688;47.130642599999995;7.2406182999999995;14.179000854492188;1673371759.4080772;26.78058624267578;0.09840212762355804;87.19207000732422
120;1673371759.561767;47.130642599999995;7.2406187;14.563000679016113;1673371759.6009526;27.258535385131836;2.0084686279296875;87.7295913696289
121;1673371759.752576;47.130642599999995;7.240619;14.945000648498535;1673371759.79748;27.45783042907715;-0.601421058177948;87.0762710571289
122;1673371759.9555874;47.130642599999995;7.240619199999999;15.328001022338867;1673371760.0005252;27.422082901000977;-0.1661750227212906;87.088134765625
123;1673371760.1680386;47.130642599999995;7.240619199999999;15.705000877380371;1673371760.2070634;27.52093505859375;2.080258846282959;87.76947021484375
124;1673371760.409025;47.130642599999995;7.240619199999999;16.088001251220703;1673371760.4513223;27.28596305847168;0.22871343791484833;87.27745056152344
125;1673371760.6244078;47.130642599999995;7.240619199999999;16.47300148010254;1673371760.6683671;27.08748435974121;-0.5201536417007446;87.09056091308594
126;1673371760.8251507;47.130642599999995;7.2406191;16.862001419067383;1673371760.8777037;26.902935028076172;1.9973156452178955;87.86258697509766
127;1673371761.0217724;47.130642599999995;7.2406191;17.25200080871582;1673371761.0826466;26.924571990966797;0.3790074586868286;87.44124603271484
128;1673371761.2089944;47.130642599999995;7.240619;17.64000129699707;1673371761.2472184;26.6320858001709;-0.7884172797203064;86.97309112548828
129;1673371761.4032543;47.130642599999995;7.240618899999999;18.023000717163086;1673371761.4471757;26.57375144958496;2.0276589393615723;87.67252349853516
130;1673371761.6039274;47.130642699999996;7.240618899999999;18.408000946044922;1673371761.6361432;26.67214584350586;1.1662410497665405;87.54348754882812
131;1673371761.7886167;47.130642699999996;7.240618899999999;18.795000076293945;1673371761.832603;26.567153930664062;-0.7268208265304565;86.94058990478516
132;1673371761.993032;47.130642699999996;7.240618899999999;19.18400001525879;1673371762.0330493;26.631906509399414;1.6742262840270996;87.60433197021484
133;1673371762.1846862;47.130642699999996;7.240618899999999;19.57400131225586;1673371762.2208116;26.819847106933594;1.8899142742156982;87.62552642822266
134;1673371762.36935;47.1306428;7.240618899999999;19.961000442504883;1673371762.412298;26.687856674194336;-0.5789081454277039;86.87208557128906
135;1673371762.5597112;47.1306428;7.240619;20.352001190185547;1673371762.5929422;26.8523006439209;1.351371169090271;87.39654541015625
136;1673371762.7366273;47.1306428;7.240619;20.73900032043457;1673371762.7834096;26.834627151489258;2.109081506729126;87.73466491699219
137;1673371762.9633102;47.130642699999996;7.2406191;21.126001358032227;1673371763.0189295;26.919580459594727;-0.6267542243003845;86.9636001586914
138;1673371763.2040334;47.130642699999996;7.2406191;21.514001846313477;1673371763.3069043;26.92228889465332;0.47561848163604736;87.26385498046875
139;1673371763.4363492;47.130642599999995;7.2406191;21.9010009765625;1673371763.476013;26.8380184173584;2.1903223991394043;87.85870361328125
140;1673371763.6136754;47.130642599999995;7.240619199999999;22.290000915527344;1673371763.6527953;26.884817123413086;-0.48406845331192017;87.06970977783203
141;1673371763.8015082;47.130642599999995;7.240619199999999;22.68000030517578;1673371763.8464074;26.705549240112305;0.21011801064014435;87.22179412841797
142;1673371763.9970725;47.130642599999995;7.240619199999999;23.065000534057617;1673371764.0380726;26.861135482788086;2.4454424381256104;87.90093231201172
143;1673371764.1682801;47.130642599999995;7.240619199999999;23.452001571655273;1673371764.2064092;26.732324600219727;-0.11954227089881897;87.33079528808594
144;1673371764.3469403;47.1306425;7.240619199999999;23.843000411987305;1673371764.3923767;26.777063369750977;-0.22320079803466797;87.1097412109375
145;1673371764.5493228;47.1306425;7.2406193;24.23600196838379;1673371764.5879257;26.850318908691406;2.262674570083618;87.8343505859375
146;1673371764.7466722;47.1306425;7.2406194;24.62900161743164;1673371764.7921147;26.93316650390625;0.017184922471642494;87.2532958984375
147;1673371764.9422328;47.130642599999995;7.2406194;25.024002075195312;1673371764.9896164;26.922929763793945;-0.28615373373031616;87.05377960205078
148;1673371765.1523876;47.130642599999995;7.240619499999999;25.418001174926758;1673371765.194991;26.948427200317383;2.2239646911621094;87.70105743408203
149;1673371765.3913884;47.130642599999995;7.240619499999999;25.8070011138916;1673371765.4304304;26.918567657470703;0.42520028352737427;87.35801696777344
150;1673371765.5830708;47.1306425;7.240619499999999;26.19700050354004;1673371765.621175;26.87588882446289;-0.9331270456314087;86.91822052001953
151;1673371765.7773333;47.1306425;7.2406196;26.59400177001953;1673371765.8134387;26.982685089111328;1.7772771120071411;87.67984771728516
152;1673371766.0022104;47.130642599999995;7.2406196;26.99300193786621;1673371766.0413237;26.938661575317383;1.1073729991912842;87.56382751464844
153;1673371766.1865175;47.130642599999995;7.2406196;27.393001556396484;1673371766.2227442;26.884761810302734;-0.8809709548950195;86.94281005859375
154;1673371766.3807843;47.130642699999996;7.2406196;27.79100227355957;1673371766.4217763;26.846303939819336;1.7705272436141968;87.6083755493164
155;1673371766.5723476;47.130642699999996;7.2406196;28.180002212524414;1673371766.6133974;26.832870483398438;1.6774746179580688;87.60649108886719
156;1673371766.7545774;47.1306428;7.2406196;28.57400131225586;1673371766.7991385;26.847280502319336;-0.7348151206970215;87.03667449951172
157;1673371766.968147;47.1306428;7.2406196;28.972002029418945;1673371767.0103061;26.842344284057617;1.6680220365524292;87.51741027832031
158;1673371767.1648235;47.1306429;7.2406196;29.367000579833984;1673371767.2097387;26.82417869567871;2.187272310256958;87.68274688720703
159;1673371767.365185;47.130643;7.2406196;29.76500129699707;1673371767.4071531;26.798742294311523;-0.148479625582695;86.9354476928711
160;1673371767.5653691;47.130643;7.2406196;30.163002014160156;1673371767.605553;26.840402603149414;1.3639129400253296;87.31182098388672
161;1673371767.7512536;47.130643;7.2406196;30.56100082397461;1673371767.791422;26.851274490356445;2.4137938022613525;87.73857879638672
162;1673371767.9407232;47.1306429;7.2406196;30.94900131225586;1673371767.980896;26.92298698425293;-0.2834496796131134;87.08268737792969
163;1673371768.1435578;47.1306428;7.2406196;31.338001251220703;1673371768.1909404;26.79097557067871;0.3301222026348114;87.22602844238281
164;1673371768.3557007;47.130642699999996;7.2406196;31.731000900268555;1673371768.399254;26.87557029724121;2.2341318130493164;87.74569702148438
165;1673371768.5566967;47.130642699999996;7.2406196;32.125;1673371768.6006944;26.96139907836914;-0.3861517906188965;87.04570007324219
166;1673371768.7553673;47.130642699999996;7.2406196;32.52000045776367;1673371768.8013015;26.887462615966797;0.03625704348087311;87.0885009765625
167;1673371768.957803;47.130642699999996;7.2406196;32.91400146484375;1673371768.9989276;26.904647827148438;2.4904630184173584;87.86945343017578
168;1673371769.1520429;47.130642699999996;7.240619499999999;33.301002502441406;1673371769.196006;26.69504165649414;0.07946676760911942;87.31307983398438
169;1673371769.3615584;47.130642699999996;7.240619499999999;33.69200134277344;1673371769.4026916;26.664697647094727;-0.54843670129776;86.99352264404297
170;1673371769.55228;47.130642699999996;7.2406194;34.0890007019043;1673371769.5889351;26.689208984375;2.371398687362671;87.79216003417969
171;1673371769.7418234;47.130642699999996;7.2406194;34.4890022277832;1673371769.784477;26.788925170898438;1.0492219924926758;87.46424102783203
172;1673371769.954961;47.1306428;7.240619499999999;34.888999938964844;1673371770.002954;26.70158576965332;-0.15854810178279877;87.03382110595703
173;1673371770.1738098;47.1306428;7.240619499999999;35.28700256347656;1673371770.2187057;26.788455963134766;2.480409622192383;87.88556671142578
174;1673371770.370322;47.1306428;7.2406196;35.68300247192383;1673371770.407461;26.870447158813477;1.041321873664856;87.50929260253906
175;1673371770.5561311;47.130642699999996;7.2406196;36.070003509521484;1673371770.5981276;26.910573959350586;-0.6284880638122559;86.9134292602539
176;1673371770.747149;47.130642699999996;7.2406196;36.45800018310547;1673371770.7897232;26.866533279418945;1.749747633934021;87.63015747070312
177;1673371770.9435363;47.130642699999996;7.2406196;36.85200119018555;1673371770.9860542;26.818052291870117;1.4847946166992188;87.58223724365234
178;1673371771.1564293;47.1306428;7.2406196;37.25;1673371771.2008824;26.888944625854492;-0.6395455002784729;86.83428955078125
179;1673371771.371824;47.1306428;7.2406196;37.645999908447266;1673371771.4118423;26.827680587768555;1.7258365154266357;87.53328704833984
180;1673371771.5790863;47.1306428;7.2406197;38.038002014160156;1673371771.6132445;26.910396575927734;2.048743486404419;87.71287536621094
181;1673371771.7525415;47.130642699999996;7.2406196;38.42400360107422;1673371771.7931643;26.70104217529297;-0.7054545879364014;86.9522476196289
182;1673371771.9450345;47.130642699999996;7.2406196;38.81500244140625;1673371771.9924722;26.805469512939453;1.2307792901992798;87.4151611328125
183;1673371772.1645145;47.1306428;7.2406196;39.2130012512207;1673371772.2193778;26.73065948486328;2.2860894203186035;87.74031066894531
184;1673371772.3754566;47.1306428;7.2406196;39.61000061035156;1673371772.4120479;26.701932907104492;-0.2718333303928375;87.09764862060547
185;1673371772.5510173;47.1306428;7.240619499999999;40.00800323486328;1673371772.5940032;26.630460739135742;0.9600458741188049;87.36927032470703
186;1673371772.7654066;47.1306428;7.240619499999999;40.40400314331055;1673371772.8098931;26.597314834594727;2.5168864727020264;87.897705078125
187;1673371772.9659522;47.1306428;7.240619499999999;40.79900360107422;1673371773.0124857;26.645822525024414;-0.11896917223930359;87.07649993896484
188;1673371773.1653152;47.1306428;7.240619499999999;41.18600082397461;1673371773.2059555;26.601350784301758;0.2759290039539337;87.075927734375
189;1673371773.3614109;47.1306428;7.240619499999999;41.57600021362305;1673371773.4098132;26.724773406982422;2.5579261779785156;87.82874298095703
190;1673371773.557993;47.1306428;7.2406196;41.97300338745117;1673371773.5985973;26.75621223449707;0.5014287233352661;87.22114562988281
191;1673371773.7559626;47.1306428;7.2406196;42.37200164794922;1673371773.800887;26.767507553100586;-0.15143947303295135;87.00475311279297
192;1673371773.9373424;47.1306428;7.2406197;42.76700210571289;1673371773.9764698;26.8171329498291;2.6052846908569336;87.76647186279297
193;1673371774.1431913;47.130642699999996;7.2406197;43.16200256347656;1673371774.1864219;26.91942596435547;0.5159984230995178;87.30211639404297
194;1673371774.349027;47.130642699999996;7.2406197;43.55000305175781;1673371774.3965895;26.86272621154785;-0.4083055257797241;86.97218322753906
195;1673371774.549146;47.130642699999996;7.240619799999999;43.94200134277344;1673371774.5927582;26.813669204711914;2.3717002868652344;87.72782135009766
196;1673371774.7525873;47.1306428;7.240619799999999;44.33700180053711;1673371774.7980325;26.832584381103516;1.2936679124832153;87.55992889404297
197;1673371774.954102;47.1306428;7.240619799999999;44.73500061035156;1673371774.997611;26.76783561706543;-0.2815563380718231;87.05546569824219
198;1673371775.153807;47.130642699999996;7.240619799999999;45.134002685546875;1673371775.1987405;26.87449836730957;2.1999905109405518;87.70408630371094
199;1673371775.3507385;47.130642699999996;7.240619799999999;45.53000259399414;1673371775.395362;26.82122230529785;1.5439099073410034;87.5050277709961
200;1673371775.5561132;47.130642699999996;7.2406198999999996;45.926002502441406;1673371775.5986943;26.897138595581055;-0.774902880191803;86.88389587402344
201;1673371775.756333;47.130642699999996;7.2406198999999996;46.31200408935547;1673371775.7974465;26.78211212158203;1.6583009958267212;87.53702545166016
202;1673371775.9640052;47.1306428;7.2406198999999996;46.70100402832031;1673371776.0036428;26.815414428710938;2.340468406677246;87.63670349121094
203;1673371776.1597307;47.1306428;7.240619799999999;47.095001220703125;1673371776.1963735;26.837188720703125;-0.3192569315433502;86.9720687866211
204;1673371776.3550901;47.130642699999996;7.240619799999999;47.492000579833984;1673371776.394671;26.74222183227539;1.1881529092788696;87.35337829589844
205;1673371776.548615;47.130642599999995;7.240619799999999;47.88800048828125;1673371776.595527;26.85149574279785;2.2715396881103516;87.8339614868164
206;1673371776.7642457;47.130642599999995;7.2406198999999996;48.27000045776367;1673371776.8228447;27.08617401123047;-0.3469966650009155;87.22824096679688
207;1673371776.9803636;47.130642599999995;7.24062;48.59400177001953;1673371777.0186589;26.987144470214844;1.3621187210083008;87.40733337402344
208;1673371777.1649148;47.130642599999995;7.2406203;48.86900329589844;1673371777.208903;27.16141128540039;2.7399561405181885;87.82769775390625
209;1673371777.3550363;47.130642699999996;7.2406206;49.10300064086914;1673371777.402476;27.412309646606445;-0.048440203070640564;87.10809326171875
210;1673371777.5612946;47.130642599999995;7.240621;49.302001953125;1673371777.60293;28.85359001159668;1.488416075706482;87.3243179321289
211;1673371777.7647808;47.1306425;7.2406213;49.480003356933594;1673371777.8034506;40.834163665771484;-10.166935920715332;79.62152862548828
212;1673371777.956418;47.130642699999996;7.2406204999999995;49.63900375366211;1673371778.0038145;48.719947814941406;-24.183780670166016;66.9913330078125
213;1673371778.1694674;47.1306436;7.2406175;49.7660026550293;1673371778.211972;44.110206604003906;-32.340091705322266;59.28610610961914
214;1673371778.3746765;47.1306453;7.2406121;49.86000061035156;1673371778.4152555;32.85535430908203;-38.27568435668945;50.55998611450195
215;1673371778.566124;47.1306478;7.2406052;49.93600082397461;1673371778.6077282;22.238800048828125;-39.592811584472656;40.62679672241211
216;1673371778.7574148;47.130651199999996;7.2405976;50.00400161743164;1673371778.7999625;10.249515533447266;-41.57929229736328;29.517330169677734
217;1673371778.9617026;47.1306551;7.2405895;50.07100296020508;1673371779.0042388;-8.528470039367676;-47.57320785522461;18.04221534729004
218;1673371779.1957796;47.1306601;7.240580899999999;50.12800216674805;1673371779.2486067;-29.039520263671875;-47.19105911254883;6.91513204574585
219;1673371779.4321783;47.130666399999996;7.2405715;50.15500259399414;1673371779.4682932;-41.11268615722656;-41.055519104003906;-5.384904861450195
220;1673371779.6169674;47.130674299999995;7.240561;50.15500259399414;1673371779.6511638;-45.33259582519531;-35.47906494140625;-16.13648796081543
221;1673371779.7978826;47.1306833;7.2405496;50.150001525878906;1673371779.8398495;-49.73945236206055;-31.725759506225586;-26.05780029296875
222;1673371779.981477;47.130693199999996;7.2405371999999995;50.12900161743164;1673371780.0179584;-50.37643051147461;-24.631784439086914;-34.83390808105469
223;1673371780.1637228;47.1307038;7.240524;50.082000732421875;1673371780.203509;-47.75782775878906;-19.245426177978516;-40.69526290893555
224;1673371780.3559911;47.1307146;7.2405104;50.02400207519531;1673371780.3966646;-45.9853401184082;-13.695377349853516;-46.71987533569336
225;1673371780.5521157;47.1307257;7.240496599999999;49.97900390625;1673371780.600541;-46.80691146850586;-10.071966171264648;-53.41078186035156
226;1673371780.7622254;47.130736899999995;7.240482699999999;49.948001861572266;1673371780.8098514;-47.02531814575195;-6.688338279724121;-56.30634307861328
227;1673371780.9607093;47.1307482;7.2404687999999995;49.90200424194336;1673371781.0042005;-43.638916015625;-6.954043388366699;-52.716529846191406
228;1673371781.1648977;47.130759499999996;7.240455099999999;49.86300277709961;1673371781.210342;-43.7874755859375;-7.8783111572265625;-50.4505729675293
229;1673371781.3631926;47.130770899999995;7.2404416;49.842002868652344;1673371781.4086282;-46.152408599853516;-9.248631477355957;-49.58781814575195
230;1673371781.562407;47.130782499999995;7.2404283;49.83400344848633;1673371781.6010077;-47.91999816894531;-10.51169490814209;-49.374263763427734
231;1673371781.7616556;47.1307943;7.240414899999999;49.83500289916992;1673371781.81197;-47.8543815612793;-12.359197616577148;-49.503231048583984
232;1673371781.972574;47.1308061;7.240401299999999;49.842002868652344;1673371782.016054;-47.699363708496094;-14.24465560913086;-55.731475830078125
233;1673371782.2261078;47.1308175;7.2403870999999995;49.83400344848633;1673371782.2603097;-45.1071891784668;-7.506600379943848;-67.47828674316406
234;1673371782.3980398;47.1308284;7.2403727;49.82400131225586;1673371782.4361055;-42.989410400390625;-0.6621202230453491;-76.8029556274414
235;1673371782.570765;47.1308388;7.2403583;49.82100296020508;1673371782.6093729;-41.28772735595703;5.336119174957275;-85.53839874267578
236;1673371782.770588;47.1308486;7.2403442;49.81700134277344;1673371782.8145478;-39.52415466308594;10.92979907989502;-94.47476196289062
237;1673371782.9663906;47.1308578;7.2403303999999995;49.810001373291016;1673371783.0069387;-36.77180480957031;15.596314430236816;-103.54930877685547
238;1673371783.1792536;47.1308666;7.240317;49.801002502441406;1673371783.2246943;-33.00587463378906;19.191673278808594;-113.22283172607422
239;1673371783.378527;47.1308747;7.2403040999999995;49.79600143432617;1673371783.4230454;-30.63288116455078;23.424198150634766;-123.34050750732422
240;1673371783.5881064;47.130882299999996;7.2402915;49.80600357055664;1673371783.6310513;-30.495229721069336;31.93580436706543;-133.8697967529297
241;1673371783.776854;47.1308893;7.2402789;49.842002868652344;1673371783.8217688;-27.49180030822754;40.63801574707031;-144.32565307617188
242;1673371783.9720867;47.1308959;7.2402656;49.89500427246094;1673371784.0140853;-24.478530883789062;44.904571533203125;-148.24612426757812
243;1673371784.1790855;47.1309022;7.240251499999999;49.94000244140625;1673371784.2274573;-25.244731903076172;44.40153884887695;-144.6249542236328
244;1673371784.386859;47.1309085;7.240236599999999;49.98800277709961;1673371784.424925;-31.787107467651367;39.52803421020508;-139.76290893554688
245;1673371784.5729284;47.1309147;7.2402212;50.047000885009766;1673371784.6154265;-35.00056457519531;21.058595657348633;-133.7235565185547
246;1673371784.7716477;47.130919999999996;7.240206199999999;50.0890007019043;1673371784.812672;-28.478260040283203;-1.974155306816101;-126.90788269042969
247;1673371784.9742706;47.1309239;7.2401931;50.12200164794922;1673371785.0128684;-21.16749382019043;-15.569989204406738;-115.70577239990234
248;1673371785.1734824;47.1309262;7.2401826;50.14400100708008;1673371785.2150085;-14.054330825805664;-15.72294807434082;-104.56275939941406
249;1673371785.371776;47.130927299999996;7.2401748999999995;50.15900421142578;1673371785.4123287;-18.20357894897461;0.7290286421775818;-95.43534851074219
250;1673371785.5771673;47.1309281;7.240169;50.18000411987305;1673371785.6157632;-36.22700881958008;25.0333194732666;-89.29676818847656
251;1673371785.7755516;47.130930199999995;7.2401636;50.19200134277344;1673371785.8161128;-53.216026306152344;33.46513748168945;-79.92112731933594
252;1673371785.9783945;47.130935099999995;7.2401577999999995;50.169002532958984;1673371786.0205715;-46.25838088989258;18.238391876220703;-62.296661376953125
253;1673371786.1745355;47.130942499999996;7.2401520999999995;50.14200210571289;1673371786.215099;-44.569976806640625;11.470060348510742;-57.25042724609375
254;1673371786.3757503;47.130951499999995;7.2401469;50.13600158691406;1673371786.415553;-46.25403594970703;-0.0795615166425705;-49.341278076171875
255;1673371786.562548;47.1309617;7.240141599999999;50.14200210571289;1673371786.6017098;-39.38096618652344;-12.239706993103027;-43.879638671875
256;1673371786.7606869;47.130972199999995;7.2401364;49.900001525878906;1673371786.8044739;-5.633059978485107;-16.054431915283203;-46.54523849487305
257;1673371786.9655125;47.130982599999996;7.2401316;49.28400421142578;1673371787.0077105;44.3568000793457;-20.314212799072266;-57.509212493896484
258;1673371787.1697452;47.1309932;7.2401271;48.26700210571289;1673371787.2096865;76.21016693115234;-140.5068817138672;170.1878204345703
259;1673371787.3787653;47.131003799999995;7.240122599999999;46.8640022277832;1673371787.4246047;39.34724044799805;-164.32676696777344;130.2157440185547
260;1673371787.5767744;47.1310144;7.2401183;45.11100387573242;1673371787.6241093;24.121131896972656;-155.1587371826172;120.47712707519531
261;1673371787.788815;47.1310248;7.2401145;42.99500274658203;1673371787.8253746;30.60118293762207;-135.42259216308594;123.87120819091797
262;1673371787.9853048;47.1310351;7.240111199999999;40.52000045776367;1673371788.0256796;39.712528228759766;-86.3773422241211;159.77679443359375
263;1673371788.1766245;47.131045099999994;7.240107999999999;37.69300079345703;1673371788.212804;12.121707916259766;-23.75392723083496;-151.68223571777344
264;1673371788.3798554;47.131054899999995;7.2401046;34.46800231933594;1673371788.4231398;-41.86417770385742;4.777078628540039;-130.92674255371094
265;1673371788.576575;47.1310648;7.2401018;30.858001708984375;1673371788.6198392;-76.20034790039062;0.06768543273210526;-113.69190216064453
266;1673371788.7767053;47.1310745;7.2400994999999995;26.909000396728516;1673371788.8188653;-69.91323852539062;-36.47042465209961;-81.09034729003906
267;1673371788.9736521;47.131084099999995;7.2400975999999995;22.637001037597656;1673371789.0197468;-28.66210174560547;-29.037513732910156;-105.1701889038086
268;1673371789.1817563;47.131093799999995;7.240096299999999;18.001001358032227;1673371789.2197018;31.54985809326172;-40.66680908203125;-136.4599151611328
269;1673371789.3716981;47.1311037;7.2400948;12.981000900268555;1673371789.4127996;63.109046936035156;-84.95191955566406;165.02557373046875
270;1673371789.5704749;47.131113299999996;7.240093099999999;7.64900016784668;1673371789.6116288;70.40936279296875;-75.3918685913086;163.97488403320312
271;1673371789.7686446;47.1311226;7.240091499999999;2.0199999809265137;1673371789.8127182;36.147823333740234;-7.705033302307129;-131.0629425048828
272;1673371789.99066;47.131133999999996;7.2400949;0.22300000488758087;1673371790.0368228;4.264963626861572;12.868365287780762;-137.7803192138672
273;1673371790.1847384;47.1311477;7.240106099999999;0.2600000202655792;1673371790.2237484;6.1406660079956055;7.82465124130249;-140.7646026611328
274;1673371790.3817625;47.1311624;7.240119399999999;0.19600000977516174;1673371790.4208558;24.173372268676758;10.68336296081543;-137.77053833007812
275;1673371790.5706372;47.1311769;7.2401316;0.16900001466274261;1673371790.6217628;22.439712524414062;9.94253158569336;-138.01333618164062
276;1673371790.7747118;47.131192999999996;7.240144399999999;0.12200000882148743;1673371790.8146029;22.264455795288086;10.054744720458984;-138.1471710205078
277;1673371790.9815898;47.131211199999996;7.240158;0.05100000277161598;1673371791.028753;22.300283432006836;10.485332489013672;-138.3860321044922
278;1673371791.178743;47.131231;7.2401722;-0.04700000211596489;1673371791.2297401;22.300880432128906;10.730436325073242;-138.6841583251953
279;1673371791.3756762;47.1312523;7.240186899999999;-0.17900000512599945;1673371791.4195778;22.385326385498047;10.91066837310791;-138.86917114257812
280;1673371791.5638387;47.1312716;7.2402007;-0.2600000202655792;1673371791.612912;22.112133026123047;10.502458572387695;-139.27413940429688
281;1673371791.7787108;47.1312941;7.2402159;-0.3760000169277191;1673371791.821558;22.05613136291504;10.480660438537598;-139.4546356201172
282;1673371792.0055451;47.131317499999994;7.240231499999999;-0.4870000183582306;1673371792.0478067;21.962848663330078;10.534232139587402;-139.6685333251953
283;1673371792.2050092;47.1313418;7.2402475;-0.597000002861023;1673371792.2418754;21.868438720703125;10.477775573730469;-139.79556274414062
284;1673371792.388934;47.131366899999996;7.240263799999999;-0.7070000171661377;1673371792.4233572;21.774343490600586;10.344644546508789;-140.0028839111328
285;1673371792.5648465;47.1313934;7.2402807;-0.8740000128746033;1673371792.6088715;21.80108070373535;10.297197341918945;-140.1688995361328
286;1673371792.7727551;47.1314206;7.240297999999999;-1.03000009059906;1673371792.8145173;21.681941986083984;10.101920127868652;-140.3129119873047
287;1673371792.9727538;47.1314494;7.240316;-1.1640000343322754;1673371793.0166905;21.49625587463379;9.89512825012207;-140.48556518554688
288;1673371793.17398;47.1314766;7.2403328;-1.2700001001358032;1673371793.2187665;21.36176300048828;9.706842422485352;-140.645751953125
289;1673371793.362516;47.131505499999996;7.2403505;-1.3730000257492065;1673371793.4046657;21.252302169799805;9.443670272827148;-140.79331970214844
290;1673371793.5518959;47.1315349;7.2403683999999995;-1.468000054359436;1673371793.594686;21.03044891357422;9.205606460571289;-140.9441375732422
291;1673371793.765492;47.1315649;7.2403865;-1.5560001134872437;1673371793.8087873;20.80537223815918;8.97667407989502;-141.0876922607422
292;1673371793.9687624;47.1315968;7.240405699999999;-1.715000033378601;1673371794.0126872;20.74951934814453;8.727657318115234;-141.20603942871094
293;1673371794.1636648;47.131629;7.240425;-1.8570001125335693;1673371794.208022;20.55487060546875;8.440116882324219;-141.2792510986328
294;1673371794.3754966;47.131661199999996;7.2404440999999995;-1.9540001153945923;1673371794.4206574;20.38867950439453;8.120391845703125;-141.33680725097656
295;1673371794.5751216;47.1316936;7.2404633;-2.0199999809265137;1673371794.618796;20.159656524658203;7.786935329437256;-141.37571716308594
296;1673371794.7800403;47.1317264;7.240482699999999;-2.072000026702881;1673371794.8229074;19.918590545654297;7.448249340057373;-141.40101623535156
297;1673371794.9932551;47.1317599;7.240502299999999;-2.117000102996826;1673371795.0344667;19.7188720703125;7.152255058288574;-141.40672302246094
298;1673371795.1811805;47.1317957;7.2405232999999996;-2.2330000400543213;1673371795.2236953;19.60379981994629;6.916957855224609;-141.408203125
299;1673371795.3767538;47.1318316;7.2405441999999995;-2.314000129699707;1673371795.4155898;19.38283348083496;6.624175071716309;-141.3837890625
300;1673371795.5628319;47.131844799999996;7.2405519;-2.3450000286102295;1673371795.6018257;19.157560348510742;6.331384181976318;-141.36264038085938
301;;;;;1673371795.8066092;18.907045364379883;6.0919060707092285;-141.30039978027344
302;;;;;1673371796.01979;18.678272247314453;5.8538031578063965;-141.24301147460938
303;;;;;1673371796.2137787;18.448104858398438;5.600456237792969;-141.18316650390625
304;;;;;1673371796.4457119;18.26189613342285;5.364538669586182;-141.15335083007812
305;;;;;1673371796.665506;17.98133087158203;5.687535762786865;-141.11044311523438
306;;;;;1673371796.8343909;17.84512710571289;5.643719673156738;-141.04539489746094
307;;;;;1673371797.039971;17.66315269470215;5.545044898986816;-140.94476318359375
