;pos_time;latitude;longitude;altitude;alt_time;pitch;roll;yaw
0;1673370884.4679127;47.1306425;7.2406198999999996;-0.015000000596046448;1673370884.543643;0.16198480129241943;-0.5909386277198792;90.25151062011719
1;1673370884.6604838;47.1306425;7.240619799999999;-0.01600000075995922;1673370884.742201;0.12398835271596909;-0.5785771012306213;90.31534576416016
2;1673370884.8636878;47.1306425;7.2406197;-0.01600000075995922;1673370884.9394019;0.012617092579603195;-0.23862574994564056;90.2435531616211
3;1673370885.0657125;47.1306425;7.2406197;-0.017000000923871994;1673370885.1415267;-0.13437998294830322;-0.4123842716217041;90.2611083984375
4;1673370885.25646;47.1306425;7.2406197;-0.018000001087784767;1673370885.3400095;-0.13698925077915192;-0.15493641793727875;90.11307525634766
5;1673370885.4548166;47.1306425;7.240619799999999;-0.01900000125169754;1673370885.5311325;0.15958566963672638;-0.3827156126499176;90.14411163330078
6;1673370885.6554532;47.1306424;7.240619799999999;-0.02200000174343586;1673370885.7556102;0.30819472670555115;-0.10913749784231186;90.01251220703125
7;1673370885.8625972;47.1306424;7.2406197;-0.024000000208616257;1673370885.9464018;0.058350637555122375;-0.3402923047542572;90.09234619140625
8;1673370886.055439;47.1306424;7.2406197;-0.02500000037252903;1673370886.135483;-0.23484240472316742;-0.26290327310562134;90.11897277832031
9;1673370886.2528622;47.1306424;7.2406197;0.0;1673370886.3309598;0.01952214725315571;-0.39695701003074646;90.23362731933594
10;1673370886.4445705;47.1306424;7.240619799999999;0.0;1673370886.526648;-0.08258336037397385;-0.15106995403766632;90.0146713256836
11;1673370886.6431975;47.1306424;7.24062;0.0020000000949949026;1673370886.7352576;0.029590485617518425;-0.2533721923828125;90.0023193359375
12;1673370886.8598433;47.1306424;7.2406201;0.004000000189989805;1673370886.9585931;0.19105218350887299;-0.26918238401412964;90.12451171875
13;1673370887.0754664;47.1306423;7.2406201;0.005000000353902578;1673370887.1654665;0.04606381058692932;-0.26980480551719666;90.08294677734375
14;1673370887.281565;47.1306423;7.2406201;0.009000000543892384;1673370887.3633547;0.1841762214899063;-0.0915384516119957;90.09046936035156
15;1673370887.4761996;47.1306424;7.2406201;0.01100000087171793;1673370887.5619438;0.25784140825271606;-0.2434316873550415;90.0472412109375
16;1673370887.681533;47.1306424;7.2406201;0.012000000104308128;1673370887.7654035;0.44734400510787964;-0.15618321299552917;90.31350708007812
17;1673370887.8816879;47.1306424;7.2406201;0.0;1673370887.9654298;0.26109424233436584;0.043047454208135605;90.29481506347656
18;1673370888.0807571;47.1306423;7.2406201;0.0020000000949949026;1673370888.162659;0.1201259195804596;-0.19393488764762878;90.2959976196289
19;1673370888.30768;47.1306423;7.2406201;0.0;1673370888.383182;0.396304190158844;-0.10814980417490005;90.34088134765625
20;1673370888.4896533;47.1306423;7.2406201;0.0010000000474974513;1673370888.5757368;0.34493252635002136;-0.38007426261901855;90.3001937866211
21;1673370888.6975317;47.1306423;7.2406201;0.003000000026077032;1673370888.7794762;3.191338300704956;0.13619977235794067;90.31429290771484
22;1673370888.9005287;47.1306424;7.2406201;0.007000000216066837;1673370888.9824057;6.16131067276001;-0.08347326517105103;90.45396423339844
23;1673370889.0895412;47.1306424;7.24062;0.014000000432133675;1673370889.168529;9.069241523742676;-0.10375682264566422;90.3892822265625
24;1673370889.2755103;47.1306424;7.2406197;0.018000001087784767;1673370889.3565083;-3.1583456993103027;0.05098476633429527;88.71337127685547
25;1673370889.4745739;47.1306424;7.2406181;0.005000000353902578;1673370889.5544832;-2.494960069656372;-0.29967010021209717;88.83984375
26;1673370889.6644957;47.1306424;7.2406153;0.01600000075995922;1673370889.7576177;-7.752259254455566;-0.5606259703636169;88.28206634521484
27;1673370889.9135897;47.1306423;7.240611899999999;0.030000001192092896;1673370889.986342;-14.771852493286133;-1.855283498764038;89.51313781738281
28;1673370890.0996196;47.1306423;7.240607799999999;0.04200000315904617;1673370890.1715734;-16.953407287597656;0.05558701232075691;89.51725769042969
29;1673370890.2765524;47.1306422;7.2406030999999995;0.06200000271201134;1673370890.3764477;-16.293020248413086;1.2677733898162842;89.28258514404297
30;1673370890.4855187;47.130642099999996;7.2405978;0.09700000286102295;1673370890.5694942;-17.177534103393555;-0.9161649346351624;90.02774810791016
31;1673370890.6734319;47.130641999999995;7.2405919999999995;0.14500001072883606;1673370890.7915802;-18.67554473876953;-1.2350760698318481;90.2712631225586
32;1673370890.9126506;47.1306419;7.2405859999999995;0.2110000103712082;1673370891.0313945;-20.477615356445312;0.6571905016899109;89.78020477294922
33;1673370891.1249936;47.1306417;7.2405798;0.2930000126361847;1673370891.2366111;-22.386844635009766;-0.29353418946266174;90.0428466796875
34;1673370891.336764;47.130641499999996;7.2405738;0.3920000195503235;1673370891.428549;-24.42482566833496;-1.6628162860870361;90.42300415039062
35;1673370891.5251982;47.1306413;7.2405683;0.5049999952316284;1673370891.5979786;-26.486196517944336;-0.6236528754234314;90.15409851074219
36;1673370891.7000575;47.1306411;7.240563099999999;0.6350000500679016;1673370891.7771904;-28.571006774902344;-0.31398627161979675;90.02680969238281
37;1673370891.8786192;47.130641;7.2405586;0.7750000357627869;1673370891.959771;-30.717042922973633;-1.3489999771118164;90.23930358886719
38;1673370892.0785408;47.130641;7.240554899999999;0.9320000410079956;1673370892.1767526;-32.87667465209961;-1.312312364578247;90.28116607666016
39;1673370892.2996929;47.130640899999996;7.2405520999999995;1.1090000867843628;1673370892.3768687;-35.079383850097656;-0.4492422640323639;89.91121673583984
40;1673370892.489148;47.130640899999996;7.2405504999999994;1.3040000200271606;1673370892.5723362;-37.2270622253418;-1.3381105661392212;90.10408782958984
41;1673370892.7070262;47.130641;7.2405503;1.503000020980835;1673370892.783703;-38.88485336303711;-6.306089401245117;102.6601333618164
42;1673370892.9004796;47.130641;7.2405512;1.7110000848770142;1673370892.9908938;-41.011634826660156;-6.878962516784668;101.0458984375
43;1673370893.123265;47.130641399999995;7.2405535;1.9300000667572021;1673370893.1902258;-43.6099967956543;-5.820056438446045;100.63916778564453
44;1673370893.3009512;47.130642099999996;7.2405573;2.1590001583099365;1673370893.378184;-45.86348342895508;-3.6359872817993164;99.5479965209961
45;1673370893.4867725;47.1306431;7.2405626;2.388000011444092;1673370893.5609686;-46.183868408203125;0.22126637399196625;98.0243148803711
46;1673370893.6688838;47.1306442;7.2405694;2.6060001850128174;1673370893.744662;-41.5949592590332;3.0518698692321777;96.79485321044922
47;1673370893.8535652;47.130645;7.2405772;2.818000078201294;1673370893.9507926;-36.42422103881836;5.907896518707275;94.89328002929688
48;1673370894.0646577;47.1306453;7.2405852;3.0190000534057617;1673370894.1471903;-31.194339752197266;4.399098873138428;97.06041717529297
49;1673370894.2648504;47.1306454;7.2405931;3.203000068664551;1673370894.3426185;-25.61814308166504;5.522775173187256;96.10061645507812
50;1673370894.4790916;47.130645099999995;7.2406004;3.38100004196167;1673370894.5596788;-21.51746940612793;4.224706172943115;95.83999633789062
51;1673370894.6805038;47.1306444;7.2406066;3.5500001907348633;1673370894.758142;-18.132673263549805;1.8741085529327393;95.49149322509766
52;1673370894.876783;47.1306434;7.2406114;3.7230002880096436;1673370894.95166;-16.894136428833008;-0.27753543853759766;95.14110565185547
53;1673370895.0613527;47.1306423;7.2406147;3.9070003032684326;1673370895.151729;-17.53383445739746;-2.5833754539489746;94.9856948852539
54;1673370895.272576;47.130641399999995;7.2406166;4.091000080108643;1673370895.359105;-19.678682327270508;-5.219793796539307;95.68165588378906
55;1673370895.4822276;47.1306406;7.240617299999999;4.293000221252441;1673370895.5633016;-21.054996490478516;-7.490393161773682;95.467041015625
56;1673370895.6616092;47.1306399;7.2406174;4.5;1673370895.734413;-23.97646141052246;-5.172833442687988;94.56217193603516
57;1673370895.8453805;47.1306395;7.2406169;4.708000183105469;1673370895.9279828;-26.21968650817871;-8.044588088989258;95.6644515991211
58;1673370896.050742;47.1306395;7.2406163;4.9170002937316895;1673370896.1352139;-27.752370834350586;-7.785881519317627;96.32023620605469
59;1673370896.259867;47.130639699999996;7.240615699999999;5.12600040435791;1673370896.3443496;-29.33600616455078;-3.4451377391815186;95.058349609375
60;1673370896.4592922;47.1306401;7.240615399999999;5.331000328063965;1673370896.539075;-29.689870834350586;-4.673229694366455;95.65448760986328
61;1673370896.6546123;47.1306406;7.240615399999999;5.531000137329102;1673370896.7479498;-29.451627731323242;-4.833813667297363;96.2061767578125
62;1673370896.8599908;47.1306411;7.240615699999999;5.736000061035156;1673370896.9434834;-29.642391204833984;-1.1486923694610596;95.13118743896484
63;1673370897.0723555;47.130641499999996;7.2406160999999996;5.942000389099121;1673370897.1568286;-28.827743530273438;-2.490779161453247;95.8567123413086
64;1673370897.2602432;47.130641999999995;7.2406166999999995;6.153000354766846;1673370897.3463438;-28.110685348510742;-3.544370651245117;96.47724914550781
65;1673370897.47289;47.1306423;7.240617299999999;6.359000205993652;1673370897.5524807;-27.51607894897461;-0.333650678396225;95.36331939697266
66;1673370897.6819732;47.1306424;7.2406179999999996;6.564000129699707;1673370897.766479;-27.061464309692383;-1.655255913734436;95.69933319091797
67;1673370897.8784492;47.1306425;7.2406185999999995;6.765000343322754;1673370897.967886;-26.47901725769043;-4.1850738525390625;96.43256378173828
68;1673370898.0930083;47.1306424;7.2406191;6.966000556945801;1673370898.1722324;-26.259191513061523;-1.814246654510498;95.55538177490234
69;1673370898.2881877;47.1306423;7.240619499999999;7.168000221252441;1673370898.3756113;-26.256179809570312;-1.8974103927612305;95.37071228027344
70;1673370898.488573;47.1306423;7.2406198999999996;7.365000247955322;1673370898.5691566;-26.05266571044922;-5.005530834197998;96.47225952148438
71;1673370898.669339;47.1306423;7.2406201;7.563000202178955;1673370898.7441113;-26.086307525634766;-2.9985551834106445;95.81402587890625
72;1673370898.8796911;47.1306423;7.2406203;7.760000228881836;1673370898.9602704;-26.616548538208008;-1.8473304510116577;95.23933410644531
73;1673370899.0951674;47.1306422;7.2406203;7.958000183105469;1673370899.176175;-26.394495010375977;-5.137664794921875;96.4063720703125
74;1673370899.2850811;47.1306422;7.2406201999999995;8.154000282287598;1673370899.3590446;-27.131946563720703;-3.8951854705810547;96.05224609375
75;1673370899.463649;47.130642099999996;7.2406201999999995;8.348000526428223;1673370899.552093;-27.085613250732422;-1.9635597467422485;95.22018432617188
76;1673370899.666259;47.1306422;7.2406201;8.543000221252441;1673370899.7512236;-27.3371524810791;-4.652627468109131;96.0980453491211
77;1673370899.8829734;47.1306422;7.2406201999999995;8.744000434875488;1673370899.9715428;-27.01122283935547;-4.106996536254883;96.02277374267578
78;1673370900.0874166;47.1306423;7.2406201999999995;8.940999984741211;1673370900.1683946;-27.374744415283203;-1.5171741247177124;95.2581787109375
79;1673370900.2858284;47.1306423;7.2406203;9.13900089263916;1673370900.3717692;-27.040557861328125;-3.753607988357544;95.89763641357422
80;1673370900.492838;47.1306423;7.2406201999999995;9.335000038146973;1673370900.5714612;-27.16969108581543;-4.6939592361450195;96.35529327392578
81;1673370900.6912277;47.1306423;7.2406203;9.530000686645508;1673370900.766967;-27.30269432067871;-1.6495976448059082;95.37472534179688
82;1673370900.8805993;47.1306423;7.2406204;9.725000381469727;1673370900.9650843;-27.268110275268555;-3.4257593154907227;95.80496978759766
83;1673370901.085781;47.1306424;7.2406204999999995;9.92400074005127;1673370901.1712806;-26.888608932495117;-4.775025367736816;96.38934326171875
84;1673370901.2899268;47.1306425;7.2406207;10.120000839233398;1673370901.3737516;-26.34843635559082;-1.6462428569793701;95.52714538574219
85;1673370901.4895175;47.1306425;7.2406209;10.363000869750977;1673370901.5774806;-29.67845344543457;-3.1968250274658203;95.58621978759766
86;1673370901.6996427;47.1306425;7.2406216;10.695000648498535;1673370901.7767582;-31.26063346862793;-4.704803943634033;96.19011688232422
87;1673370901.8977509;47.1306425;7.240622699999999;11.074000358581543;1673370901.9807084;-27.151914596557617;-2.3860886096954346;95.65596771240234
88;1673370902.0859363;47.130642599999995;7.2406241;11.463000297546387;1673370902.1634173;-24.99516487121582;-2.6923418045043945;95.58819580078125
89;1673370902.2796142;47.130642699999996;7.2406253;11.859000205993652;1673370902.360195;-23.054162979125977;-3.6658895015716553;96.29505920410156
90;1673370902.4796429;47.130642699999996;7.2406261;12.242000579833984;1673370902.5568666;-21.968477249145508;-1.9361966848373413;95.69464111328125
91;1673370902.6638412;47.130642699999996;7.240626499999999;12.61500072479248;1673370902.7414882;-22.0081729888916;-1.0991909503936768;95.26457977294922
92;1673370902.851595;47.130642699999996;7.2406264;12.97900104522705;1673370902.9394965;-22.323482513427734;-4.1705403327941895;96.33484649658203
93;1673370903.0647748;47.130642699999996;7.2406257;13.333000183105469;1673370903.1514683;-23.846181869506836;-3.0405189990997314;95.97062683105469
94;1673370903.2740998;47.130642599999995;7.240624899999999;13.683000564575195;1673370903.3547637;-24.951522827148438;-1.1319082975387573;95.20978546142578
95;1673370903.483295;47.130642599999995;7.2406241;14.021000862121582;1673370903.5599587;-26.052658081054688;-4.260878086090088;96.15400695800781
96;1673370903.680591;47.130642599999995;7.240623299999999;14.362000465393066;1673370903.7642107;-26.597349166870117;-4.074740409851074;96.35627746582031
97;1673370903.8845024;47.130642599999995;7.2406225;14.703001022338867;1673370903.9533732;-27.594831466674805;-1.2956218719482422;95.25408935546875
98;1673370904.075274;47.130642599999995;7.240622;15.045001029968262;1673370904.1548922;-27.637697219848633;-3.4694902896881104;95.82520294189453
99;1673370904.2771688;47.1306425;7.240621699999999;15.395000457763672;1673370904.3525515;-27.537944793701172;-4.9479079246521;96.41598510742188
100;1673370904.47637;47.1306425;7.240621399999999;15.748001098632812;1673370904.5563147;-27.63697052001953;-1.611552357673645;95.28599548339844
101;1673370904.6670406;47.1306425;7.2406215;16.104000091552734;1673370904.7515194;-27.4361629486084;-3.110095977783203;95.67539978027344
102;1673370904.8625948;47.1306425;7.2406216;16.46500015258789;1673370904.9439855;-26.76032066345215;-4.470057010650635;96.20747375488281
103;1673370905.064436;47.1306425;7.2406219;16.832000732421875;1673370905.1403294;-26.375905990600586;-2.3300695419311523;95.61802673339844
104;1673370905.2512858;47.1306425;7.2406222;17.200000762939453;1673370905.334927;-26.141748428344727;-2.450950860977173;95.62055969238281
105;1673370905.488756;47.1306424;7.2406223999999995;17.56800079345703;1673370905.585671;-25.646352767944336;-4.718732833862305;96.49337768554688
106;1673370905.7065125;47.1306424;7.2406223999999995;17.93400001525879;1673370905.7728808;-25.885635375976562;-2.306069850921631;95.65018463134766
107;1673370905.8691196;47.1306424;7.2406225;18.303001403808594;1673370905.943855;-25.839033126831055;-2.3875303268432617;95.428955078125
108;1673370906.0526402;47.1306424;7.2406225;18.67300033569336;1673370906.1337013;-25.345651626586914;-4.911447048187256;96.43797302246094
109;1673370906.2447555;47.1306424;7.2406225;19.047000885009766;1673370906.324367;-25.899110794067383;-2.4502511024475098;95.78172302246094
110;1673370906.4412494;47.1306424;7.2406225;19.420000076293945;1673370906.5251966;-25.910076141357422;-1.6249192953109741;95.28130340576172
111;1673370906.6604817;47.1306423;7.2406223999999995;19.793001174926758;1673370906.7478826;-25.951269149780273;-4.801864147186279;96.31546783447266
112;1673370906.876822;47.1306423;7.2406223;20.163000106811523;1673370906.9559824;-26.103097915649414;-3.150491714477539;95.88272094726562
113;1673370907.0650048;47.1306423;7.240622;20.52400016784668;1673370907.1450498;-26.540592193603516;-1.5296157598495483;95.28317260742188
114;1673370907.259466;47.1306424;7.2406217999999996;20.891000747680664;1673370907.3517995;-26.608840942382812;-4.086616516113281;96.09255981445312
115;1673370907.4767518;47.1306425;7.240621699999999;21.260000228881836;1673370907.5569153;-26.507400512695312;-3.6361117362976074;96.0893783569336
116;1673370907.6815283;47.1306425;7.240621699999999;21.631000518798828;1673370907.7631307;-26.803932189941406;-1.396287441253662;95.34363555908203
117;1673370907.8820386;47.1306425;7.2406216;21.99700164794922;1673370907.996053;-26.58095359802246;-3.1650259494781494;95.83368682861328
118;1673370908.1359878;47.1306425;7.2406216;22.36600112915039;1673370908.2168748;-26.389535903930664;-4.046318054199219;96.2249755859375
119;1673370908.3366337;47.1306425;7.2406216;22.73000144958496;1673370908.4102974;-26.549110412597656;-1.6046791076660156;95.38430786132812
120;1673370908.534693;47.1306425;7.2406215;23.101001739501953;1673370908.6114519;-26.613969802856445;-2.91666841506958;95.76966857910156
121;1673370908.726353;47.130642599999995;7.2406216;23.47100067138672;1673370908.8006318;-26.30036735534668;-4.490025043487549;96.31145477294922
122;1673370908.926808;47.130642599999995;7.2406216;23.845001220703125;1673370909.0058675;-26.573015213012695;-2.0095303058624268;95.56830596923828
123;1673370909.1194673;47.1306425;7.2406216;24.225000381469727;1673370909.1986787;-26.260591506958008;-2.5567057132720947;95.58942413330078
124;1673370909.3121572;47.1306424;7.2406216;24.60700035095215;1673370909.3944175;-26.345369338989258;-4.521683692932129;96.36936950683594
125;1673370909.5265677;47.1306425;7.2406215;24.985000610351562;1673370909.603837;-26.368675231933594;-2.250875949859619;95.5951919555664
126;1673370909.7437363;47.1306425;7.240621399999999;25.35500144958496;1673370909.8264575;-26.527267456054688;-2.0312252044677734;95.43317413330078
127;1673370909.9403217;47.1306425;7.2406213;25.731000900268555;1673370910.0199187;-26.17538070678711;-4.63568639755249;96.37288665771484
128;1673370910.1325774;47.1306425;7.2406212;26.112001419067383;1673370910.2122357;-26.623685836791992;-2.592979907989502;95.73452758789062
129;1673370910.3365586;47.1306424;7.240621099999999;26.494001388549805;1673370910.4199226;-26.55176544189453;-1.7463915348052979;95.37389373779297
130;1673370910.5269997;47.1306424;7.240621099999999;26.87700080871582;1673370910.61162;-26.355411529541016;-4.317164897918701;96.28814697265625
131;1673370910.7244484;47.1306424;7.240621099999999;27.257001876831055;1673370910.8075936;-26.497610092163086;-3.1632046699523926;95.96139526367188
132;1673370910.9289732;47.1306424;7.240621;27.628002166748047;1673370911.0023525;-26.547649383544922;-1.280587077140808;95.26187896728516
133;1673370911.112974;47.1306425;7.2406209;28.00200080871582;1673370911.2160382;-26.63504409790039;-3.663512706756592;96.07453155517578
134;1673370911.3388426;47.1306425;7.240621;28.382001876831055;1673370911.4142904;-26.428421020507812;-3.7683184146881104;96.17898559570312
135;1673370911.5387995;47.1306424;7.240621;28.76300048828125;1673370911.6240032;-26.544979095458984;-1.404272437095642;95.37083435058594
136;1673370911.7330925;47.1306423;7.240621;29.1510009765625;1673370911.815373;-26.435237884521484;-3.1588363647460938;95.74957275390625
137;1673370911.9298372;47.1306422;7.240621;29.53900146484375;1673370912.0099719;-26.34593391418457;-4.642971992492676;96.30581665039062
138;1673370912.1170187;47.1306422;7.2406209;29.92500114440918;1673370912.199498;-26.330333709716797;-2.2088124752044678;95.52416229248047
139;1673370912.3478708;47.1306422;7.2406209;30.303001403808594;1673370912.4148347;-26.629409790039062;-2.4324817657470703;95.61618041992188
140;1673370912.5394714;47.1306422;7.2406209;30.68600082397461;1673370912.6229956;-26.316150665283203;-4.451901912689209;96.35340881347656
141;1673370912.7623436;47.1306422;7.240620799999999;31.073001861572266;1673370912.8479834;-26.709047317504883;-2.7135040760040283;95.77664184570312
142;1673370912.9618175;47.1306422;7.240620799999999;31.46000099182129;1673370913.0421891;-26.624500274658203;-1.9568202495574951;95.42132568359375
143;1673370913.1483362;47.1306422;7.240620799999999;31.84800148010254;1673370913.2279735;-26.67849349975586;-4.3029961585998535;96.22251892089844
144;1673370913.340988;47.1306422;7.2406207;32.236000061035156;1673370913.4228048;-26.651090621948242;-3.096959114074707;95.90951538085938
145;1673370913.5364852;47.1306422;7.2406207;32.61600112915039;1673370913.6147444;-26.827293395996094;-1.4557005167007446;95.31891632080078
146;1673370913.7329578;47.1306423;7.2406206;33.00200271606445;1673370913.8149846;-26.423410415649414;-4.218742847442627;96.16692352294922
147;1673370913.9414608;47.1306423;7.2406206;33.3910026550293;1673370914.0231175;-26.62416648864746;-3.2140960693359375;96.03681945800781
148;1673370914.1391063;47.1306422;7.2406206;33.784000396728516;1673370914.2162542;-26.66934585571289;-1.3886666297912598;95.25596618652344
149;1673370914.335535;47.1306422;7.2406206;34.17300033569336;1673370914.4220645;-26.595796585083008;-3.9686875343322754;95.92701721191406
150;1673370914.5516663;47.1306422;7.2406206;34.56100082397461;1673370914.6310818;-26.538299560546875;-4.103193759918213;96.19921875
151;1673370914.74006;47.1306422;7.2406206;34.95000076293945;1673370914.8255563;-26.59882926940918;-1.5247974395751953;95.373291015625
152;1673370914.9327552;47.1306423;7.2406204999999995;35.33300018310547;1673370915.0130765;-26.713783264160156;-3.277103900909424;95.85216522216797
153;1673370915.125902;47.1306423;7.2406204999999995;35.71900177001953;1673370915.2138147;-26.52211570739746;-4.360640525817871;96.26709747314453
154;1673370915.3272731;47.1306424;7.2406204999999995;36.112003326416016;1673370915.4142506;-26.843505859375;-1.4625059366226196;95.34429931640625
155;1673370915.5361807;47.1306424;7.2406204999999995;36.50699996948242;1673370915.6162512;-26.762800216674805;-2.7098090648651123;95.68157958984375
156;1673370915.7394617;47.1306424;7.2406204999999995;36.90400314331055;1673370915.8097446;-26.783864974975586;-4.492307186126709;96.37710571289062
157;1673370915.9321759;47.1306425;7.2406204999999995;37.297000885009766;1673370916.0255425;-26.590408325195312;-1.9115192890167236;95.60192108154297
158;1673370916.1308358;47.1306425;7.2406204;37.68000030517578;1673370916.2041564;-26.960025787353516;-1.8292288780212402;95.52764129638672
159;1673370916.324603;47.130642599999995;7.2406204;38.06800079345703;1673370916.4029603;-26.589027404785156;-4.234925746917725;96.3755111694336
160;1673370916.5237076;47.130642599999995;7.2406204;38.45900344848633;1673370916.6136408;-26.89313316345215;-2.3521180152893066;95.6903305053711
161;1673370916.722262;47.1306425;7.2406204;38.85300064086914;1673370916.8132515;-26.824508666992188;-1.6362355947494507;95.3086166381836
162;1673370916.9320395;47.1306425;7.2406204999999995;39.24700164794922;1673370917.012156;-26.549251556396484;-4.5463643074035645;96.37039184570312
163;1673370917.1373363;47.1306425;7.2406204999999995;39.63900375366211;1673370917.2286358;-26.428590774536133;-2.7522754669189453;95.86762237548828
164;1673370917.3434553;47.1306425;7.2406204999999995;40.034000396728516;1673370917.4251845;-26.735118865966797;-1.3775643110275269;95.40348815917969
165;1673370917.5401697;47.1306425;7.2406204;40.4170036315918;1673370917.6162999;-26.583450317382812;-4.222402095794678;96.10647583007812
166;1673370917.712;47.130642599999995;7.2406204;40.80500030517578;1673370917.7873497;-26.59380531311035;-3.08660626411438;95.92501831054688
167;1673370917.9270723;47.130642599999995;7.2406204;41.194000244140625;1673370918.0072587;-26.7973690032959;-1.2128361463546753;95.29220581054688
168;1673370918.1182346;47.130642599999995;7.2406204;41.59000015258789;1673370918.1988626;-26.6580753326416;-3.577681541442871;95.95169067382812
169;1673370918.3249962;47.130642599999995;7.2406204;41.987003326416016;1673370918.4038527;-26.531858444213867;-3.68350887298584;96.18740844726562
170;1673370918.5226429;47.130642599999995;7.2406204;42.38300323486328;1673370918.6042936;-26.796112060546875;-1.2791677713394165;95.40189361572266
171;1673370918.7275498;47.130642599999995;7.2406204;42.768001556396484;1673370918.8126738;-26.72183609008789;-3.0998525619506836;95.75659942626953
172;1673370918.9378805;47.130642599999995;7.2406203;43.160003662109375;1673370919.0249515;-26.608150482177734;-3.9426381587982178;96.2520523071289
173;1673370919.145918;47.130642599999995;7.2406201999999995;43.55500030517578;1673370919.2275467;-27.113916397094727;-1.7943463325500488;95.54010772705078
174;1673370919.336246;47.1306425;7.2406201;43.95000076293945;1673370919.421691;-26.78333282470703;-2.306084156036377;95.6186294555664
175;1673370919.543517;47.1306425;7.2406201;44.34400177001953;1673370919.6486964;-27.08278465270996;-4.707858562469482;96.46488189697266
176;1673370919.7585711;47.1306425;7.24062;44.73800277709961;1673370919.8401551;-26.76997947692871;-2.4156334400177;95.6943359375
177;1673370919.9648638;47.1306425;7.24062;45.13300323486328;1673370920.0407245;-27.144855499267578;-1.7062067985534668;95.42818450927734
178;1673370920.1467462;47.1306425;7.24062;45.51700210571289;1673370920.2248287;-26.747390747070312;-4.233567237854004;96.25768280029297
179;1673370920.343264;47.1306425;7.24062;45.909000396728516;1673370920.4180508;-26.916404724121094;-3.2676751613616943;95.9648666381836
180;1673370920.5359452;47.1306425;7.24062;46.303001403808594;1673370920.6208925;-26.999168395996094;-1.453201413154602;95.32490539550781
181;1673370920.740137;47.1306424;7.24062;46.70100402832031;1673370920.8282428;-26.897977828979492;-3.6405794620513916;95.97249603271484
182;1673370920.9476063;47.1306425;7.2406201;47.10300064086914;1673370921.0218403;-26.807796478271484;-3.770698308944702;96.1968994140625
183;1673370921.1311922;47.1306425;7.2406201;47.505001068115234;1673370921.2163877;-26.832042694091797;-1.3042436838150024;95.41021728515625
184;1673370921.333483;47.1306425;7.2406201;47.89200210571289;1673370921.4183936;-27.060392379760742;-3.141707420349121;95.82539367675781
185;1673370921.5379813;47.130642599999995;7.24062;48.268001556396484;1673370921.6133978;-27.201923370361328;-3.3545713424682617;96.12226104736328
186;1673370921.7296429;47.130642599999995;7.2406198999999996;48.59600067138672;1673370921.8162217;-27.27587127685547;-2.02539324760437;95.55291748046875
187;1673370921.928266;47.130642599999995;7.2406196;48.87200164794922;1673370922.0113726;-27.752180099487305;-2.8124101161956787;95.8197021484375
188;1673370922.1408405;47.130642599999995;7.240619199999999;49.105003356933594;1673370922.2211568;-28.346420288085938;-3.665287971496582;96.1263198852539
189;1673370922.3345115;47.130642599999995;7.2406187;49.30000305175781;1673370922.419087;-25.80292320251465;1.3187555074691772;94.79236602783203
190;1673370922.5644567;47.130642599999995;7.2406179999999996;49.45900344848633;1673370922.6412108;-3.461010456085205;-12.386940002441406;88.91569519042969
191;1673370922.756201;47.1306429;7.2406159;49.5780029296875;1673370922.830879;13.252008438110352;-25.20844268798828;75.1501693725586
192;1673370922.938083;47.1306441;7.2406109;49.6670036315918;1673370923.0190938;-2.4268410205841064;-30.891742706298828;70.867431640625
193;1673370923.129985;47.1306465;7.2406028;49.74700164794922;1673370923.2175097;-18.537673950195312;-24.995651245117188;59.4718132019043
194;1673370923.3323379;47.1306504;7.2405928;49.83500289916992;1673370923.422237;-22.744529724121094;-29.36599349975586;48.38151931762695
195;1673370923.5437763;47.1306557;7.2405814;49.9160041809082;1673370923.6181595;-30.500328063964844;-42.03744125366211;38.783203125
196;1673370923.727101;47.1306629;7.2405675;49.974002838134766;1673370923.8029783;-41.318058013916016;-46.7890625;28.964628219604492
197;1673370923.917733;47.1306726;7.2405501999999995;49.980003356933594;1673370924.000523;-41.59817123413086;-40.726070404052734;16.32366180419922
198;1673370924.123817;47.130684099999996;7.240528899999999;49.9640007019043;1673370924.20362;-42.256385803222656;-35.31996536254883;8.952357292175293
199;1673370924.3423069;47.1306972;7.240503899999999;49.9530029296875;1673370924.4233656;-47.84611892700195;-28.475893020629883;-0.33294254541397095
200;1673370924.5462816;47.1307115;7.2404756;49.94300079345703;1673370924.6631043;-51.945106506347656;-19.73128890991211;-10.168787956237793
201;1673370924.7904058;47.1307274;7.2404443999999994;49.927001953125;1673370924.8591838;-54.219818115234375;-12.227107048034668;-17.729698181152344
202;1673370924.9525797;47.1307444;7.240411;49.900001525878906;1673370925.0282087;-52.21100997924805;-2.0030221939086914;-25.956899642944336
203;1673370925.1393313;47.130762499999996;7.2403762;49.875003814697266;1673370925.2184725;-51.43846130371094;7.966381072998047;-33.797210693359375
204;1673370925.3302715;47.1307816;7.240341;49.85900115966797;1673370925.4022682;-52.302982330322266;13.32373332977295;-40.8558349609375
205;1673370925.508345;47.1308017;7.2403051;49.81900405883789;1673370925.5919473;-45.75563430786133;17.10134506225586;-48.26796340942383
206;1673370925.719401;47.130822599999995;7.240268599999999;49.7760009765625;1673370925.8080375;-41.93239212036133;19.53864097595215;-48.683006286621094
207;1673370925.9216444;47.1308438;7.2402321;49.74700164794922;1673370926.004791;-44.7108268737793;20.92058753967285;-45.84901428222656
208;1673370926.112737;47.1308655;7.240196;49.730003356933594;1673370926.191368;-45.05441665649414;19.958650588989258;-43.47163772583008
209;1673370926.3129683;47.1308876;7.2401605;49.72700119018555;1673370926.399769;-44.60469436645508;18.52806282043457;-42.85383224487305
210;1673370926.5403664;47.1309099;7.2401257999999995;49.730003356933594;1673370926.623459;-44.1195068359375;17.425012588500977;-43.11610412597656
211;1673370926.7427263;47.1309326;7.2400913;49.73500061035156;1673370926.8316717;-42.5527458190918;15.807367324829102;-42.95164489746094
212;1673370926.9527426;47.1309553;7.240056999999999;49.65700149536133;1673370927.0374296;-22.14447593688965;6.735499382019043;-38.40813064575195
213;1673370927.1524768;47.130977699999995;7.2400229;49.25300216674805;1673370927.2286167;21.257564544677734;-6.912675857543945;-37.90670394897461
214;1673370927.3415704;47.1309997;7.239989;48.461002349853516;1673370927.420683;73.74849700927734;-67.88972473144531;-88.09062194824219
215;1673370927.5409987;47.1310219;7.2399550999999995;47.275001525878906;1673370927.6266348;43.375831604003906;-170.130615234375;175.7026824951172
216;1673370927.7496834;47.131043999999996;7.2399213;45.74100112915039;1673370927.8253694;18.687881469726562;-179.7558135986328;166.68711853027344
217;1673370927.9334936;47.1310655;7.2398878;43.827003479003906;1673370928.0144155;20.993066787719727;179.60646057128906;163.51551818847656
218;1673370928.1235912;47.131086599999996;7.239854599999999;41.55000305175781;1673370928.2107565;51.87421417236328;-176.99710083007812;162.7292022705078
219;1673370928.3353796;47.1311075;7.2398215;38.932003021240234;1673370928.4275851;67.32421875;-2.5251195430755615;-28.880945205688477
220;1673370928.5555968;47.131128399999994;7.239788399999999;35.95900344848633;1673370928.6364274;-5.61302375793457;6.482192039489746;-28.641820907592773
221;1673370928.7465048;47.131149199999996;7.2397553;32.57600021362305;1673370928.8265371;-56.17506790161133;12.39375114440918;-33.334747314453125
222;1673370928.9536052;47.1311695;7.2397225;28.83100128173828;1673370929.0357828;-67.60469055175781;8.900452613830566;-30.03004264831543
223;1673370929.176439;47.131189299999996;7.2396898;24.753000259399414;1673370929.2526267;-37.0667610168457;-0.3014877140522003;-21.672517776489258
224;1673370929.3630965;47.131208699999995;7.2396575;20.34600067138672;1673370929.441722;30.576248168945312;-3.006347179412842;-20.71563148498535
225;1673370929.5474975;47.131228;7.239625299999999;15.53700065612793;1673370929.6248612;86.44119262695312;166.15206909179688;147.9741668701172
226;1673370929.7418525;47.1312475;7.2395931;10.382000923156738;1673370929.8237956;68.45561981201172;170.9281005859375;150.84368896484375
227;1673370929.9715996;47.1312669;7.2395610999999995;4.931000232696533;1673370930.046531;75.37158203125;23.17487335205078;1.0883101224899292
228;1673370930.1604342;47.131285399999996;7.2395296;-0.03400000184774399;1673370930.2445378;-32.69193649291992;-29.73664093017578;-13.288501739501953
229;1673370930.3487692;47.1312838;7.2395061;1.0230000019073486;1673370930.4313455;-48.375083923339844;-21.71781349182129;-34.93006896972656
230;1673370930.5714738;47.1312796;7.2394842;1.8650001287460327;1673370930.6565464;-59.80503845214844;-29.22848129272461;-26.199031829833984
231;1673370930.775606;47.131275599999995;7.2394628999999995;2.6640000343322754;1673370930.856621;-58.8656120300293;-28.270112991333008;-27.920637130737305
232;1673370930.971633;47.1312734;7.239442899999999;3.4050002098083496;1673370931.0485914;-54.992881774902344;-25.18199920654297;-34.351436614990234
233;1673370931.1613703;47.1312736;7.239425799999999;4.087000370025635;1673370931.2427747;-42.578495025634766;-19.0140380859375;-42.576358795166016
234;1673370931.3477647;47.1312731;7.239405;4.6570000648498535;1673370931.4265862;-24.68614959716797;-16.12818145751953;-47.99283981323242
235;1673370931.5346196;47.131272499999994;7.239378299999999;5.087000370025635;1673370931.6126719;-25.498483657836914;-15.420629501342773;-48.75339126586914
236;1673370931.727478;47.1312715;7.2393472;5.422000408172607;1673370931.8143668;-25.706995010375977;-15.740864753723145;-48.90949630737305
237;1673370931.9306607;47.13127;7.2393123;5.644000053405762;1673370932.0134394;-25.630739212036133;-15.832986831665039;-48.92177963256836
238;1673370932.1366327;47.131268299999995;7.239274099999999;5.764000415802002;1673370932.2175362;-25.580589294433594;-16.003400802612305;-48.8475456237793
239;1673370932.3396158;47.131263499999996;7.2392300999999994;5.548000335693359;1673370932.4234943;-25.385007858276367;-16.49740982055664;-48.421142578125
240;1673370932.5498676;47.1312572;7.2391814;5.14900016784668;1673370932.6325676;-25.315820693969727;-16.79075813293457;-48.16240692138672
241;1673370932.7504537;47.1312509;7.2391299;4.718000411987305;1673370932.8364608;-25.251192092895508;-16.98495101928711;-48.054664611816406
242;1673370932.9503822;47.131245199999995;7.2390759;4.295000076293945;1673370933.0297666;-25.12763214111328;-17.135461807250977;-47.96432113647461
243;1673370933.151652;47.1312406;7.2390206;3.9160001277923584;1673370933.2314136;-25.14212417602539;-17.169288635253906;-47.989051818847656
244;1673370933.3454366;47.1312369;7.238963699999999;3.562000274658203;1673370933.4266486;-25.06299591064453;-17.089576721191406;-48.21467971801758
245;1673370933.544506;47.1312345;7.2389101;3.2310001850128174;1673370933.6276214;-24.992307662963867;-17.06525230407715;-48.32029724121094
246;1673370933.7455595;47.1312329;7.238851599999999;2.927000045776367;1673370933.8354905;-25.021774291992188;-17.000085830688477;-48.4338493347168
247;1673370933.9525635;47.1312323;7.2387925;2.6460001468658447;1673370934.0276492;-24.911724090576172;-16.88119125366211;-48.61223602294922
248;1673370934.1606302;47.1312327;7.238733;2.383000135421753;1673370934.251529;-24.96807861328125;-16.778223037719727;-48.74042892456055
249;1673370934.366701;47.131232499999996;7.2386693;2.0310001373291016;1673370934.4476485;-24.85759735107422;-16.69576644897461;-48.884559631347656
250;1673370934.5605159;47.1312338;7.238607699999999;1.7480000257492065;1673370934.6356552;-24.706993103027344;-16.482473373413086;-49.14768981933594
251;1673370934.7446709;47.1312362;7.238547499999999;1.5120000839233398;1673370934.8225381;-24.680755615234375;-16.248414993286133;-49.36854553222656
252;1673370934.9345634;47.131239199999996;7.2384876;1.2970000505447388;1673370935.023708;-24.52216339111328;-16.00386619567871;-49.60885238647461
253;1673370935.1415818;47.131242799999995;7.2384284;1.1090000867843628;1673370935.2236602;-24.39006996154785;-15.753297805786133;-49.81542205810547
254;1673370935.340971;47.1312466;7.2383688;0.9250000715255737;1673370935.420679;-24.21645736694336;-15.519556999206543;-50.047401428222656
255;1673370935.5443966;47.1312506;7.2383093;0.7560000419616699;1673370935.6235785;-24.111501693725586;-15.295727729797363;-50.276702880859375
256;1673370935.7387106;47.131253699999995;7.2382415;0.4520000219345093;1673370935.81972;-24.018577575683594;-15.151023864746094;-50.40287780761719
257;1673370935.94548;47.1312575;7.238178;0.23600001633167267;1673370936.0318782;-23.80488395690918;-14.867789268493652;-50.6585578918457
258;1673370936.1444771;47.131257999999995;7.2381676;0.0860000029206276;1673370936.2315342;-23.611215591430664;-14.602435111999512;-50.85529708862305
259;;;;;1673370936.4315329;-23.416475296020508;-14.383055686950684;-51.03689193725586
260;;;;;1673370936.6355045;-23.180635452270508;-14.125470161437988;-51.20843505859375
261;;;;;1673370936.8238184;-23.022207260131836;-13.908550262451172;-51.322776794433594
262;;;;;1673370937.0246234;-22.801742553710938;-13.293255805969238;-51.416500091552734
