;pos_time;latitude;longitude;altitude;alt_time;pitch;roll;yaw
0;1673371417.8348987;47.1306425;7.24062;0.01100000087171793;1673371417.8163474;-0.12418906390666962;-0.29996615648269653;90.54669189453125
1;1673371418.0612817;47.1306425;7.24062;0.010000000707805157;1673371418.035871;-0.08091803640127182;-0.48811304569244385;90.34735107421875
2;1673371418.241023;47.1306424;7.24062;0.00800000037997961;1673371418.2253878;-0.06311086565256119;-0.1329771727323532;90.51068878173828
3;1673371418.4354968;47.1306424;7.2406198999999996;0.00800000037997961;1673371418.419881;0.09439990669488907;0.0930669829249382;90.39443969726562
4;1673371418.6338685;47.1306424;7.2406198999999996;0.012000000104308128;1673371418.620202;-0.03850339725613594;-0.09366971254348755;90.50811004638672
5;1673371418.81957;47.1306424;7.2406198999999996;0.01100000087171793;1673371418.8009753;0.12988252937793732;0.07251312583684921;90.5030746459961
6;1673371419.0315492;47.1306424;7.24062;0.009000000543892384;1673371419.0090525;0.02653268352150917;-0.1572418510913849;90.51177978515625
7;1673371419.2339706;47.1306424;7.24062;0.005000000353902578;1673371419.2183325;0.14610016345977783;-0.06856482475996017;90.51431274414062
8;1673371419.4197264;47.1306424;7.2406201;0.0020000000949949026;1673371419.4035583;-0.09924542158842087;-0.06026863306760788;90.30467987060547
9;1673371419.6111813;47.1306424;7.2406201;-0.0020000000949949026;1673371419.594587;-0.2705734372138977;-0.12476911395788193;90.3165512084961
10;1673371419.8121364;47.1306424;7.24062;-0.01100000087171793;1673371419.7964737;-0.17896097898483276;-0.26246970891952515;90.48020935058594
11;1673371420.0046852;47.1306424;7.2406198999999996;-0.015000000596046448;1673371419.9870772;-0.2481248527765274;-0.07149430364370346;90.41465759277344
12;1673371420.2160144;47.1306424;7.2406198999999996;-0.018000001087784767;1673371420.200395;0.07633979618549347;-0.022938871756196022;90.36709594726562
13;1673371420.4054866;47.1306424;7.240619799999999;-0.018000001087784767;1673371420.3874516;-0.04806293547153473;-0.1583510786294937;90.4267578125
14;1673371420.6053028;47.1306424;7.240619799999999;-0.017000000923871994;1673371420.5894656;0.01737559400498867;-0.21277813613414764;90.2586669921875
15;1673371420.8205714;47.1306425;7.240619799999999;-0.014000000432133675;1673371420.8035185;-0.16415484249591827;0.2785382866859436;90.45575714111328
16;1673371421.0127149;47.1306425;7.2406198999999996;-0.010000000707805157;1673371420.9947743;-0.1742381602525711;-0.11397913843393326;90.31813049316406
17;1673371421.197651;47.1306425;7.2406198999999996;0.0010000000474974513;1673371421.1828787;-0.4479008913040161;-0.350509375333786;90.41194152832031
18;1673371421.406604;47.1306425;7.24062;0.0;1673371421.3873856;-0.4082750082015991;0.42281219363212585;90.16934204101562
19;1673371421.6226358;47.1306424;7.24062;-0.0010000000474974513;1673371421.6003954;-0.5939754843711853;0.14448514580726624;90.2803955078125
20;1673371421.830637;47.1306424;7.24062;-0.0020000000949949026;1673371421.8135831;-0.7233025431632996;-0.13182885944843292;90.33771514892578
21;1673371422.0615847;47.1306424;7.24062;-0.004000000189989805;1673371422.0453737;-0.5755823850631714;-0.32920169830322266;90.40884399414062
22;1673371422.2476645;47.1306424;7.24062;-0.00800000037997961;1673371422.2336335;-0.4687899053096771;-0.37703830003738403;90.10189819335938
23;1673371422.436467;47.1306424;7.2406198999999996;-0.009000000543892384;1673371422.4225783;-0.5278410911560059;-0.014748658984899521;90.31069946289062
24;1673371422.6305559;47.1306425;7.2406198999999996;-0.014000000432133675;1673371422.617439;-0.7830700278282166;-0.30620503425598145;90.7281494140625
25;1673371422.8455296;47.130642599999995;7.24062;-0.018000001087784767;1673371422.8286407;-0.6282917857170105;-0.12102968990802765;92.46802520751953
26;1673371423.0206494;47.130642599999995;7.2406204999999995;-0.017000000923871994;1673371423.005686;2.105085849761963;-0.04842767119407654;97.38436889648438
27;1673371423.2313654;47.1306425;7.240621399999999;-0.00800000037997961;1673371423.217561;6.923660755157471;0.20053072273731232;98.68675231933594
28;1673371423.4284742;47.1306425;7.2406226;0.009000000543892384;1673371423.4136412;13.871258735656738;1.7380598783493042;100.06108093261719
29;1673371423.6294508;47.1306424;7.2406242;0.02800000086426735;1673371423.6082814;15.978290557861328;3.891450881958008;98.5255355834961
30;1673371423.832777;47.1306424;7.2406258999999995;0.06300000101327896;1673371423.8140225;16.427330017089844;2.8540778160095215;96.81517791748047
31;1673371424.0323365;47.1306423;7.2406277;0.11300000548362732;1673371424.0136058;17.751205444335938;0.8440108895301819;95.36895751953125
32;1673371424.2316298;47.1306422;7.2406293999999995;0.1810000091791153;1673371424.2165842;19.323196411132812;1.9924894571304321;94.48822021484375
33;1673371424.4590487;47.130642099999996;7.2406308;0.2630000114440918;1673371424.4434245;21.056499481201172;3.3019609451293945;93.9378433227539
34;1673371424.653236;47.130641999999995;7.2406318999999995;0.3620000183582306;1673371424.6385956;23.14037322998047;-0.6723653078079224;92.75601959228516
35;1673371424.8682473;47.1306419;7.2406324;0.47700002789497375;1673371424.8516634;25.20844841003418;-0.4552205502986908;92.20720672607422
36;1673371425.058722;47.1306419;7.2406323;0.6070000529289246;1673371425.0430565;27.276832580566406;2.591986894607544;92.29043579101562
37;1673371425.2455695;47.130641999999995;7.2406312999999995;0.7510000467300415;1673371425.230815;28.010297775268555;-0.3747590482234955;91.44554138183594
38;1673371425.4336689;47.130642099999996;7.2406296;0.9040000438690186;1673371425.4168873;25.520357131958008;-1.0949476957321167;90.86198425292969
39;1673371425.6559;47.1306422;7.2406274999999996;1.068000078201294;1673371425.6315007;23.279909133911133;2.274268865585327;91.41072082519531
40;1673371425.8472798;47.1306422;7.2406253;1.249000072479248;1673371425.8326378;20.55356216430664;-0.40366417169570923;90.77174377441406
41;1673371426.030311;47.1306423;7.2406231;1.434000015258789;1673371426.0156834;18.02122688293457;-1.4258027076721191;90.18604278564453
42;1673371426.2286782;47.1306423;7.2406212;1.6200001239776611;1673371426.212103;16.20995330810547;2.6714468002319336;97.71246337890625
43;1673371426.429875;47.1306423;7.240619799999999;1.8020000457763672;1673371426.4113233;14.715235710144043;0.3145776093006134;95.57654571533203
44;1673371426.618274;47.1306424;7.240619;1.9840000867843628;1673371426.603641;14.964715003967285;-2.5970711708068848;94.09414672851562
45;1673371426.821095;47.1306425;7.2406185999999995;2.1680002212524414;1673371426.8064594;15.072300910949707;2.0665838718414307;93.73845672607422
46;1673371427.0433607;47.1306425;7.2406185999999995;2.3580000400543213;1673371427.0140502;16.139083862304688;0.9429231286048889;93.25387573242188
47;1673371427.2442577;47.1306425;7.2406188;2.55400013923645;1673371427.2325454;17.02758026123047;-2.7748308181762695;92.3341293334961
48;1673371427.4438112;47.130642599999995;7.240619199999999;2.745000123977661;1673371427.4231439;18.285728454589844;1.3711655139923096;92.6701889038086
49;1673371427.6499522;47.130642699999996;7.240619499999999;2.937000036239624;1673371427.6156476;19.110776901245117;2.5424492359161377;92.8348159790039
50;1673371427.8754728;47.1306428;7.2406198999999996;3.127000093460083;1673371427.8520396;19.457759857177734;-1.1977415084838867;92.58601379394531
51;1673371428.1082692;47.1306428;7.2406201;3.317000150680542;1673371428.0955818;19.678295135498047;1.4579368829727173;93.01026916503906
52;1673371428.3040075;47.130642699999996;7.2406201999999995;3.511000156402588;1673371428.2932687;19.717124938964844;2.8276472091674805;93.38969421386719
53;1673371428.4687245;47.1306425;7.2406203;3.704000234603882;1673371428.4560373;19.880037307739258;-1.9810301065444946;92.63265228271484
54;1673371428.6529076;47.1306424;7.2406204;3.8950002193450928;1673371428.6372907;19.787450790405273;0.2393953949213028;92.87652587890625
55;1673371428.8757691;47.1306425;7.2406203;4.091000080108643;1673371428.8353124;19.64573860168457;2.8337953090667725;93.19171905517578
56;1673371429.0733304;47.1306425;7.2406203;4.289000034332275;1673371429.0596766;19.46681785583496;-0.9567220211029053;92.70524597167969
57;1673371429.248479;47.1306425;7.2406201999999995;4.482000350952148;1673371429.2337291;19.269271850585938;-0.2670067846775055;92.75316619873047
58;1673371429.4349957;47.1306425;7.2406201;4.675000190734863;1673371429.4193425;18.930261611938477;3.2570393085479736;93.30988311767578
59;1673371429.6234658;47.1306424;7.24062;4.867000102996826;1673371429.6057847;18.889638900756836;-0.6284081339836121;92.70623779296875
60;1673371429.8538725;47.1306424;7.2406198999999996;5.060000419616699;1673371429.8284733;18.88058090209961;-0.9432588815689087;92.6360855102539
61;1673371430.0485277;47.1306424;7.2406198999999996;5.253000259399414;1673371430.0299842;18.8681697845459;3.148210287094116;93.25667572021484
62;1673371430.244928;47.1306424;7.240619799999999;5.443000316619873;1673371430.228318;18.771936416625977;0.6299383640289307;92.88933563232422
63;1673371430.4405887;47.1306424;7.240619799999999;5.63200044631958;1673371430.4240088;18.772802352905273;-1.2201236486434937;92.50587463378906
64;1673371430.648727;47.1306424;7.2406197;5.822000503540039;1673371430.6300783;18.740642547607422;2.689793109893799;93.32269287109375
65;1673371430.8491442;47.1306423;7.2406197;6.014000415802002;1673371430.831514;18.845548629760742;1.0598899126052856;93.0054702758789
66;1673371431.0601382;47.1306422;7.2406197;6.213000297546387;1673371431.0454986;18.775266647338867;-1.6855335235595703;92.60899353027344
67;1673371431.2391484;47.1306423;7.240619799999999;6.413000106811523;1673371431.2235525;18.872583389282227;2.385214328765869;93.13204193115234
68;1673371431.427378;47.1306423;7.240619799999999;6.618000507354736;1673371431.4122;18.95893669128418;2.226684331893921;93.29959869384766
69;1673371431.6138573;47.1306423;7.2406198999999996;6.819000244140625;1673371431.597058;18.9659423828125;-1.4659444093704224;92.68993377685547
70;1673371431.8134422;47.1306423;7.2406198999999996;7.014000415802002;1673371431.7968116;19.005146026611328;1.8577667474746704;93.08448028564453
71;1673371432.0168016;47.1306422;7.2406198999999996;7.207000255584717;1673371432.0001736;19.087902069091797;2.780750274658203;93.25640869140625
72;1673371432.2272096;47.1306422;7.2406198999999996;7.40000057220459;1673371432.2134595;18.961606979370117;-1.2542601823806763;92.86893463134766
73;1673371432.4283063;47.1306422;7.24062;7.5960001945495605;1673371432.409726;19.07610511779785;0.9175209403038025;92.85096740722656
74;1673371432.660969;47.1306423;7.24062;7.793000221252441;1673371432.6453707;18.98067855834961;3.095355272293091;93.27490234375
75;1673371432.885706;47.1306423;7.24062;7.9860005378723145;1673371432.8681347;19.018238067626953;-0.9803683757781982;92.65769958496094
76;1673371433.0702133;47.1306422;7.24062;8.178000450134277;1673371433.0536206;19.077367782592773;-0.11728804558515549;92.90762329101562
77;1673371433.2489789;47.1306422;7.24062;8.370000839233398;1673371433.2323878;18.85494613647461;3.1712963581085205;93.27352142333984
78;1673371433.431748;47.1306422;7.2406201;8.565999984741211;1673371433.4151516;19.053600311279297;-0.7362738251686096;92.8337631225586
79;1673371433.6318858;47.1306422;7.2406201;8.765000343322754;1673371433.616284;19.08778190612793;-0.4915350079536438;92.8401107788086
80;1673371433.8332913;47.1306423;7.2406201999999995;8.962000846862793;1673371433.8167;19.035369873046875;3.4347379207611084;93.39830780029297
81;1673371434.0357895;47.1306424;7.2406201999999995;9.164000511169434;1673371434.0181565;18.957263946533203;1.117828130722046;93.03709411621094
82;1673371434.2293139;47.1306424;7.2406201999999995;9.36400032043457;1673371434.2097883;19.076616287231445;-0.6925882697105408;92.74833679199219
83;1673371434.4296458;47.1306424;7.2406201999999995;9.559000015258789;1673371434.41302;19.026453018188477;3.2257931232452393;93.193115234375
84;1673371434.6271284;47.1306423;7.2406201999999995;9.753000259399414;1673371434.6095111;18.987573623657227;0.8932338953018188;93.0230712890625
85;1673371434.831328;47.1306423;7.2406201999999995;9.950000762939453;1673371434.8127708;18.906352996826172;-1.7052279710769653;92.6296615600586
86;1673371435.0439;47.1306424;7.2406203;10.154000282287598;1673371435.0273256;19.077680587768555;2.853341579437256;93.1788330078125
87;1673371435.2294288;47.1306425;7.2406201999999995;10.418000221252441;1673371435.2147903;19.534160614013672;2.2239906787872314;93.13928985595703
88;1673371435.4239388;47.1306425;7.240619799999999;10.785000801086426;1673371435.4092817;20.94818878173828;-0.39238980412483215;92.83431243896484
89;1673371435.6224077;47.1306424;7.240619199999999;11.176000595092773;1673371435.6033196;19.47775650024414;1.7574124336242676;93.28176879882812
90;1673371435.8356605;47.1306424;7.2406185999999995;11.57300090789795;1673371435.8190072;17.78326988220215;2.7520830631256104;93.54283905029297
91;1673371436.0311656;47.1306423;7.2406181;11.975000381469727;1673371436.0145583;16.826427459716797;-1.3168712854385376;92.81446838378906
92;1673371436.23439;47.1306424;7.2406178;12.380000114440918;1673371436.216787;16.507173538208008;0.9632831811904907;93.09928131103516
93;1673371436.4384952;47.1306424;7.2406178;12.785000801086426;1673371436.4237916;16.430450439453125;2.6921370029449463;93.40122985839844
94;1673371436.6285594;47.1306424;7.240617899999999;13.187000274658203;1673371436.6118214;16.755287170410156;-0.9526974558830261;92.86497497558594
95;1673371436.8267047;47.1306424;7.2406181;13.582000732421875;1673371436.8090918;17.265888214111328;0.7446718215942383;92.98843383789062
96;1673371437.0354545;47.1306424;7.2406184;13.971000671386719;1673371437.019776;17.77724838256836;2.9485435485839844;93.28499603271484
97;1673371437.2422976;47.1306424;7.2406187;14.360000610351562;1673371437.224731;18.233570098876953;-0.6397253274917603;92.77131652832031
98;1673371437.4523134;47.1306424;7.2406191;14.75100040435791;1673371437.4357216;18.675077438354492;0.2905133068561554;92.78865051269531
99;1673371437.6465588;47.1306425;7.2406194;15.143000602722168;1673371437.6318765;18.95041275024414;3.379136085510254;93.22686767578125
100;1673371437.8448384;47.1306425;7.2406196;15.53700065612793;1673371437.8253446;19.082752227783203;0.5568408966064453;92.91863250732422
101;1673371438.0461483;47.1306425;7.2406197;15.929000854492188;1673371438.0285823;19.125774383544922;-0.1737557351589203;92.73358154296875
102;1673371438.2464557;47.1306425;7.2406197;16.321001052856445;1673371438.2288861;19.032339096069336;3.109243392944336;93.25642395019531
103;1673371438.4362257;47.1306425;7.2406197;16.71000099182129;1673371438.4195955;18.740718841552734;0.91021329164505;92.91785430908203
104;1673371438.6317773;47.1306425;7.2406196;17.104000091552734;1673371438.6159935;18.69449234008789;-0.34039250016212463;92.69551086425781
105;1673371438.8427365;47.130642599999995;7.2406196;17.503000259399414;1673371438.8192334;18.4986572265625;2.9819860458374023;93.15928649902344
106;1673371439.0416825;47.130642599999995;7.240619499999999;17.9010009765625;1673371439.026986;18.326753616333008;1.8487780094146729;93.12010192871094
107;1673371439.2291925;47.1306425;7.240619499999999;18.29400062561035;1673371439.2105465;18.419471740722656;-1.1162221431732178;92.69535827636719
108;1673371439.4274828;47.1306424;7.240619499999999;18.690000534057617;1673371439.4107854;18.411903381347656;2.2240114212036133;93.14247131347656
109;1673371439.6408827;47.1306424;7.240619499999999;19.08100128173828;1673371439.6223395;18.19742774963379;1.7162202596664429;93.14624786376953
110;1673371439.8410492;47.1306424;7.240619499999999;19.477001190185547;1673371439.824358;18.3222713470459;-0.9192219376564026;92.70439910888672
111;1673371440.0577004;47.1306425;7.240619499999999;19.875;1673371440.039155;18.440736770629883;1.9661531448364258;93.13760375976562
112;1673371440.2590826;47.1306425;7.240619499999999;20.2710018157959;1673371440.2433636;18.35317039489746;2.6965014934539795;93.28446197509766
113;1673371440.4531178;47.1306425;7.240619499999999;20.667001724243164;1673371440.4345877;18.355819702148438;-0.6339057087898254;92.72459411621094
114;1673371440.6476965;47.1306425;7.240619499999999;21.067001342773438;1673371440.631105;18.51047706604004;1.0988967418670654;92.98709106445312
115;1673371440.85802;47.1306425;7.240619499999999;21.468000411987305;1673371440.842333;18.38747215270996;3.099590301513672;93.25957489013672
116;1673371441.0480638;47.130642599999995;7.240619499999999;21.85900115966797;1673371441.0314724;18.520301818847656;-0.4560776948928833;92.70370483398438
117;1673371441.2494335;47.130642699999996;7.240619499999999;22.25400161743164;1673371441.2338278;18.51299285888672;1.3523249626159668;92.86181640625
118;1673371441.4515576;47.130642699999996;7.240619499999999;22.65300178527832;1673371441.4369235;18.529460906982422;3.568889856338501;93.1661148071289
119;1673371441.643007;47.130642599999995;7.240619499999999;23.049001693725586;1673371441.6273196;18.43732261657715;-0.13543012738227844;92.72671508789062
120;1673371441.829709;47.130642599999995;7.240619499999999;23.44500160217285;1673371441.8149233;18.43391227722168;0.28156158328056335;92.74278259277344
121;1673371442.020038;47.1306425;7.240619499999999;23.84200096130371;1673371442.0052972;18.41783905029297;3.147382974624634;93.23761749267578
122;1673371442.2222683;47.1306425;7.240619499999999;24.23400115966797;1673371442.2046046;18.33355140686035;0.18061697483062744;92.80176544189453
123;1673371442.42049;47.130642599999995;7.2406194;24.62900161743164;1673371442.4038095;18.52034568786621;-0.31772205233573914;92.69062805175781
124;1673371442.6573143;47.130642699999996;7.2406194;25.0260009765625;1673371442.6407228;18.319774627685547;3.599388360977173;93.26202392578125
125;1673371442.8434956;47.130642599999995;7.2406194;25.42500114440918;1673371442.8251462;18.286014556884766;0.840458869934082;92.9291000366211
126;1673371443.06552;47.1306425;7.2406194;25.82000160217285;1673371443.0419574;18.36075210571289;-0.610162079334259;92.70516204833984
127;1673371443.2839646;47.1306425;7.2406194;26.21700096130371;1673371443.2683363;18.493139266967773;3.11307430267334;93.24440002441406
128;1673371443.4853106;47.1306425;7.240619499999999;26.610000610351562;1673371443.469695;18.416532516479492;1.7026076316833496;93.06421661376953
129;1673371443.6798983;47.130642599999995;7.240619499999999;27.001001358032227;1673371443.6564524;18.542377471923828;-0.6536247730255127;92.72723388671875
130;1673371443.8763752;47.130642599999995;7.240619499999999;27.398000717163086;1673371443.862712;18.594816207885742;2.9413912296295166;93.2813491821289
131;1673371444.0522137;47.1306425;7.240619499999999;27.796001434326172;1673371444.0356224;18.455080032348633;2.253016948699951;93.23379516601562
132;1673371444.2458887;47.1306424;7.240619499999999;28.192001342773438;1673371444.2293053;18.45485496520996;-0.9976686835289001;92.7729721069336
133;1673371444.4345472;47.1306424;7.240619499999999;28.589000701904297;1673371444.419911;18.68597412109375;1.8584730625152588;93.0670166015625
134;1673371444.6368356;47.1306425;7.240619499999999;28.985000610351562;1673371444.617306;18.392961502075195;2.962589740753174;93.22625732421875
135;1673371444.8533854;47.1306425;7.240619499999999;29.376001358032227;1673371444.8360956;18.535137176513672;-0.1861526072025299;92.72161865234375
136;1673371445.064863;47.1306425;7.240619499999999;29.770002365112305;1673371445.0432334;18.435739517211914;1.121885061264038;92.94078826904297
137;1673371445.2609303;47.1306425;7.240619499999999;30.16600227355957;1673371445.243373;18.435771942138672;3.450552225112915;93.2899398803711
138;1673371445.4606166;47.1306424;7.240619499999999;30.56100082397461;1673371445.4410436;18.435468673706055;-0.407388836145401;92.74939727783203
139;1673371445.6424434;47.1306424;7.2406196;30.95600128173828;1673371445.6219468;18.556833267211914;0.6277953386306763;92.846435546875
140;1673371445.8354952;47.1306424;7.2406196;31.35000228881836;1673371445.8192594;18.582061767578125;3.2302029132843018;93.24181365966797
141;1673371446.0462363;47.1306424;7.2406196;31.742000579833984;1673371446.0296268;18.47028160095215;0.15491095185279846;92.79718017578125
142;1673371446.255862;47.1306424;7.2406196;32.13100051879883;1673371446.238286;18.65460777282715;0.2822851836681366;92.79200744628906
143;1673371446.459406;47.1306424;7.2406196;32.525001525878906;1673371446.4438064;18.46595001220703;3.4714291095733643;93.29859924316406
144;1673371446.6675527;47.1306424;7.2406196;32.922000885009766;1673371446.650951;18.374330520629883;0.6539145112037659;92.9235610961914
145;1673371446.8657782;47.1306423;7.2406196;33.319000244140625;1673371446.8472402;18.461036682128906;-0.30671989917755127;92.66317749023438
146;1673371447.0769846;47.1306424;7.2406196;33.71800231933594;1673371447.0613;18.451431274414062;3.5022623538970947;93.30200958251953
147;1673371447.2715547;47.1306425;7.2406196;34.1150016784668;1673371447.2500205;18.491628646850586;1.413493037223816;92.98493957519531
148;1673371447.4890542;47.1306425;7.2406197;34.505001068115234;1673371447.4496267;18.500600814819336;-0.1383925974369049;92.75402069091797
149;1673371447.6615477;47.1306425;7.2406197;34.902000427246094;1673371447.647884;18.56751251220703;3.225170373916626;93.21023559570312
150;1673371447.8861232;47.1306425;7.2406197;35.303001403808594;1673371447.8694947;18.495058059692383;1.7924948930740356;93.06822967529297
151;1673371448.0782604;47.1306425;7.2406197;35.704002380371094;1673371448.061707;18.61697006225586;-0.8618288636207581;92.63955688476562
152;1673371448.2685745;47.1306425;7.240619799999999;36.104000091552734;1673371448.251873;18.531782150268555;3.078613042831421;93.25450134277344
153;1673371448.467854;47.130642599999995;7.240619799999999;36.50400161743164;1673371448.4502878;18.50657844543457;2.5979743003845215;93.23001861572266
154;1673371448.663451;47.130642599999995;7.240619799999999;36.90400314331055;1673371448.6468601;18.514225006103516;-0.5238251090049744;92.70213317871094
155;1673371448.849921;47.130642599999995;7.240619799999999;37.2920036315918;1673371448.8362577;18.498065948486328;1.98939049243927;93.0826416015625
156;1673371449.06714;47.130642599999995;7.240619799999999;37.68800354003906;1673371449.0435328;18.458311080932617;2.6995067596435547;93.28407287597656
157;1673371449.2588875;47.130642599999995;7.2406198999999996;38.082000732421875;1673371449.2423058;18.536762237548828;-0.4895552694797516;92.6787338256836
158;1673371449.443253;47.130642599999995;7.2406198999999996;38.479000091552734;1673371449.4286144;18.639793395996094;2.397287368774414;93.08680725097656
159;1673371449.6539702;47.130642699999996;7.24062;38.87600326538086;1673371449.6344502;18.5567684173584;3.3215677738189697;93.2430419921875
160;1673371449.8632689;47.130642699999996;7.24062;39.275001525878906;1673371449.8446655;18.592744827270508;0.12929724156856537;92.83792114257812
161;1673371450.0566278;47.130642699999996;7.24062;39.66400146484375;1673371450.0400436;18.608579635620117;1.3766599893569946;92.92859649658203
162;1673371450.2509773;47.130642699999996;7.24062;40.057003021240234;1673371450.2343094;18.602210998535156;3.5683867931365967;93.34202575683594
163;1673371450.4662366;47.130642599999995;7.24062;40.45500183105469;1673371450.4525259;18.59487533569336;0.2973187267780304;92.84071350097656
164;1673371450.6775715;47.130642599999995;7.2406201;40.85600280761719;1673371450.6609805;18.679058074951172;0.27051132917404175;92.68816375732422
165;1673371450.8837726;47.130642699999996;7.2406201;41.26000213623047;1673371450.8681245;18.640474319458008;3.6306581497192383;93.24520111083984
166;1673371451.0735116;47.130642699999996;7.2406201;41.66400146484375;1673371451.0598612;18.59346580505371;1.4362664222717285;92.93515014648438
167;1673371451.2680995;47.130642699999996;7.2406201;42.066001892089844;1673371451.250524;18.668203353881836;0.18204094469547272;92.72999572753906
168;1673371451.4628167;47.130642599999995;7.2406201;42.45800018310547;1673371451.4472017;18.55206298828125;3.2042601108551025;93.17211151123047
169;1673371451.6592023;47.1306425;7.24062;42.858001708984375;1673371451.6436026;18.446807861328125;1.3918778896331787;92.98983764648438
170;1673371451.8612149;47.130642599999995;7.24062;43.26000213623047;1673371451.8475502;18.621564865112305;-0.3909034729003906;92.6900405883789
171;1673371452.0637655;47.130642599999995;7.2406198999999996;43.66100311279297;1673371452.0411317;18.55558204650879;3.4541127681732178;93.29747772216797
172;1673371452.2716746;47.130642699999996;7.2406198999999996;44.064002990722656;1673371452.254049;18.432397842407227;2.0365986824035645;93.09168243408203
173;1673371452.4777682;47.130642699999996;7.2406198999999996;44.467002868652344;1673371452.462141;18.39495086669922;-0.22206178307533264;92.7247085571289
174;1673371452.6557531;47.130642599999995;7.2406198999999996;44.858001708984375;1673371452.6400723;18.58562660217285;3.08815598487854;93.24678039550781
175;1673371452.8680704;47.130642599999995;7.2406198999999996;45.25300216674805;1673371452.8485498;18.44959831237793;1.9979627132415771;93.08847045898438
176;1673371453.0694947;47.130642599999995;7.2406198999999996;45.64900207519531;1673371453.0538893;18.610692977905273;-0.49405956268310547;92.6483154296875
177;1673371453.2484455;47.130642699999996;7.2406198999999996;46.04800033569336;1673371453.2328334;18.425519943237305;3.1462810039520264;93.14117431640625
178;1673371453.4614477;47.1306428;7.2406198999999996;46.448001861572266;1673371453.443889;18.446054458618164;2.843397617340088;93.23187255859375
179;1673371453.6589868;47.1306428;7.2406198999999996;46.84700393676758;1673371453.641425;18.554628372192383;-0.13395319879055023;92.73265838623047
180;1673371453.8710883;47.1306428;7.2406198999999996;47.24400329589844;1673371453.852542;18.630163192749023;2.67417049407959;93.1133041381836
181;1673371454.098981;47.1306428;7.2406198999999996;47.63200378417969;1673371454.081407;18.347671508789062;2.814175844192505;93.28787994384766
182;1673371454.3071918;47.1306428;7.2406198999999996;48.027000427246094;1673371454.2934084;18.57950210571289;-0.4555719792842865;92.68900299072266
183;1673371454.5122774;47.1306428;7.2406198999999996;48.39800262451172;1673371454.4956849;18.645355224609375;2.7956836223602295;92.83831787109375
184;1673371454.695811;47.1306429;7.24062;48.71800231933594;1673371454.6811814;18.284793853759766;3.3135368824005127;93.08161163330078
185;1673371454.8795156;47.1306429;7.2406201999999995;48.98600387573242;1673371454.8648763;18.443613052368164;-0.3078137934207916;92.61856842041016
186;1673371455.07639;47.1306429;7.2406204999999995;49.20900344848633;1673371455.060759;18.62236976623535;1.8625208139419556;92.79815673828125
187;1673371455.2678955;47.1306429;7.240620799999999;49.387001037597656;1673371455.251304;24.327390670776367;6.478873252868652;92.74930572509766
188;1673371455.4617176;47.1306428;7.2406204;49.54900360107422;1673371455.4447231;39.51824188232422;-10.755857467651367;83.5557861328125
189;1673371455.65868;47.130643299999996;7.2406181;49.69400405883789;1673371455.6430638;45.632568359375;-24.5264949798584;71.57765197753906
190;1673371455.860004;47.1306447;7.240613199999999;49.81300354003906;1673371455.8433983;36.7512321472168;-31.38155174255371;63.65715408325195
191;1673371456.0760157;47.130646999999996;7.2406064;49.9170036315918;1673371456.060191;26.211877822875977;-37.44171142578125;54.06201934814453
192;1673371456.2684143;47.1306501;7.2405985;49.996002197265625;1673371456.2518294;15.741206169128418;-36.82490539550781;43.762779235839844
193;1673371456.4688258;47.130654;7.240589699999999;50.064002990722656;1673371456.4512408;3.350632429122925;-46.4772834777832;32.920989990234375
194;1673371456.6676998;47.130659099999995;7.2405797;50.11600112915039;1673371456.651026;-15.525294303894043;-50.324951171875;22.329389572143555
195;1673371456.885706;47.130665799999996;7.2405683;50.15200424194336;1673371456.862276;-34.325592041015625;-48.69797897338867;10.677767753601074
196;1673371457.0791626;47.130674299999995;7.240555199999999;50.17100143432617;1673371457.0645227;-43.198486328125;-43.59257888793945;-1.7523643970489502
197;1673371457.2738857;47.130684099999996;7.2405403999999995;50.176002502441406;1673371457.256197;-47.78056335449219;-37.97962951660156;-12.656665802001953
198;1673371457.4800618;47.130694899999995;7.240524199999999;50.15800094604492;1673371457.4644415;-50.49723434448242;-29.62004852294922;-23.001604080200195
199;1673371457.6783347;47.130706499999995;7.2405067;50.11300277709961;1673371457.660767;-48.831050872802734;-22.27544403076172;-29.651721954345703
200;1673371457.8760386;47.130718599999994;7.240488699999999;50.04500198364258;1673371457.861408;-45.62866973876953;-16.77077293395996;-34.952457427978516
201;1673371458.0722654;47.1307312;7.240470299999999;49.99400329589844;1673371458.054684;-45.88669967651367;-12.970718383789062;-41.58009338378906
202;1673371458.264615;47.130744;7.2404515;49.967002868652344;1673371458.2508962;-47.1661491394043;-9.623052597045898;-49.24344253540039
203;1673371458.463885;47.1307568;7.2404325;49.95100402832031;1673371458.4492464;-48.712093353271484;-3.719005823135376;-55.732303619384766
204;1673371458.6690202;47.130769799999996;7.2404132;49.92900085449219;1673371458.6524289;-46.97525405883789;-1.9729000329971313;-53.6157112121582
205;1673371458.868488;47.130783;7.2403941;49.91400146484375;1673371458.8528717;-46.56962966918945;-3.0620357990264893;-50.36301040649414
206;1673371459.0773172;47.130796499999995;7.2403752;49.9160041809082;1673371459.0597494;-47.78733825683594;-4.906035423278809;-49.25505065917969
207;1673371459.2833836;47.1308102;7.2403564;49.91100311279297;1673371459.2687438;-48.82041931152344;-4.731649398803711;-49.13407897949219
208;1673371459.4807417;47.1308242;7.2403375;49.91800308227539;1673371459.4651234;-48.23176956176758;-5.786606788635254;-48.593379974365234
209;1673371459.6655905;47.130838399999995;7.240318599999999;49.932003021240234;1673371459.650948;-48.04561233520508;-7.040081977844238;-48.44377136230469
210;1673371459.867742;47.1308526;7.240299599999999;49.95500183105469;1673371459.85115;-48.66938018798828;-8.057113647460938;-48.345794677734375
211;1673371460.069863;47.1308668;7.240280299999999;49.97700119018555;1673371460.055153;-49.20929718017578;-8.519980430603027;-48.48714065551758
212;1673371460.279228;47.1308812;7.2402608;49.99700164794922;1673371460.2624714;-49.198875427246094;-8.448274612426758;-48.82566833496094
213;1673371460.4712956;47.1308955;7.2402410999999995;49.99400329589844;1673371460.455681;-48.433834075927734;-8.09277629852295;-49.1917839050293
214;1673371460.6755445;47.1309098;7.240221099999999;49.996002197265625;1673371460.6589518;-47.5153694152832;-7.881409645080566;-49.31724548339844
215;1673371460.8699856;47.130924;7.240201099999999;49.999000549316406;1673371460.8514423;-47.34426498413086;-8.105165481567383;-49.320125579833984
216;1673371461.1037052;47.130938099999995;7.240181;50.00400161743164;1673371461.0822005;-47.79717254638672;-8.36725902557373;-49.34245681762695
217;1673371461.2884276;47.130952099999995;7.240160899999999;50.01400375366211;1673371461.2728019;-48.34008026123047;-8.364798545837402;-49.502777099609375
218;1673371461.4791524;47.130966099999995;7.240140599999999;50.02300262451172;1673371461.4625604;-48.65798568725586;-8.352871894836426;-49.601959228515625
219;1673371461.6764016;47.13098;7.2401202;50.0160026550293;1673371461.6602433;-46.602291107177734;-7.9914326667785645;-50.12492752075195
220;1673371461.8883553;47.1309937;7.240100099999999;49.7400016784668;1673371461.872352;-23.665781021118164;-3.9484989643096924;-53.05455017089844
221;1673371462.071249;47.1310073;7.2400804999999995;49.12300109863281;1673371462.0555584;23.671335220336914;0.1775948703289032;-54.52141571044922
222;1673371462.2723494;47.1310207;7.2400611999999995;48.10700225830078;1673371462.251355;86.53614044189453;41.99374771118164;-16.52532196044922
223;1673371462.4842765;47.131034299999996;7.2400417;46.72600173950195;1673371462.4672825;40.26157760620117;-179.49136352539062;118.72412872314453
224;1673371462.676653;47.131047599999995;7.2400227;44.98800277709961;1673371462.661337;15.709280967712402;-177.4844970703125;118.40828704833984
225;1673371462.8843875;47.1310607;7.240004399999999;42.87300109863281;1673371462.8693001;20.17571258544922;-176.83763122558594;117.40779113769531
226;1673371463.0802221;47.1310736;7.239986699999999;40.36600112915039;1673371463.066468;53.85185241699219;179.1482391357422;114.20439147949219
227;1673371463.2933276;47.1310864;7.2399691;37.52300262451172;1673371463.2773128;60.02129364013672;-6.821820259094238;-67.3775405883789
228;1673371463.5024314;47.131099299999995;7.239951199999999;34.28600311279297;1673371463.4886947;-11.456830024719238;-3.194692850112915;-61.65351104736328
229;1673371463.6874099;47.131111999999995;7.239934;30.663002014160156;1673371463.6684303;-57.97190475463867;-6.946372032165527;-53.95765686035156
230;1673371463.8784642;47.1311244;7.2399173;26.7080020904541;1673371463.863912;-63.642818450927734;-7.691155433654785;-50.57411193847656
231;1673371464.0717766;47.1311365;7.239901199999999;22.42300033569336;1673371464.0574358;-25.8848934173584;-1.829942226409912;-53.98286437988281
232;1673371464.292336;47.131148499999995;7.2398856;17.751001358032227;1673371464.2710176;44.36468505859375;4.569649696350098;-49.874366760253906
233;1673371464.4974723;47.1311606;7.2398698999999995;12.688000679016113;1673371464.4803548;77.83748626708984;148.98060607910156;93.4230728149414
234;1673371464.6954103;47.1311726;7.239854299999999;7.332000255584717;1673371464.6795616;70.55494689941406;155.42514038085938;100.72667694091797
235;1673371464.873416;47.1311846;7.2398389;1.689000129699707;1673371464.8584433;61.40938186645508;18.29034423828125;-32.71767044067383
236;1673371465.067978;47.1311894;7.2398345;0.550000011920929;1673371465.0489538;-21.730459213256836;-1.9043132066726685;-41.62177658081055
237;1673371465.2804692;47.1311895;7.2398399;1.0430001020431519;1673371465.2643979;-18.918628692626953;-0.5631848573684692;-38.94489288330078
238;1673371465.4794002;47.1311888;7.2398473999999995;1.3320000171661377;1673371465.4644248;-3.9630701541900635;0.7048459649085999;-38.31509017944336
239;1673371465.6914814;47.131188699999996;7.239854299999999;1.6400001049041748;1673371465.674502;-4.460609436035156;0.801796019077301;-38.46900177001953
240;1673371465.8966343;47.1311885;7.2398603999999995;1.811000108718872;1673371465.8783836;-4.3680195808410645;1.0700711011886597;-38.2572021484375
241;1673371466.103532;47.1311879;7.239863199999999;1.9310001134872437;1673371466.081579;-4.25490140914917;0.8050299882888794;-37.90525817871094
242;1673371466.2964861;47.131186199999995;7.239856499999999;2.1080000400543213;1673371466.2821465;-4.652350425720215;0.018317127600312233;-36.3371696472168
243;1673371466.5043821;47.1311853;7.2398495;2.26200008392334;1673371466.4866984;-4.848877429962158;-0.11816252022981644;-35.88050842285156
244;1673371466.6995065;47.131184999999995;7.239844;2.384000062942505;1673371466.6831412;-4.807348728179932;-0.07924795895814896;-35.66156768798828
245;1673371466.8904586;47.131184999999995;7.2398400999999994;2.4850001335144043;1673371466.8749192;-4.741262435913086;-0.033315978944301605;-35.44257354736328
246;1673371467.0884452;47.1311853;7.2398375999999995;2.6620001792907715;1673371467.0733056;-4.72422456741333;0.05327001214027405;-35.2543830871582
247;1673371467.2894254;47.131185599999995;7.2398359;2.7820000648498535;1673371467.2745934;-4.586930274963379;0.09689512848854065;-35.062320709228516
248;1673371467.5094948;47.1311859;7.239834699999999;2.873000144958496;1673371467.4916198;-4.442269802093506;0.1528570055961609;-34.918025970458984
249;1673371467.7066867;47.131186199999995;7.2398337999999995;2.948000192642212;1673371467.688577;-4.332987308502197;0.15656520426273346;-34.79683303833008
250;1673371467.9112806;47.1311865;7.239833099999999;3.013000249862671;1673371467.8954594;-4.2103986740112305;0.1931919902563095;-34.630123138427734
251;1673371468.1181962;47.131186799999995;7.2398326;3.077000141143799;1673371468.1014764;-4.0566864013671875;0.2116447389125824;-34.51182556152344
252;1673371468.3084252;47.131187399999995;7.2398317;3.200000047683716;1673371468.2922244;-4.043216705322266;0.23477986454963684;-34.356536865234375
253;1673371468.4931753;47.1311878;7.239831199999999;3.2890002727508545;1673371468.4765518;-3.893949508666992;0.24648572504520416;-34.19419860839844
254;1673371468.6977847;47.131188099999996;7.2398308;3.3610000610351562;1673371468.6802309;-3.736780881881714;0.229976624250412;-34.09754180908203
255;1673371468.889177;47.1311883;7.2398305;3.4240002632141113;1673371468.8743546;-3.610792636871338;0.20614133775234222;-33.97611999511719
256;1673371469.1348255;47.1311885;7.2398302999999995;3.4820001125335693;1673371469.1182232;-3.4767801761627197;0.16939248144626617;-33.833404541015625
257;1673371469.3218455;47.131188699999996;7.2398301;3.5370001792907715;1673371469.3052533;-3.3664968013763428;0.14916352927684784;-33.717105865478516
258;1673371469.525112;47.1311889;7.2398298;3.5880000591278076;1673371469.5085025;-3.227193832397461;0.11472947150468826;-33.63864517211914
259;1673371469.7085779;47.1311894;7.239828999999999;3.681000232696533;1673371469.6919904;-3.190340518951416;0.057866472750902176;-33.47514343261719
260;1673371469.8983176;47.1311896;7.2398286999999995;3.746000289916992;1673371469.8806624;-3.071153163909912;0.019821610301733017;-33.341453552246094
261;1673371470.0964544;47.1311898;7.2398286;3.7970001697540283;1673371470.0797656;-2.969130277633667;0.0008100913255475461;-33.23768997192383
262;1673371470.292842;47.131189899999995;7.2398285;3.8410000801086426;1673371470.2762647;-2.840111494064331;-0.03416591137647629;-33.10802459716797
263;1673371470.4981577;47.131189899999995;7.2398285;3.881000280380249;1673371470.4804428;-2.7760138511657715;-0.08860041201114655;-32.98076629638672
264;1673371470.7052233;47.13119;7.2398286;3.9200000762939453;1673371470.6896076;-2.674119472503662;-0.1620067059993744;-32.896671295166016
265;1673371470.896797;47.1311903;7.239827999999999;3.9780001640319824;1673371470.8792276;-2.680598735809326;-0.2597830593585968;-32.755496978759766
266;1673371471.0941083;47.131190499999995;7.2398279;4.01800012588501;1673371471.07943;-2.6330008506774902;-0.24583031237125397;-32.72090530395508
267;1673371471.3059886;47.131190499999995;7.2398279;4.045000076293945;1673371471.2845173;-2.434471607208252;-0.39436429738998413;-32.70258331298828
268;1673371471.499943;47.131190499999995;7.239827999999999;4.062000274658203;1673371471.4843392;-2.426450490951538;-0.35444292426109314;-32.637367248535156
269;1673371471.696005;47.1311904;7.2398280999999995;4.073000431060791;1673371471.6804013;-2.280407428741455;-0.5459936857223511;-32.614200592041016
270;1673371471.8935156;47.1311904;7.2398282;4.078000068664551;1673371471.8778749;-2.337111473083496;-1.0580053329467773;-32.67621994018555
271;1673371472.1008565;47.1311904;7.2398283;-0.02500000037252903;1673371472.0862167;-2.1630187034606934;-1.1701529026031494;-32.710426330566406
272;1673371472.3030782;47.1311906;7.2398279;-0.1290000081062317;1673371472.2825809;-2.1392734050750732;-1.3175660371780396;-32.74995040893555
273;1673371472.5061333;47.1311907;7.2398278;-0.28300002217292786;1673371472.4881566;-2.113699436187744;-1.43795907497406;-32.80650329589844
