;pos_time;latitude;longitude;altitude;alt_time;pitch;roll;yaw
0;1673369287.2006226;47.1306422;7.2406196;-0.018000001087784767;1673369287.2279634;0.05294712260365486;-0.5312420725822449;90.32579803466797
1;1673369287.4010284;47.1306422;7.2406196;-0.015000000596046448;1673369287.428356;0.29749733209609985;-0.40712904930114746;90.39474487304688
2;1673369287.5954828;47.1306423;7.2406196;-0.014000000432133675;1673369287.624762;0.1119583323597908;-0.1871909350156784;90.40575408935547
3;1673369287.8172586;47.1306423;7.2406196;-0.013000000268220901;1673369287.8466794;0.32835325598716736;-0.17768673598766327;90.3976821899414
4;1673369288.025437;47.1306422;7.2406196;-0.013000000268220901;1673369288.0534322;0.08199738711118698;-0.3094864785671234;90.39961242675781
5;1673369288.230842;47.1306422;7.2406197;-0.01100000087171793;1673369288.2583654;0.06360872834920883;-0.10338643193244934;90.25285339355469
6;1673369288.4386969;47.1306423;7.2406197;-0.009000000543892384;1673369288.4650588;-0.06617739051580429;-0.3450387120246887;90.48470306396484
7;1673369288.6330433;47.1306423;7.2406197;-0.00800000037997961;1673369288.6593983;-0.2342551201581955;-0.21792079508304596;90.4822006225586
8;1673369288.8268282;47.1306423;7.2406197;-0.010000000707805157;1673369288.8541267;-0.10347431898117065;-0.1092705950140953;90.23751068115234
9;1673369289.0270329;47.1306423;7.2406197;0.0;1673369289.055336;0.04235053434967995;-1.06592857837677;90.50513458251953
10;1673369289.219283;47.1306423;7.2406197;-0.0010000000474974513;1673369289.2456372;-0.09808024764060974;-0.8920737504959106;90.2206039428711
11;1673369289.4149508;47.1306423;7.2406197;-0.003000000026077032;1673369289.4422789;0.11391055583953857;-0.90386962890625;90.3737564086914
12;1673369289.6082559;47.1306422;7.2406197;-0.005000000353902578;1673369289.638771;-0.10997474938631058;-0.8539899587631226;90.30286407470703
13;1673369289.8230062;47.1306422;7.2406196;-0.010000000707805157;1673369289.8508482;-0.286163866519928;-0.7047271728515625;90.25981140136719
14;1673369290.022316;47.1306422;7.2406196;-0.015000000596046448;1673369290.0519142;-0.3323591351509094;-1.0579007863998413;90.30026245117188
15;1673369290.2158613;47.1306422;7.2406197;-0.018000001087784767;1673369290.242801;-0.233300119638443;-0.7262282967567444;90.37787628173828
16;1673369290.4120383;47.1306422;7.2406197;-0.01900000125169754;1673369290.439046;-0.27019789814949036;-1.7318519353866577;90.41675567626953
17;1673369290.6079412;47.1306423;7.2406197;0.0;1673369290.633854;-0.14850223064422607;-1.2827576398849487;90.39167022705078
18;1673369290.7989116;47.1306423;7.240619799999999;0.0010000000474974513;1673369290.8242993;-0.4862934947013855;-0.8528378009796143;90.4923095703125
19;1673369291.0059447;47.1306423;7.240619799999999;0.005000000353902578;1673369291.0337992;-0.3505284786224365;-0.5444445013999939;90.44540405273438
20;1673369291.2167501;47.1306424;7.240619799999999;0.005000000353902578;1673369291.2419474;-0.38243138790130615;-0.40150710940361023;90.55782318115234
21;1673369291.4091575;47.1306424;7.240619799999999;0.004000000189989805;1673369291.4399292;-0.5047156810760498;-0.7051316499710083;90.86673736572266
22;1673369291.6158082;47.1306424;7.240619799999999;0.0010000000474974513;1673369291.6412783;-0.5084679126739502;-0.6049617528915405;90.84849548339844
23;1673369291.816074;47.1306425;7.240619799999999;-0.0010000000474974513;1673369291.8408813;-0.5450966358184814;-0.3110862076282501;91.11946868896484
24;1673369292.0200202;47.130642699999996;7.2406198999999996;-0.007000000216066837;1673369292.0469787;-0.2907884120941162;-0.29260122776031494;92.25611114501953
25;1673369292.2101517;47.1306428;7.24062;-0.01100000087171793;1673369292.236945;0.12126964330673218;0.15292491018772125;96.0268783569336
26;1673369292.4038544;47.1306431;7.2406203;-0.013000000268220901;1673369292.4380374;0.43567344546318054;1.4731968641281128;97.87464904785156
27;1673369292.6230297;47.1306434;7.240620799999999;-0.009000000543892384;1673369292.6499085;2.5761046409606934;3.6867618560791016;94.22035217285156
28;1673369292.8260334;47.1306438;7.2406216;0.007000000216066837;1673369292.8557756;7.1281585693359375;7.000148296356201;91.88037872314453
29;1673369293.0028403;47.1306443;7.2406225;0.02800000086426735;1673369293.0282755;11.8715181350708;12.023468971252441;91.5965347290039
30;1673369293.1849613;47.1306448;7.240623599999999;0.05300000309944153;1673369293.2089157;13.505549430847168;13.559638977050781;91.77539825439453
31;1673369293.3820083;47.1306452;7.2406247;0.08500000089406967;1673369293.407799;14.514188766479492;14.014559745788574;91.8851547241211
32;1673369293.5799956;47.1306455;7.2406257;0.13100001215934753;1673369293.6068127;15.419711112976074;15.051575660705566;91.99090576171875
33;1673369293.7789268;47.130645799999996;7.2406264;0.19300000369548798;1673369293.8074172;16.755496978759766;15.485881805419922;91.98363494873047
34;1673369293.976849;47.1306459;7.240626799999999;0.2710000276565552;1673369294.0032039;18.825937271118164;15.271735191345215;91.8614730834961
35;1673369294.1859276;47.130645799999996;7.240626799999999;0.36400002241134644;1673369294.2142336;20.288330078125;16.633880615234375;91.77458190917969
36;1673369294.397739;47.1306456;7.2406261999999995;0.4660000205039978;1673369294.431526;19.148235321044922;17.512353897094727;91.41670227050781
37;1673369294.6198936;47.1306452;7.240625199999999;0.5760000348091125;1673369294.6448677;17.811233520507812;13.31718635559082;90.29801940917969
38;1673369294.8176582;47.1306446;7.2406239999999995;0.6980000138282776;1673369294.8459957;16.63146209716797;11.671138763427734;88.91997528076172
39;1673369295.0187013;47.130644;7.240622699999999;0.8350000381469727;1673369295.0426712;15.184866905212402;13.885161399841309;87.97483825683594
40;1673369295.235552;47.1306435;7.240621399999999;0.987000048160553;1673369295.261507;13.946571350097656;10.151167869567871;86.477783203125
41;1673369295.442453;47.130643;7.2406204;1.156000018119812;1673369295.467829;13.071634292602539;8.803815841674805;85.2674560546875
42;1673369295.6378775;47.130642699999996;7.2406196;1.3350000381469727;1673369295.6583765;12.84417724609375;12.075553894042969;84.51537322998047
43;1673369295.8281581;47.1306425;7.240619199999999;1.5210000276565552;1673369295.8632925;13.185948371887207;9.646393775939941;83.30195617675781
44;1673369296.0181506;47.1306424;7.240619;1.7070001363754272;1673369296.0450473;13.26105785369873;8.386354446411133;86.64844512939453
45;1673369296.224798;47.1306423;7.240619;1.8950001001358032;1673369296.2483344;14.096445083618164;11.933747291564941;85.3755874633789
46;1673369296.4496622;47.1306422;7.2406191;2.0889999866485596;1673369296.4799602;15.452445030212402;10.271440505981445;84.0950927734375
47;1673369296.6500056;47.1306422;7.2406193;2.2880001068115234;1673369296.674438;16.035144805908203;7.524827480316162;82.57469177246094
48;1673369296.838662;47.1306424;7.240619499999999;2.4880001544952393;1673369296.8659832;16.504535675048828;11.31447982788086;81.75093841552734
49;1673369297.0596461;47.1306425;7.2406196;2.690000057220459;1673369297.0869734;17.030067443847656;11.225634574890137;80.93882751464844
50;1673369297.2696853;47.130642599999995;7.2406197;2.877000093460083;1673369297.2989268;17.023834228515625;7.9271111488342285;80.2380599975586
51;1673369297.4651735;47.1306425;7.2406197;3.082000255584717;1673369297.4888566;16.877073287963867;10.469197273254395;80.54112243652344
52;1673369297.653422;47.1306424;7.2406197;3.2720000743865967;1673369297.6797743;16.95464515686035;11.190186500549316;80.74237060546875
53;1673369297.8674672;47.1306424;7.2406197;3.4700002670288086;1673369297.8948135;16.61488151550293;7.9304304122924805;80.39817810058594
54;1673369298.0520773;47.1306424;7.240619499999999;3.6700000762939453;1673369298.0745263;16.021907806396484;9.608474731445312;80.65426635742188
55;1673369298.2641728;47.1306423;7.240619499999999;3.870000123977661;1673369298.2836933;16.163705825805664;12.003434181213379;80.93099212646484
56;1673369298.4837127;47.1306423;7.240619499999999;4.065999984741211;1673369298.5071554;16.348644256591797;8.034977912902832;80.35509490966797
57;1673369298.6745973;47.130642099999996;7.240619499999999;4.267000198364258;1673369298.708757;16.113399505615234;8.125530242919922;80.26781463623047
58;1673369298.8848212;47.130641999999995;7.240619499999999;4.453999996185303;1673369298.9053361;16.066036224365234;11.294620513916016;80.69639587402344
59;1673369299.0588043;47.130641999999995;7.240619499999999;4.653000354766846;1673369299.0862803;16.312740325927734;8.738299369812012;80.5301284790039
60;1673369299.2374127;47.130642099999996;7.240619499999999;4.854000091552734;1673369299.263768;16.104520797729492;7.912715435028076;80.44126892089844
61;1673369299.4379714;47.130642099999996;7.240619499999999;5.057000160217285;1673369299.462434;15.989753723144531;11.262389183044434;80.71977996826172
62;1673369299.657975;47.1306422;7.240619499999999;5.258000373840332;1673369299.6823735;16.39965057373047;10.469890594482422;80.71525573730469
63;1673369299.8417494;47.1306423;7.240619499999999;5.457000255584717;1673369299.870055;16.43998146057129;8.131558418273926;80.43285369873047
64;1673369300.0714924;47.1306423;7.2406196;5.65500020980835;1673369300.0988197;16.28861427307129;11.455193519592285;80.73554229736328
65;1673369300.2531457;47.1306423;7.2406197;5.857000350952148;1673369300.2785237;16.494346618652344;11.28713321685791;80.84269714355469
66;1673369300.468053;47.1306423;7.2406196;6.063000202178955;1673369300.491477;16.512802124023438;8.331371307373047;80.65172576904297
67;1673369300.6410375;47.1306424;7.2406196;6.267000198364258;1673369300.666479;16.212051391601562;9.888760566711426;80.60137176513672
68;1673369300.8373225;47.1306424;7.2406196;6.469000339508057;1673369300.8666043;16.283018112182617;12.044320106506348;80.86986541748047
69;1673369301.0386076;47.1306423;7.2406196;6.6650004386901855;1673369301.0669117;16.327133178710938;8.084996223449707;80.51658630371094
70;1673369301.2378392;47.1306422;7.2406196;6.8560004234313965;1673369301.2652328;16.11595916748047;9.456844329833984;80.61529541015625
71;1673369301.447837;47.1306422;7.2406197;7.050000190734863;1673369301.4712615;16.215030670166016;11.836099624633789;80.98954772949219
72;1673369301.6585433;47.1306422;7.2406196;7.250000476837158;1673369301.6858716;16.220075607299805;9.096846580505371;80.74508666992188
73;1673369301.8443065;47.1306422;7.2406196;7.451000213623047;1673369301.869689;16.136343002319336;8.625720977783203;80.53968811035156
74;1673369302.0324736;47.1306423;7.2406196;7.65000057220459;1673369302.0663602;16.056753158569336;12.065520286560059;81.00178527832031
75;1673369302.264353;47.1306423;7.2406196;7.845000267028809;1673369302.2877812;16.201303482055664;10.059134483337402;80.85384368896484
76;1673369302.444843;47.1306423;7.2406197;8.038000106811523;1673369302.4722023;16.166547775268555;7.819279670715332;80.43638610839844
77;1673369302.634794;47.1306422;7.240619799999999;8.234000205993652;1673369302.657285;16.111202239990234;11.616936683654785;80.97380828857422
78;1673369302.8136227;47.1306422;7.240619799999999;8.437000274658203;1673369302.8429482;16.514854431152344;10.622415542602539;80.779296875
79;1673369303.0211554;47.1306422;7.2406198999999996;8.642000198364258;1673369303.0480244;16.610183715820312;7.7766804695129395;80.39750671386719
80;1673369303.214851;47.1306423;7.2406198999999996;8.847000122070312;1673369303.2397919;16.337221145629883;10.094082832336426;80.4848861694336
81;1673369303.4094026;47.1306423;7.24062;9.052000045776367;1673369303.4338827;16.64373779296875;12.141155242919922;80.80951690673828
82;1673369303.6107957;47.1306423;7.24062;9.254000663757324;1673369303.637784;16.59868812561035;8.135905265808105;80.33009338378906
83;1673369303.8043768;47.1306423;7.24062;9.452000617980957;1673369303.8307416;16.33236312866211;9.349020004272461;80.52943420410156
84;1673369304.007592;47.1306422;7.24062;9.651000022888184;1673369304.0349238;16.301233291625977;11.846566200256348;80.85409545898438
85;1673369304.203381;47.1306423;7.24062;9.85300064086914;1673369304.2287686;16.483219146728516;8.182792663574219;80.34214782714844
86;1673369304.4041548;47.1306424;7.2406198999999996;10.054000854492188;1673369304.434488;16.334781646728516;8.81435775756836;80.36479187011719
87;1673369304.6134112;47.1306424;7.2406198999999996;10.279000282287598;1673369304.6439552;16.152128219604492;12.314528465270996;81.28993225097656
88;1673369304.8016858;47.1306423;7.2406196;10.621000289916992;1673369304.828053;16.692747116088867;12.414376258850098;81.82746124267578
89;1673369304.9922104;47.130641999999995;7.2406193;11.000000953674316;1673369305.0185616;16.38652801513672;10.208073616027832;81.20285034179688
90;1673369305.206149;47.1306416;7.2406191;11.384000778198242;1673369305.2325106;15.357122421264648;10.858987808227539;81.33679962158203
91;1673369305.400498;47.1306412;7.240618899999999;11.7760009765625;1673369305.4288566;15.045835494995117;10.583041191101074;81.34707641601562
92;1673369305.6022587;47.130641;7.2406187;12.172000885009766;1673369305.6448343;14.975238800048828;6.447055816650391;80.70951843261719
93;1673369305.8074386;47.130640799999995;7.2406185999999995;12.572000503540039;1673369305.8357728;14.642326354980469;8.193816184997559;80.74050903320312
94;1673369306.0047376;47.130640799999995;7.2406185999999995;12.98900032043457;1673369306.0349984;14.693120956420898;10.289908409118652;81.1041030883789
95;1673369306.19446;47.130640799999995;7.2406187;13.369000434875488;1673369306.2217877;15.026946067810059;6.958968162536621;80.80052185058594
96;1673369306.4046972;47.130641;7.2406187;13.757000923156738;1673369306.4381032;15.097952842712402;7.744276523590088;80.69800567626953
97;1673369306.6262298;47.1306411;7.240618899999999;14.146000862121582;1673369306.6502187;15.41285514831543;11.406128883361816;81.06182861328125
98;1673369306.8324678;47.1306413;7.240619;14.535000801086426;1673369306.8584435;15.867440223693848;8.667142868041992;80.72677612304688
99;1673369307.044052;47.1306416;7.240619;14.92400074005127;1673369307.0753527;15.948396682739258;8.914079666137695;80.7791976928711
100;1673369307.2427547;47.1306418;7.2406191;15.314001083374023;1673369307.2700863;15.982087135314941;12.447876930236816;81.25967407226562
101;1673369307.447032;47.130641999999995;7.240619199999999;15.700000762939453;1673369307.4753358;16.173553466796875;10.33414363861084;81.13404083251953
102;1673369307.6382859;47.130641999999995;7.240619199999999;16.084001541137695;1673369307.6622672;16.122879028320312;8.567172050476074;80.69731140136719
103;1673369307.8327334;47.130641999999995;7.2406193;16.4689998626709;1673369307.858721;15.906095504760742;11.938207626342773;81.23614501953125
104;1673369308.0252497;47.130641999999995;7.240619199999999;16.85700035095215;1673369308.0521715;15.96214771270752;11.297213554382324;81.24823760986328
105;1673369308.2225726;47.130641999999995;7.240619199999999;17.249000549316406;1673369308.24949;16.04305648803711;8.55290699005127;80.84526824951172
106;1673369308.4315221;47.130641999999995;7.2406191;17.644001007080078;1673369308.4624226;15.696362495422363;10.023456573486328;80.85963439941406
107;1673369308.6468382;47.130641999999995;7.2406191;18.03700065612793;1673369308.6733468;15.66807746887207;11.82614803314209;81.2378158569336
108;1673369308.8500001;47.1306419;7.2406191;18.427000045776367;1673369308.8734326;15.808112144470215;8.338104248046875;80.8680648803711
109;1673369309.04209;47.1306418;7.2406191;18.81800079345703;1673369309.0650988;15.417440414428711;8.854202270507812;80.85368347167969
110;1673369309.2560859;47.1306417;7.2406191;19.21500015258789;1673369309.2775645;15.503859519958496;11.335286140441895;81.01869201660156
111;1673369309.4843638;47.1306416;7.2406191;19.61400032043457;1673369309.508746;15.877456665039062;8.056076049804688;80.50723266601562
112;1673369309.698068;47.1306417;7.240619;20.012001037597656;1673369309.7215014;15.614690780639648;8.21592903137207;80.52986145019531
113;1673369309.8831356;47.1306418;7.240619;20.409000396728516;1673369309.903702;15.448729515075684;11.569695472717285;81.17216491699219
114;1673369310.057889;47.1306419;7.2406191;20.80000114440918;1673369310.0793982;15.655752182006836;9.540923118591309;81.10494995117188
115;1673369310.2238638;47.130641999999995;7.2406191;21.189001083374023;1673369310.2483;15.766267776489258;8.100687980651855;80.57093048095703
116;1673369310.4080648;47.130641999999995;7.2406191;21.57900047302246;1673369310.4334457;15.658726692199707;11.722078323364258;81.11788940429688
117;1673369310.61275;47.130642099999996;7.2406191;21.97100067138672;1673369310.6412234;15.8142728805542;10.530976295471191;80.95896911621094
118;1673369310.8206801;47.1306422;7.240619;22.36600112915039;1673369310.8450825;15.868057250976562;8.580734252929688;80.87995147705078
119;1673369311.0253994;47.1306423;7.240618899999999;22.762001037597656;1673369311.0513391;15.56334114074707;11.420573234558105;80.91785430908203
120;1673369311.232651;47.1306424;7.240618899999999;23.156002044677734;1673369311.2645056;15.711240768432617;11.400623321533203;81.03864288330078
121;1673369311.4304073;47.1306423;7.240618899999999;23.541000366210938;1673369311.4559505;15.846696853637695;8.226921081542969;80.62413787841797
122;1673369311.62258;47.1306423;7.240618899999999;23.927001953125;1673369311.6469817;15.40974235534668;10.373762130737305;80.99964904785156
123;1673369311.812214;47.1306422;7.240618899999999;24.319000244140625;1673369311.8366168;15.581161499023438;11.640494346618652;81.14128112792969
124;1673369312.0095122;47.1306422;7.240618899999999;24.713001251220703;1673369312.0426862;15.718066215515137;8.535853385925293;80.7411117553711
125;1673369312.2088337;47.1306423;7.240618899999999;25.10900115966797;1673369312.2342107;15.574110984802246;9.15791130065918;80.70066833496094
126;1673369312.4091423;47.1306423;7.240618899999999;25.506000518798828;1673369312.4365497;15.551595687866211;11.972508430480957;81.14341735839844
127;1673369312.6106791;47.1306423;7.240619;25.894001007080078;1673369312.6409743;15.946277618408203;9.085692405700684;80.93480682373047
128;1673369312.810587;47.1306422;7.2406191;26.279001235961914;1673369312.8340106;15.826337814331055;8.58666706085205;80.71650695800781
129;1673369313.0083618;47.1306422;7.2406191;26.66900062561035;1673369313.034715;15.718118667602539;11.802661895751953;81.10343933105469
130;1673369313.2037098;47.1306422;7.240619199999999;27.065000534057617;1673369313.232025;15.950681686401367;9.427830696105957;80.79302978515625
131;1673369313.427755;47.1306423;7.2406191;27.465002059936523;1673369313.4526968;15.87083625793457;8.651473045349121;80.68582916259766
132;1673369313.6329741;47.1306424;7.240619;27.863000869750977;1673369313.6579556;15.654762268066406;11.962798118591309;81.12007904052734
133;1673369313.8325164;47.1306424;7.240619;28.2760009765625;1673369313.8619828;15.801590919494629;10.708532333374023;81.07855224609375
134;1673369314.049195;47.1306424;7.240619;28.652000427246094;1673369314.0761864;15.665968894958496;8.401735305786133;80.68699645996094
135;1673369314.2387662;47.1306423;7.240619;29.047000885009766;1673369314.2607803;15.54749584197998;11.310311317443848;81.16292572021484
136;1673369314.4214923;47.1306422;7.240619;29.444002151489258;1673369314.4498065;15.512311935424805;11.08678913116455;81.02291107177734
137;1673369314.615347;47.1306423;7.240618899999999;29.841001510620117;1673369314.641727;15.763785362243652;8.200262069702148;80.59778594970703
138;1673369314.8230555;47.1306423;7.240618899999999;30.23400115966797;1673369314.8548443;15.58584213256836;9.896098136901855;80.65641784667969
139;1673369315.0242832;47.1306423;7.240619;30.624000549316406;1673369315.0581698;15.50186824798584;12.044416427612305;81.2035140991211
140;1673369315.2568803;47.1306423;7.240619;31.007001876831055;1673369315.2812955;15.765539169311523;8.761906623840332;80.7962875366211
141;1673369315.4477139;47.1306422;7.2406191;31.391000747680664;1673369315.4679484;15.586382865905762;9.320816993713379;80.8245620727539
142;1673369315.6490097;47.1306422;7.2406191;31.782001495361328;1673369315.6739612;15.748046875;11.872945785522461;80.9945297241211
143;1673369315.842351;47.1306422;7.2406191;32.177001953125;1673369315.8741324;15.848288536071777;9.01683235168457;80.74605560302734
144;1673369316.0429783;47.1306423;7.2406191;32.573001861572266;1673369316.0776868;15.610450744628906;8.744460105895996;80.6791000366211
145;1673369316.2539735;47.1306424;7.2406191;32.97200012207031;1673369316.2799437;15.551071166992188;12.121036529541016;81.07376861572266
146;1673369316.4569387;47.1306424;7.240619199999999;33.37000274658203;1673369316.485215;15.740832328796387;10.539591789245605;81.03226470947266
147;1673369316.6497781;47.1306424;7.240619199999999;33.76000213623047;1673369316.6727817;15.8126859664917;8.420023918151855;80.70963287353516
148;1673369316.8337133;47.1306423;7.2406193;34.152000427246094;1673369316.8576763;15.607964515686035;11.30752182006836;81.09138488769531
149;1673369317.0330486;47.1306423;7.2406193;34.55000305175781;1673369317.0611317;15.699152946472168;11.19188117980957;81.04566955566406
150;1673369317.233203;47.1306424;7.2406193;34.95000076293945;1673369317.2610614;15.806395530700684;8.49276351928711;80.84073638916016
151;1673369317.4324567;47.1306424;7.2406193;35.35100173950195;1673369317.4599447;15.772879600524902;10.296927452087402;80.9013671875
152;1673369317.654883;47.1306424;7.2406194;35.75300216674805;1673369317.6846964;15.780268669128418;11.86964225769043;81.16574096679688
153;1673369317.8675747;47.1306424;7.2406194;36.14800262451172;1673369317.8939273;15.9743070602417;8.435613632202148;80.67841339111328
154;1673369318.0707378;47.1306423;7.240619499999999;36.544002532958984;1673369318.0991864;15.755900382995605;9.433867454528809;80.90534210205078
155;1673369318.275475;47.1306424;7.240619499999999;36.945003509521484;1673369318.3018408;15.595467567443848;12.04675579071045;81.12873840332031
156;1673369318.470053;47.1306424;7.2406194;37.349002838134766;1673369318.4925292;15.954140663146973;9.07574462890625;80.74188232421875
157;1673369318.644406;47.130642599999995;7.2406194;37.75300216674805;1673369318.672276;15.75546646118164;9.359478950500488;80.72054290771484
158;1673369318.8407512;47.130642699999996;7.2406193;38.156002044677734;1673369318.8695996;15.49688720703125;12.370706558227539;81.14921569824219
159;1673369319.0438917;47.130642699999996;7.2406193;38.55800247192383;1673369319.0707972;15.711441993713379;10.384325981140137;80.95548248291016
160;1673369319.2414064;47.130642699999996;7.2406193;38.952003479003906;1673369319.267879;15.661752700805664;8.657734870910645;80.59489440917969
161;1673369319.4481905;47.130642599999995;7.2406194;39.34800338745117;1673369319.4795282;15.479671478271484;11.755805969238281;81.03605651855469
162;1673369319.649519;47.130642599999995;7.2406194;39.75;1673369319.6812959;15.715489387512207;11.178506851196289;81.05001068115234
163;1673369319.844068;47.130642599999995;7.2406194;40.15300369262695;1673369319.8719866;15.928524017333984;8.497385025024414;80.84683990478516
164;1673369320.0240119;47.130642599999995;7.240619499999999;40.55500030517578;1673369320.0510654;15.71651840209961;11.322222709655762;80.9690170288086
165;1673369320.227059;47.130642599999995;7.240619499999999;40.957000732421875;1673369320.2544076;15.876218795776367;11.348968505859375;81.08229064941406
166;1673369320.43413;47.130642599999995;7.240619499999999;41.35100173950195;1673369320.4639661;16.00939178466797;8.272194862365723;80.63262176513672
167;1673369320.6491876;47.1306425;7.2406196;41.74800109863281;1673369320.6792564;15.743149757385254;10.19947338104248;80.90242004394531
168;1673369320.8422072;47.1306424;7.240619499999999;42.15300369262695;1673369320.8676925;15.648170471191406;11.734606742858887;80.98860168457031
169;1673369321.0397253;47.1306425;7.2406194;42.56100082397461;1673369321.0729425;15.684246063232422;8.361942291259766;80.47798156738281
170;1673369321.2645283;47.1306425;7.2406193;42.97100067138672;1673369321.2918565;15.538749694824219;9.338516235351562;80.50796508789062
171;1673369321.4388425;47.130642599999995;7.2406193;43.37900161743164;1673369321.4612963;15.516358375549316;12.297904968261719;81.18982696533203
172;1673369321.6247532;47.130642599999995;7.2406193;43.784000396728516;1673369321.6511068;15.634321212768555;9.40600872039795;80.93706512451172
173;1673369321.8190033;47.130642599999995;7.2406193;44.182003021240234;1673369321.8476057;15.505691528320312;8.706789016723633;80.65838623046875
174;1673369322.0444782;47.130642599999995;7.2406194;44.582000732421875;1673369322.0728416;15.564352035522461;12.114739418029785;81.18815612792969
175;1673369322.2424357;47.130642599999995;7.2406194;44.98500061035156;1673369322.2703426;15.805829048156738;10.429182052612305;80.95711517333984
176;1673369322.4289854;47.130642599999995;7.2406193;45.38600158691406;1673369322.4582858;15.808451652526855;8.772603988647461;80.89790344238281
177;1673369322.6460798;47.130642699999996;7.2406193;45.785003662109375;1673369322.6788356;15.426119804382324;11.601957321166992;81.09075164794922
178;1673369322.8600817;47.130642699999996;7.2406193;46.18400192260742;1673369322.882095;15.769591331481934;11.308655738830566;81.1720962524414
179;1673369323.033056;47.130642599999995;7.2406194;46.57500076293945;1673369323.0574617;15.857157707214355;8.20948314666748;80.64673614501953
180;1673369323.2266042;47.1306425;7.2406194;46.97100067138672;1673369323.2877398;15.685938835144043;10.848328590393066;80.84852600097656
181;1673369323.4666736;47.1306424;7.2406194;47.375003814697266;1673369323.4930472;15.59334659576416;11.336127281188965;81.10445404052734
182;1673369323.6587486;47.1306424;7.2406194;47.78300094604492;1673369323.6856377;15.817129135131836;8.630638122558594;80.90544128417969
183;1673369323.843849;47.1306425;7.2406194;48.18400192260742;1673369323.8721905;15.421637535095215;10.627954483032227;80.86109924316406
184;1673369324.0416;47.1306425;7.240619499999999;48.548004150390625;1673369324.0684955;15.844396591186523;12.403698921203613;81.19830322265625
185;1673369324.258995;47.130642599999995;7.2406196;48.84300231933594;1673369324.2834442;15.720039367675781;8.923535346984863;80.79961395263672
186;1673369324.5023685;47.1306428;7.2406198999999996;49.08000183105469;1673369324.528725;15.856351852416992;9.295568466186523;80.70780944824219
187;1673369324.694915;47.1306429;7.2406201;49.27100372314453;1673369324.7212543;16.400423049926758;12.154897689819336;80.70646667480469
188;1673369324.8777368;47.1306431;7.2406201999999995;49.445003509521484;1673369324.9021363;26.89594841003418;8.68428897857666;78.59912872314453
189;1673369325.060874;47.1306434;7.2406197;49.599002838134766;1673369325.0838537;38.727718353271484;-15.729368209838867;67.3993911743164
190;1673369325.2465506;47.1306442;7.240616999999999;49.730003356933594;1673369325.274423;40.49650955200195;-26.543460845947266;57.484336853027344
191;1673369325.4497085;47.1306459;7.2406117;49.83000183105469;1673369325.473742;30.681259155273438;-31.79244613647461;49.285438537597656
192;1673369325.6453393;47.1306486;7.2406044;49.906002044677734;1673369325.6732206;21.852083206176758;-28.895000457763672;40.071956634521484
193;1673369325.8370724;47.1306521;7.2405957;49.970001220703125;1673369325.8614762;10.516640663146973;-39.26131057739258;29.29966926574707
194;1673369326.0295134;47.130656699999996;7.2405857;50.040000915527344;1673369326.0578268;-9.26419734954834;-47.339969635009766;18.59687614440918
195;1673369326.2265787;47.1306629;7.240574;50.10300064086914;1673369326.2548835;-31.363643646240234;-46.53291702270508;7.374805927276611
196;1673369326.4407349;47.1306711;7.240560299999999;50.156002044677734;1673369326.4700239;-45.73142623901367;-43.078304290771484;-4.642348289489746
197;1673369326.6592274;47.1306817;7.2405443;50.18800354003906;1673369326.6895163;-52.720306396484375;-36.43082809448242;-16.211400985717773
198;1673369326.8678813;47.1306942;7.240526;50.18700408935547;1673369326.8938036;-54.4383544921875;-27.332910537719727;-28.722585678100586
199;1673369327.0598996;47.1307081;7.240505799999999;50.15200424194336;1673369327.0862956;-52.83279037475586;-19.061752319335938;-36.551536560058594
200;1673369327.2608924;47.1307231;7.2404844;50.09300231933594;1673369327.2907135;-49.13536834716797;-14.775492668151855;-41.444244384765625
201;1673369327.4709976;47.1307389;7.240462099999999;50.02800369262695;1673369327.4969485;-49.31069564819336;-11.277408599853516;-47.57383728027344
202;1673369327.6722157;47.1307554;7.2404392;49.97200393676758;1673369327.6981847;-49.472015380859375;-7.929188251495361;-54.07130432128906
203;1673369327.863297;47.130772099999994;7.2404157;49.92000198364258;1673369327.8906581;-46.58809280395508;-5.638215065002441;-54.65336227416992
204;1673369328.053235;47.1307891;7.240392099999999;49.87200164794922;1673369328.0772047;-43.26845169067383;-6.744869709014893;-51.31126022338867
205;1673369328.2438822;47.130806199999995;7.2403688;49.83700180053711;1673369328.2712073;-44.95329666137695;-8.332420349121094;-50.016231536865234
206;1673369328.441407;47.1308234;7.2403455;49.8280029296875;1673369328.4667938;-47.13105010986328;-8.936269760131836;-49.39756393432617
207;1673369328.6661725;47.130840899999995;7.2403222;49.83700180053711;1673369328.6954737;-48.37017822265625;-10.363883018493652;-49.02998352050781
208;1673369328.8588307;47.130858499999995;7.2402986;49.858001708984375;1673369328.9253666;-49.060272216796875;-11.31148624420166;-49.21346664428711
209;1673369329.076951;47.1308763;7.240274599999999;49.88200378417969;1673369329.1023269;-48.86471939086914;-12.02916431427002;-49.361324310302734
210;1673369329.2602081;47.1308941;7.240250199999999;49.90200424194336;1673369329.2896137;-48.13579559326172;-12.196664810180664;-49.676822662353516
211;1673369329.474482;47.1309119;7.240225499999999;49.92100143432617;1673369329.50249;-47.78202438354492;-12.325276374816895;-49.81969451904297
212;1673369329.679099;47.130929599999995;7.240200499999999;49.92900085449219;1673369329.7093263;-47.61625289916992;-12.404679298400879;-50.014984130859375
213;1673369329.8755312;47.1309472;7.2401754;49.935001373291016;1673369329.9040828;-46.320919036865234;-14.775595664978027;-50.095699310302734
214;1673369330.0744033;47.1309645;7.24015;49.941001892089844;1673369330.0985503;-44.65019226074219;-14.490073204040527;-58.315673828125
215;1673369330.2516751;47.130981299999995;7.240124499999999;49.9160041809082;1673369330.2760198;-35.611175537109375;-9.025446891784668;-71.16437530517578
216;1673369330.444932;47.130997699999995;7.2400994;49.62200164794922;1673369330.4666464;-3.2036542892456055;-12.151594161987305;-84.558837890625
217;1673369330.6417792;47.1310146;7.2400739;48.92100143432617;1673369330.6718786;46.12981033325195;-40.6455078125;-115.4320068359375
218;1673369330.8469474;47.1310302;7.240050399999999;47.8640022277832;1673369330.874097;47.75422286987305;-128.38983154296875;156.73239135742188
219;1673369331.0447617;47.1310463;7.2400259;46.4170036315918;1673369331.0702739;15.905539512634277;-152.39520263671875;134.22695922851562
220;1673369331.2536516;47.131062299999996;7.240002;44.62300109863281;1673369331.280867;4.868892669677734;-152.37301635742188;135.11083984375
221;1673369331.4510076;47.1310782;7.2399787;42.46000289916992;1673369331.4868178;15.859771728515625;-133.65289306640625;143.6359405517578
222;1673369331.6660674;47.131094399999995;7.239954999999999;39.8380012512207;1673369331.6957524;22.443012237548828;-78.99787139892578;-178.50213623046875
223;1673369331.8729806;47.1311093;7.239933;37.077003479003906;1673369331.8979478;-7.317747116088867;-14.06478500366211;-146.12168884277344
224;1673369332.073875;47.131124799999995;7.2399102;33.79199981689453;1673369332.0979893;-41.820987701416016;28.842937469482422;-139.21804809570312
225;1673369332.2701066;47.1311402;7.239888199999999;30.136001586914062;1673369332.298012;-54.914939880371094;35.98819351196289;-130.5975341796875
226;1673369332.4716358;47.1311555;7.2398668;26.150001525878906;1673369332.496883;-33.468265533447266;3.916111469268799;-105.16641235351562
227;1673369332.6827457;47.1311706;7.2398462;21.809001922607422;1673369332.7079735;23.69673728942871;-28.092336654663086;-105.29727172851562
228;1673369332.8618855;47.1311858;7.2398257;17.069000244140625;1673369332.8869781;65.16890716552734;-91.92431640625;-159.02333068847656
229;1673369333.0496063;47.1312011;7.239805;12.006000518798828;1673369333.0788922;71.5087890625;-136.01214599609375;155.32017517089844
230;1673369333.2817304;47.1312163;7.2397844;6.64900016784668;1673369333.3141048;67.22154998779297;-7.652490615844727;-83.1537857055664
231;1673369333.4659765;47.1312315;7.2397635;0.9540000557899475;1673369333.4909358;4.979396343231201;4.389161109924316;-72.020751953125
232;1673369333.6501677;47.131242;7.2397542999999995;0.6460000276565552;1673369333.6769526;-11.766918182373047;5.670915126800537;-62.817081451416016
233;1673369333.8370738;47.131251899999995;7.2397497;0.8760000467300415;1673369333.8650036;-16.712345123291016;-4.6157121658325195;-47.67135238647461
234;1673369334.0480282;47.131261699999996;7.239745999999999;0.9960000514984131;1673369334.0757308;-14.747642517089844;1.6684986352920532;-47.61133575439453
235;1673369334.261867;47.1312709;7.239741899999999;1.0540000200271606;1673369334.2869878;-14.271147727966309;1.1555830240249634;-47.471221923828125
236;1673369334.4609418;47.131279;7.2397373;1.0550000667572021;1673369334.4897318;-13.942361831665039;0.7806993126869202;-47.0709342956543
237;1673369334.6797504;47.1312856;7.2397320999999994;1.037000060081482;1673369334.703881;-13.54292106628418;0.4309811592102051;-46.54736328125
238;1673369334.8918495;47.131292599999995;7.2397259;1.0450000762939453;1673369334.915825;-13.40078067779541;0.26421475410461426;-46.358646392822266
239;1673369335.11803;47.1313016;7.2397184999999995;1.0470000505447388;1673369335.1427026;-13.296828269958496;0.20770470798015594;-46.345977783203125
240;1673369335.3149545;47.1313119;7.2397101;1.0290000438690186;1673369335.3407722;-13.211359977722168;0.159810408949852;-46.319149017333984
241;1673369335.5181816;47.1313232;7.239700699999999;0.9970000386238098;1673369335.5399125;-13.0791015625;0.09067734330892563;-46.26279067993164
242;1673369335.6959383;47.131335199999995;7.239690599999999;0.9610000252723694;1673369335.7219534;-13.061849594116211;0.03174722194671631;-46.20751953125
243;1673369335.8800244;47.131347899999994;7.239679499999999;0.9240000247955322;1673369335.9029474;-12.918641090393066;-0.038361143320798874;-46.14401626586914
244;1673369336.0538988;47.131361;7.2396676;0.9010000228881836;1673369336.0800247;-12.863698959350586;-0.09685217589139938;-46.06239700317383
245;1673369336.2621546;47.1313746;7.2396549;0.8730000257492065;1673369336.2888114;-12.838500022888184;-0.1522025763988495;-45.99949264526367
246;1673369336.4499476;47.131388699999995;7.2396413;0.8370000123977661;1673369336.481696;-12.750448226928711;-0.22496576607227325;-45.94111633300781
247;1673369336.665015;47.1314031;7.239626899999999;0.7940000295639038;1673369336.7069376;-12.648736953735352;-0.2781582772731781;-45.87141036987305
248;1673369336.8710175;47.131418;7.239611699999999;0.7480000257492065;1673369336.895015;-12.58403205871582;-0.34807905554771423;-45.792320251464844
249;1673369337.071062;47.1314332;7.2395958;0.6970000267028809;1673369337.0989945;-12.505534172058105;-0.4208034574985504;-45.7076530456543
250;1673369337.2459254;47.1314488;7.239579;0.6440000534057617;1673369337.2708914;-12.460582733154297;-0.49500778317451477;-45.625938415527344
251;1673369337.4341214;47.131464799999996;7.2395615;0.5860000252723694;1673369337.4618192;-12.442909240722656;-0.5645013451576233;-45.563385009765625
252;1673369337.6352565;47.131481099999995;7.2395432;0.527999997138977;1673369337.6641665;-12.378296852111816;-0.626268744468689;-45.48854446411133
253;1673369337.8379195;47.131497599999996;7.239524299999999;0.47200003266334534;1673369337.8659554;-12.29686450958252;-0.7058650851249695;-45.405757904052734
254;1673369338.065825;47.1315144;7.2395048;0.4150000214576721;1673369338.0900502;-12.226773262023926;-0.7563021183013916;-45.322349548339844
255;1673369338.278062;47.1315315;7.2394846;0.359000027179718;1673369338.305867;-12.133625030517578;-0.8214679956436157;-45.25836944580078
256;1673369338.4799178;47.1315489;7.2394637;0.30300000309944153;1673369338.5059483;-12.072436332702637;-0.8714281916618347;-45.17847442626953
257;1673369338.6798878;47.1315667;7.2394421;0.23200000822544098;1673369338.7050455;-12.007841110229492;-0.9381768107414246;-45.126976013183594
258;1673369338.8726668;47.1315847;7.2394199;0.16500000655651093;1673369338.900308;-11.930365562438965;-0.9767401814460754;-45.06386947631836
259;1673369339.066733;47.1316029;7.239397299999999;0.10600000619888306;1673369339.0930164;-11.812121391296387;-1.0417916774749756;-44.9937858581543
260;1673369339.2864454;47.1316211;7.2393743;0.052000001072883606;1673369339.314936;-11.693552017211914;-1.0894184112548828;-44.891658782958984
261;1673369339.5020776;47.1316395;7.239351;0.0;1673369339.5289836;-11.587400436401367;-1.1204527616500854;-44.844295501708984
262;1673369339.6778417;47.1316493;7.2393385;-0.049000002443790436;1673369339.7050061;-11.52243423461914;-1.169036626815796;-44.7710075378418
263;;;;;1673369339.90391;-11.484844207763672;-1.2194252014160156;-44.678897857666016
264;;;;;1673369340.0883644;-11.390242576599121;-1.2517187595367432;-44.60154724121094
265;;;;;1673369340.2827585;-11.284631729125977;-1.680992603302002;-44.53324508666992
266;;;;;1673369340.4932685;-11.251150131225586;-2.1953868865966797;-44.466434478759766
267;;;;;1673369340.7202432;-11.18095874786377;-2.4992265701293945;-44.49235916137695
268;;;;;1673369340.915745;-11.072585105895996;-2.682302236557007;-44.546531677246094
