;pos_time;latitude;longitude;altitude;alt_time;pitch;roll;yaw
0;1673369512.5036774;47.1306424;7.2406198999999996;-0.005000000353902578;1673369512.6673634;-0.13994526863098145;-0.29800859093666077;90.58733367919922
1;1673369512.716852;47.1306424;7.24062;-0.007000000216066837;1673369512.8530393;-0.02634340710937977;-0.1584050953388214;90.6375961303711
2;1673369512.921943;47.1306424;7.24062;-0.00800000037997961;1673369513.0413916;-0.07077869027853012;-0.24852354824543;90.59642791748047
3;1673369513.0986204;47.1306424;7.24062;-0.01100000087171793;1673369513.2475576;-0.030153842642903328;-0.22206291556358337;90.66552734375
4;1673369513.3066757;47.1306423;7.2406201;-0.010000000707805157;1673369513.4605753;0.013673011213541031;-0.23907971382141113;90.74214172363281
5;1673369513.5227313;47.1306423;7.2406201;-0.012000000104308128;1673369513.6778946;-0.010617158375680447;-0.11954161524772644;90.51282501220703
6;1673369513.7380142;47.1306423;7.2406201;-0.014000000432133675;1673369513.866635;-0.17847315967082977;-0.31217342615127563;90.67631530761719
7;1673369513.926885;47.1306423;7.2406201;-0.014000000432133675;1673369514.0751593;-0.22978833317756653;-0.20849226415157318;90.56505584716797
8;1673369514.1350284;47.1306423;7.2406201999999995;-0.01600000075995922;1673369514.2771266;0.07858344167470932;-0.23892395198345184;90.60243225097656
9;1673369514.3335774;47.1306423;7.2406201999999995;-0.017000000923871994;1673369514.4569316;-0.04830396920442581;-0.4831099212169647;90.47299194335938
10;1673369514.5072546;47.1306423;7.2406201999999995;0.0;1673369514.6690977;-0.2014000564813614;-1.6530883312225342;90.65074157714844
11;1673369514.7360604;47.1306423;7.2406201999999995;0.0;1673369514.8734062;-0.2177237868309021;-0.9771330952644348;90.7041015625
12;1673369514.9344566;47.1306423;7.2406201999999995;0.0;1673369515.0775645;-0.2559838891029358;-1.2100862264633179;90.56124877929688
13;1673369515.1347268;47.1306423;7.2406201999999995;-0.003000000026077032;1673369515.269162;0.07824288308620453;-0.9804555773735046;90.46163940429688
14;1673369515.3173516;47.1306424;7.2406201;-0.006000000052154064;1673369515.475353;-0.31103309988975525;-1.23567533493042;90.71053314208984
15;1673369515.5405478;47.1306424;7.2406201999999995;-0.00800000037997961;1673369515.682467;-0.4280000925064087;-1.3411469459533691;90.55024719238281
16;1673369515.7363162;47.1306424;7.2406201999999995;-0.009000000543892384;1673369515.8735087;-0.3880707621574402;-1.9339401721954346;90.73241424560547
17;1673369515.9342163;47.1306424;7.2406201999999995;-0.00800000037997961;1673369516.0703197;-0.49909698963165283;-1.5545355081558228;90.74872589111328
18;1673369516.121488;47.1306424;7.2406201999999995;0.0;1673369516.2501812;-0.3379358649253845;-0.8653865456581116;90.78106689453125
19;1673369516.3024518;47.1306425;7.2406201999999995;0.0020000000949949026;1673369516.440355;-0.483577698469162;-0.2616652846336365;91.03702545166016
20;1673369516.4925213;47.1306425;7.2406201999999995;0.005000000353902578;1673369516.6326895;-0.5345272421836853;-0.7393346428871155;90.664794921875
21;1673369516.696523;47.1306425;7.2406201999999995;0.003000000026077032;1673369516.8444247;-0.7811126112937927;-0.9288192391395569;91.32421112060547
22;1673369516.904748;47.130642599999995;7.2406201999999995;0.0020000000949949026;1673369517.0524483;-0.7271291613578796;-0.7753681540489197;91.810546875
23;1673369517.1043108;47.130642699999996;7.2406201999999995;0.0020000000949949026;1673369517.2451406;-0.6540856957435608;-0.8630464673042297;93.24147033691406
24;1673369517.3033247;47.1306429;7.2406203;-0.0010000000474974513;1673369517.4452128;-0.239248126745224;-0.6186767816543579;97.39874267578125
25;1673369517.5013845;47.130643199999994;7.2406204999999995;-0.003000000026077032;1673369517.6403635;-0.7284430861473083;-0.4466760456562042;106.74759674072266
26;1673369517.696316;47.1306438;7.240621;-0.0010000000474974513;1673369517.8463323;0.6625904440879822;-1.502819299697876;113.10673522949219
27;1673369517.9162438;47.1306448;7.2406223;0.004000000189989805;1673369518.0695112;1.8244900703430176;1.7221572399139404;103.75515747070312
28;1673369518.1261783;47.130646299999995;7.2406245;0.01900000125169754;1673369518.2733765;3.989018201828003;4.626262664794922;99.18416595458984
29;1673369518.324332;47.1306484;7.2406276;0.03400000184774399;1673369518.4560328;6.079660415649414;9.004568099975586;98.05823516845703
30;1673369518.515392;47.1306509;7.2406315;0.04700000211596489;1673369518.644347;9.35837173461914;14.160032272338867;98.02953338623047
31;1673369518.7023687;47.1306538;7.240635999999999;0.06300000101327896;1673369518.8453913;10.502280235290527;14.852474212646484;97.83975219726562
32;1673369518.9055922;47.1306568;7.2406409;0.08000000566244125;1673369519.0601692;12.168190002441406;15.208697319030762;97.7419204711914
33;1673369519.1183105;47.1306598;7.240646;0.10300000756978989;1673369519.257429;13.594878196716309;17.1781063079834;97.78968811035156
34;1673369519.3122034;47.130662799999996;7.240651199999999;0.12600000202655792;1673369519.4492288;14.970643043518066;18.51171875;97.78518676757812
35;1673369519.5088367;47.1306656;7.2406564;0.15000000596046448;1673369519.6497715;16.696996688842773;19.287113189697266;97.71731567382812
36;1673369519.7054312;47.130668199999995;7.2406612;0.1810000091791153;1673369519.8673193;18.31968116760254;20.75216293334961;97.6353759765625
37;1673369519.9242036;47.130670699999996;7.2406657;0.2150000035762787;1673369520.077676;19.957252502441406;22.298442840576172;97.50139617919922
38;1673369520.1337042;47.1306728;7.2406697;0.2510000169277191;1673369520.2712796;21.666257858276367;23.361858367919922;97.31639862060547
39;1673369520.3261254;47.1306746;7.2406730999999995;0.2930000126361847;1673369520.4566333;23.542469024658203;24.72067642211914;97.12147521972656
40;1673369520.517195;47.130676099999995;7.240675899999999;0.3400000035762787;1673369520.6618998;25.469093322753906;25.915048599243164;96.77046966552734
41;1673369520.7214751;47.1306771;7.240677799999999;0.3890000283718109;1673369520.8821926;27.454221725463867;26.9664249420166;96.34066772460938
42;1673369520.9564772;47.1306776;7.2406789;0.4400000274181366;1673369521.085979;29.518003463745117;28.244096755981445;95.77611541748047
43;1673369521.1381264;47.1306775;7.2406790999999995;0.49400001764297485;1673369521.2539759;31.72684097290039;29.28148078918457;95.21442413330078
44;1673369521.301799;47.1306769;7.240678099999999;0.5509999990463257;1673369521.433802;33.985477447509766;30.275920867919922;94.5103988647461
45;1673369521.4944804;47.1306757;7.2406761;0.6080000400543213;1673369521.6429374;36.42306137084961;31.13943099975586;93.75269317626953
46;1673369521.7036033;47.1306738;7.2406729;0.6710000038146973;1673369521.857136;39.072696685791016;31.76183319091797;92.85337829589844
47;1673369521.9216504;47.1306711;7.2406685;0.7390000224113464;1673369522.0544577;37.72956848144531;29.71835708618164;91.1570053100586
48;1673369522.1062257;47.1306677;7.240663;0.8060000538825989;1673369522.250154;33.92197036743164;25.805410385131836;89.40648651123047
49;1673369522.3068008;47.130663899999995;7.240656599999999;0.8660000562667847;1673369522.4718652;29.153167724609375;21.945646286010742;88.17564392089844
50;1673369522.5285778;47.1306601;7.2406501;0.9170000553131104;1673369522.6726537;24.194395065307617;18.537405014038086;87.63359069824219
51;1673369522.7371519;47.1306563;7.2406438;0.968000054359436;1673369522.8749845;19.639163970947266;15.36057186126709;87.40215301513672
52;1673369522.9434009;47.1306529;7.240638;1.0140000581741333;1673369523.086426;16.309667587280273;13.298626899719238;87.48172760009766
53;1673369523.1514184;47.1306501;7.2406331999999995;1.0570000410079956;1673369523.27297;14.501163482666016;12.945877075195312;87.82552337646484
54;1673369523.327826;47.1306479;7.2406295;1.099000096321106;1673369523.4614208;14.217028617858887;12.851301193237305;88.0533676147461
55;1673369523.5160913;47.130646399999996;7.2406269;1.1440000534057617;1673369523.6618466;15.26565170288086;13.063058853149414;88.14793395996094
56;1673369523.7203972;47.1306454;7.240625199999999;1.1990000009536743;1673369523.8625753;16.95494270324707;15.702677726745605;88.65591430664062
57;1673369523.9185426;47.1306449;7.2406244;1.2630000114440918;1673369524.0765123;18.829063415527344;16.64360809326172;88.6349868774414
58;1673369524.1323123;47.1306447;7.2406241;1.3360000848770142;1673369524.2648087;20.404558181762695;15.725266456604004;88.1125259399414
59;1673369524.3136306;47.1306446;7.2406239999999995;1.4130001068115234;1673369524.4573438;21.893783569335938;19.3710880279541;88.6139907836914
60;1673369524.5178833;47.1306446;7.2406241;1.5000001192092896;1673369524.6565044;22.907548904418945;19.407955169677734;86.5157241821289
61;1673369524.7131577;47.1306446;7.2406239999999995;1.6040000915527344;1673369524.8594646;24.01630210876465;17.825374603271484;86.28411865234375
62;1673369524.922641;47.1306446;7.2406238;1.725000023841858;1673369525.072041;23.668113708496094;20.570167541503906;86.62804412841797
63;1673369525.1268814;47.1306446;7.2406235;1.8590000867843628;1673369525.2607138;23.341930389404297;20.033428192138672;86.44947052001953
64;1673369525.3193269;47.1306444;7.240622999999999;2.0;1673369525.4764183;22.9228572845459;18.000574111938477;85.88807678222656
65;1673369525.5375497;47.1306441;7.2406223999999995;2.1520001888275146;1673369525.6710327;22.252357482910156;19.846118927001953;86.24496459960938
66;1673369525.7205276;47.1306437;7.2406217999999996;2.31600022315979;1673369525.868342;21.38874053955078;18.714160919189453;86.32776641845703
67;1673369525.9368443;47.1306434;7.2406212;2.491000175476074;1673369526.078995;20.658674240112305;16.713836669921875;86.03980255126953
68;1673369526.1264355;47.130643;7.2406206;2.6760001182556152;1673369526.270179;20.59457778930664;18.61138343811035;86.43245697021484
69;1673369526.327806;47.130642699999996;7.2406201999999995;2.8600001335144043;1673369526.4627757;20.460630416870117;17.766218185424805;86.36376953125
70;1673369526.5118406;47.1306425;7.24062;3.0440001487731934;1673369526.6456807;20.414533615112305;15.995255470275879;86.0311050415039
71;1673369526.7028468;47.1306423;7.2406198999999996;3.2300002574920654;1673369526.8402832;20.803436279296875;18.09621810913086;86.5207290649414
72;1673369526.900196;47.130642099999996;7.2406198999999996;3.4170000553131104;1673369527.047413;20.732118606567383;17.878131866455078;86.509765625
73;1673369527.1063023;47.130642099999996;7.2406198999999996;3.6060001850128174;1673369527.2631104;21.190576553344727;16.369035720825195;86.10033416748047
74;1673369527.32167;47.1306422;7.2406201;3.7960002422332764;1673369527.4633358;21.38231086730957;18.266637802124023;86.47769165039062
75;1673369527.5160654;47.1306422;7.2406201999999995;3.9850001335144043;1673369527.6649578;21.752182006835938;18.664155960083008;86.68439483642578
76;1673369527.7148862;47.1306422;7.2406203;4.174000263214111;1673369527.853666;21.74917221069336;16.35750389099121;86.08959197998047
77;1673369527.9163253;47.1306422;7.2406204999999995;4.366000175476074;1673369528.0591412;21.979656219482422;18.20407485961914;86.38130187988281
78;1673369528.1207058;47.1306422;7.2406206;4.565000057220459;1673369528.2645342;22.03423309326172;18.51486587524414;86.48456573486328
79;1673369528.3203669;47.1306423;7.2406206;4.76200008392334;1673369528.462077;21.79738426208496;16.66813087463379;85.98529052734375
80;1673369528.5198774;47.1306424;7.2406206;4.954000473022461;1673369528.6665914;21.961021423339844;18.870262145996094;86.47618865966797
81;1673369528.7274246;47.1306425;7.2406206;5.147000312805176;1673369528.8617303;21.87308120727539;18.929725646972656;86.54656219482422
82;1673369528.9203203;47.130642599999995;7.2406206;5.340000152587891;1673369529.0590644;21.642980575561523;16.83795928955078;86.01492309570312
83;1673369529.1127431;47.130642599999995;7.2406204999999995;5.531000137329102;1673369529.2436507;21.612281799316406;18.562129974365234;86.37227630615234
84;1673369529.2984173;47.130642599999995;7.2406204999999995;5.725000381469727;1673369529.432826;21.515005111694336;18.913131713867188;86.55709075927734
85;1673369529.4870307;47.130642599999995;7.2406204;5.923000335693359;1673369529.6310463;21.648569107055664;16.76593589782715;86.1016845703125
86;1673369529.6882036;47.130642599999995;7.2406204;6.12000036239624;1673369529.8323274;21.631872177124023;18.403165817260742;86.40626525878906
87;1673369529.890501;47.130642599999995;7.2406204;6.318000316619873;1673369530.0396762;21.72370719909668;19.26043128967285;86.65955352783203
88;1673369530.1020372;47.130642599999995;7.2406204;6.517000198364258;1673369530.2506495;21.700443267822266;16.752294540405273;86.07278442382812
89;1673369530.3157363;47.130642599999995;7.2406204;6.714000225067139;1673369530.4784937;21.706432342529297;18.050127029418945;86.26175689697266
90;1673369530.5380938;47.130642599999995;7.2406204;6.910000324249268;1673369530.6816673;21.720640182495117;18.922643661499023;86.52976989746094
91;1673369530.738436;47.130642599999995;7.2406204;7.1050004959106445;1673369530.882401;21.668582916259766;16.818374633789062;86.1164779663086
92;1673369530.9370673;47.130642699999996;7.2406204;7.299000263214111;1673369531.0732937;21.790029525756836;18.22542953491211;86.34058380126953
93;1673369531.1270645;47.130642699999996;7.2406204;7.490000247955322;1673369531.2636464;21.743309020996094;19.368833541870117;86.6534423828125
94;1673369531.317433;47.130642699999996;7.2406204;7.685000419616699;1673369531.444945;21.59120750427246;17.047273635864258;86.16415405273438
95;1673369531.5049708;47.130642699999996;7.2406204;7.880000591278076;1673369531.6662295;21.7484130859375;18.238374710083008;86.37956237792969
96;1673369531.7257838;47.130642699999996;7.2406204;8.075000762939453;1673369531.8768973;21.642704010009766;19.48613929748535;86.57149505615234
97;1673369531.9374795;47.130642699999996;7.2406204;8.271000862121582;1673369532.097575;21.60926628112793;17.0449161529541;86.04009246826172
98;1673369532.1481507;47.130642699999996;7.2406203;8.469000816345215;1673369532.2951365;21.64676284790039;18.30558967590332;86.26736450195312
99;1673369532.3462012;47.130642699999996;7.2406203;8.668000221252441;1673369532.4695482;21.744741439819336;19.09758949279785;86.55191802978516
100;1673369532.5145478;47.130642599999995;7.2406204;8.870000839233398;1673369532.666053;21.74147605895996;16.83807945251465;86.09571838378906
101;1673369532.720849;47.130642599999995;7.2406204;9.075000762939453;1673369532.8764174;21.76110076904297;18.18788719177246;86.38287353515625
102;1673369532.9410286;47.130642599999995;7.2406203;9.276000022888184;1673369533.0869443;21.62126350402832;19.108692169189453;86.56718444824219
103;1673369533.146571;47.130642599999995;7.2406203;9.475000381469727;1673369533.2894237;21.66053581237793;17.049213409423828;86.07315063476562
104;1673369533.3383482;47.130642599999995;7.2406203;9.675000190734863;1673369533.4837403;21.82392120361328;18.243270874023438;86.39181518554688
105;1673369533.5336058;47.130642599999995;7.2406203;9.875;1673369533.6782596;21.529138565063477;19.28247833251953;86.54247283935547
106;1673369533.734091;47.130642599999995;7.2406203;10.07800006866455;1673369533.8638308;21.498769760131836;16.105688095092773;86.04496002197266
107;1673369533.924511;47.1306425;7.2406201999999995;10.321000099182129;1673369534.061101;21.29556655883789;18.088258743286133;86.61965942382812
108;1673369534.1177099;47.1306424;7.2406198999999996;10.680000305175781;1673369534.2748592;22.58362579345703;20.64545249938965;86.71478271484375
109;1673369534.3354168;47.130642099999996;7.2406194;11.065000534057617;1673369534.4771106;20.4525089263916;16.49062156677246;85.94646453857422
110;1673369534.528966;47.1306417;7.240619;11.464000701904297;1673369534.6789846;20.18883514404297;16.57227897644043;86.4252700805664
111;1673369534.7385228;47.130641399999995;7.2406185999999995;11.872000694274902;1673369534.8877668;19.567554473876953;17.435104370117188;86.62078094482422
112;1673369534.935751;47.1306412;7.2406182999999995;12.282000541687012;1673369535.067852;19.39898681640625;15.337530136108398;86.21549987792969
113;1673369535.123792;47.1306412;7.2406182;12.693000793457031;1673369535.2761467;19.441381454467773;16.227561950683594;86.31398010253906
114;1673369535.3327603;47.1306412;7.2406182;13.105000495910645;1673369535.4830687;19.813465118408203;17.971527099609375;86.61997985839844
115;1673369535.5476656;47.1306413;7.2406182999999995;13.512001037597656;1673369535.6976187;20.05284309387207;16.387203216552734;86.26567840576172
116;1673369535.7489548;47.130641499999996;7.2406185;13.921000480651855;1673369535.88799;20.558822631835938;17.170791625976562;86.29552459716797
117;1673369535.9457867;47.1306416;7.2406187;14.328001022338867;1673369536.0996516;20.745189666748047;18.658342361450195;86.69480895996094
118;1673369536.1568124;47.1306418;7.240618899999999;14.730000495910645;1673369536.2952654;21.11223030090332;17.214519500732422;86.33869934082031
119;1673369536.3592753;47.130641999999995;7.2406191;15.129000663757324;1673369536.4967191;21.15068817138672;17.640783309936523;86.18504333496094
120;1673369536.5566142;47.130642099999996;7.2406193;15.523000717163086;1673369536.7111561;21.360002517700195;19.129207611083984;86.51667022705078
121;1673369536.7659712;47.1306422;7.2406194;15.914000511169434;1673369536.931458;21.1095027923584;17.345630645751953;86.1762924194336
122;1673369536.9765472;47.1306422;7.2406194;16.299001693725586;1673369537.1030834;21.22638511657715;17.38274574279785;86.24349975585938
123;1673369537.158298;47.1306422;7.2406194;16.687000274658203;1673369537.290407;21.017108917236328;18.880455017089844;86.55231475830078
124;1673369537.3432362;47.1306422;7.2406194;17.078001022338867;1673369537.4789798;20.828550338745117;16.825822830200195;86.12716674804688
125;1673369537.5347595;47.1306422;7.2406193;17.468000411987305;1673369537.6821249;20.817628860473633;17.4040584564209;86.17830657958984
126;1673369537.738901;47.1306423;7.2406193;17.85900115966797;1673369537.8797505;20.895856857299805;18.81475067138672;86.54228210449219
127;1673369537.9325287;47.1306422;7.2406193;18.251001358032227;1673369538.0770462;20.772062301635742;16.87125015258789;86.27140808105469
128;1673369538.1368766;47.1306422;7.2406194;18.637001037597656;1673369538.2820604;20.804868698120117;16.910017013549805;86.15311431884766
129;1673369538.3426397;47.1306422;7.2406194;19.02400016784668;1673369538.4805691;20.805145263671875;18.502012252807617;86.53077697753906
130;1673369538.5324314;47.1306422;7.240619499999999;19.415000915527344;1673369538.6742706;20.96467399597168;16.95095443725586;86.2677993774414
131;1673369538.7350104;47.1306423;7.240619499999999;19.810001373291016;1673369538.866734;20.859556198120117;17.36290168762207;86.19322967529297
132;1673369538.9199727;47.1306424;7.2406196;20.202001571655273;1673369539.059234;21.11825942993164;19.035627365112305;86.57520294189453
133;1673369539.123684;47.1306424;7.2406196;20.59600067138672;1673369539.2676783;20.824724197387695;17.38194465637207;86.26737976074219
134;1673369539.3226717;47.1306424;7.2406196;20.987001419067383;1673369539.4735146;20.934070587158203;17.346710205078125;86.1310043334961
135;1673369539.5311384;47.1306424;7.2406196;21.371000289916992;1673369539.669023;20.712127685546875;18.908872604370117;86.55281829833984
136;1673369539.7305737;47.1306424;7.2406196;21.759000778198242;1673369539.8733034;20.748403549194336;17.430431365966797;86.24140167236328
137;1673369539.9331849;47.1306424;7.2406196;22.150001525878906;1673369540.0795462;20.969514846801758;17.193756103515625;86.12173461914062
138;1673369540.1382196;47.1306424;7.2406196;22.541000366210938;1673369540.3027494;20.836069107055664;18.699974060058594;86.54949188232422
139;1673369540.351551;47.1306424;7.2406196;22.931001663208008;1673369540.4668221;20.718503952026367;17.48636817932129;86.36847686767578
140;1673369540.5176375;47.1306423;7.2406196;23.319000244140625;1673369540.6567757;20.851970672607422;16.70033073425293;86.03974151611328
141;1673369540.711001;47.1306423;7.2406197;23.70400047302246;1673369540.8504019;20.782470703125;18.708229064941406;86.44412231445312
142;1673369540.905698;47.1306423;7.2406197;24.091001510620117;1673369541.052842;20.997343063354492;17.769418716430664;86.4354248046875
143;1673369541.1122358;47.1306423;7.2406197;24.481000900268555;1673369541.2770667;20.705488204956055;16.855953216552734;86.0831298828125
144;1673369541.3387964;47.1306423;7.240619799999999;24.874000549316406;1673369541.471254;20.923852920532227;18.784364700317383;86.54342651367188
145;1673369541.5290601;47.1306423;7.240619799999999;25.270000457763672;1673369541.671758;20.82868003845215;17.811992645263672;86.41783905029297
146;1673369541.7245321;47.1306423;7.240619799999999;25.667001724243164;1673369541.881608;20.95610809326172;16.669160842895508;86.19390869140625
147;1673369541.94118;47.1306423;7.240619799999999;26.065000534057617;1673369542.092359;20.839746475219727;18.843000411987305;86.52229309082031
148;1673369542.1509216;47.1306423;7.240619799999999;26.4580020904541;1673369542.2916677;20.81902503967285;17.82292938232422;86.35320281982422
149;1673369542.3505573;47.1306423;7.240619799999999;26.852001190185547;1673369542.484953;20.630084991455078;16.89068603515625;86.15103912353516
150;1673369542.5474172;47.1306423;7.240619799999999;27.249000549316406;1673369542.708817;20.955780029296875;18.336111068725586;86.52918243408203
151;1673369542.764939;47.1306422;7.240619799999999;27.649002075195312;1673369542.921976;20.80654525756836;17.932884216308594;86.38249206542969
152;1673369542.9779346;47.1306422;7.2406198999999996;28.051000595092773;1673369543.1149228;20.839248657226562;16.408737182617188;86.0541763305664
153;1673369543.1618514;47.1306422;7.2406198999999996;28.452001571655273;1673369543.2899554;20.834394454956055;18.505077362060547;86.52513122558594
154;1673369543.345645;47.1306422;7.2406198999999996;28.84400177001953;1673369543.4824734;20.714902877807617;17.844993591308594;86.41598510742188
155;1673369543.5364385;47.1306422;7.2406198999999996;29.237001419067383;1673369543.673483;20.846464157104492;16.835920333862305;86.1710205078125
156;1673369543.7301435;47.1306423;7.2406198999999996;29.632001876831055;1673369543.8751957;20.928165435791016;18.219036102294922;86.40875244140625
157;1673369543.9377818;47.1306423;7.2406198999999996;30.02800178527832;1673369544.0824382;20.66301918029785;18.39638328552246;86.4970703125
158;1673369544.1440525;47.1306423;7.2406198999999996;30.424001693725586;1673369544.2868485;20.89633560180664;16.600658416748047;86.11141204833984
159;1673369544.3512654;47.1306424;7.24062;30.823001861572266;1673369544.4839237;20.765119552612305;18.85997772216797;86.4679183959961
160;1673369544.5434957;47.1306424;7.24062;31.224000930786133;1673369544.6950734;20.866413116455078;18.183053970336914;86.35665130615234
161;1673369544.7518854;47.1306424;7.24062;31.61800193786621;1673369544.8912692;20.72039794921875;16.794973373413086;86.08634948730469
162;1673369544.94496;47.1306424;7.24062;32.01100158691406;1673369545.115231;20.876558303833008;18.410675048828125;86.4448013305664
163;1673369545.167622;47.1306423;7.24062;32.406002044677734;1673369545.302117;20.835086822509766;18.193395614624023;86.45985412597656
164;1673369545.3637402;47.1306423;7.24062;32.803001403808594;1673369545.50369;20.80243682861328;16.520126342773438;86.11221313476562
165;1673369545.560399;47.1306423;7.24062;33.20100021362305;1673369545.6952078;20.936429977416992;18.691631317138672;86.53404235839844
166;1673369545.7499762;47.1306424;7.24062;33.60000228881836;1673369545.89632;20.728702545166016;18.142356872558594;86.41234588623047
167;1673369545.955965;47.1306424;7.24062;33.99300003051758;1673369546.0909405;20.784090042114258;16.6297607421875;86.13200378417969
168;1673369546.1466737;47.1306423;7.2406198999999996;34.3910026550293;1673369546.281564;20.782323837280273;18.428325653076172;86.47774505615234
169;1673369546.3403869;47.1306424;7.2406198999999996;34.79100036621094;1673369546.4928763;20.600540161132812;18.2712459564209;86.53457641601562
170;1673369546.5518649;47.1306424;7.240619799999999;35.194000244140625;1673369546.6822639;20.710134506225586;16.692527770996094;86.11809539794922
171;1673369546.7457736;47.1306424;7.240619799999999;35.59700012207031;1673369546.8821719;20.68264389038086;18.788578033447266;86.5582046508789
172;1673369546.9448466;47.1306425;7.240619799999999;35.99800109863281;1673369547.0817962;20.624309539794922;18.37731170654297;86.49381256103516
173;1673369547.141387;47.1306425;7.240619799999999;36.397003173828125;1673369547.2752407;20.771020889282227;16.69858169555664;86.1116943359375
174;1673369547.3357682;47.1306425;7.2406198999999996;36.78900146484375;1673369547.4786255;20.813735961914062;18.36296844482422;86.34280395507812
175;1673369547.5342715;47.1306424;7.2406198999999996;37.17900085449219;1673369547.6791358;20.782291412353516;18.373558044433594;86.45436096191406
176;1673369547.7347672;47.1306425;7.2406198999999996;37.57100296020508;1673369547.882475;20.704341888427734;16.687023162841797;86.09721374511719
177;1673369547.9362273;47.1306425;7.2406198999999996;37.96800231933594;1673369548.08584;20.775848388671875;18.589956283569336;86.42554473876953
178;1673369548.1383064;47.1306425;7.2406198999999996;38.36600112915039;1673369548.2812645;20.656763076782227;18.574926376342773;86.41155242919922
179;1673369548.3408937;47.1306425;7.2406198999999996;38.76100158691406;1673369548.4774463;20.802642822265625;16.532428741455078;86.15229797363281
180;1673369548.5291743;47.1306424;7.2406198999999996;39.14900207519531;1673369548.6665027;20.737401962280273;18.321016311645508;86.45222473144531
181;1673369548.7226806;47.1306424;7.2406198999999996;39.54100036621094;1673369548.8648558;20.619691848754883;18.5364933013916;86.5623550415039
182;1673369548.9319296;47.1306425;7.2406198999999996;39.939002990722656;1673369549.0737603;20.58585548400879;16.878549575805664;86.20881652832031
183;1673369549.1364424;47.1306425;7.2406198999999996;40.3380012512207;1673369549.2780428;20.73870849609375;18.396499633789062;86.36556243896484
184;1673369549.3348467;47.1306425;7.2406198999999996;40.737003326416016;1673369549.4854486;20.66272735595703;18.481969833374023;86.48641204833984
185;1673369549.5499306;47.1306425;7.2406198999999996;41.13300323486328;1673369549.6908576;20.707040786743164;16.877296447753906;86.15857696533203
186;1673369549.7447705;47.1306425;7.2406198999999996;41.5260009765625;1673369549.9144306;20.75664710998535;18.36811637878418;86.3992691040039
187;1673369549.97036;47.1306425;7.2406198999999996;41.91400146484375;1673369550.1211483;20.706483840942383;18.62377166748047;86.54273223876953
188;1673369550.1744325;47.130642599999995;7.2406198999999996;42.302001953125;1673369550.3098934;20.74230194091797;16.957380294799805;86.11204528808594
189;1673369550.3616288;47.130642599999995;7.24062;42.695003509521484;1673369550.4993694;20.815204620361328;18.177839279174805;86.35525512695312
190;1673369550.5579293;47.1306425;7.2406198999999996;43.09300231933594;1673369550.6988606;20.6455135345459;18.742109298706055;86.58867645263672
191;1673369550.750838;47.1306425;7.2406198999999996;43.492000579833984;1673369550.8966346;20.708383560180664;16.826425552368164;86.10179138183594
192;1673369550.9533916;47.1306425;7.24062;43.88600158691406;1673369551.0912719;20.736431121826172;18.136642456054688;86.31061553955078
193;1673369551.1500576;47.1306425;7.24062;44.275001525878906;1673369551.2864308;20.808494567871094;18.652599334716797;86.57808685302734
194;1673369551.3577454;47.1306425;7.24062;44.6670036315918;1673369551.492796;20.616886138916016;16.967082977294922;86.17767333984375
195;1673369551.551356;47.1306425;7.24062;45.060001373291016;1673369551.6949606;20.712278366088867;17.729276657104492;86.3677749633789
196;1673369551.7474823;47.1306424;7.2406198999999996;45.454002380371094;1673369551.8844092;20.65578269958496;18.786304473876953;86.55792999267578
197;1673369551.9558697;47.1306424;7.24062;45.849002838134766;1673369552.0760486;20.72121238708496;16.921207427978516;86.1723861694336
198;1673369552.128479;47.1306425;7.24062;46.24500274658203;1673369552.2712882;20.841745376586914;17.913116455078125;86.40090942382812
199;1673369552.326713;47.1306425;7.24062;46.643001556396484;1673369552.4719238;20.683761596679688;19.18791389465332;86.59049987792969
200;1673369552.5252078;47.1306425;7.24062;47.035003662109375;1673369552.6772137;20.768186569213867;16.87228012084961;86.12419128417969
201;1673369552.7411885;47.1306425;7.24062;47.428001403808594;1673369552.880065;20.823335647583008;18.008953094482422;86.2228012084961
202;1673369552.9309108;47.1306425;7.24062;47.823001861572266;1673369553.0711894;20.49913215637207;18.951854705810547;86.68798828125
203;1673369553.1304138;47.1306425;7.24062;48.20900344848633;1673369553.2687497;20.992733001708984;17.740856170654297;86.20724487304688
204;1673369553.3248909;47.1306425;7.2406201;48.54600143432617;1673369553.47526;20.930448532104492;18.294382095336914;86.36135864257812
205;1673369553.5262647;47.130642599999995;7.2406201999999995;48.83100128173828;1673369553.6573412;21.138080596923828;19.081741333007812;86.59603881835938
206;1673369553.7108436;47.1306428;7.2406204999999995;49.064002990722656;1673369553.861564;21.56217384338379;17.296483993530273;86.08416748046875
207;1673369553.9255767;47.1306429;7.2406209;49.262001037597656;1673369554.0909033;27.481584548950195;18.744783401489258;85.80840301513672
208;1673369554.1447046;47.1306431;7.240621;49.435001373291016;1673369554.2896075;41.422000885009766;-0.6619269847869873;76.15589141845703
209;1673369554.3414118;47.1306435;7.2406201999999995;49.58500289916992;1673369554.478831;48.12148666381836;-14.447396278381348;64.33186340332031
210;1673369554.5369549;47.1306446;7.2406172;49.711002349853516;1673369554.673527;41.23063659667969;-21.709972381591797;56.93509292602539
211;1673369554.7287335;47.1306466;7.2406118;49.814002990722656;1673369554.8752942;33.21001052856445;-25.45010757446289;47.69063949584961
212;1673369554.934863;47.1306497;7.240604599999999;49.89900207519531;1673369555.097962;27.227680206298828;-28.732431411743164;36.8826904296875
213;1673369555.1575637;47.1306534;7.2405965;49.961002349853516;1673369555.300282;14.7474946975708;-41.15547561645508;26.899450302124023
214;1673369555.3539674;47.1306581;7.2405873;50.025001525878906;1673369555.489009;-4.261147499084473;-48.38783645629883;16.296545028686523
215;1673369555.5437305;47.1306643;7.240577;50.082000732421875;1673369555.6809394;-27.293193817138672;-47.90079879760742;3.8131988048553467
216;1673369555.737186;47.1306723;7.2405653;50.125003814697266;1673369555.8823757;-40.557830810546875;-43.89594268798828;-8.469830513000488
217;1673369555.9426181;47.1306824;7.2405519;50.14800262451172;1673369556.0893166;-45.85370635986328;-37.37369918823242;-18.291166305541992
218;1673369556.1459239;47.130694399999996;7.2405368;50.14800262451172;1673369556.2867212;-47.529014587402344;-29.63401985168457;-28.091934204101562
219;1673369556.340409;47.1307079;7.2405202;50.12600326538086;1673369556.4941015;-51.5784797668457;-24.580202102661133;-37.99226760864258
220;1673369556.5458274;47.1307226;7.240502299999999;50.0880012512207;1673369556.6673849;-49.53084945678711;-19.74071502685547;-45.37118911743164
221;1673369556.7206733;47.1307384;7.240483299999999;50.03300094604492;1673369556.8594632;-46.166378021240234;-15.994881629943848;-51.19205856323242
222;1673369556.9241185;47.1307548;7.2404635;49.97100067138672;1673369557.0778918;-47.006324768066406;-12.361669540405273;-57.28654098510742
223;1673369557.1323085;47.1307714;7.2404432;49.91400146484375;1673369557.3008468;-42.517520904541016;-11.065436363220215;-56.25669479370117
224;1673369557.3555412;47.1307882;7.2404227;49.85300064086914;1673369557.5012765;-38.64787292480469;-13.805384635925293;-53.01713943481445
225;1673369557.5589833;47.130804999999995;7.2404025;49.814002990722656;1673369557.687798;-44.47004318237305;-16.18440055847168;-59.29663848876953
226;1673369557.7405047;47.130821499999996;7.240382299999999;49.80400085449219;1673369557.8853164;-47.51589584350586;-10.534574508666992;-70.64093017578125
227;1673369557.9446642;47.1308375;7.240361699999999;49.81100082397461;1673369558.0848634;-46.8856315612793;-5.624848365783691;-79.72631072998047
228;1673369558.1392388;47.130853099999996;7.2403406;49.82500076293945;1673369558.28266;-44.2224235534668;-2.123522996902466;-88.14769744873047
229;1673369558.3457131;47.1308681;7.2403192999999995;49.832000732421875;1673369558.4844851;-40.4675178527832;-0.19509565830230713;-97.0381851196289
230;1673369558.5411425;47.130882199999995;7.2402983;49.83100128173828;1673369558.6937146;-38.375465393066406;-0.5630866289138794;-106.05753326416016
231;1673369558.7474954;47.1308954;7.240277799999999;49.82600402832031;1673369558.8876693;-37.734378814697266;-1.6355677843093872;-115.43061065673828
232;1673369558.948761;47.130907199999996;7.2402584;49.816001892089844;1673369559.0906446;-37.80690383911133;-6.5928215980529785;-124.86556243896484
233;1673369559.1414049;47.1309174;7.24024;49.814002990722656;1673369559.2839148;-40.752925872802734;-24.59661102294922;-129.51089477539062
234;1673369559.3443239;47.1309253;7.240223599999999;49.827003479003906;1673369559.5047004;-35.093170166015625;-22.873165130615234;-142.41079711914062
235;1673369559.5760293;47.1309306;7.2402104;49.83400344848633;1673369559.7180557;-29.352401733398438;-17.026683807373047;-146.04075622558594
236;1673369559.7747574;47.130933899999995;7.2402006;49.83500289916992;1673369559.91184;-30.00786018371582;-22.376422882080078;-140.4172821044922
237;1673369559.9645433;47.1309355;7.240194;49.868003845214844;1673369560.0953918;-37.83021926879883;-26.075721740722656;-139.58921813964844
238;1673369560.1529741;47.1309353;7.2401903;49.92900085449219;1673369560.3121386;-44.99576187133789;-21.664859771728516;-137.80213928222656
239;1673369560.3610308;47.1309331;7.2401887;49.98800277709961;1673369560.4799843;-39.67530059814453;-22.39275360107422;-125.92608642578125
240;1673369560.5281847;47.1309289;7.2401883;50.05600357055664;1673369560.6749628;-29.31623649597168;-22.776166915893555;-111.99615478515625
241;1673369560.7340648;47.1309239;7.2401884999999995;50.118003845214844;1673369560.8887835;-22.66429901123047;-19.888229370117188;-100.99732208251953
242;1673369560.9411962;47.130918699999995;7.240189;50.163002014160156;1673369561.0762277;-20.452754974365234;-15.116037368774414;-90.70372772216797
243;1673369561.1334913;47.130913899999996;7.2401896;50.19300079345703;1673369561.272116;-22.37240219116211;-11.50105094909668;-81.38679504394531
244;1673369561.3282976;47.1309101;7.2401900999999995;50.21200180053711;1673369561.4716175;-28.63174819946289;-6.520879745483398;-72.41844940185547
245;1673369561.5274682;47.130907699999995;7.2401900999999995;50.22100067138672;1673369561.6715379;-40.33861541748047;-3.905055522918701;-63.55856704711914
246;1673369561.7298088;47.130907099999995;7.240189;50.233001708984375;1673369561.866094;-54.05005645751953;-2.948636054992676;-54.70633316040039
247;1673369561.9193757;47.1309091;7.2401861;50.24400329589844;1673369562.0634139;-56.17698669433594;-11.34473991394043;-45.15789031982422
248;1673369562.1217585;47.1309141;7.2401804;50.2390022277832;1673369562.266043;-51.89326095581055;-16.650279998779297;-40.586997985839844
249;1673369562.3254988;47.1309219;7.2401724;50.22700119018555;1673369562.4692574;-52.34931182861328;-18.788057327270508;-44.769004821777344
250;1673369562.5334506;47.130932;7.2401621;50.22600173950195;1673369562.6799586;-54.436790466308594;-18.022153854370117;-50.08336639404297
251;1673369562.7331848;47.1309438;7.240149499999999;50.237003326416016;1673369562.8752887;-53.66080856323242;-15.74401569366455;-51.862998962402344
252;1673369562.9373555;47.1309567;7.2401344;50.23500061035156;1673369563.0760336;-48.072349548339844;-11.804899215698242;-52.506168365478516
253;1673369563.1381152;47.130970399999995;7.2401184;50.079002380371094;1673369563.2812681;-23.993505477905273;0.3887127935886383;-53.918212890625
254;1673369563.3454645;47.1309842;7.240102599999999;49.57400131225586;1673369563.4912093;17.747905731201172;19.92464256286621;-46.21197509765625
255;1673369563.56433;47.130998;7.2400872;48.691001892089844;1673369563.7912154;56.95189666748047;77.52281188964844;3.1966047286987305
256;1673369563.8403254;47.131011699999995;7.2400717;47.40500259399414;1673369563.9457488;40.767852783203125;146.90353393554688;69.57281494140625
257;1673369564.000182;47.1310256;7.240056099999999;45.75800323486328;1673369564.1201277;22.985435485839844;160.288330078125;85.12348175048828
258;1673369564.169276;47.1310394;7.2400408999999994;43.743003845214844;1673369564.2964416;28.625404357910156;156.1212921142578;88.82823944091797
259;1673369564.3434107;47.131053;7.2400264;41.35700225830078;1673369564.4842827;57.62735366821289;129.3590850830078;71.05911254882812
260;1673369564.5413237;47.1310666;7.2400123;38.625;1673369564.6873775;44.152164459228516;21.527414321899414;-34.067264556884766
261;1673369564.7382793;47.1310803;7.2399982;35.54500198364258;1673369564.8753183;-20.79463768005371;6.5983476638793945;-53.381675720214844
262;1673369564.9341464;47.131094;7.2399841;32.055999755859375;1673369565.0721078;-61.8723030090332;8.316271781921387;-62.62069320678711
263;1673369565.1311762;47.1311076;7.2399707;28.19700050354004;1673369565.2660763;-63.06703186035156;15.208765983581543;-70.06358337402344
264;1673369565.3206983;47.131121;7.2399578;24.017000198364258;1673369565.460331;-22.936420440673828;10.514243125915527;-62.063629150390625
265;1673369565.5164874;47.1311342;7.239945499999999;19.494001388549805;1673369565.6601722;45.22254180908203;12.87857723236084;-48.67820739746094
266;1673369565.7200153;47.131147299999995;7.2399336;14.576001167297363;1673369565.8581848;80.4276351928711;114.7384262084961;58.654022216796875
267;1673369565.915786;47.1311605;7.2399213;9.314000129699707;1673369566.076587;80.4030990600586;116.45731353759766;62.47959518432617
268;1673369566.1364586;47.1311738;7.2399093;3.76200008392334;1673369566.29793;-13.506002426147461;15.988492012023926;-60.7951545715332
269;1673369566.353108;47.1311882;7.2399027;0.11800000816583633;1673369566.4842634;-53.827640533447266;39.8406867980957;-112.57649993896484
270;1673369566.5362372;47.131199099999996;7.2399214;0.6260000467300415;1673369566.669326;-39.94926071166992;138.03384399414062;142.97923278808594
271;1673369566.7242765;47.1312077;7.239943599999999;0.812000036239624;1673369566.867449;16.044628143310547;161.49119567871094;124.41703796386719
272;1673369566.9254875;47.131215399999995;7.2399656;0.7170000076293945;1673369567.0721295;8.599753379821777;161.32798767089844;122.38548278808594
273;1673369567.1281734;47.1312237;7.239992099999999;0.9170000553131104;1673369567.2954154;8.71436595916748;161.2926788330078;122.34461975097656
274;1673369567.377287;47.1312335;7.2400196;1.0410000085830688;1673369567.5243936;8.96766185760498;161.02093505859375;122.49082946777344
275;1673369567.649193;47.1312456;7.2400473;1.1110000610351562;1673369567.7944372;9.025634765625;160.9936065673828;122.46568298339844
276;1673369567.8362947;47.1312579;7.240075999999999;1.0840001106262207;1673369567.958354;9.107616424560547;160.9920196533203;122.43698120117188
277;1673369568.0132163;47.1312715;7.2401051;1.03000009059906;1673369568.1387706;9.220315933227539;160.98617553710938;122.41397857666016
278;1673369568.1813684;47.131285999999996;7.2401342;0.9920000433921814;1673369568.3013787;9.32951545715332;161.01242065429688;122.4091796875
279;1673369568.3566308;47.131301799999996;7.240163399999999;0.9510000348091125;1673369568.4997358;9.439703941345215;161.01324462890625;122.37191772460938
280;1673369568.5512576;47.1313186;7.2401928;0.8940000534057617;1673369568.6923635;9.569928169250488;161.01966857910156;122.34380340576172
281;1673369568.7491677;47.1313366;7.2402223;0.8280000686645508;1673369568.8921819;9.729430198669434;161.0418701171875;122.29472351074219
282;1673369568.9401803;47.1313556;7.2402519;0.7540000081062317;1673369569.0732365;9.864232063293457;161.06588745117188;122.25826263427734
283;1673369569.1332903;47.1313757;7.2402815;0.6780000329017639;1673369569.2884943;10.019089698791504;161.0917510986328;122.22190856933594
284;1673369569.3453617;47.1313969;7.2403112;0.5890000462532043;1673369569.480117;10.165657997131348;161.10462951660156;122.17806243896484
285;1673369569.5322082;47.131419099999995;7.2403409;0.5020000338554382;1673369569.688003;10.310100555419922;161.12989807128906;122.15945434570312
286;1673369569.7453876;47.131442199999995;7.2403705;0.4220000207424164;1673369569.8889802;10.473594665527344;161.17071533203125;122.13787078857422
287;1673369569.9409819;47.1314662;7.2404001;0.34200000762939453;1673369570.1002107;10.626245498657227;161.21885681152344;122.11727142333984
288;1673369570.161026;47.131491;7.2404297;0.2630000114440918;1673369570.2991974;10.7278470993042;161.29678344726562;122.10709381103516
289;1673369570.3587062;47.1315167;7.2404592999999995;0.18400001525878906;1673369570.5122654;10.87221622467041;161.36436462402344;122.08969116210938
290;1673369570.5718966;47.131543099999995;7.240488999999999;0.10100000351667404;1673369570.7202075;11.018179893493652;161.4200439453125;122.07099151611328
291;1673369570.7751918;47.131571;7.240519;-0.014000000432133675;1673369570.9333813;11.160653114318848;161.45733642578125;122.04206085205078
292;1673369570.9953504;47.1315994;7.2405491;-0.12800000607967377;1673369571.1347208;11.308586120605469;161.54660034179688;122.03604888916016
293;1673369571.1895266;47.131628199999994;7.2405792;-0.21800000965595245;1673369571.311539;11.421422004699707;161.63339233398438;122.01341247558594
294;1673369571.3634183;47.131657499999996;7.2406095;-0.2930000126361847;1673369571.4966328;11.544378280639648;161.72296142578125;122.0105209350586
295;1673369571.5514345;47.131687199999995;7.24064;-0.3580000102519989;1673369571.695653;11.663569450378418;161.779052734375;121.9932632446289
296;1673369571.7531095;47.131717599999995;7.2406707;-0.4180000126361847;1673369571.9040692;11.735733032226562;161.86277770996094;121.99637603759766
297;1673369571.964406;47.1317276;7.240680599999999;-0.5230000019073486;1673369572.100339;11.848173141479492;161.9283447265625;121.96566772460938
298;;;;;1673369572.3001983;11.953922271728516;162.02789306640625;121.963623046875
299;;;;;1673369572.5071652;12.01741886138916;162.10202026367188;121.96424865722656
300;;;;;1673369572.6972046;12.09547233581543;162.19776916503906;121.96147918701172
301;;;;;1673369572.88117;12.1498441696167;162.29820251464844;121.96427917480469
302;;;;;1673369573.0811098;12.23878002166748;162.4012908935547;121.96915435791016
303;;;;;1673369573.2842603;12.337200164794922;162.49029541015625;121.94145202636719
