;pos_time;latitude;longitude;altitude;alt_time;pitch;roll;yaw
0;1673369362.4358544;47.1306425;7.240619799999999;-0.012000000104308128;1673369362.4612317;0.5415334105491638;-0.9443901181221008;90.3248062133789
1;1673369362.634006;47.1306425;7.240619799999999;-0.013000000268220901;1673369362.6574295;0.15874864161014557;-0.5548566579818726;90.23213195800781
2;1673369362.8531342;47.1306425;7.2406197;-0.013000000268220901;1673369362.8829432;-0.04519890993833542;-0.5571733117103577;90.29621887207031
3;1673369363.0543234;47.1306425;7.2406197;-0.013000000268220901;1673369363.0748222;-0.1583588868379593;0.308400958776474;90.27518463134766
4;1673369363.251352;47.1306425;7.240619799999999;-0.010000000707805157;1673369363.2777176;-0.1096862256526947;-0.21405118703842163;90.4891128540039
5;1673369363.4186323;47.1306425;7.240619799999999;-0.007000000216066837;1673369363.442057;-0.03510091081261635;0.18308252096176147;90.28994750976562
6;1673369363.605322;47.1306424;7.240619799999999;-0.009000000543892384;1673369363.633785;0.23521225154399872;0.10077454149723053;90.39352416992188
7;1673369363.8114355;47.1306424;7.240619799999999;-0.009000000543892384;1673369363.8438666;0.034379202872514725;-0.028894932940602303;90.39068603515625
8;1673369364.0292287;47.1306424;7.240619799999999;-0.010000000707805157;1673369364.0644712;-0.12908747792243958;-0.011796433478593826;90.43745422363281
9;1673369364.238961;47.1306424;7.240619799999999;0.0;1673369364.264336;0.02636626549065113;-0.7927227020263672;90.51439666748047
10;1673369364.4313505;47.1306424;7.240619799999999;0.004000000189989805;1673369364.4557505;0.08392255753278732;-0.5771002769470215;90.2623291015625
11;1673369364.6198957;47.1306424;7.240619799999999;0.005000000353902578;1673369364.6482317;-0.1763889491558075;-0.7364352941513062;90.42035675048828
12;1673369364.8285387;47.1306424;7.240619799999999;0.006000000052154064;1673369364.851963;-0.08041901886463165;-0.4177672863006592;90.29195404052734
13;1673369365.0177252;47.1306424;7.240619799999999;0.009000000543892384;1673369365.040932;-0.028723157942295074;-0.7911192774772644;90.436279296875
14;1673369365.215828;47.1306424;7.240619799999999;0.01100000087171793;1673369365.241907;-0.2535070776939392;-0.656622052192688;90.3038330078125
15;1673369365.4137425;47.1306425;7.240619799999999;0.010000000707805157;1673369365.4390893;-0.09656906872987747;-0.6096522212028503;90.42173767089844
16;1673369365.6157706;47.1306425;7.240619799999999;0.0;1673369365.6448576;-0.2509669065475464;-1.2744122743606567;90.51002502441406
17;1673369365.8200397;47.130642599999995;7.2406198999999996;0.003000000026077032;1673369365.843011;-0.18755200505256653;-0.9328521490097046;90.50527954101562
18;1673369366.025839;47.130642599999995;7.2406198999999996;0.007000000216066837;1673369366.0490487;-0.33998775482177734;-0.37778791785240173;90.62251281738281
19;1673369366.2166138;47.130642599999995;7.24062;0.009000000543892384;1673369366.2449253;-0.2925121784210205;-0.44914868474006653;90.7033920288086
20;1673369366.4220533;47.130642599999995;7.24062;0.009000000543892384;1673369366.4471633;-0.23953498899936676;-0.21437710523605347;90.77301788330078
21;1673369366.61684;47.130642699999996;7.24062;0.007000000216066837;1673369366.643711;-0.0983477458357811;-0.4788209795951843;90.76972961425781
22;1673369366.8188086;47.130642699999996;7.24062;0.005000000353902578;1673369366.8442228;-0.46269989013671875;-0.5272948741912842;90.84441375732422
23;1673369366.9979932;47.130642699999996;7.2406198999999996;0.004000000189989805;1673369367.023912;-0.24307070672512054;-0.4651844799518585;90.96449279785156
24;1673369367.1898572;47.1306428;7.2406198999999996;-0.003000000026077032;1673369367.2145948;-0.23599041998386383;-0.7258127331733704;92.11347961425781
25;1673369367.4038188;47.1306429;7.24062;-0.009000000543892384;1673369367.4328911;0.25373193621635437;-0.21118366718292236;93.30585479736328
26;1673369367.5956793;47.1306431;7.2406203;-0.007000000216066837;1673369367.6248698;1.1808215379714966;1.1683156490325928;94.81379699707031
27;1673369367.7956834;47.1306434;7.2406207;0.003000000026077032;1673369367.819787;3.8715670108795166;3.8824548721313477;92.62226104736328
28;1673369368.0002017;47.1306437;7.240621399999999;0.014000000432133675;1673369368.0268009;8.054217338562012;7.501095294952393;91.24845886230469
29;1673369368.2070038;47.1306442;7.2406222;0.030000001192092896;1673369368.2389169;11.959526062011719;11.925037384033203;91.47428131103516
30;1673369368.4198086;47.1306446;7.2406231;0.05300000309944153;1673369368.4448137;13.373483657836914;13.922853469848633;91.97103881835938
31;1673369368.6256883;47.130645;7.2406241;0.08400000631809235;1673369368.6555953;14.174335479736328;14.71760368347168;92.30585479736328
32;1673369368.822031;47.1306454;7.240624899999999;0.12800000607967377;1673369368.8471205;15.355990409851074;15.012377738952637;92.52344512939453
33;1673369369.0152147;47.1306456;7.2406255999999996;0.18700000643730164;1673369369.042543;17.04799461364746;15.087998390197754;92.57875061035156
34;1673369369.228121;47.1306456;7.2406258999999995;0.26500001549720764;1673369369.2545898;18.787227630615234;16.320964813232422;92.63655090332031
35;1673369369.422724;47.1306454;7.2406258;0.36000001430511475;1673369369.45217;19.142654418945312;18.233299255371094;92.55097198486328
36;1673369369.6232595;47.130645;7.240625199999999;0.46800002455711365;1673369369.6507807;18.17703628540039;14.408589363098145;91.71198272705078
37;1673369369.8443842;47.1306446;7.2406242;0.5840000510215759;1673369369.8933625;17.359416961669922;12.249235153198242;90.52717590332031
38;1673369370.064742;47.1306441;7.2406231;0.7100000381469727;1673369370.0883443;15.927603721618652;14.515580177307129;89.8927230834961
39;1673369370.2561092;47.1306437;7.2406219;0.8500000238418579;1673369370.2805247;14.481420516967773;11.896803855895996;88.79630279541016
40;1673369370.458606;47.130643199999994;7.240620799999999;1.003000020980835;1673369370.4820485;13.597187995910645;9.041666984558105;87.46714782714844
41;1673369370.6493642;47.130642699999996;7.2406198999999996;1.1670000553131104;1673369370.6747236;12.91442584991455;11.46319580078125;86.79559326171875
42;1673369370.8634849;47.1306424;7.2406193;1.346000075340271;1673369370.8888643;12.839240074157715;11.420751571655273;86.03317260742188
43;1673369371.0356011;47.1306422;7.240618899999999;1.5360000133514404;1673369371.0580485;12.950920104980469;8.262255668640137;84.88172912597656
44;1673369371.2057657;47.1306422;7.2406187;1.7310000658035278;1673369371.2330945;12.873730659484863;11.233132362365723;88.75334930419922
45;1673369371.4137788;47.1306422;7.2406188;1.9260001182556152;1673369371.4420834;14.131467819213867;12.617069244384766;87.2805404663086
46;1673369371.611171;47.1306422;7.240619;2.123000144958496;1673369371.6347616;15.163785934448242;8.743321418762207;85.67291259765625
47;1673369371.799317;47.1306422;7.240619199999999;2.318000078201294;1673369371.8248143;15.827860832214355;9.923192977905273;84.6953353881836
48;1673369371.999984;47.1306422;7.240619499999999;2.513000011444092;1673369372.0253603;16.53280258178711;12.129852294921875;83.94194793701172
49;1673369372.189314;47.1306422;7.2406196;2.7120001316070557;1673369372.2172718;16.817012786865234;8.809626579284668;82.69182586669922
50;1673369372.3945045;47.1306423;7.2406197;2.9100000858306885;1673369372.4204948;16.830944061279297;9.05469036102295;82.36709594726562
51;1673369372.583659;47.1306424;7.2406196;3.1070001125335693;1673369372.6100554;16.657577514648438;12.759271621704102;82.77251434326172
52;1673369372.793393;47.1306425;7.240619499999999;3.306000232696533;1673369372.8203504;16.383502960205078;10.595915794372559;82.61982727050781
53;1673369373.0003417;47.1306424;7.240619499999999;3.501000165939331;1673369373.0299401;16.187793731689453;8.622872352600098;82.58802032470703
54;1673369373.2064197;47.1306422;7.240619499999999;3.694000244140625;1673369373.2288728;15.955937385559082;11.570016860961914;82.8968505859375
55;1673369373.3915555;47.1306422;7.240619499999999;3.8930001258850098;1673369373.4184394;16.24551773071289;10.393022537231445;82.74121856689453
56;1673369373.6071606;47.1306422;7.240619499999999;4.093000411987305;1673369373.6348083;16.166292190551758;8.045870780944824;82.45449829101562
57;1673369373.8200514;47.1306422;7.240619499999999;4.2860002517700195;1673369373.8484342;15.715289115905762;11.360564231872559;82.85022735595703
58;1673369373.9959807;47.1306422;7.240619499999999;4.478000164031982;1673369374.0238872;15.850738525390625;11.40223503112793;82.9318618774414
59;1673369374.2096837;47.1306422;7.240619499999999;4.668000221252441;1673369374.2457945;16.071426391601562;8.1603364944458;82.56858825683594
60;1673369374.4514568;47.130642099999996;7.240619499999999;4.859000205993652;1673369374.4748812;15.995397567749023;10.221558570861816;82.68653106689453
61;1673369374.6672287;47.130642099999996;7.240619499999999;5.056000232696533;1673369374.691789;15.949821472167969;12.007530212402344;83.01758575439453
62;1673369374.843887;47.1306422;7.2406194;5.25700044631958;1673369374.868293;15.996294975280762;8.933631896972656;82.72509002685547
63;1673369375.0289803;47.1306424;7.2406194;5.456000328063965;1673369375.051398;15.736684799194336;10.37492847442627;82.64302825927734
64;1673369375.2430763;47.1306425;7.2406194;5.654000282287598;1673369375.2674763;15.824384689331055;13.066450119018555;82.92089080810547
65;1673369375.4521663;47.130642599999995;7.2406193;5.853000164031982;1673369375.4716873;16.135513305664062;10.071188926696777;82.62579345703125
66;1673369375.622161;47.1306425;7.2406193;6.053000450134277;1673369375.6514404;15.915492057800293;9.583192825317383;82.60662841796875
67;1673369375.8179514;47.1306424;7.2406194;6.254000186920166;1673369375.8453598;15.83128833770752;12.617923736572266;82.91594696044922
68;1673369376.0932531;47.1306424;7.2406194;6.458000183105469;1673369376.1143126;16.113656997680664;10.24017333984375;82.78907012939453
69;1673369376.286682;47.1306424;7.2406194;6.657000541687012;1673369376.319462;15.801291465759277;8.827406883239746;82.43399810791016
70;1673369376.4920213;47.1306424;7.2406194;6.8510003089904785;1673369376.52088;15.832610130310059;12.10804271697998;82.85203552246094
71;1673369376.6705098;47.1306423;7.240619499999999;7.0450005531311035;1673369376.694922;15.955140113830566;11.221036911010742;82.82719421386719
72;1673369376.8561573;47.1306423;7.2406196;7.240000247955322;1673369376.882509;16.134241104125977;8.146570205688477;82.4852066040039
73;1673369377.019275;47.1306422;7.2406196;7.437000274658203;1673369377.042737;16.036928176879883;11.051337242126465;82.78636169433594
74;1673369377.2090664;47.1306422;7.2406197;7.636000156402588;1673369377.2295635;16.0726261138916;11.726095199584961;82.973876953125
75;1673369377.4219387;47.1306423;7.2406197;7.837000370025635;1673369377.4590385;16.060199737548828;8.196526527404785;82.53514862060547
76;1673369377.634118;47.1306423;7.2406197;8.039999961853027;1673369377.6728466;15.798087120056152;10.790266990661621;82.64408874511719
77;1673369377.8203516;47.1306423;7.2406197;8.23799991607666;1673369377.845768;15.855278015136719;12.349435806274414;82.96283721923828
78;1673369378.0191689;47.1306424;7.2406197;8.4350004196167;1673369378.042632;16.217628479003906;9.373202323913574;82.70978546142578
79;1673369378.218455;47.1306424;7.240619799999999;8.633000373840332;1673369378.2418792;16.01856803894043;10.057724952697754;82.80523681640625
80;1673369378.4179115;47.1306424;7.240619799999999;8.832000732421875;1673369378.4423122;16.041181564331055;12.655600547790527;82.99880981445312
81;1673369378.5932078;47.1306424;7.240619799999999;9.03600025177002;1673369378.6171718;16.13481903076172;9.474629402160645;82.67047119140625
82;1673369378.7799294;47.1306425;7.240619799999999;9.23900032043457;1673369378.804339;15.822304725646973;9.591647148132324;82.53665161132812
83;1673369378.9828181;47.1306425;7.240619799999999;9.440000534057617;1673369379.011816;15.93324089050293;12.944613456726074;83.03113555908203
84;1673369379.1778982;47.1306425;7.2406198999999996;9.63800048828125;1673369379.204431;16.137563705444336;9.893219947814941;82.73289489746094
85;1673369379.3687222;47.1306424;7.2406198999999996;9.836000442504883;1673369379.396366;16.151926040649414;8.85601806640625;82.65859985351562
86;1673369379.5618591;47.1306424;7.24062;10.035000801086426;1673369379.5883653;15.963138580322266;12.338838577270508;82.98958587646484
87;1673369379.7583127;47.1306425;7.24062;10.258000373840332;1673369379.7856407;15.975149154663086;11.232851028442383;83.18748474121094
88;1673369379.953806;47.1306424;7.240619799999999;10.595000267028809;1673369379.981188;16.829011917114258;10.913020133972168;83.34803771972656
89;1673369380.1611018;47.130642099999996;7.2406196;10.972000122070312;1673369380.1903818;16.346935272216797;13.213606834411621;83.63821411132812
90;1673369380.3788342;47.1306418;7.240619199999999;11.359000205993652;1673369380.4062045;15.130518913269043;12.416868209838867;83.53648376464844
91;1673369380.590797;47.130641399999995;7.240619;11.75200080871582;1673369380.618185;14.957061767578125;8.237624168395996;83.04287719726562
92;1673369380.7893574;47.130641;7.2406188;12.147000312805176;1673369380.8153918;14.530961990356445;9.136079788208008;83.03465270996094
93;1673369380.9896793;47.130640799999995;7.2406187;12.54800033569336;1673369381.0172641;14.382694244384766;10.336832046508789;83.0804214477539
94;1673369381.1872818;47.130640799999995;7.2406185999999995;12.949000358581543;1673369381.2135575;14.35600471496582;6.93002986907959;82.68646240234375
95;1673369381.3940773;47.130640899999996;7.2406185999999995;13.349000930786133;1673369381.4243746;14.451314926147461;8.588308334350586;82.80900573730469
96;1673369381.5901682;47.130641;7.2406187;13.74100112915039;1673369381.6190202;14.755386352539062;11.597760200500488;83.25239562988281
97;1673369381.810309;47.1306412;7.2406188;14.12600040435791;1673369381.839146;15.228705406188965;8.652170181274414;82.8608169555664
98;1673369382.014085;47.1306413;7.240619;14.524001121520996;1673369382.0394797;15.258843421936035;8.982403755187988;82.852783203125
99;1673369382.208751;47.130641499999996;7.2406191;14.91300106048584;1673369382.2346752;15.59254264831543;12.276468276977539;83.11187744140625
100;1673369382.3976417;47.1306418;7.2406191;15.285000801086426;1673369382.4281635;15.651103019714355;10.782028198242188;83.2105484008789
101;1673369382.6268208;47.1306419;7.240619199999999;15.67300033569336;1673369382.6526415;15.611610412597656;9.652915000915527;82.92684936523438
102;1673369382.7996805;47.130641999999995;7.240619199999999;16.05900001525879;1673369382.829204;15.47408676147461;12.75286865234375;83.29182434082031
103;1673369383.02299;47.130641999999995;7.240619199999999;16.45800018310547;1673369383.052275;15.640908241271973;11.630987167358398;83.03952026367188
104;1673369383.3241692;47.1306419;7.240619199999999;16.82900047302246;1673369383.3408012;15.992626190185547;8.609037399291992;82.7640151977539
105;1673369383.4809997;47.1306418;7.2406193;17.22100067138672;1673369383.504427;15.251388549804688;11.230666160583496;83.02926635742188
106;1673369383.682586;47.1306418;7.240619199999999;17.619001388549805;1673369383.703086;15.363584518432617;11.869190216064453;83.26451110839844
107;1673369383.8363106;47.1306418;7.240619199999999;18.01500129699707;1673369383.8607094;15.461288452148438;8.394637107849121;82.75618743896484
108;1673369384.0200753;47.1306418;7.240619199999999;18.408000946044922;1673369384.0444906;15.315689086914062;10.59743881225586;82.98753356933594
109;1673369384.217304;47.1306418;7.240619199999999;18.803001403808594;1673369384.243648;15.183812141418457;11.822114944458008;83.10758972167969
110;1673369384.413961;47.1306418;7.240619199999999;19.19300079345703;1673369384.4428585;15.498468399047852;8.58268928527832;82.79524993896484
111;1673369384.5977926;47.1306418;7.2406193;19.588001251220703;1673369384.6207893;15.410638809204102;9.463150024414062;82.84711456298828
112;1673369384.7875712;47.1306418;7.2406193;19.986000061035156;1673369384.8182807;15.379111289978027;12.008538246154785;83.14454650878906
113;1673369385.000636;47.130641999999995;7.2406193;20.38300132751465;1673369385.025656;15.458951950073242;9.420916557312012;82.8783950805664
114;1673369385.1851904;47.130642099999996;7.2406193;20.779001235961914;1673369385.2154489;15.445446968078613;9.506061553955078;82.65373992919922
115;1673369385.3919604;47.1306422;7.240619199999999;21.189001083374023;1673369385.4218545;15.284551620483398;12.558581352233887;83.22454833984375
116;1673369385.6032643;47.1306422;7.240619199999999;21.559001922607422;1673369385.6307423;15.37647819519043;10.650785446166992;83.13143157958984
117;1673369385.7975228;47.1306422;7.240619199999999;21.94500160217285;1673369385.8274522;15.479018211364746;8.950746536254883;82.91899871826172
118;1673369386.010745;47.1306422;7.240619199999999;22.338001251220703;1673369386.0366673;15.481431007385254;12.033068656921387;82.98748016357422
119;1673369386.2214363;47.1306423;7.2406191;22.737001419067383;1673369386.2458987;15.42952823638916;11.286628723144531;82.97286987304688
120;1673369386.4177063;47.1306423;7.2406191;23.134000778198242;1673369386.441227;15.566210746765137;8.62362003326416;82.70194244384766
121;1673369386.6176338;47.1306423;7.240619;23.52800178527832;1673369386.6474473;15.072823524475098;11.701944351196289;83.20283508300781
122;1673369386.8346012;47.1306423;7.240619;23.922000885009766;1673369386.865834;15.13039493560791;11.704745292663574;83.13638305664062
123;1673369387.0322597;47.1306422;7.240619;24.310001373291016;1673369387.0686986;15.3388671875;8.645299911499023;82.79875183105469
124;1673369387.230274;47.1306422;7.240619;24.70100212097168;1673369387.2566257;15.171300888061523;10.335102081298828;82.88182830810547
125;1673369387.4056492;47.1306423;7.240619;25.09600067138672;1673369387.4315693;15.173713684082031;12.317337989807129;83.1350326538086
126;1673369387.592383;47.1306424;7.240619;25.492000579833984;1673369387.622229;15.47043228149414;9.221639633178711;82.85009002685547
127;1673369387.793809;47.1306424;7.2406191;25.889001846313477;1673369387.821335;15.46986198425293;10.339147567749023;82.9177474975586
128;1673369388.0019517;47.1306424;7.2406191;26.281002044677734;1673369388.0299466;15.355316162109375;12.691280364990234;83.32646179199219
129;1673369388.2359583;47.1306424;7.240619199999999;26.670001983642578;1673369388.263257;15.583391189575195;9.604737281799316;82.86543273925781
130;1673369388.4311185;47.1306424;7.240619199999999;27.062002182006836;1673369388.4555137;15.556610107421875;9.270476341247559;82.76866149902344
131;1673369388.6188133;47.1306424;7.240619199999999;27.4580020904541;1673369388.644773;15.257041931152344;12.545833587646484;83.14181518554688
132;1673369388.808647;47.1306425;7.2406191;27.856000900268555;1673369388.8356352;15.513875961303711;10.940828323364258;83.17506408691406
133;1673369388.9962094;47.130642599999995;7.2406191;28.255001068115234;1673369389.023115;15.348612785339355;9.365303039550781;82.85980987548828
134;1673369389.2098384;47.130642599999995;7.2406191;28.654001235961914;1673369389.2367263;15.238262176513672;12.60700511932373;83.07146453857422
135;1673369389.4052782;47.130642599999995;7.2406191;29.047000885009766;1673369389.436092;15.402321815490723;11.322569847106934;82.84349822998047
136;1673369389.6055818;47.1306425;7.240619199999999;29.4320011138916;1673369389.6324759;15.514843940734863;8.680061340332031;82.77224731445312
137;1673369389.7995405;47.1306424;7.240619199999999;29.82200050354004;1673369389.827724;15.468388557434082;11.144665718078613;82.96357727050781
138;1673369389.9975145;47.1306424;7.240619199999999;30.231000900268555;1673369390.0229023;15.232213973999023;12.335929870605469;83.25495147705078
139;1673369390.1951656;47.1306424;7.240619199999999;30.625001907348633;1673369390.2211206;15.406477928161621;8.941572189331055;82.89686584472656
140;1673369390.3924446;47.1306424;7.2406193;31.01700210571289;1673369390.418802;15.402151107788086;10.236263275146484;82.84102630615234
141;1673369390.5900974;47.1306424;7.2406193;31.39200210571289;1673369390.61969;15.36696720123291;12.238692283630371;83.08654022216797
142;1673369390.7974474;47.1306423;7.2406193;31.77800178527832;1673369390.822439;15.686056137084961;9.32166862487793;82.8507308959961
143;1673369391.005308;47.1306423;7.2406194;32.17100143432617;1673369391.0292664;15.35525131225586;9.505403518676758;82.86448669433594
144;1673369391.1991518;47.1306423;7.2406193;32.56800079345703;1673369391.225802;15.200138092041016;12.793591499328613;83.28604125976562
145;1673369391.4018056;47.1306424;7.2406193;32.96600341796875;1673369391.4283054;15.367205619812012;10.128243446350098;83.00469207763672
146;1673369391.5872588;47.1306425;7.2406194;33.36300277709961;1673369391.621126;15.48341178894043;9.560279846191406;82.74553680419922
147;1673369391.8157666;47.1306425;7.2406194;33.75800323486328;1673369391.8466847;15.311203956604004;12.506670951843262;83.08686828613281
148;1673369392.018091;47.1306425;7.2406194;34.1510009765625;1673369392.0435088;15.451526641845703;10.68842887878418;82.98197937011719
149;1673369392.2231143;47.1306424;7.240619499999999;34.55500030517578;1673369392.2519577;15.523545265197754;8.625720024108887;82.85957336425781
150;1673369392.4316626;47.1306424;7.240619499999999;34.93400192260742;1673369392.4590068;15.397783279418945;11.431349754333496;83.07154083251953
151;1673369392.6403627;47.1306425;7.240619499999999;35.35000228881836;1673369392.6657398;15.373454093933105;12.362602233886719;83.3674087524414
152;1673369392.8414106;47.130642599999995;7.240619499999999;35.73500061035156;1673369392.8677483;15.550475120544434;9.149460792541504;82.8061294555664
153;1673369393.0240119;47.130642599999995;7.240619499999999;36.13500213623047;1673369393.0485437;15.349363327026367;11.116135597229004;83.03169250488281
154;1673369393.2121942;47.130642599999995;7.240619499999999;36.534000396728516;1673369393.2390866;15.219026565551758;12.802452087402344;83.20454406738281
155;1673369393.408803;47.1306425;7.240619499999999;36.92900085449219;1673369393.4387226;15.529412269592285;9.096945762634277;82.8239517211914
156;1673369393.6105416;47.1306424;7.2406196;37.3280029296875;1673369393.638438;15.399150848388672;9.865667343139648;82.81309509277344
157;1673369393.8277266;47.1306425;7.2406196;37.729000091552734;1673369393.8580585;15.295355796813965;12.593239784240723;83.0930404663086
158;1673369394.0648932;47.130642599999995;7.2406196;38.13100051879883;1673369394.0873773;15.522216796875;9.685317993164062;82.77096557617188
159;1673369394.2438166;47.130642599999995;7.2406196;38.53200149536133;1673369394.2691934;15.408923149108887;9.648247718811035;82.7751693725586
160;1673369394.4360414;47.130642599999995;7.2406196;38.93300247192383;1673369394.4584548;15.265308380126953;12.794379234313965;83.25836944580078
161;1673369394.613487;47.130642699999996;7.240619499999999;39.33000183105469;1673369394.6375012;15.289355278015137;10.74526309967041;83.07328796386719
162;1673369394.8108416;47.130642599999995;7.240619499999999;39.72100067138672;1673369394.8373659;15.398445129394531;9.249796867370605;82.91830444335938
163;1673369395.00914;47.130642599999995;7.240619499999999;40.121002197265625;1673369395.0389934;15.270956993103027;12.31029224395752;83.07083892822266
164;1673369395.215604;47.130642699999996;7.240619499999999;40.52400207519531;1673369395.2430093;15.26638412475586;11.772701263427734;83.12030792236328
165;1673369395.4152412;47.1306428;7.240619499999999;40.92400360107422;1673369395.4440997;15.501777648925781;9.522534370422363;82.84852600097656
166;1673369395.6185062;47.130642699999996;7.240619499999999;41.32400131225586;1673369395.6461747;15.357556343078613;11.539889335632324;83.2264633178711
167;1673369395.8186164;47.130642699999996;7.2406196;41.724002838134766;1673369395.8455145;15.428552627563477;12.344255447387695;83.18590545654297
168;1673369396.0169969;47.130642599999995;7.2406196;42.118003845214844;1673369396.0429077;15.595526695251465;8.920475006103516;82.8348388671875
169;1673369396.2147574;47.1306425;7.2406196;42.53600311279297;1673369396.2424262;15.547163963317871;9.77135181427002;82.80752563476562
170;1673369396.4155586;47.1306425;7.2406196;42.944000244140625;1673369396.4424691;15.43210506439209;12.330559730529785;83.2065200805664
171;1673369396.6122198;47.130642599999995;7.2406196;43.33500289916992;1673369396.6371937;15.33279037475586;10.061857223510742;82.97972106933594
172;1673369396.8092992;47.130642599999995;7.240619499999999;43.74100112915039;1673369396.8377087;15.292348861694336;9.760161399841309;82.97756958007812
173;1673369397.000275;47.130642599999995;7.240619499999999;44.14400100708008;1673369397.0266333;15.17936897277832;12.64858627319336;83.25079345703125
174;1673369397.2093067;47.130642599999995;7.240619499999999;44.54500198364258;1673369397.2363005;15.437003135681152;10.306286811828613;82.77571868896484
175;1673369397.425394;47.1306425;7.240619499999999;44.93800354003906;1673369397.450488;15.390132904052734;8.814224243164062;82.64830780029297
176;1673369397.7410078;47.130642599999995;7.240619499999999;45.33500289916992;1673369397.7585683;15.28261947631836;11.839934349060059;83.02239990234375
177;1673369397.9611814;47.130642699999996;7.2406194;45.73400115966797;1673369397.9758208;15.194649696350098;12.039313316345215;83.3067398071289
178;1673369398.10163;47.130642699999996;7.2406194;46.13200378417969;1673369398.1191978;15.24145221710205;9.388575553894043;82.8470230102539
179;1673369398.2785444;47.130642699999996;7.2406194;46.52900314331055;1673369398.3078449;15.245710372924805;11.361471176147461;83.14215850830078
180;1673369398.4524612;47.130642699999996;7.240619499999999;46.926002502441406;1673369398.4729562;15.271672248840332;12.801041603088379;83.1180191040039
181;1673369398.6279128;47.130642599999995;7.240619499999999;47.31800079345703;1673369398.6548295;15.4932861328125;9.121248245239258;82.7450180053711
182;1673369398.836301;47.1306425;7.240619499999999;47.71800231933594;1673369398.8588145;15.347675323486328;10.066791534423828;82.88571166992188
183;1673369399.0159624;47.1306425;7.240619499999999;48.118003845214844;1673369399.0395355;15.206042289733887;12.782177925109863;83.24447631835938
184;1673369399.2060108;47.130642599999995;7.2406196;48.47300338745117;1673369399.236264;15.475081443786621;9.789814949035645;82.82453918457031
185;1673369399.4349535;47.130642699999996;7.2406197;48.77300262451172;1673369399.4632852;15.341858863830566;10.191855430603027;82.89952087402344
186;1673369399.6400642;47.1306429;7.2406198999999996;49.02400207519531;1673369399.664465;15.721360206604004;12.916950225830078;83.0840072631836
187;1673369399.8084905;47.130643;7.2406201999999995;49.23400115966797;1673369399.8363686;16.255563735961914;10.29267406463623;82.31217956542969
188;1673369400.0230937;47.130643199999994;7.2406204;49.40200424194336;1673369400.043633;26.795934677124023;3.6200692653656006;79.33718872070312
189;1673369400.2227793;47.1306436;7.240619799999999;49.55500411987305;1673369400.2545567;39.310821533203125;-16.066020965576172;67.18545532226562
190;1673369400.4213195;47.1306447;7.2406168;49.69200134277344;1673369400.447873;41.06709289550781;-23.292375564575195;58.43326950073242
191;1673369400.6427295;47.1306467;7.240611299999999;49.80500411987305;1673369400.6811705;32.06833267211914;-28.36882972717285;50.08293533325195
192;1673369400.8489137;47.1306495;7.2406038;49.897003173828125;1673369400.8713946;21.65880012512207;-27.288942337036133;41.098506927490234
193;1673369401.0235178;47.130653099999996;7.2405952;49.96900177001953;1673369401.0466793;10.955015182495117;-33.77015686035156;30.197675704956055
194;1673369401.2085536;47.1306575;7.2405857;50.035003662109375;1673369401.235884;-7.109884738922119;-44.283042907714844;19.5140438079834
195;1673369401.403137;47.130663399999996;7.2405748999999995;50.09800338745117;1673369401.429098;-28.76346778869629;-45.48938751220703;8.37034797668457
196;1673369401.6393633;47.130671299999996;7.2405623;50.156002044677734;1673369401.6631117;-43.19154357910156;-42.754398345947266;-3.6813454627990723
197;1673369401.8369164;47.1306814;7.2405475;50.20000076293945;1673369401.8600435;-51.78541564941406;-38.32526779174805;-14.31031322479248
198;1673369402.0234756;47.1306935;7.240530199999999;50.2130012512207;1673369402.050399;-56.3587646484375;-29.37662124633789;-27.400493621826172
199;1673369402.2148879;47.130707099999995;7.2405105999999995;50.19000244140625;1673369402.238333;-53.97381591796875;-20.363096237182617;-36.89787673950195
200;1673369402.4092684;47.1307219;7.2404896;50.134002685546875;1673369402.443003;-48.986968994140625;-14.635807037353516;-41.44816970825195
201;1673369402.6175551;47.130737499999995;7.2404677;50.06500244140625;1673369402.643099;-49.73952102661133;-11.272441864013672;-47.221614837646484
202;1673369402.828478;47.1307537;7.2404451;50.00200271606445;1673369402.8543968;-50.17621612548828;-8.060025215148926;-53.89192199707031
203;1673369403.01926;47.130770299999995;7.2404218;49.94000244140625;1673369403.0442138;-46.884864807128906;-5.508952617645264;-54.9450798034668
204;1673369403.244492;47.1307872;7.2403983;49.884002685546875;1673369403.275495;-42.880088806152344;-6.501596450805664;-51.54759216308594
205;1673369403.4713967;47.130804399999995;7.240374999999999;49.85200119018555;1673369403.4968057;-44.59040069580078;-8.29438304901123;-49.93427276611328
206;1673369403.650512;47.1308216;7.2403518;49.8390007019043;1673369403.673954;-47.67462921142578;-9.514080047607422;-49.39122009277344
207;1673369403.8679721;47.130838999999995;7.2403284;49.836002349853516;1673369403.8885589;-48.5265998840332;-10.471295356750488;-49.23752975463867
208;1673369404.0346835;47.130856699999995;7.2403048;49.845001220703125;1673369404.0557342;-48.04887390136719;-11.171212196350098;-49.33451461791992
209;1673369404.2156937;47.130874399999996;7.2402808;49.86300277709961;1673369404.2459838;-47.809364318847656;-11.833941459655762;-49.461761474609375
210;1673369404.4260452;47.1308921;7.2402565;49.88600158691406;1673369404.449516;-47.909061431884766;-12.36227798461914;-49.56923294067383
211;1673369404.6123598;47.1309098;7.240232;49.913002014160156;1673369404.6388974;-48.24801254272461;-12.757153511047363;-49.7317008972168
212;1673369404.9137442;47.1309274;7.240207099999999;49.935001373291016;1673369404.9371817;-47.7888298034668;-16.581321716308594;-50.692710876464844
213;1673369405.0643733;47.1309446;7.240181799999999;49.941001892089844;1673369405.0897357;-44.47102737426758;-12.244915962219238;-62.10674285888672
214;1673369405.221132;47.1309611;7.2401563;49.92900085449219;1673369405.2480357;-41.77062225341797;-6.468932628631592;-72.2586669921875
215;1673369405.461635;47.1309768;7.240131;49.88300323486328;1673369405.4903617;-30.068723678588867;-5.010801792144775;-81.40540313720703
216;1673369405.6529691;47.130992299999996;7.2401063;49.531002044677734;1673369405.6797974;5.405344009399414;-15.012364387512207;-92.90140533447266
217;1673369405.8507576;47.1310083;7.240081099999999;48.768001556396484;1673369405.8704758;50.10322189331055;-56.11382293701172;-131.20565795898438
218;1673369406.0178723;47.1310231;7.2400578;47.69000244140625;1673369406.0439613;40.49144744873047;-135.8441619873047;151.74337768554688
219;1673369406.2295375;47.1310383;7.2400337;46.21800231933594;1673369406.2559035;13.216371536254883;-154.97760009765625;135.75961303710938
220;1673369406.4074469;47.1310534;7.2400101999999995;44.36900329589844;1673369406.4329176;7.776377201080322;-152.6424102783203;136.63734436035156
221;1673369406.6157792;47.1310684;7.239987299999999;42.159000396728516;1673369406.6439028;22.396778106689453;-129.59521484375;147.77850341796875
222;1673369406.824491;47.1310832;7.2399648999999995;39.604000091552734;1673369406.8518043;26.06426429748535;-66.5828628540039;-169.46890258789062
223;1673369407.0249681;47.1310978;7.2399422;36.6870002746582;1673369407.051789;-8.280024528503418;-4.15779447555542;-140.42160034179688
224;1673369407.2188652;47.1311125;7.2399198;33.35600280761719;1673369407.2426598;-42.819862365722656;31.764591217041016;-135.61521911621094
225;1673369407.438661;47.131127;7.2398982;29.671001434326172;1673369407.4660978;-53.27226257324219;30.106918334960938;-123.16946411132812
226;1673369407.6187508;47.131142;7.2398763;25.485000610351562;1673369407.6467266;-26.01593589782715;-3.1919496059417725;-99.69820404052734
227;1673369407.816202;47.131155799999995;7.2398568999999995;21.251001358032227;1673369407.8407767;32.9940299987793;-32.575496673583984;-105.28640747070312
228;1673369408.0348413;47.1311703;7.239836599999999;16.46000099182129;1673369408.0656962;69.17399597167969;-100.2523193359375;-167.71299743652344
229;1673369408.265861;47.1311848;7.2398162;11.360000610351562;1673369408.2901843;77.6540756225586;-136.1807403564453;152.11044311523438
230;1673369408.4698594;47.1311998;7.239795099999999;5.742000102996826;1673369408.491025;56.8525390625;11.328166961669922;-66.78939819335938
231;1673369408.6648095;47.131213599999995;7.239775099999999;0.2240000069141388;1673369408.691823;-8.575173377990723;7.517992973327637;-61.243186950683594
232;1673369408.8854144;47.1312158;7.2397659;0.4910000264644623;1673369408.9137595;-1.6878091096878052;8.545846939086914;-54.898170471191406
233;1673369409.0678127;47.131217799999995;7.2397572;0.7380000352859497;1673369409.0940948;-9.675820350646973;5.665241241455078;-52.38385772705078
234;1673369409.2779057;47.13122;7.2397496;0.8800000548362732;1673369409.2998793;-7.918579578399658;7.38258695602417;-52.635986328125
235;1673369409.4588356;47.1312224;7.239742499999999;0.9470000267028809;1673369409.4794793;-7.494482517242432;7.71762228012085;-52.68208694458008
236;1673369409.662928;47.1312249;7.239736799999999;0.9630000591278076;1673369409.6889157;-7.250129222869873;7.7692365646362305;-52.77862548828125
237;1673369409.8829136;47.131227599999995;7.2397320999999994;0.9490000605583191;1673369409.9148242;-6.962647438049316;7.745751857757568;-52.894676208496094
238;1673369410.0967524;47.1312305;7.239728599999999;0.9150000214576721;1673369410.1169255;-6.6723504066467285;7.695718765258789;-53.06431579589844
239;1673369410.2638488;47.1312334;7.2397262;0.8860000371932983;1673369410.2980726;-6.460847854614258;7.643233776092529;-53.11529541015625
240;1673369410.4765725;47.131236699999995;7.2397234;0.8870000243186951;1673369410.4977853;-6.251771926879883;7.5432562828063965;-53.136253356933594
241;1673369410.672682;47.1312393;7.239723;0.8530000448226929;1673369410.6959522;-5.801437854766846;7.469033241271973;-53.21056365966797
242;1673369410.8837345;47.1312413;7.2397243;0.800000011920929;1673369410.9057384;-5.480856895446777;7.384599685668945;-53.21303939819336
243;1673369411.0779772;47.1312429;7.2397265;0.7440000176429749;1673369411.1026883;-5.087634563446045;7.263044357299805;-53.20259094238281
244;1673369411.2657793;47.1312442;7.2397294;0.6880000233650208;1673369411.2865944;-4.745386600494385;7.140177249908447;-53.15177536010742
245;1673369411.4596493;47.1312457;7.2397319;0.6390000581741333;1673369411.4848967;-4.578436374664307;7.055909156799316;-53.088069915771484
246;1673369411.6350086;47.1312481;7.239732999999999;0.612000048160553;1673369411.6597047;-4.388664245605469;6.956604480743408;-53.007965087890625
247;1673369411.8137572;47.131249;7.2397358;0.5710000395774841;1673369411.8400073;-4.025094509124756;6.567783832550049;-52.81889724731445
248;1673369412.0276887;47.1312492;7.2397395;0.5220000147819519;1673369412.065934;-3.7252464294433594;6.266977310180664;-52.63220977783203
249;1673369412.227681;47.1312491;7.2397431;0.4750000238418579;1673369412.2540333;-3.410370349884033;5.927551746368408;-52.43539047241211
250;1673369412.443641;47.131249;7.2397466999999995;0.43300002813339233;1673369412.4644797;-3.182816743850708;5.654994010925293;-52.24959945678711
251;1673369412.6326597;47.131249;7.2397499;0.3960000276565552;1673369412.6609738;-2.990941286087036;5.395691871643066;-52.06120681762695
252;1673369412.8369439;47.131249399999994;7.2397528;0.359000027179718;1673369412.8633528;-2.7663488388061523;5.196390151977539;-51.90005111694336
253;1673369413.0449297;47.1312511;7.2397548;0.3320000171661377;1673369413.068544;-2.6645259857177734;4.985109806060791;-51.7677116394043
254;1673369413.244228;47.1312514;7.239757399999999;0.3050000071525574;1673369413.26864;-2.42411470413208;4.735267162322998;-51.53750991821289
255;1673369413.4447963;47.1312511;7.2397599999999995;0.28200000524520874;1673369413.4648612;-2.171586751937866;4.687655925750732;-51.347137451171875
256;1673369413.64064;47.1312505;7.2397626;0.2600000202655792;1673369413.6631792;-1.9681702852249146;4.5337233543396;-51.19907760620117
257;1673369413.8570337;47.1312499;7.2397652;0.23800000548362732;1673369413.8873267;-1.8384627103805542;4.4246087074279785;-51.048091888427734
258;1673369414.045111;47.1312497;7.2397674;0.2200000137090683;1673369414.0646136;-1.653367519378662;4.251197814941406;-50.964115142822266
259;1673369414.2163699;47.1312508;7.2397693;0.20400001108646393;1673369414.2410421;-1.577345609664917;4.159600257873535;-50.847023010253906
260;1673369414.464846;47.1312504;7.2397712;0.19100001454353333;1673369414.4924037;-1.4132277965545654;3.947418451309204;-50.73078155517578
261;1673369414.644339;47.1312493;7.239773;0.18200001120567322;1673369414.6755905;-1.2364126443862915;3.7970151901245117;-50.63273239135742
262;1673369414.8392212;47.1312478;7.239774799999999;0.17400000989437103;1673369414.8841202;-1.1503628492355347;3.6744325160980225;-50.56653594970703
263;1673369415.0884905;47.131246399999995;7.239776399999999;0.164000004529953;1673369415.1100109;-1.0063074827194214;3.5075345039367676;-50.502357482910156
264;1673369415.255079;47.131244699999996;7.2397778;0.15800000727176666;1673369415.2775257;-0.9834628701210022;3.3699686527252197;-50.44866180419922
265;1673369415.437272;47.1312436;7.2397791;0.14800000190734863;1673369415.465614;-0.8437556624412537;2.79144287109375;-50.40821075439453
266;1673369415.6338992;47.1312438;7.239780499999999;0.13600000739097595;1673369415.661242;-0.7777445912361145;2.5714163780212402;-50.3795051574707
267;1673369415.822427;47.131240399999996;7.2397798;0.006000000052154064;1673369415.8473606;-0.7146643400192261;2.38234543800354;-50.57052230834961
268;1673369416.01345;47.131233599999995;7.2397763;0.21000000834465027;;;;
