;pos_time;latitude;longitude;altitude;alt_time;pitch;roll;yaw
0;1673368911.567372;47.1306424;7.2406198999999996;-0.007000000216066837;1673368911.7274153;0.019726598635315895;-0.4555118978023529;89.8689193725586
1;1673368911.7596219;47.1306424;7.2406198999999996;-0.006000000052154064;1673368911.9298642;-0.1110415905714035;-0.4002905786037445;90.05522155761719
2;1673368911.9718673;47.1306424;7.2406198999999996;-0.006000000052154064;1673368912.120771;-0.034998584538698196;-0.13118842244148254;89.88977813720703
3;1673368912.1583912;47.1306424;7.2406198999999996;-0.00800000037997961;1673368912.3230345;-0.05673495680093765;-0.3162153661251068;90.04783630371094
4;1673368912.3616426;47.1306424;7.2406198999999996;-0.009000000543892384;1673368912.5370586;0.4091326892375946;-0.16092337667942047;89.99729919433594
5;1673368912.5762527;47.1306423;7.240619799999999;-0.009000000543892384;1673368912.7347336;-0.003333005355671048;-0.2062097191810608;89.92112731933594
6;1673368912.7670903;47.1306423;7.240619799999999;-0.012000000104308128;1673368912.9221444;-0.10617171972990036;-0.30623820424079895;90.05006408691406
7;1673368912.9759736;47.1306423;7.240619799999999;-0.015000000596046448;1673368913.1522202;-0.027676500380039215;-0.321952223777771;90.11306762695312
8;1673368913.1805243;47.1306423;7.2406197;-0.018000001087784767;1673368913.3228548;0.10252387821674347;-0.2495773732662201;90.07962036132812
9;1673368913.3653693;47.1306423;7.2406197;-0.01900000125169754;1673368913.5344458;-0.023655252531170845;-0.29380857944488525;90.03608703613281
10;1673368913.5744894;47.1306423;7.240619799999999;-0.01600000075995922;1673368913.725716;-0.06212116777896881;-0.14119303226470947;89.94684600830078
11;1673368913.7606168;47.1306423;7.240619799999999;-0.012000000104308128;1673368913.9183238;-0.000714234949555248;-0.38145533204078674;90.08336639404297
12;1673368913.9584086;47.1306423;7.240619799999999;-0.00800000037997961;1673368914.124059;0.019645944237709045;-0.19215625524520874;90.087158203125
13;1673368914.158765;47.1306423;7.240619799999999;-0.00800000037997961;1673368914.306546;0.1501760631799698;-0.15675120055675507;90.11521911621094
14;1673368914.3471088;47.1306424;7.2406197;0.0;1673368914.5120268;0.11120031774044037;-0.21775269508361816;90.14350891113281
15;1673368914.5477195;47.1306424;7.2406197;-0.0010000000474974513;1673368914.7194679;0.01057717390358448;-0.36818915605545044;90.20765686035156
16;1673368914.7558668;47.1306424;7.2406197;-0.003000000026077032;1673368914.9334478;-0.1940653771162033;-0.31121671199798584;90.0389633178711
17;1673368914.9724867;47.1306425;7.2406197;-0.003000000026077032;1673368915.132696;0.0033569843508303165;-0.17472045123577118;90.06977844238281
18;1673368915.166403;47.1306425;7.240619799999999;-0.0010000000474974513;1673368915.309054;0.20724213123321533;-0.23166964948177338;90.01233673095703
19;1673368915.3443093;47.1306424;7.240619799999999;-0.0010000000474974513;1673368915.5014038;-0.014725933782756329;-0.21074549853801727;90.07942962646484
20;1673368915.5372672;47.1306424;7.2406197;-0.0020000000949949026;1673368915.698302;0.1502683162689209;-0.08909454941749573;89.90911865234375
21;1673368915.739326;47.1306424;7.2406197;-0.005000000353902578;1673368915.906072;0.1312297284603119;-0.24060212075710297;89.97592163085938
22;1673368915.9461966;47.1306424;7.240619799999999;0.0010000000474974513;1673368916.1044621;0.05861179903149605;-0.48148050904273987;89.90521240234375
23;1673368916.1393378;47.1306424;7.240619799999999;0.005000000353902578;1673368916.3019009;-0.05656178668141365;0.3938104808330536;89.94974517822266
24;1673368916.3374183;47.1306424;7.240619799999999;0.006000000052154064;1673368916.4960124;0.012429534457623959;0.0035814184229820967;90.00191497802734
25;1673368916.5303273;47.1306424;7.240619799999999;0.0020000000949949026;1673368916.694404;0.05640596151351929;-0.24981601536273956;90.03128814697266
26;1673368916.7314625;47.1306424;7.240619799999999;0.0;1673368916.8825495;0.024012457579374313;-0.06331981718540192;89.89045715332031
27;1673368916.9174125;47.1306425;7.240619799999999;-0.0010000000474974513;1673368917.0893826;0.1552983969449997;-0.24846817553043365;90.16263580322266
28;1673368917.1233768;47.1306425;7.240619799999999;-0.005000000353902578;1673368917.293372;0.13168568909168243;-0.16352668404579163;89.94361114501953
29;1673368917.3333702;47.1306425;7.240619799999999;-0.00800000037997961;1673368917.512785;-0.01572163961827755;-0.2888605296611786;90.19483947753906
30;1673368917.5572555;47.1306424;7.2406198999999996;-0.007000000216066837;1673368917.7136374;0.014126477763056755;-0.17187966406345367;90.20748138427734
31;1673368917.7484972;47.1306424;7.2406198999999996;-0.00800000037997961;1673368917.921691;0.13270241022109985;-0.3241021931171417;90.04649353027344
32;1673368917.9594207;47.1306424;7.2406198999999996;-0.010000000707805157;1673368918.1436214;0.5562974214553833;-0.12497704476118088;90.22161102294922
33;1673368918.2040005;47.1306424;7.2406198999999996;-0.010000000707805157;1673368918.3554833;0.3845117688179016;-2.6743154525756836;90.2884750366211
34;1673368918.3902473;47.1306424;7.240619799999999;0.004000000189989805;1673368918.544336;-0.3841605484485626;0.06968121230602264;90.099853515625
35;1673368918.5762415;47.1306423;7.2406197;0.04400000348687172;1673368918.7215948;0.08949092775583267;1.5087820291519165;89.87159729003906
36;1673368918.7552738;47.1306423;7.2406196;0.10400000214576721;1673368918.909282;0.6920693516731262;-3.1656041145324707;90.11454772949219
37;1673368918.9503925;47.1306424;7.2406196;0.17400000989437103;1673368919.1343105;0.5227087140083313;-0.5065945386886597;89.80884552001953
38;1673368919.1729696;47.1306425;7.2406197;0.25200000405311584;1673368919.3388772;0.5156063437461853;2.5779783725738525;89.69780731201172
39;1673368919.3761482;47.130642699999996;7.2406197;0.34800001978874207;1673368919.5153775;-0.08871671557426453;-1.4163267612457275;89.86490631103516
40;1673368919.5505133;47.1306428;7.240619799999999;0.4610000252723694;1673368919.729383;-0.21653532981872559;-1.050018548965454;89.99544525146484
41;1673368919.7615843;47.1306428;7.240619799999999;0.5890000462532043;1673368919.9305582;0.13359563052654266;2.7255842685699463;89.58210754394531
42;1673368919.9656897;47.1306428;7.240619799999999;0.7300000190734863;1673368920.1248415;0.6964957118034363;-0.9952689409255981;89.7367172241211
43;1673368920.1580641;47.130642699999996;7.240619799999999;0.8840000629425049;1673368920.3150659;0.6815038323402405;-2.2140140533447266;89.71156311035156
44;1673368920.347258;47.1306428;7.240619799999999;1.0509999990463257;1673368920.497673;0.9628398418426514;2.4081153869628906;89.44696044921875
45;1673368920.5367627;47.1306428;7.2406197;1.2320001125335693;1673368920.71591;0.009177959524095058;0.15513975918293;89.67808532714844
46;1673368920.758848;47.1306428;7.2406197;1.4220000505447388;1673368920.913331;-0.03784586489200592;-2.734632968902588;89.58739471435547
47;1673368920.9427574;47.130642699999996;7.2406197;1.6150001287460327;1673368921.096157;-0.26963597536087036;1.4781839847564697;89.55154418945312
48;1673368921.13523;47.130642599999995;7.240619799999999;1.811000108718872;1673368921.323128;-0.16420617699623108;1.1114977598190308;89.35444641113281
49;1673368921.3584025;47.1306425;7.240619799999999;2.004000186920166;1673368921.555563;-0.08769720047712326;-3.134216785430908;89.75548553466797
50;1673368921.58794;47.1306425;7.240619799999999;2.198000192642212;1673368921.7358813;0.0916006863117218;0.2800501585006714;89.70464324951172
51;1673368921.7827382;47.130642599999995;7.2406197;2.3910000324249268;1673368921.9333634;0.6338350176811218;2.6925055980682373;89.73336791992188
52;1673368921.9664388;47.130642699999996;7.240619799999999;2.5850000381469727;1673368922.116055;0.7583514451980591;-1.2939610481262207;90.01458740234375
53;1673368922.152204;47.130642699999996;7.240619799999999;2.7860000133514404;1673368922.3193676;0.32322394847869873;-0.9103507399559021;89.764892578125
54;1673368922.356442;47.130642599999995;7.2406198999999996;2.9860000610351562;1673368922.511157;0.14335209131240845;1.8377636671066284;89.65369415283203
55;1673368922.5435188;47.1306423;7.24062;3.184000253677368;1673368922.697261;-0.07922679930925369;-1.9736272096633911;89.85858917236328
56;1673368922.73256;47.130642099999996;7.24062;3.389000177383423;1673368922.9013002;0.20257315039634705;-2.70902419090271;90.12638854980469
57;1673368922.9385438;47.130642099999996;7.24062;3.5960001945495605;1673368923.1283858;0.24929893016815186;1.7877947092056274;89.87246704101562
58;1673368923.162582;47.130642099999996;7.24062;3.7980000972747803;1673368923.3328328;0.5869402289390564;-0.6430662870407104;89.71266174316406
59;1673368923.3660896;47.130642099999996;7.2406198999999996;3.997000217437744;1673368923.5227566;0.9226429462432861;-2.914125442504883;89.93061828613281
60;1673368923.5590014;47.130641999999995;7.2406198999999996;4.195000171661377;1673368923.71905;0.735230565071106;0.9753666520118713;89.9271469116211
61;1673368923.782606;47.1306419;7.2406198999999996;4.394000053405762;1673368923.9331503;0.23848100006580353;0.009214084595441818;89.9171371459961
62;1673368923.9702725;47.1306419;7.2406198999999996;4.595000267028809;1673368924.1607306;-0.2650216519832611;-3.412015676498413;89.97130584716797
63;1673368924.207352;47.130641999999995;7.240619799999999;4.794000148773193;1673368924.355905;-0.3929717540740967;0.8593927621841431;89.83533477783203
64;1673368924.394538;47.1306422;7.2406197;4.991000175476074;1673368924.532964;0.2484046071767807;2.2350032329559326;89.8137435913086
65;1673368924.567123;47.1306423;7.2406196;5.191000461578369;1673368924.72661;0.34569114446640015;-2.0495553016662598;89.84040832519531
66;1673368924.7618134;47.1306424;7.240619499999999;5.392000198364258;1673368924.9300177;0.43186721205711365;0.06893141567707062;89.83672332763672
67;1673368924.9670966;47.1306424;7.2406194;5.5970001220703125;1673368925.1302063;0.11231611669063568;1.722106695175171;89.63532257080078
68;1673368925.1606212;47.1306422;7.2406194;5.803000450134277;1673368925.3267956;-0.10005389153957367;-2.4375452995300293;90.0896987915039
69;1673368925.3679357;47.1306422;7.2406194;6.00700044631958;1673368925.5286615;-0.7742947936058044;-0.8342490792274475;89.99331665039062
70;1673368925.5647902;47.1306422;7.2406194;6.210000514984131;1673368925.7233562;-0.3152284324169159;1.9741129875183105;89.63793182373047
71;1673368925.7565308;47.1306422;7.2406194;6.4110002517700195;1673368925.918766;0.2111945003271103;-1.7612910270690918;89.7656478881836
72;1673368925.955119;47.130642099999996;7.2406194;6.6110005378723145;1673368926.1008055;0.43651193380355835;-2.090780258178711;89.94114685058594
73;1673368926.1389081;47.130641999999995;7.2406194;6.813000202178955;1673368926.3222222;0.6526368260383606;1.9192900657653809;89.83248138427734
74;1673368926.3602855;47.1306419;7.2406194;7.017000198364258;1673368926.5892093;0.4628596305847168;-1.0878822803497314;89.91539001464844
75;1673368926.6414769;47.1306419;7.2406194;7.219000339508057;1673368926.7988698;0.19414806365966797;-2.8118510246276855;89.9833984375
76;1673368926.8281362;47.130641999999995;7.2406194;7.425000190734863;1673368926.969226;-0.24631427228450775;1.6222195625305176;89.64991760253906
77;1673368927.0011861;47.130641999999995;7.2406194;7.629000186920166;1673368927.1462374;-0.43871891498565674;0.5512953996658325;89.72431945800781
78;1673368927.1775086;47.130642099999996;7.2406194;7.829000473022461;1673368927.323089;-0.027575822547078133;-3.006964683532715;90.01557922363281
79;1673368927.3562841;47.1306422;7.2406194;8.032999992370605;1673368927.5155263;0.44683176279067993;1.1139004230499268;90.0469970703125
80;1673368927.5712054;47.130642099999996;7.2406194;8.237000465393066;1673368927.7356846;0.6089985966682434;1.301792860031128;89.9897689819336
81;1673368927.7718308;47.130641999999995;7.2406194;8.440000534057617;1673368927.9337943;0.47601598501205444;-2.9758405685424805;90.05593872070312
82;1673368927.9671617;47.130642099999996;7.240619499999999;8.645000457763672;1673368928.1265805;0.013819352723658085;-0.40013453364372253;89.60938262939453
83;1673368928.1568367;47.130642099999996;7.240619499999999;8.848999977111816;1673368928.3131382;-0.08616425096988678;1.9523488283157349;89.72467803955078
84;1673368928.353153;47.130642099999996;7.2406196;9.051000595092773;1673368928.5259883;-0.22823211550712585;-2.3365421295166016;90.08714294433594
85;1673368928.5689185;47.130642099999996;7.2406196;9.253000259399414;1673368928.7344298;0.1462768167257309;-1.4293537139892578;89.93216705322266
86;1673368928.7695618;47.130642099999996;7.2406197;9.454000473022461;1673368928.9366078;0.4564804136753082;2.1770598888397217;89.68294525146484
87;1673368928.9717736;47.130641999999995;7.2406197;9.654000282287598;1673368929.142999;0.8178751468658447;-2.266968011856079;89.85770416259766
88;1673368929.1811118;47.130642099999996;7.2406197;9.856000900268555;1673368929.3347418;0.7468656897544861;-1.985517144203186;89.85458374023438
89;1673368929.3691053;47.1306422;7.240619799999999;10.057000160217285;1673368929.5268354;0.5867535471916199;2.4117166996002197;89.64908599853516
90;1673368929.5639234;47.1306423;7.2406198999999996;10.279000282287598;1673368929.7153945;0.2554747760295868;0.25329679250717163;89.90213775634766
91;1673368929.7515562;47.1306423;7.2406198999999996;10.593000411987305;1673368929.9224324;-0.029731065034866333;-2.535226345062256;90.04940795898438
92;1673368929.9575696;47.1306424;7.2406198999999996;10.961000442504883;1673368930.1188765;-0.08840017765760422;1.2136282920837402;89.85413360595703
93;1673368930.155217;47.1306423;7.2406198999999996;11.349000930786133;1673368930.3270705;0.019811710342764854;0.9812152981758118;89.79196166992188
94;1673368930.3701105;47.1306422;7.240619799999999;11.745000839233398;1673368930.5302973;0.27109771966934204;-3.0192487239837646;89.9847183227539
95;1673368930.563481;47.1306422;7.240619799999999;12.144001007080078;1673368930.722673;0.7421743869781494;0.21602343022823334;89.77615356445312
96;1673368930.7549427;47.1306423;7.240619799999999;12.54800033569336;1673368930.9190776;0.3942040503025055;2.198657512664795;89.85951232910156
97;1673368930.958168;47.1306422;7.240619799999999;12.953001022338867;1673368931.1266112;0.2673540711402893;-2.3063740730285645;90.12039947509766
98;1673368931.1734915;47.1306422;7.240619799999999;13.35200023651123;1673368931.334809;-0.4201097786426544;-1.4938733577728271;89.79359436035156
99;1673368931.3740017;47.130642099999996;7.240619799999999;13.756000518798828;1673368931.542472;-0.16056525707244873;1.6260795593261719;89.49938201904297
100;1673368931.5767105;47.130641999999995;7.240619799999999;14.16200065612793;1673368931.7378473;-0.2609146535396576;-2.0147500038146973;90.02416229248047
101;1673368931.7749796;47.130642099999996;7.240619799999999;14.568000793457031;1673368931.9332623;-0.02538893185555935;-1.782954216003418;90.12952423095703
102;1673368931.9684038;47.1306422;7.240619799999999;14.976000785827637;1673368932.1316872;0.303730309009552;2.1886775493621826;89.86016082763672
103;1673368932.1668365;47.1306422;7.2406198999999996;15.380001068115234;1673368932.3582892;0.4708035886287689;-0.5435495972633362;89.83223724365234
104;1673368932.3934262;47.1306423;7.2406198999999996;15.785000801086426;1673368932.5409875;0.7241137623786926;-2.461644411087036;89.96382141113281
105;1673368932.5819807;47.1306423;7.24062;16.19099998474121;1673368932.762069;0.09921088814735413;1.7446824312210083;89.7522201538086
106;1673368932.7962306;47.1306422;7.2406201;16.600000381469727;1673368932.950558;-0.03712831065058708;0.28523582220077515;89.8426742553711
107;1673368932.9831915;47.1306422;7.2406201;17.01300048828125;1673368933.1507943;-0.1595963090658188;-2.6144907474517822;90.1690444946289
108;1673368933.1781223;47.1306423;7.2406201;17.42500114440918;1673368933.4353719;0.05866199731826782;1.3580412864685059;89.90003204345703
109;1673368933.4678838;47.1306423;7.2406201999999995;17.838001251220703;1673368933.6208181;0.1749916821718216;0.824672281742096;89.69799041748047
110;1673368933.664568;47.1306423;7.2406201;18.25200080871582;1673368933.8250666;0.4220472574234009;-2.966907262802124;89.84799194335938
111;1673368933.8670342;47.1306422;7.2406201;18.666000366210938;1673368934.0320952;0.5357863306999207;0.17111095786094666;89.85956573486328
112;1673368934.065278;47.1306422;7.2406201;19.08100128173828;1673368934.2304757;0.43939632177352905;1.6092050075531006;89.83949279785156
113;1673368934.2665884;47.1306422;7.2406201999999995;19.496000289916992;1673368934.4299874;0.21659092605113983;-2.0661168098449707;90.0239486694336
114;1673368934.4700105;47.1306423;7.2406201999999995;19.91200065612793;1673368934.6361148;0.05952737480401993;-0.790618360042572;89.91632843017578
115;1673368934.6678803;47.1306424;7.2406201999999995;20.328001022338867;1673368934.8297162;-0.06784705072641373;2.3918471336364746;89.61630249023438
116;1673368934.8688586;47.1306424;7.2406201999999995;20.738000869750977;1673368935.0320356;0.08898154646158218;-1.5424245595932007;89.85803985595703
117;1673368935.070253;47.1306425;7.2406201;21.139001846313477;1673368935.2258234;0.3694004714488983;-1.46688711643219;90.04106903076172
118;1673368935.258292;47.1306425;7.2406201;21.541000366210938;1673368935.4225645;0.7790603637695312;2.3453304767608643;89.93770599365234
119;1673368935.4765208;47.1306425;7.2406201;21.946001052856445;1673368935.6409574;0.6017589569091797;-0.9341819882392883;89.87214660644531
120;1673368935.6819932;47.1306425;7.24062;22.350000381469727;1673368935.8510427;0.5031786561012268;-2.136442184448242;89.80997467041016
121;1673368935.888157;47.130642599999995;7.24062;22.753000259399414;1673368936.0601616;-0.03582242131233215;1.78582763671875;89.65630340576172
122;1673368936.097338;47.130642599999995;7.2406198999999996;23.156002044677734;1673368936.2514453;-0.2745116651058197;0.5262980461120605;89.83100128173828
123;1673368936.286582;47.130642599999995;7.240619799999999;23.556001663208008;1673368936.4393272;-0.2583513855934143;-2.662937879562378;90.03279113769531
124;1673368936.4764223;47.1306425;7.240619799999999;23.955001831054688;1673368936.6407223;-0.0702672153711319;0.6953521966934204;89.96971130371094
125;1673368936.675487;47.1306424;7.2406197;24.356000900268555;1673368936.8247795;0.2515496015548706;1.2688024044036865;89.66128540039062
126;1673368936.8582509;47.1306424;7.2406197;24.757001876831055;1673368937.0134022;0.728638768196106;-2.74184513092041;89.8826675415039
127;1673368937.0486248;47.1306425;7.2406197;25.155000686645508;1673368937.2227561;0.4559922218322754;-0.0633617714047432;89.89250183105469
128;1673368937.2589126;47.130642599999995;7.2406197;25.55000114440918;1673368937.4270566;0.28251728415489197;2.1781399250030518;89.82624816894531
129;1673368937.4641426;47.1306425;7.240619799999999;25.94500160217285;1673368937.6353636;0.10490988940000534;-1.846041202545166;90.01183319091797
130;1673368937.6798406;47.1306425;7.240619799999999;26.34200096130371;1673368937.853305;-0.04177834838628769;-1.0130579471588135;89.94438171386719
131;1673368937.8965545;47.1306425;7.2406197;26.742000579833984;1673368938.0437536;0.1295783966779709;2.4433465003967285;89.70957946777344
132;1673368938.0820327;47.1306425;7.2406197;27.14000129699707;1673368938.247509;0.13530053198337555;-0.4609872102737427;89.84769439697266
133;1673368938.2832909;47.130642599999995;7.2406197;27.540000915527344;1673368938.4419718;0.5357510447502136;-1.8779423236846924;89.93292999267578
134;1673368938.4929643;47.130642699999996;7.2406196;27.94500160217285;1673368938.664501;0.5313680171966553;2.65549898147583;89.78126525878906
135;1673368938.701604;47.130642699999996;7.2406196;28.352001190185547;1673368938.8703017;0.2710976004600525;0.3664928376674652;90.02906036376953
136;1673368938.9100688;47.130642599999995;7.2406196;28.751001358032227;1673368939.0716343;0.0777231976389885;-2.6692464351654053;89.99968719482422
137;1673368939.1097012;47.1306424;7.2406196;29.144001007080078;1673368939.2648153;-0.0674821212887764;0.711635172367096;89.60607147216797
138;1673368939.299953;47.1306423;7.2406196;29.536001205444336;1673368939.4603624;-0.36349573731422424;0.890467643737793;89.68791961669922
139;1673368939.4951801;47.1306423;7.2406196;29.927001953125;1673368939.6541483;-0.18842346966266632;-2.730051040649414;90.06533813476562
140;1673368939.693256;47.1306424;7.2406196;30.321001052856445;1673368939.8818872;-0.15220493078231812;-0.2302585244178772;89.9423828125
141;1673368939.9140832;47.1306425;7.2406196;30.715002059936523;1673368940.0782588;0.021957775577902794;2.380028486251831;89.7363052368164
142;1673368940.1065605;47.1306425;7.2406196;31.106000900268555;1673368940.242305;0.2652856111526489;-1.899829387664795;89.86125946044922
143;1673368940.2784464;47.1306425;7.2406196;31.4950008392334;1673368940.4327605;0.15487129986286163;-1.2139695882797241;89.91004180908203
144;1673368940.4688714;47.1306424;7.2406196;31.88500213623047;1673368940.633042;0.16921283304691315;2.3743741512298584;89.74188995361328
145;1673368940.6692817;47.1306424;7.2406197;32.28000259399414;1673368940.8401854;-0.12335453182458878;-1.154576063156128;90.0024642944336
146;1673368940.8811774;47.1306425;7.2406197;32.678001403808594;1673368941.0375557;-0.1095605120062828;-1.5855470895767212;90.07260131835938
147;1673368941.0717008;47.130642599999995;7.240619799999999;33.079002380371094;1673368941.2407312;-0.30385687947273254;2.720017194747925;89.67359924316406
148;1673368941.2764714;47.130642599999995;7.240619799999999;33.47700119018555;1673368941.4334774;0.05428222566843033;-0.4570455551147461;89.71443939208984
149;1673368941.4689217;47.1306425;7.240619799999999;33.87200164794922;1673368941.6227095;0.16543753445148468;-2.8537917137145996;89.98067474365234
150;1673368941.656925;47.1306424;7.2406198999999996;34.2660026550293;1673368941.8336155;0.5316721796989441;1.2245962619781494;89.80784606933594
151;1673368941.873661;47.1306423;7.2406198999999996;34.663002014160156;1673368942.052316;0.6855204701423645;0.6077898740768433;89.84078216552734
152;1673368942.0933843;47.1306424;7.24062;35.06500244140625;1673368942.248949;0.6659581661224365;-2.5506086349487305;89.98778533935547
153;1673368942.286037;47.1306425;7.24062;35.46800231933594;1673368942.442368;0.3671761751174927;0.6664802432060242;89.82715606689453
154;1673368942.4751148;47.130642599999995;7.24062;35.87000274658203;1673368942.6409972;0.10904642939567566;1.8304487466812134;89.72413635253906
155;1673368942.6815886;47.130642599999995;7.24062;36.2650032043457;1673368942.8442829;-0.009414988569915295;-1.8330745697021484;90.04578399658203
156;1673368942.8833618;47.130642599999995;7.24062;36.663002014160156;1673368943.0397224;-0.09524745494127274;-0.6869191527366638;89.92235565185547
157;1673368943.072046;47.130642699999996;7.2406198999999996;37.06100082397461;1673368943.217986;0.1529911905527115;2.5762834548950195;89.71139526367188
158;1673368943.253669;47.130642699999996;7.2406198999999996;37.457000732421875;1673368943.4246464;0.39513492584228516;-0.9670610427856445;89.86296081542969
159;1673368943.4607584;47.1306429;7.2406198999999996;37.854000091552734;1673368943.6249502;0.3931960463523865;-1.3735969066619873;89.917236328125
160;1673368943.6645567;47.130643;7.2406198999999996;38.25100326538086;1673368943.8428087;0.3869236409664154;2.6645689010620117;89.69303131103516
161;1673368943.8790998;47.1306429;7.2406198999999996;38.647003173828125;1673368944.0394123;0.3232917785644531;0.47172844409942627;89.92666625976562
162;1673368944.078469;47.1306428;7.240619799999999;39.038002014160156;1673368944.239854;-0.09539324045181274;-2.6758012771606445;89.94462585449219
163;1673368944.2770362;47.130642699999996;7.240619799999999;39.426002502441406;1673368944.4461296;-0.13774386048316956;1.194069743156433;89.62816619873047
164;1673368944.4892092;47.130642599999995;7.240619799999999;39.81800079345703;1673368944.6669066;-0.4126089811325073;0.8271452784538269;89.7572021484375
165;1673368944.7010531;47.130642699999996;7.2406197;40.20900344848633;1673368944.914604;-0.11115840077400208;-2.649866819381714;90.1020736694336
166;1673368944.951263;47.130642699999996;7.2406197;40.59800338745117;1673368945.0865066;-0.04079301282763481;0.8922606706619263;89.85047912597656
167;1673368945.117774;47.1306428;7.2406197;40.9890022277832;1673368945.2574997;0.2873844802379608;2.379927635192871;89.8235855102539
168;1673368945.287755;47.1306428;7.2406197;41.37900161743164;1673368945.4371955;0.29538679122924805;-2.4470083713531494;89.89313507080078
169;1673368945.4733083;47.130642699999996;7.240619799999999;41.76900100708008;1673368945.6435704;0.33942368626594543;-0.8981463313102722;89.91848754882812
170;1673368945.6758163;47.130642699999996;7.240619799999999;42.16200256347656;1673368945.8351977;0.16007688641548157;2.1895558834075928;89.68583679199219
171;1673368945.8733082;47.130642699999996;7.240619799999999;42.55900192260742;1673368946.0678067;-0.21128986775875092;-1.3462073802947998;90.1949691772461
172;1673368946.09909;47.130642699999996;7.240619799999999;42.957000732421875;1673368946.2337074;-0.24990177154541016;-1.3874013423919678;90.18859100341797
173;1673368946.2669148;47.1306428;7.240619799999999;43.35300064086914;1673368946.4594996;-0.24739938974380493;2.563744306564331;89.65988159179688
174;1673368946.4926867;47.1306428;7.240619799999999;43.74800109863281;1673368946.6626396;0.16630303859710693;-0.662931501865387;89.72392272949219
175;1673368946.697814;47.130642699999996;7.2406197;44.137001037597656;1673368946.8708458;0.16703368723392487;-2.422548532485962;89.97978210449219
176;1673368946.9070919;47.130642599999995;7.2406197;44.52400207519531;1673368947.0665073;0.45916515588760376;1.1124833822250366;89.84587860107422
177;1673368947.1055455;47.130642599999995;7.240619799999999;44.91100311279297;1673368947.2659383;0.259179025888443;1.2020305395126343;89.87442779541016
178;1673368947.3236282;47.130642599999995;7.240619799999999;45.29800033569336;1673368947.485288;0.21479885280132294;-2.4792237281799316;89.9185562133789
179;1673368947.5145833;47.130642699999996;7.240619799999999;45.68600082397461;1673368947.6778998;0.04582488536834717;0.894903302192688;89.86688232421875
180;1673368947.7101026;47.1306428;7.240619799999999;46.0780029296875;1673368947.862741;-0.022089578211307526;2.0993378162384033;89.71451568603516
181;1673368947.9224513;47.130642699999996;7.240619799999999;46.46900177001953;1673368948.0642667;-0.21862410008907318;-2.0274152755737305;89.99569702148438
182;1673368948.1072886;47.130642699999996;7.240619799999999;46.85900115966797;1673368948.249678;0.020015334710478783;-1.2346972227096558;89.97569274902344
183;1673368948.2840047;47.130642599999995;7.240619799999999;47.25200271606445;1673368948.432215;0.18647974729537964;2.1946756839752197;89.74617767333984
184;1673368948.4692879;47.1306425;7.240619799999999;47.64800262451172;1673368948.6291444;0.5365738868713379;-1.5079118013381958;89.93081665039062
185;1673368948.6648521;47.130642599999995;7.240619799999999;48.0410041809082;1673368948.8210475;0.25536325573921204;-1.1368401050567627;89.6121597290039
186;1673368948.8583088;47.130642699999996;7.2406197;48.39200210571289;1673368949.0278227;0.04821302741765976;2.1084811687469482;89.79719543457031
187;1673368949.0674217;47.130642699999996;7.2406197;48.69200134277344;1673368949.2283614;0.061180613934993744;-0.354408860206604;89.94921875
188;1673368949.2617564;47.130642699999996;7.2406197;48.939002990722656;1673368949.4254415;-0.05224817618727684;-2.3448619842529297;90.05899047851562
189;1673368949.467049;47.130642599999995;7.2406197;49.1410026550293;1673368949.630713;0.22261296212673187;1.525222659111023;89.71155548095703
190;1673368949.6674092;47.130642599999995;7.2406197;49.31300354003906;1673368949.8264863;15.570019721984863;-4.479744911193848;85.52597045898438
191;1673368949.864146;47.130642599999995;7.2406193;49.465003967285156;1673368950.0318613;30.97405242919922;-22.09762191772461;72.32552337646484
192;1673368950.069498;47.130643199999994;7.240617299999999;49.59700393676758;1673368950.2313414;27.068164825439453;-28.635154724121094;65.10417175292969
193;1673368950.2690055;47.130644499999995;7.240612499999999;49.69900131225586;1673368950.4307103;12.166254997253418;-34.37480926513672;55.60699462890625
194;1673368950.4646318;47.1306467;7.2406052;49.78200149536133;1673368950.6250043;0.6919328570365906;-30.031837463378906;44.79595184326172
195;1673368950.6602383;47.1306498;7.240596399999999;49.84700393676758;1673368950.827978;-8.33098316192627;-38.299949645996094;34.17395782470703
196;1673368950.8697965;47.1306538;7.2405867;49.906002044677734;1673368951.0278835;-23.60451889038086;-43.9954833984375;24.357980728149414
197;1673368951.0689666;47.1306592;7.240575499999999;49.96600341796875;1673368951.2320237;-40.044315338134766;-44.43210220336914;13.839323043823242
198;1673368951.2686708;47.130666399999996;7.2405623;50.02300262451172;1673368951.4349813;-49.17516326904297;-41.7855224609375;2.3197147846221924
199;1673368951.4685452;47.1306759;7.2405462;50.06900405883789;1673368951.6551955;-55.96373748779297;-35.44914627075195;-10.146682739257812
200;1673368951.6928627;47.1306873;7.2405269;50.095001220703125;1673368951.8468597;-56.46299362182617;-24.409589767456055;-20.49015235900879
201;1673368951.8849084;47.130700399999995;7.240504499999999;50.08100128173828;1673368952.0599477;-53.434814453125;-16.350650787353516;-27.15974998474121
202;1673368952.0989988;47.1307147;7.2404801999999995;50.038002014160156;1673368952.2455301;-53.24015808105469;-10.862785339355469;-33.49966049194336
203;1673368952.2777386;47.1307299;7.240454499999999;49.97600173950195;1673368952.4390352;-50.55473709106445;-6.736700057983398;-39.763771057128906
204;1673368952.4820313;47.1307458;7.2404278;49.90900421142578;1673368952.6572168;-47.74674606323242;-2.8777618408203125;-45.937721252441406
205;1673368952.6943932;47.130762;7.2404005;49.84800338745117;1673368952.8862011;-46.277244567871094;4.3017897605896;-52.23526382446289
206;1673368952.933089;47.1307785;7.2403729;49.801002502441406;1673368953.1076138;-46.20174026489258;6.30631160736084;-50.94501495361328
207;1673368953.152087;47.1307951;7.2403454;49.76700210571289;1673368953.3226845;-46.792503356933594;5.353566646575928;-48.30643844604492
208;1673368953.363876;47.130812;7.2403181;49.749000549316406;1673368953.5132208;-48.0543098449707;4.176984786987305;-46.85722732543945
209;1673368953.5518646;47.130829399999996;7.240291;49.742000579833984;1673368953.7544498;-48.35026550292969;2.4179883003234863;-46.03268051147461
210;1673368953.781792;47.1308471;7.2402638999999995;49.746002197265625;1673368953.9033716;-48.431640625;1.1967697143554688;-45.67649841308594
211;1673368953.9347844;47.1308651;7.240236899999999;49.762001037597656;1673368954.0717595;-49.43263244628906;0.09209614247083664;-45.3563232421875
212;1673368954.1049733;47.1308833;7.2402099;49.781002044677734;1673368954.2583475;-49.232391357421875;-0.15225079655647278;-45.54629135131836
213;1673368954.2946184;47.1309016;7.2401826;49.798004150390625;1673368954.450925;-48.65956497192383;-0.35312578082084656;-45.678897857666016
214;1673368954.4880118;47.130919999999996;7.240155199999999;49.81300354003906;1673368954.6438596;-48.12723159790039;-0.30379587411880493;-45.92886734008789
215;1673368954.67663;47.1309384;7.2401276;49.827003479003906;1673368954.836756;-47.91708755493164;-0.21433135867118835;-46.130062103271484
216;1673368954.8807592;47.1309569;7.2400999;49.840003967285156;1673368955.0366783;-32.08443069458008;-0.7754064798355103;-46.29357147216797
217;1673368955.0696561;47.130975199999995;7.2400724;49.66400146484375;1673368955.2150748;7.927830219268799;-2.2123587131500244;-47.030399322509766
218;1673368955.249241;47.1309933;7.240045299999999;49.13800048828125;1673368955.4347148;68.64732360839844;-10.111591339111328;-54.2589111328125
219;1673368955.4738622;47.131011199999996;7.2400186;48.207000732421875;1673368955.6417756;52.74494552612305;-175.45774841308594;140.37033081054688
220;1673368955.6815224;47.1310291;7.2399917;46.880001068115234;1673368955.8326645;19.38564109802246;-179.32374572753906;133.7095489501953
221;1673368955.8686268;47.1310469;7.2399651;45.202003479003906;1673368956.0207536;14.588530540466309;-178.7085418701172;131.87222290039062
222;1673368956.054899;47.1310643;7.239939;43.15500259399414;1673368956.2177775;38.30082321166992;-178.4118194580078;131.88465881347656
223;1673368956.2539985;47.1310814;7.2399134;40.73200225830078;1673368956.4127588;84.41133880615234;-52.69219970703125;-101.36168670654297
224;1673368956.4481387;47.1310983;7.2398881;37.96600341796875;1673368956.622922;12.056851387023926;-1.5144150257110596;-51.90297317504883
225;1673368956.6630309;47.1311153;7.2398625999999995;34.827003479003906;1673368956.8210654;-47.15459442138672;1.2684627771377563;-48.656864166259766
226;1673368956.8565536;47.131132099999995;7.239837499999999;31.280000686645508;1673368957.0218446;-67.73844146728516;-2.122575283050537;-43.10158920288086
227;1673368957.05955;47.131148499999995;7.2398128999999996;27.391000747680664;1673368957.2195387;-45.95909881591797;-1.2335044145584106;-41.81235885620117
228;1673368957.256834;47.1311647;7.2397887;23.18000030517578;1673368957.4547107;16.751768112182617;0.4271419644355774;-40.168636322021484
229;1673368957.4886508;47.1311805;7.2397651;18.60700035095215;1673368957.6485937;83.5474853515625;41.00617218017578;0.47218552231788635
230;1673368957.6848707;47.1311963;7.2397412999999995;13.633000373840332;1673368957.8348403;66.51573944091797;163.64181518554688;122.58621978759766
231;1673368957.867876;47.1312122;7.2397176;8.347000122070312;1673368958.0291646;80.95403289794922;68.7209701538086;28.863500595092773
232;1673368958.0697904;47.1312279;7.2396940999999995;2.767000198364258;1673368958.2349303;-16.118209838867188;7.399745464324951;-36.05559158325195
233;1673368958.2747808;47.131238599999996;7.2396891;0.45000001788139343;1673368958.4446144;-37.65699005126953;12.13574504852295;-64.34387969970703
234;1673368958.4847147;47.1312401;7.2397044;0.5940000414848328;1673368958.6598878;-34.22136306762695;9.927734375;-67.53971099853516
235;1673368958.69791;47.131239199999996;7.2397217;0.5980000495910645;1673368958.8677316;-1.7362980842590332;7.610445499420166;-62.06232452392578
236;1673368958.9127452;47.1312378;7.239738699999999;0.5670000314712524;1673368959.0791514;-1.8893650770187378;8.266518592834473;-61.00205612182617
237;1673368959.1160014;47.131236799999996;7.2397515;0.5550000071525574;1673368959.2796326;-0.29983896017074585;7.10257625579834;-60.64668655395508
238;1673368959.3139098;47.1312353;7.2397614;0.527999997138977;1673368959.4617972;-0.22901663184165955;7.23333740234375;-60.28254318237305
239;1673368959.493866;47.1312338;7.2397709;0.5220000147819519;1673368959.6547904;-0.13804252445697784;7.089671611785889;-60.41032028198242
240;1673368959.6929505;47.131233099999996;7.2397832;0.5210000276565552;1673368959.8906097;-0.07445420324802399;7.112704277038574;-60.529850006103516
241;1673368959.924894;47.131232999999995;7.2397974;0.5180000066757202;1673368960.0985348;-0.022327033802866936;6.950363636016846;-60.692955017089844
242;1673368960.1317127;47.1312335;7.239813;0.49900001287460327;1673368960.2857766;0.0779687687754631;6.773075580596924;-60.757938385009766
243;1673368960.3217506;47.1312344;7.239829299999999;0.4750000238418579;1673368960.4805806;0.08578763157129288;6.641716480255127;-60.898685455322266
244;1673368960.5296412;47.1312357;7.239846099999999;0.4520000219345093;1673368960.6757033;0.16574116051197052;6.516317844390869;-60.98276138305664
245;1673368960.716576;47.131237299999995;7.2398634;0.42900002002716064;1673368960.86367;0.19551794230937958;6.406158924102783;-61.09748077392578
246;1673368960.9186547;47.131239199999996;7.2398808;0.41200003027915955;1673368961.0742416;0.19113828241825104;6.292290687561035;-61.14949035644531
247;1673368961.110851;47.1312413;7.2398983999999995;0.3970000147819519;1673368961.2614691;0.2475210577249527;6.227827072143555;-61.212337493896484
248;1673368961.2947836;47.1312436;7.2399163;0.3800000250339508;1673368961.4787478;0.23350836336612701;6.151725769042969;-61.30097961425781
249;1673368961.5877721;47.1312462;7.2399344999999995;0.36000001430511475;1673368961.7055044;0.2999510169029236;6.0972137451171875;-61.373870849609375
250;1673368961.734638;47.1312491;7.239952799999999;0.3410000205039978;1673368961.8774765;0.3235618472099304;6.053430557250977;-61.403751373291016
251;1673368961.9107091;47.1312521;7.2399714;0.3230000138282776;1673368962.051573;0.3207928240299225;6.009641170501709;-61.46615982055664
252;1673368962.0897052;47.1312553;7.239990199999999;0.30400002002716064;1673368962.2565837;0.33187028765678406;5.999803066253662;-61.492427825927734
253;1673368962.2919137;47.1312588;7.240009199999999;0.28300002217292786;1673368962.465663;0.32469120621681213;5.979957103729248;-61.527687072753906
254;1673368962.5107694;47.1312624;7.2400284;0.26200002431869507;1673368962.6690655;0.37660032510757446;5.947797775268555;-61.54026794433594
255;1673368962.7047315;47.1312663;7.2400477;0.24300001561641693;1673368962.8666906;0.32781222462654114;5.995554447174072;-61.56460189819336
256;1673368962.9059517;47.1312703;7.2400671999999995;0.22600001096725464;1673368963.0576706;0.38557708263397217;5.799719333648682;-61.56644058227539
257;1673368963.0947294;47.131274499999996;7.2400869;0.2070000171661377;1673368963.2696679;0.3198143541812897;5.745048522949219;-61.571434020996094
258;1673368963.3089137;47.1312788;7.2401066;0.1900000125169754;1673368963.4796834;0.3850530982017517;5.662199020385742;-61.5865364074707
259;1673368963.5147154;47.1312833;7.2401266;0.1720000058412552;1673368963.6758385;0.32403549551963806;5.595975399017334;-61.57605743408203
260;1673368963.7067652;47.131288;7.2401469;0.15400001406669617;1673368963.8565667;0.39587491750717163;5.581070423126221;-61.595367431640625
261;1673368963.8930361;47.1312928;7.2401671;0.1380000114440918;1673368964.0977247;0.3450770974159241;5.584400653839111;-61.562705993652344
262;1673368964.1485708;47.1312977;7.2401876;0.12300000339746475;1673368964.3066912;0.3574305772781372;5.563676834106445;-61.5531005859375
263;1673368964.3382301;47.131300599999996;7.2401998999999995;0.1080000028014183;1673368964.4775064;0.36486560106277466;5.512460708618164;-61.53595733642578
264;;;;;1673368964.6820192;0.3670959174633026;5.525732517242432;-61.563743591308594
265;;;;;1673368964.8607204;0.3976868987083435;5.502291202545166;-61.56428146362305
266;;;;;1673368965.05582;0.333172082901001;5.495358943939209;-61.5534553527832
267;;;;;1673368965.263947;0.3652092516422272;5.685604572296143;-61.564598083496094
