;pos_time;latitude;longitude;altitude;alt_time;pitch;roll;yaw
0;1673369678.9490824;47.1306424;7.24062;-0.014000000432133675;1673369679.12744;0.01061286311596632;0.014977035112679005;90.13093566894531
1;1673369679.2117429;47.1306424;7.24062;-0.013000000268220901;1673369679.351996;0.017299620434641838;-0.15414442121982574;90.34306335449219
2;1673369679.4518423;47.1306424;7.24062;-0.014000000432133675;1673369679.5748863;-0.1564139723777771;0.06112319976091385;90.17403411865234
3;1673369679.6692946;47.1306424;7.24062;-0.013000000268220901;1673369679.775425;-0.05280674248933792;-0.25737687945365906;90.29627227783203
4;1673369679.823862;47.1306424;7.24062;-0.01100000087171793;1673369679.9500556;-0.08870343118906021;0.059994470328092575;90.30113983154297
5;1673369680.0017772;47.1306424;7.24062;-0.009000000543892384;1673369680.125396;-0.09658243507146835;0.05638137459754944;90.18360137939453
6;1673369680.1850803;47.1306424;7.24062;-0.010000000707805157;1673369680.3200536;-0.1466180384159088;-0.1012793779373169;90.34969329833984
7;1673369680.378747;47.1306425;7.24062;-0.012000000104308128;1673369680.513816;0.0195769090205431;-0.0019433373818174005;90.38536834716797
8;1673369680.5758424;47.1306424;7.2406198999999996;-0.012000000104308128;1673369680.7283013;0.16244597733020782;-0.029738634824752808;90.22115325927734
9;1673369680.788003;47.1306424;7.2406198999999996;-0.012000000104308128;1673369680.9623497;0.20988227427005768;-0.0912095308303833;90.16167449951172
10;1673369681.0191944;47.1306424;7.2406198999999996;-0.009000000543892384;1673369681.1477158;-0.04125848412513733;-0.1090896725654602;90.31097412109375
11;1673369681.2084332;47.1306424;7.24062;-0.003000000026077032;1673369681.3428261;-0.16137315332889557;-0.07287975400686264;90.391357421875
12;1673369681.4033225;47.1306424;7.2406201;0.0;1673369681.5364747;-0.32130706310272217;0.04556106775999069;90.2568130493164
13;1673369681.5951388;47.1306424;7.2406201;0.0;1673369681.7321007;-0.2628057897090912;-0.12503080070018768;90.3210220336914
14;1673369681.7877505;47.1306424;7.2406201;0.0;1673369681.934372;-0.2755903899669647;-0.49399253726005554;90.3356704711914
15;1673369682.0008068;47.1306424;7.2406201;-0.0020000000949949026;1673369682.1205788;-0.10867893695831299;-1.2927855253219604;90.44259643554688
16;1673369682.1777651;47.1306424;7.2406201;-0.006000000052154064;1673369682.3170109;-0.009519308805465698;-0.7353474497795105;90.3095474243164
17;1673369682.3732367;47.1306424;7.2406201;-0.007000000216066837;1673369682.5007546;0.07162858545780182;-1.1340596675872803;90.26957702636719
18;1673369682.5588818;47.1306424;7.2406201;-0.006000000052154064;1673369682.697152;-0.18384307622909546;-0.7881742119789124;90.34730529785156
19;1673369682.756352;47.1306424;7.2406201999999995;-0.005000000353902578;1673369682.9055371;-0.17866197228431702;-1.0361460447311401;90.36563873291016
20;1673369682.9635975;47.1306424;7.2406201999999995;-0.006000000052154064;1673369683.1145213;-0.31738749146461487;-1.446751356124878;90.39493560791016
21;1673369683.170514;47.1306424;7.2406201999999995;-0.006000000052154064;1673369683.3078725;-0.36127036809921265;-0.8315155506134033;90.43797302246094
22;1673369683.3654861;47.1306424;7.2406201999999995;0.0;1673369683.4974601;-0.3952653110027313;-0.7209635376930237;90.4388198852539
23;1673369683.550249;47.1306425;7.2406201999999995;-0.0020000000949949026;1673369683.6835759;-0.33163154125213623;-0.40033695101737976;90.3227767944336
24;1673369683.7391348;47.1306425;7.2406201;-0.00800000037997961;1673369683.8876972;-0.5233501195907593;-0.7502111792564392;90.4351577758789
25;1673369683.9437683;47.130642599999995;7.2406201;-0.015000000596046448;1673369684.0735762;-0.4872855246067047;-0.552266001701355;90.5473861694336
26;1673369684.1365268;47.130642699999996;7.24062;-0.01900000125169754;1673369684.2964823;-0.8998603820800781;-0.6782748103141785;91.17687225341797
27;1673369684.3604853;47.1306428;7.24062;-0.024000000208616257;1673369684.4955187;-0.7437395453453064;-1.0711052417755127;92.40310668945312
28;1673369684.5544481;47.1306429;7.24062;-0.029000001028180122;1673369684.6883132;-0.8834971189498901;-0.987573504447937;94.58055114746094
29;1673369684.7514982;47.130643;7.24062;-0.029000001028180122;1673369684.892587;0.2481766939163208;0.23403508961200714;100.22798919677734
30;1673369684.9513829;47.130643299999996;7.2406203;-0.024000000208616257;1673369685.089567;-0.3170689642429352;-0.7135635018348694;113.38719940185547
31;1673369685.154574;47.130644;7.240621099999999;-0.010000000707805157;1673369685.288176;0.08706028759479523;3.1824216842651367;116.05694580078125
32;1673369685.3505046;47.130645099999995;7.2406226;-0.004000000189989805;1673369685.4923549;1.5131736993789673;3.905665874481201;115.5933609008789
33;1673369685.5593207;47.1306468;7.240625;0.0;1673369685.6975389;2.910219192504883;7.105462551116943;109.27745056152344
34;1673369685.769083;47.130649;7.2406283;0.00800000037997961;1673369685.918443;6.195095062255859;12.94497299194336;107.4464340209961
35;1673369685.9764557;47.1306515;7.2406324;0.027000000700354576;1673369686.1133997;7.213027477264404;13.740159034729004;106.51234436035156
36;1673369686.1716444;47.130654299999996;7.2406371;0.06300000101327896;1673369686.3064775;8.715457916259766;15.137357711791992;105.85591888427734
37;1673369686.3676386;47.130657199999995;7.2406421;0.11000000685453415;1673369686.497509;10.052939414978027;17.042736053466797;105.384033203125
38;1673369686.5454671;47.1306602;7.240647399999999;0.1680000126361847;1673369686.680586;11.447885513305664;18.257362365722656;104.94513702392578
39;1673369686.7372305;47.1306632;7.2406527;0.2370000183582306;1673369686.8782325;12.992563247680664;19.752883911132812;104.58450317382812
40;1673369686.9371858;47.1306661;7.2406578999999995;0.30100002884864807;1673369687.073764;14.442765235900879;21.185470581054688;104.26378631591797
41;1673369687.1325772;47.130668799999995;7.2406628;0.36000001430511475;1673369687.2723818;16.046165466308594;22.590534210205078;103.94927215576172
42;1673369687.3319097;47.130671299999996;7.2406673999999995;0.41100001335144043;1673369687.4667132;17.707191467285156;24.03564453125;103.6058120727539
43;1673369687.528309;47.1306735;7.2406716;0.45500001311302185;1673369687.6798172;19.289318084716797;25.454540252685547;103.31871795654297
44;1673369687.7403626;47.1306754;7.2406749999999995;0.49500003457069397;1673369687.8869853;21.02849578857422;27.00551986694336;103.02110290527344
45;1673369687.9456093;47.1306769;7.240677799999999;0.531000018119812;1673369688.1013088;22.72650909423828;28.309473037719727;102.54729461669922
46;1673369688.1659076;47.1306781;7.2406798;0.5600000023841858;1673369688.303386;24.66982650756836;29.57705307006836;102.08353424072266
47;1673369688.3659117;47.1306787;7.2406809999999995;0.5870000123977661;1673369688.4882805;26.638944625854492;31.116840362548828;101.52536010742188
48;1673369688.5508735;47.1306788;7.2406812;0.6130000352859497;1673369688.6858673;28.768939971923828;32.264251708984375;100.89051818847656
49;1673369688.748313;47.1306784;7.2406805;0.6360000371932983;1673369688.891192;31.03278923034668;33.398109436035156;100.07383728027344
50;1673369688.956795;47.130677299999995;7.240678699999999;0.656000018119812;1673369689.1005025;33.39558029174805;34.5202751159668;99.25936889648438
51;1673369689.1621678;47.1306756;7.2406758;0.6780000329017639;1673369689.3116877;36.06657791137695;35.31307601928711;98.15312957763672
52;1673369689.379841;47.130673099999996;7.2406716;0.7000000476837158;1673369689.520218;36.80891418457031;34.35276794433594;96.56204986572266
53;1673369689.586156;47.1306699;7.2406663;0.7150000333786011;1673369689.7274437;33.44775390625;30.428884506225586;94.52696990966797
54;1673369689.7806964;47.1306661;7.24066;0.7210000157356262;1673369689.9169414;29.564878463745117;25.887107849121094;92.97842407226562
55;1673369689.9782772;47.130662099999995;7.240653399999999;0.7210000157356262;1673369690.1057239;24.8454532623291;21.86147689819336;92.10477447509766
56;1673369690.1692483;47.1306582;7.2406469;0.7190000414848328;1673369690.302491;20.432796478271484;18.93197250366211;92.1435546875
57;1673369690.362136;47.1306545;7.2406407999999995;0.7740000486373901;1673369690.51157;17.641376495361328;16.87439727783203;92.25765991210938
58;1673369690.57127;47.1306514;7.2406356;0.8440000414848328;1673369690.703263;14.380847930908203;14.626306533813477;92.26492309570312
59;1673369690.7676957;47.1306489;7.2406312999999995;0.9260000586509705;1673369690.909506;13.337809562683105;14.085031509399414;92.53644561767578
60;1673369690.9662392;47.130646899999995;7.240628;1.0220000743865967;1673369691.1060333;13.210046768188477;14.588418006896973;93.04431915283203
61;1673369691.1627603;47.1306455;7.2406258;1.1260000467300415;1673369691.300648;14.180872917175293;15.003324508666992;93.23753356933594
62;1673369691.3582363;47.1306447;7.2406244;1.2380000352859497;1673369691.4891846;15.737326622009277;15.679035186767578;93.37705993652344
63;1673369691.55168;47.1306442;7.2406236999999996;1.3630000352859497;1673369691.6865947;17.37047004699707;19.28436279296875;93.91309356689453
64;1673369691.74516;47.1306441;7.2406235;1.4970000982284546;1673369691.8780653;18.92496681213379;19.2597599029541;92.62773132324219
65;1673369691.9372108;47.1306441;7.240623599999999;1.6440000534057617;1673369692.0811076;20.584318161010742;19.304931640625;92.50865936279297
66;1673369692.1410224;47.1306442;7.2406236999999996;1.8040001392364502;1673369692.2879038;21.010774612426758;22.291940689086914;92.8236083984375
67;1673369692.349045;47.1306443;7.2406236999999996;1.9760000705718994;1673369692.5036778;21.47789764404297;21.000885009765625;92.38654327392578
68;1673369692.5583897;47.1306442;7.2406235;2.1570000648498535;1673369692.6964204;21.64307975769043;20.3574161529541;92.06497192382812
69;1673369692.7569563;47.130644;7.240623299999999;2.3480000495910645;1673369692.9038355;21.32067108154297;22.127159118652344;92.47782897949219
70;1673369692.9658635;47.1306438;7.2406229;2.5410001277923584;1673369693.1112154;20.783498764038086;20.605226516723633;92.3614501953125
71;1673369693.1756697;47.1306436;7.2406225;2.7370002269744873;1673369693.3098361;20.300334930419922;19.497034072875977;92.27070617675781
72;1673369693.3689675;47.1306434;7.240622;2.927000045776367;1673369693.508228;19.809751510620117;21.174314498901367;92.74771118164062
73;1673369693.571659;47.1306431;7.2406215;3.114000082015991;1673369693.7198975;19.412893295288086;19.691303253173828;92.5244140625
74;1673369693.7809675;47.1306429;7.240621099999999;3.3030002117156982;1673369693.910507;19.143342971801758;18.431169509887695;92.26087951660156
75;1673369693.9574268;47.130642699999996;7.240620799999999;3.491000175476074;1673369694.0904057;19.250411987304688;20.60497283935547;92.70408630371094
76;1673369694.1479895;47.130642599999995;7.2406206;3.67900013923645;1673369694.2848983;19.189361572265625;19.54283905029297;92.5730209350586
77;1673369694.3444884;47.130642599999995;7.2406204999999995;3.8680002689361572;1673369694.4778793;19.33941650390625;18.42478370666504;92.30855560302734
78;1673369694.5370991;47.1306425;7.2406204999999995;4.061000347137451;1673369694.6778467;19.61759376525879;20.61031150817871;92.65805053710938
79;1673369694.7379222;47.1306425;7.2406204999999995;4.25600004196167;1673369694.877174;19.66868019104004;19.682374954223633;92.55492401123047
80;1673369694.9500265;47.1306425;7.2406206;4.451000213623047;1673369695.0831366;19.938434600830078;18.81770896911621;92.26756286621094
81;1673369695.14072;47.130642599999995;7.2406206;4.644000053405762;1673369695.279087;19.9987850189209;21.215740203857422;92.68406677246094
82;1673369695.3392644;47.130642699999996;7.2406206;4.839000225067139;1673369695.4755173;19.73568344116211;20.336448669433594;92.466552734375
83;1673369695.5356586;47.130642699999996;7.2406206;5.034000396728516;1673369695.6763027;19.944997787475586;19.094362258911133;92.34723663330078
84;1673369695.7397645;47.130642699999996;7.2406204999999995;5.229000091552734;1673369695.886426;19.839527130126953;21.323034286499023;92.7374496459961
85;1673369695.9440277;47.130642699999996;7.2406204999999995;5.425000190734863;1673369696.0925312;19.717727661132812;20.596376419067383;92.64269256591797
86;1673369696.151091;47.1306428;7.2406204999999995;5.623000144958496;1673369696.2947721;19.91350555419922;19.037830352783203;92.23310089111328
87;1673369696.360217;47.1306428;7.2406206;5.821000099182129;1673369696.5117848;20.05298614501953;21.15771484375;92.63921356201172
88;1673369696.5703466;47.1306428;7.2406206;6.020000457763672;1673369696.6985886;20.007963180541992;20.712427139282227;92.61375427246094
89;1673369696.756161;47.1306429;7.2406207;6.216000080108643;1673369696.886139;19.90087890625;18.974584579467773;92.24356079101562
90;1673369696.944754;47.1306428;7.2406207;6.409000396728516;1673369697.0844858;20.012117385864258;20.930007934570312;92.67013549804688
91;1673369697.1441891;47.1306428;7.2406206;6.6050004959106445;1673369697.2886257;19.853694915771484;20.740238189697266;92.6435775756836
92;1673369697.3557951;47.1306428;7.2406206;6.800000190734863;1673369697.4904199;19.943477630615234;19.10529899597168;92.2895278930664
93;1673369697.5512934;47.1306429;7.2406206;6.997000217437744;1673369697.6888099;20.019439697265625;20.896900177001953;92.57154846191406
94;1673369697.754417;47.1306429;7.2406206;7.195000171661377;1673369697.8931623;19.622150421142578;21.1229248046875;92.60810089111328
95;1673369697.9528077;47.1306429;7.2406206;7.392000198364258;1673369698.0927129;19.90852928161621;18.913734436035156;92.28939819335938
96;1673369698.1514337;47.1306428;7.2406206;7.589000225067139;1673369698.299055;19.87525177001953;20.865169525146484;92.61914825439453
97;1673369698.3616073;47.1306428;7.2406206;7.783000469207764;1673369698.5093756;19.92856788635254;21.158164978027344;92.70044708251953
98;1673369698.5718808;47.1306428;7.2406204999999995;7.979000568389893;1673369698.7145712;19.784961700439453;18.999042510986328;92.26449584960938
99;1673369698.7782028;47.130642699999996;7.2406204999999995;8.177000045776367;1673369698.915195;20.014896392822266;20.456552505493164;92.50282287597656
100;1673369698.9720893;47.130642699999996;7.2406204999999995;8.37700080871582;1673369699.1104715;19.780946731567383;21.04183006286621;92.64109802246094
101;1673369699.173015;47.130642699999996;7.2406204999999995;8.577000617980957;1673369699.3134973;19.765653610229492;19.00457763671875;92.32324981689453
102;1673369699.368263;47.130642599999995;7.2406204999999995;8.780000686645508;1673369699.532418;19.97301483154297;20.277509689331055;92.51436614990234
103;1673369699.6087155;47.130642599999995;7.2406204999999995;8.983000755310059;1673369699.767411;19.92375373840332;21.186235427856445;92.71377563476562
104;1673369699.8460684;47.130642599999995;7.2406204999999995;9.184000015258789;1673369699.9623308;19.833494186401367;19.191253662109375;92.27395629882812
105;1673369700.023941;47.130642599999995;7.2406204999999995;9.386000633239746;1673369700.1940463;19.899187088012695;20.193429946899414;92.43999481201172
106;1673369700.2449543;47.130642599999995;7.2406204999999995;9.592000007629395;1673369700.3667161;19.790260314941406;21.5968017578125;92.71549224853516
107;1673369700.4166977;47.130642599999995;7.2406204999999995;9.796000480651855;1673369700.5679028;19.693527221679688;19.45368003845215;92.40771484375
108;1673369700.6279702;47.130642599999995;7.2406204999999995;10.0;1673369700.7686784;19.94879722595215;19.36937141418457;92.4561767578125
109;1673369700.8234613;47.1306425;7.2406204999999995;10.21500015258789;1673369700.9458377;18.78322410583496;19.668298721313477;92.54226684570312
110;1673369700.9983523;47.1306424;7.2406201999999995;10.541000366210938;1673369701.1387694;19.901569366455078;20.963275909423828;92.60869598388672
111;1673369701.2014852;47.1306422;7.240619799999999;10.937000274658203;1673369701.3395991;19.52775764465332;20.022994995117188;92.35501861572266
112;1673369701.4036736;47.130641999999995;7.2406194;11.344000816345215;1673369701.5547416;18.62135887145996;20.18885612487793;92.78260803222656
113;1673369701.609514;47.1306417;7.2406191;11.753000259399414;1673369701.7428095;18.152433395385742;18.28697395324707;92.50071716308594
114;1673369701.7902906;47.130641499999996;7.240618899999999;12.163000106811523;1673369701.9264157;18.0647029876709;17.843381881713867;92.35105895996094
115;1673369701.993349;47.130641399999995;7.2406188;12.57300090789795;1673369702.1288702;18.230632781982422;19.702619552612305;92.79566955566406
116;1673369702.1836941;47.130641499999996;7.2406188;12.980000495910645;1673369702.3201172;18.284839630126953;18.446739196777344;92.56419372558594
117;1673369702.3806598;47.130641499999996;7.240618899999999;13.383000373840332;1673369702.5174525;18.688087463378906;18.293689727783203;92.40852355957031
118;1673369702.5828586;47.1306416;7.2406191;13.78700065612793;1673369702.7166257;19.011783599853516;20.336763381958008;92.75965881347656
119;1673369702.7792988;47.1306417;7.240619199999999;14.191000938415527;1673369702.922047;19.015939712524414;19.074237823486328;92.50788879394531
120;1673369702.987533;47.1306418;7.2406194;14.596000671386719;1673369703.1289365;19.293880462646484;18.791982650756836;92.35639953613281
121;1673369703.1837823;47.1306419;7.240619499999999;15.00100040435791;1673369703.30974;19.35548210144043;20.696365356445312;92.65428924560547
122;1673369703.3683453;47.130641999999995;7.240619499999999;15.411001205444336;1673369703.504349;19.01363182067871;19.703853607177734;92.4845962524414
123;1673369703.5689955;47.130642099999996;7.240619499999999;15.818000793457031;1673369703.7230668;19.299570083618164;19.000829696655273;92.27468872070312
124;1673369703.7806828;47.1306422;7.240619499999999;16.22100067138672;1673369703.9264197;18.96409034729004;20.95758819580078;92.71800994873047
125;1673369703.9877558;47.1306422;7.2406194;16.625;1673369704.1109278;19.007482528686523;19.86288833618164;92.51258850097656
126;1673369704.167536;47.1306422;7.240619499999999;17.027000427246094;1673369704.302309;19.072717666625977;18.61884307861328;92.30314636230469
127;1673369704.3590622;47.1306422;7.240619499999999;17.428001403808594;1673369704.4917767;19.24730682373047;20.677743911743164;92.65580749511719
128;1673369704.5533779;47.1306423;7.2406196;17.83100128173828;1673369704.7087553;19.060863494873047;19.871826171875;92.5982666015625
129;1673369704.7705069;47.1306423;7.2406197;18.23200035095215;1673369704.9172783;19.312313079833984;18.916400909423828;92.43035888671875
130;1673369704.981534;47.1306423;7.240619799999999;18.63300132751465;1673369705.129288;19.293821334838867;20.285682678222656;92.59748077392578
131;1673369705.2079062;47.1306423;7.240619799999999;19.032001495361328;1673369705.3626678;19.126256942749023;19.68841552734375;92.5045166015625
132;1673369705.452155;47.1306423;7.240619799999999;19.435001373291016;1673369705.6119423;19.21990966796875;18.649477005004883;92.28807067871094
133;1673369705.6675746;47.1306423;7.240619799999999;19.841001510620117;1673369705.7984421;19.24469566345215;20.734399795532227;92.6265640258789
134;1673369705.8805592;47.1306424;7.240619799999999;20.25200080871582;1673369705.9956684;18.88291358947754;20.036216735839844;92.57923126220703
135;1673369706.0651255;47.1306424;7.240619799999999;20.660001754760742;1673369706.1829169;19.094457626342773;18.795347213745117;92.33126831054688
136;1673369706.2517922;47.1306424;7.240619799999999;21.059001922607422;1673369706.4252465;18.928363800048828;20.471704483032227;92.71664428710938
137;1673369706.4878232;47.1306424;7.240619799999999;21.45600128173828;1673369706.5968025;19.066734313964844;20.076807022094727;92.5830078125
138;1673369706.649546;47.1306424;7.240619799999999;21.85500144958496;1673369706.7741222;19.187959671020508;18.67830467224121;92.23912811279297
139;1673369706.828184;47.1306424;7.2406198999999996;22.256000518798828;1673369706.9562335;19.174957275390625;20.519556045532227;92.58854675292969
140;1673369707.0119042;47.1306424;7.2406198999999996;22.657001495361328;1673369707.1435416;19.128881454467773;20.217710494995117;92.63809967041016
141;1673369707.2061236;47.1306424;7.2406198999999996;23.0570011138916;1673369707.3316505;19.12580680847168;18.728778839111328;92.31612396240234
142;1673369707.3966117;47.1306424;7.2406198999999996;23.457000732421875;1673369707.5280385;19.31723976135254;20.209152221679688;92.57737731933594
143;1673369707.5926151;47.1306424;7.2406198999999996;23.85500144958496;1673369707.7247224;18.972206115722656;20.172924041748047;92.60321807861328
144;1673369707.7843695;47.1306424;7.2406198999999996;24.25200080871582;1673369707.9149108;19.04435157775879;18.723562240600586;92.25212097167969
145;1673369707.9779727;47.1306424;7.24062;24.655000686645508;1673369708.124305;19.132871627807617;20.3927059173584;92.62383270263672
146;1673369708.1878629;47.1306424;7.24062;25.06100082397461;1673369708.3247044;19.054847717285156;20.389583587646484;92.65648651123047
147;1673369708.3922207;47.1306424;7.24062;25.465002059936523;1673369708.528127;19.08647918701172;18.687862396240234;92.19755554199219
148;1673369708.5868793;47.1306424;7.24062;25.86800193786621;1673369708.7187605;19.269289016723633;20.190011978149414;92.50447845458984
149;1673369708.7774866;47.1306424;7.2406201;26.266000747680664;1673369708.919196;19.07773208618164;20.185136795043945;92.49180603027344
150;1673369708.9841964;47.1306424;7.24062;26.66200065612793;1673369709.1310945;19.003406524658203;18.671188354492188;92.32569885253906
151;1673369709.1931367;47.1306424;7.24062;27.06100082397461;1673369709.3344617;19.25589370727539;19.929637908935547;92.55415344238281
152;1673369709.3946328;47.1306425;7.24062;27.463001251220703;1673369709.5378265;18.96324348449707;20.721439361572266;92.72129821777344
153;1673369709.6048331;47.1306425;7.24062;27.86800193786621;1673369709.7529476;19.032432556152344;18.718307495117188;92.40230560302734
154;1673369709.812126;47.1306425;7.24062;28.274002075195312;1673369709.9583764;19.122676849365234;19.828018188476562;92.4630355834961
155;1673369710.0126216;47.130642599999995;7.2406201;28.677001953125;1673369710.1321292;19.050830841064453;20.931636810302734;92.6414566040039
156;1673369710.1897657;47.130642599999995;7.2406201;29.075000762939453;1673369710.316828;18.926448822021484;18.96120262145996;92.3854751586914
157;1673369710.37246;47.130642599999995;7.2406201;29.474000930786133;1673369710.5278502;19.18466567993164;19.931730270385742;92.4962158203125
158;1673369710.58757;47.130642599999995;7.2406201;29.875001907348633;1673369710.7416942;19.095014572143555;20.945655822753906;92.70357513427734
159;1673369710.7963414;47.130642599999995;7.2406201999999995;30.27800178527832;1673369710.9292073;19.08658218383789;18.893802642822266;92.25301361083984
160;1673369710.9879591;47.130642599999995;7.2406201999999995;30.683000564575195;1673369711.1222339;19.26690673828125;19.85568618774414;92.40692901611328
161;1673369711.1798642;47.130642599999995;7.2406201999999995;31.0830020904541;1673369711.3127296;19.00743293762207;20.924015045166016;92.68212890625
162;1673369711.3718715;47.130642599999995;7.2406201999999995;31.47800064086914;1673369711.5044084;18.945697784423828;19.171186447143555;92.42372131347656
163;1673369711.5669472;47.130642599999995;7.2406201999999995;31.8700008392334;1673369711.7056875;19.219873428344727;19.528926849365234;92.44483947753906
164;1673369711.7642684;47.130642599999995;7.2406203;32.268001556396484;1673369711.9173858;19.082656860351562;21.0643253326416;92.65425872802734
165;1673369711.979991;47.130642599999995;7.2406203;32.665000915527344;1673369712.1208377;19.166526794433594;19.293394088745117;92.4513168334961
166;1673369712.1866748;47.130642599999995;7.2406203;33.06100082397461;1673369712.3301091;19.223270416259766;19.37890625;92.4488754272461
167;1673369712.3916469;47.130642599999995;7.2406203;33.45900344848633;1673369712.52952;19.279756546020508;21.11783790588379;92.79634857177734
168;1673369712.588178;47.130642599999995;7.2406203;33.858001708984375;1673369712.7289257;19.055639266967773;19.287126541137695;92.42140197753906
169;1673369712.7884912;47.1306425;7.2406203;34.25400161743164;1673369712.9284022;19.09211540222168;19.074588775634766;92.31184387207031
170;1673369712.988739;47.1306425;7.2406201999999995;34.64400100708008;1673369713.124772;19.110118865966797;20.857778549194336;92.64476013183594
171;1673369713.1872368;47.1306425;7.2406201999999995;35.03900146484375;1673369713.32922;18.991228103637695;19.206850051879883;92.49120330810547
172;1673369713.3976226;47.1306424;7.2406201999999995;35.43600082397461;1673369713.549789;19.091297149658203;19.1779842376709;92.34645080566406
173;1673369713.6137853;47.1306424;7.2406201999999995;35.8380012512207;1673369713.7451494;19.129444122314453;20.90330696105957;92.66496276855469
174;1673369713.8018441;47.1306425;7.2406201999999995;36.24100112915039;1673369713.926235;19.042390823364258;19.30582618713379;92.4229965209961
175;1673369713.9811592;47.1306424;7.2406201;36.638999938964844;1673369714.1298018;19.053438186645508;19.2220516204834;92.32891082763672
176;1673369714.1836274;47.1306424;7.2406201;37.035003662109375;1673369714.3147278;19.062501907348633;20.650354385375977;92.71954345703125
177;1673369714.3724186;47.1306424;7.2406201;37.43300247192383;1673369714.514705;18.811918258666992;19.6025333404541;92.5337142944336
178;1673369714.574337;47.1306424;7.2406201;37.83100128173828;1673369714.761149;19.114360809326172;19.063913345336914;92.39556121826172
179;1673369714.817322;47.1306424;7.2406201;38.23100280761719;1673369714.9523156;19.08135414123535;20.91429328918457;92.76956176757812
180;1673369715.0175345;47.1306424;7.24062;38.634002685546875;1673369715.1489296;18.92059326171875;19.789104461669922;92.57941436767578
181;1673369715.2037911;47.1306424;7.24062;39.03700256347656;1673369715.3427763;18.917898178100586;18.897802352905273;92.3339614868164
182;1673369715.4015641;47.1306424;7.24062;39.4370002746582;1673369715.5413775;19.122642517089844;20.64435386657715;92.52407836914062
183;1673369715.6001763;47.1306424;7.24062;39.83400344848633;1673369715.737451;18.781145095825195;19.659217834472656;92.47538757324219
184;1673369715.7922513;47.1306424;7.2406198999999996;40.23400115966797;1673369715.9290664;18.89805030822754;18.86583137512207;92.35977172851562
185;1673369715.984747;47.1306424;7.2406198999999996;40.63500213623047;1673369716.1215234;18.87029457092285;20.79334259033203;92.65475463867188
186;1673369716.1850464;47.1306425;7.2406198999999996;41.03600311279297;1673369716.324754;18.767955780029297;19.968482971191406;92.5379638671875
187;1673369716.3852527;47.1306425;7.2406198999999996;41.43600082397461;1673369716.5301805;18.9311466217041;19.001407623291016;92.39654541015625
188;1673369716.586045;47.1306425;7.2406198999999996;41.83400344848633;1673369716.7187574;18.888795852661133;20.55242156982422;92.65906524658203
189;1673369716.7812247;47.1306425;7.2406198999999996;42.23100280761719;1673369716.9329236;18.898054122924805;19.94356346130371;92.64937591552734
190;1673369717.0116951;47.1306425;7.2406198999999996;42.63500213623047;1673369717.1585968;19.080942153930664;18.914653778076172;92.34742736816406
191;1673369717.223574;47.1306425;7.24062;43.04100036621094;1673369717.3923213;19.13010025024414;20.318464279174805;92.62000274658203
192;1673369717.4778588;47.1306425;7.24062;43.445003509521484;1673369717.5965033;18.88457679748535;20.179576873779297;92.54049682617188
193;1673369717.6537147;47.1306425;7.24062;43.84600067138672;1673369717.7813404;19.021583557128906;18.74112892150879;92.2821273803711
194;1673369717.8393102;47.1306425;7.24062;44.24700164794922;1673369717.9804287;19.058353424072266;20.429439544677734;92.58139038085938
195;1673369718.0269127;47.1306425;7.24062;44.643001556396484;1673369718.1485333;18.903465270996094;20.224565505981445;92.55906677246094
196;1673369718.2091985;47.1306425;7.24062;45.035003662109375;1673369718.341236;18.878896713256836;18.671789169311523;92.35047149658203
197;1673369718.3969111;47.130642599999995;7.2406198999999996;45.435001373291016;1673369718.5308318;18.96466636657715;20.51365089416504;92.57382202148438
198;1673369718.5923185;47.130642599999995;7.2406198999999996;45.8380012512207;1673369718.7291656;18.923906326293945;20.51845932006836;92.58948516845703
199;1673369718.7877262;47.130642599999995;7.2406198999999996;46.2400016784668;1673369718.9533777;18.86724853515625;18.97835350036621;92.3630142211914
200;1673369719.0234764;47.130642599999995;7.24062;46.64200210571289;1673369719.1666427;19.110788345336914;19.972721099853516;92.49806213378906
201;1673369719.2198873;47.130642599999995;7.24062;47.040000915527344;1673369719.3766508;18.95950698852539;20.588123321533203;92.62649536132812
202;1673369719.438765;47.130642599999995;7.24062;47.43400192260742;1673369719.5838761;19.0237979888916;18.869487762451172;92.3090591430664
203;1673369719.6342213;47.130642699999996;7.2406201;47.8280029296875;1673369719.7754955;19.077423095703125;20.651168823242188;92.56587982177734
204;1673369719.844459;47.130642699999996;7.2406201;48.207000732421875;1673369719.984754;19.228891372680664;21.014663696289062;92.62541198730469
205;1673369720.04885;47.1306428;7.2406201999999995;48.53700256347656;1673369720.1889894;19.219850540161133;19.16358184814453;92.46382904052734
206;1673369720.24916;47.1306428;7.2406204;48.820003509521484;1673369720.3840806;19.591381072998047;20.853734970092773;92.72736358642578
207;1673369720.4471173;47.130643;7.2406206;49.060001373291016;1673369720.5824072;19.696823120117188;21.252466201782227;92.62864685058594
208;1673369720.66399;47.130643199999994;7.240621;49.25700378417969;1673369720.8250349;23.194734573364258;22.72515296936035;92.71184539794922
209;1673369720.8884795;47.1306434;7.2406212;49.423004150390625;1673369721.0341454;39.569759368896484;8.04082202911377;84.523193359375
210;1673369721.0848908;47.1306436;7.2406207;49.570003509521484;1673369721.2113771;48.65046691894531;-9.004789352416992;71.94308471679688
211;1673369721.267201;47.1306444;7.2406181;49.69700241088867;1673369721.4045877;44.425289154052734;-16.725465774536133;63.97845458984375
212;1673369721.468235;47.1306461;7.240613;49.79900360107422;1673369721.6015258;37.035179138183594;-21.02704620361328;55.418434143066406
213;1673369721.6596353;47.1306489;7.2406061;49.88300323486328;1673369721.7851458;30.79403305053711;-21.587621688842773;45.46839141845703
214;1673369721.8383846;47.1306525;7.240597999999999;49.94700241088867;1673369721.968302;22.393705368041992;-37.068511962890625;34.98295211791992
215;1673369722.0260482;47.1306569;7.240589;50.009002685546875;1673369722.1554422;8.004636764526367;-47.79145431518555;25.38137435913086
216;1673369722.2120588;47.130662799999996;7.2405788;50.066001892089844;1673369722.3509958;-14.727211952209473;-50.83366012573242;13.52808666229248
217;1673369722.413471;47.1306704;7.2405672;50.11000061035156;1673369722.557115;-32.23942184448242;-48.780975341796875;0.5852134823799133
218;1673369722.6230633;47.1306801;7.2405541;50.13900375366211;1673369722.755386;-39.193626403808594;-41.73170471191406;-9.930950164794922
219;1673369722.8172088;47.1306916;7.2405393;50.14600372314453;1673369722.9609354;-43.34320831298828;-34.637046813964844;-18.934053421020508
220;1673369723.020515;47.1307048;7.2405232999999996;50.14200210571289;1673369723.155592;-49.53129959106445;-30.27809715270996;-27.510757446289062
221;1673369723.2136576;47.1307194;7.240506099999999;50.12800216674805;1673369723.3521166;-51.233116149902344;-25.334238052368164;-38.80123519897461
222;1673369723.4155726;47.130735099999995;7.2404874999999995;50.09700393676758;1673369723.55432;-48.0423583984375;-20.238534927368164;-46.2762451171875
223;1673369723.6118982;47.1307514;7.240468099999999;50.052001953125;1673369723.7556252;-47.39006042480469;-16.963787078857422;-51.967323303222656
224;1673369723.813203;47.1307681;7.240448;50.00200271606445;1673369723.961091;-48.01367950439453;-13.175889015197754;-57.68825149536133
225;1673369724.0203888;47.1307848;7.2404274;49.9530029296875;1673369724.1716435;-42.425071716308594;-12.300445556640625;-56.251129150390625
226;1673369724.2324414;47.1308017;7.2404066;49.90400314331055;1673369724.3685582;-42.664695739746094;-15.854928970336914;-58.262290954589844
227;1673369724.4345367;47.1308182;7.240385799999999;49.871002197265625;1673369724.5639572;-45.28862380981445;-10.641489028930664;-68.67221069335938
228;1673369724.6290379;47.1308344;7.2403647;49.858001708984375;1673369724.7721038;-47.43901443481445;-5.8976593017578125;-77.47038269042969
229;1673369724.838814;47.130849999999995;7.2403433999999995;49.86300277709961;1673369724.9800274;-45.68827438354492;-1.5482629537582397;-86.35844421386719
230;1673369725.037317;47.130865199999995;7.2403219;49.86900329589844;1673369725.1953247;-42.64658737182617;1.0622621774673462;-94.98532104492188
231;1673369725.2521367;47.1308796;7.2403005;49.868003845214844;1673369725.385754;-39.54258728027344;0.3677593767642975;-103.63756561279297
232;1673369725.4481692;47.130893099999994;7.2402795;49.85700225830078;1673369725.58891;-36.34580612182617;-1.3364055156707764;-113.76045227050781
233;1673369725.647964;47.130905399999996;7.240259399999999;49.84100341796875;1673369725.7763426;-37.33393859863281;-6.210007190704346;-122.54174041748047
234;1673369725.8266654;47.130916;7.240240699999999;49.827003479003906;1673369725.9811778;-38.39617919921875;-22.765398025512695;-128.77835083007812
235;1673369726.0455265;47.1309245;7.240223899999999;49.81700134277344;1673369726.2062523;-36.37556838989258;-24.052839279174805;-139.2062225341797
236;1673369726.2655325;47.130930299999996;7.2402102;49.802001953125;1673369726.3919835;-26.1446475982666;-18.22531509399414;-145.96409606933594
237;1673369726.449137;47.1309342;7.2401998999999995;49.775001525878906;1673369726.573777;-24.44072723388672;-18.264341354370117;-142.77789306640625
238;1673369726.6299748;47.1309366;7.240192899999999;49.78000259399414;1673369726.7565515;-36.17644500732422;-25.044187545776367;-138.2384033203125
239;1673369726.8092558;47.130937499999995;7.240188799999999;49.8280029296875;1673369726.9457593;-42.380367279052734;-24.561391830444336;-139.55397033691406
240;1673369727.0062943;47.130936299999995;7.2401871;49.884002685546875;1673369727.1433783;-43.37520217895508;-22.49222183227539;-132.23280334472656
241;1673369727.206901;47.130933;7.240187;49.96200180053711;1673369727.34461;-35.9134521484375;-24.793685913085938;-117.82875061035156
242;1673369727.4057965;47.1309282;7.2401874;50.0420036315918;1673369727.5440686;-27.118440628051758;-22.508804321289062;-105.63471984863281
243;1673369727.604581;47.130922899999995;7.240188;50.10600280761719;1673369727.739387;-22.801008224487305;-16.717649459838867;-95.271240234375
244;1673369727.7998996;47.1309176;7.2401886;50.1510009765625;1673369727.933588;-21.195594787597656;-13.356646537780762;-84.95474243164062
245;1673369727.9923444;47.130913;7.240189099999999;50.178001403808594;1673369728.1310763;-24.295007705688477;-9.710197448730469;-76.04693603515625
246;1673369728.1945236;47.1309095;7.240189399999999;50.19600296020508;1673369728.343319;-30.07467269897461;-8.615540504455566;-66.88214874267578
247;1673369728.413631;47.1309075;7.2401889;50.21000289916992;1673369728.560077;-40.23565673828125;-9.608355522155762;-57.56269454956055
248;1673369728.6207528;47.1309073;7.2401871;50.22800064086914;1673369728.7605374;-53.6808967590332;-12.292695999145508;-47.91164016723633
249;1673369728.8211453;47.1309095;7.2401835;50.24700164794922;1673369728.9667416;-56.63425827026367;-18.404125213623047;-39.77246856689453
250;1673369729.0285835;47.1309147;7.2401772;50.2390022277832;1673369729.1646442;-48.605403900146484;-14.674452781677246;-41.61478805541992
251;1673369729.2277172;47.1309226;7.240168799999999;50.217002868652344;1673369729.364442;-50.105281829833984;-15.087320327758789;-47.608821868896484
252;1673369729.4259968;47.130932699999995;7.240158399999999;50.217002868652344;1673369729.5605874;-56.149898529052734;-16.521324157714844;-51.2531852722168
253;1673369729.6191492;47.1309444;7.2401456;50.22300338745117;1673369729.7551847;-53.86587905883789;-14.474143028259277;-52.26132583618164
254;1673369729.8216395;47.1309574;7.240130499999999;50.2130012512207;1673369729.9649606;-50.227752685546875;-14.38486385345459;-51.01175308227539
255;1673369730.0282662;47.1309714;7.240113999999999;50.17000198364258;1673369730.168103;-22.206024169921875;-3.643873691558838;-52.991058349609375
256;1673369730.2269845;47.1309855;7.2400975;49.8380012512207;1673369730.3612459;22.230716705322266;14.509140014648438;-47.133995056152344
257;1673369730.425886;47.1309997;7.240081399999999;49.12300109863281;1673369730.5602522;64.1954116821289;83.85357666015625;11.980570793151855
258;1673369730.6202896;47.1310139;7.2400652;48.00400161743164;1673369730.765167;38.029972076416016;159.0740509033203;79.91517639160156
259;1673369730.8190696;47.131028199999996;7.240049;46.5260009765625;1673369730.9634795;15.847844123840332;172.77748107910156;91.00619506835938
260;1673369731.033483;47.1310424;7.2400332999999994;44.677001953125;1673369731.1913142;16.775238037109375;175.23602294921875;97.77584838867188
261;1673369731.2512028;47.1310564;7.2400182;42.448001861572266;1673369731.385064;43.37314224243164;174.12083435058594;99.64401245117188
262;1673369731.4365742;47.1310704;7.2400037;39.86000061035156;1673369731.5660858;81.12415313720703;1.2768323421478271;-73.33197784423828
263;1673369731.6321058;47.1310843;7.2399894;36.93100357055664;1673369731.769004;7.948653697967529;2.575188636779785;-78.56306457519531
264;1673369731.8290102;47.1310983;7.2399748;33.61800003051758;1673369731.95221;-50.96906280517578;8.024221420288086;-80.64472198486328
265;1673369732.0069861;47.1311122;7.2399607999999995;29.905000686645508;1673369732.1482456;-72.70865631103516;11.071122169494629;-82.76490783691406
266;1673369732.2092097;47.131125999999995;7.2399473;25.85700035095215;1673369732.3614163;-53.186920166015625;1.1252377033233643;-72.71829223632812
267;1673369732.4260576;47.1311396;7.239934099999999;21.490001678466797;1673369732.5723734;7.093576908111572;-0.2871658205986023;-67.61311340332031
268;1673369732.6503155;47.1311532;7.2399217;16.76300048828125;1673369732.7921538;75.66301727294922;18.405086517333984;-50.61691665649414
269;1673369732.8564649;47.131166799999995;7.2399092;11.642000198364258;1673369732.9835002;71.1170425415039;159.6756134033203;89.80049133300781
270;1673369733.0342944;47.1311806;7.2398966;6.217000484466553;1673369733.1624517;82.33358001708984;68.66438293457031;-1.9014357328414917
271;1673369733.2202308;47.131194199999996;7.2398842;0.5040000081062317;1673369733.3656063;-35.5593376159668;14.160125732421875;-75.181640625
272;1673369733.4303842;47.1312049;7.2398852;0.3240000009536743;1673369733.5682075;-56.544315338134766;154.9115753173828;145.51025390625
273;1673369733.626114;47.131213699999996;7.2398986;0.34700000286102295;1673369733.751137;14.447236061096191;179.88113403320312;134.8345184326172
274;1673369733.8061788;47.131222199999996;7.2399134;0.06800000369548798;1673369733.9540153;5.856719017028809;170.1855926513672;145.04171752929688
275;1673369734.0148783;47.1312299;7.2399328999999994;-0.05300000309944153;1673369734.1531177;5.782186031341553;170.57192993164062;145.14474487304688
276;1673369734.2122717;47.131237999999996;7.2399533;-0.15800000727176666;1673369734.346119;5.767756938934326;170.8759765625;145.14938354492188
277;1673369734.4122403;47.131247099999996;7.239973699999999;-0.19300000369548798;1673369734.5678945;5.911722183227539;171.09478759765625;145.31570434570312
278;1673369734.6280434;47.131257399999996;7.2399966;-0.23200000822544098;1673369734.758947;5.9237213134765625;171.3905029296875;145.34332275390625
279;1673369734.8171053;47.1312675;7.2400180999999995;-0.2670000195503235;1673369734.9540987;5.907561302185059;171.62950134277344;145.34893798828125
280;1673369735.0119376;47.1312785;7.2400408999999994;-0.30000001192092896;1673369735.1522706;5.893293857574463;171.91770935058594;145.36572265625
281;1673369735.2141747;47.1312901;7.2400639;-0.3240000009536743;1673369735.3563104;5.889715671539307;172.2076416015625;145.3759765625
282;1673369735.4223418;47.1313022;7.240087;-0.34200000762939453;1673369735.566814;5.88265323638916;172.4811248779297;145.39199829101562
283;1673369735.6342585;47.1313147;7.2401104;-0.3580000102519989;1673369735.7812455;5.881938934326172;172.73255920410156;145.3822479248047
284;1673369735.845136;47.1313278;7.240133999999999;-0.3750000298023224;1673369736.0403383;5.859183311462402;172.98138427734375;145.3974151611328
285;1673369736.0931659;47.131341299999995;7.240157699999999;-0.3920000195503235;1673369736.2252083;5.847036361694336;173.26910400390625;145.4112548828125
286;1673369736.2940998;47.131355199999994;7.2401816;-0.4150000214576721;1673369736.4290752;5.823489189147949;173.53472900390625;145.39810180664062
287;1673369736.5012589;47.1313697;7.2402057;-0.44300001859664917;1673369736.6471057;5.820557117462158;173.8230438232422;145.40667724609375
288;1673369736.6941328;47.131384499999996;7.2402299;-0.46300002932548523;1673369736.8240795;5.798921585083008;174.05545043945312;145.4190216064453
289;1673369736.8822403;47.1313998;7.2402541;-0.4780000150203705;1673369737.0012634;5.78351354598999;174.3273468017578;145.43438720703125
290;1673369737.0569067;47.131415499999996;7.240278399999999;-0.4930000305175781;1673369737.1751168;5.766140460968018;174.61618041992188;145.4419403076172
291;1673369737.2289174;47.1314315;7.240302799999999;-0.5060000419616699;1673369737.3549938;5.753074645996094;174.8802032470703;145.44601440429688
292;1673369737.4122686;47.1314481;7.2403274;-0.5250000357627869;1673369737.55136;5.750948905944824;175.1421661376953;145.45489501953125
293;1673369737.6142132;47.131465;7.2403521;-0.5480000376701355;1673369737.749134;5.738513469696045;175.41348266601562;145.44830322265625
294;1673369737.8131785;47.131482299999995;7.2403768;-0.562000036239624;1673369737.965287;5.731097221374512;175.68418884277344;145.4536590576172
295;1673369738.03119;47.131499899999994;7.2404015;-0.5710000395774841;1673369738.1673448;5.7224650382995605;175.94825744628906;145.4423370361328
296;1673369738.229174;47.1315179;7.2404262;-0.578000009059906;1673369738.3730633;5.7050299644470215;176.195068359375;145.4518280029297
297;1673369738.4437222;47.131536999999994;7.240451999999999;-0.581000030040741;1673369738.5882227;5.669060707092285;176.4585418701172;145.4460906982422
298;1673369738.6504989;47.1315549;7.2404758;-0.581000030040741;1673369738.789165;5.6533942222595215;176.72998046875;145.43748474121094
299;1673369738.8531392;47.131574;7.2405006;-0.5860000252723694;1673369738.9769886;5.639957904815674;176.99029541015625;145.43113708496094
300;1673369739.029316;47.1315849;7.2405146;-0.5950000286102295;1673369739.1662114;5.615729808807373;177.24703979492188;145.4180450439453
301;;;;;1673369739.3812473;5.605945110321045;177.5095977783203;145.4108428955078
302;;;;;1673369739.592214;5.582003593444824;177.7735137939453;145.40150451660156
303;;;;;1673369739.775536;5.575149059295654;178.02285766601562;145.38792419433594
304;;;;;1673369739.9622579;5.549738883972168;178.28846740722656;145.38677978515625
305;;;;;1673369740.1492264;5.508909225463867;178.57106018066406;145.3838653564453
306;;;;;1673369740.3486512;5.452888488769531;178.89442443847656;145.38235473632812
307;;;;;1673369740.5752544;5.424546718597412;179.19081115722656;145.3873291015625
308;;;;;1673369740.7880802;5.389016628265381;179.4809112548828;145.37977600097656
