;pos_time;latitude;longitude;altitude;alt_time;pitch;roll;yaw
0;1673369910.7887683;47.1306425;7.2406201999999995;0.020000001415610313;1673369910.8664072;0.6048722267150879;-0.06620762497186661;90.04209899902344
1;1673369910.9799795;47.1306425;7.2406201999999995;0.01900000125169754;1673369911.1004276;0.09136956930160522;0.08155429363250732;90.06692504882812
2;1673369911.213065;47.1306425;7.2406201;0.020000001415610313;1673369911.2977266;-0.024434929713606834;-0.13326400518417358;90.17912292480469
3;1673369911.415552;47.1306425;7.24062;0.020000001415610313;1673369911.4871786;0.028132667765021324;-0.2816399037837982;90.12223052978516
4;1673369911.6089861;47.1306425;7.24062;0.017000000923871994;1673369911.681335;0.06003320962190628;-0.23362988233566284;90.16899871826172
5;1673369911.779483;47.1306425;7.24062;0.013000000268220901;1673369911.8561637;-0.07942160964012146;-0.14521294832229614;89.9868392944336
6;1673369911.9806452;47.1306425;7.2406201;0.013000000268220901;1673369912.0680826;0.004508618265390396;-0.3066781759262085;90.10052490234375
7;1673369912.1939735;47.1306425;7.2406201;0.012000000104308128;1673369912.2877746;0.1426367461681366;-0.18176129460334778;90.13308715820312
8;1673369912.4177809;47.1306425;7.2406201;0.012000000104308128;1673369912.5079885;0.17282751202583313;-0.17859786748886108;90.02120208740234
9;1673369912.6236045;47.1306425;7.2406201999999995;0.015000000596046448;1673369912.7054608;0.05776694044470787;-0.28495946526527405;89.99120330810547
10;1673369912.8106549;47.1306425;7.2406201999999995;0.017000000923871994;1673369912.8897305;-0.12280414998531342;-0.14089903235435486;89.92513275146484
11;1673369913.0059273;47.1306425;7.2406201;0.018000001087784767;1673369913.0903115;-0.16223251819610596;-0.34308987855911255;90.06816101074219
12;1673369913.215906;47.1306425;7.24062;0.015000000596046448;1673369913.2966864;0.19805178046226501;-0.053764961659908295;90.12535858154297
13;1673369913.410288;47.130642599999995;7.2406201;0.013000000268220901;1673369913.4986806;0.016696730628609657;-0.24875418841838837;89.90852355957031
14;1673369913.6124454;47.130642599999995;7.2406201;-0.0010000000474974513;1673369913.699046;0.027607465162873268;-0.7435744404792786;90.03903198242188
15;1673369913.8118358;47.130642599999995;7.24062;-0.004000000189989805;1673369913.899519;-0.12879560887813568;-0.3837757110595703;89.93569946289062
16;1673369914.0181947;47.130642599999995;7.2406198999999996;-0.0010000000474974513;1673369914.0947142;-0.002801604801788926;-0.5092397928237915;89.90506744384766
17;1673369914.2045481;47.130642599999995;7.24062;0.004000000189989805;1673369914.281666;0.09479422867298126;-0.5585508346557617;90.03067779541016
18;1673369914.399912;47.130642599999995;7.24062;0.00800000037997961;1673369914.4808638;0.09005912393331528;-0.5276138186454773;90.041748046875
19;1673369914.5998154;47.1306425;7.24062;0.009000000543892384;1673369914.68402;-0.08051207661628723;-0.5294924974441528;89.92503356933594
20;1673369914.8071575;47.1306425;7.24062;0.007000000216066837;1673369914.8958805;-0.09118866175413132;-0.5484458208084106;89.90352630615234
21;1673369915.0207672;47.1306425;7.24062;0.006000000052154064;1673369915.1020613;-0.04642109200358391;-0.5769251585006714;89.75784301757812
22;1673369915.210897;47.1306425;7.24062;0.0;1673369915.2921178;0.1656276136636734;-0.7287248969078064;89.8714599609375
23;1673369915.3980396;47.1306425;7.2406201;-0.0010000000474974513;1673369915.483482;0.04022591933608055;-0.6089884638786316;89.74900817871094
24;1673369915.6521623;47.1306425;7.2406201;0.0;1673369915.7208798;0.4200007915496826;-0.4863641858100891;89.71497344970703
25;1673369915.832111;47.1306425;7.2406201;0.0;1673369915.916777;0.38480907678604126;-0.7433605790138245;89.42949676513672
26;1673369916.0310612;47.130642599999995;7.24062;0.0010000000474974513;1673369916.1130242;0.3284429609775543;-0.39828312397003174;90.06829833984375
27;1673369916.2279005;47.130642599999995;7.2406198999999996;0.0010000000474974513;1673369916.3097959;0.4536867141723633;-0.4929114580154419;89.92417907714844
28;1673369916.426068;47.130642599999995;7.2406198999999996;0.0;1673369916.5049138;0.39052051305770874;-0.3589248061180115;89.85015106201172
29;1673369916.6250248;47.1306425;7.2406198999999996;-0.0020000000949949026;1673369916.709722;0.3777211308479309;-0.459918349981308;89.94478607177734
30;1673369916.8286045;47.1306425;7.240619799999999;0.0;1673369916.8996515;0.1980036050081253;-0.48711469769477844;90.20468139648438
31;1673369917.0152233;47.130642599999995;7.240619799999999;0.004000000189989805;1673369917.088827;-1.0731146335601807;-0.05303104966878891;89.27318572998047
32;1673369917.1969676;47.130642699999996;7.2406196;0.009000000543892384;1673369917.2710075;-2.980254888534546;0.7971822023391724;90.24588775634766
33;1673369917.376846;47.1306429;7.2406194;0.014000000432133675;1673369917.469103;-4.966175079345703;6.240128993988037;90.55305480957031
34;1673369917.5972;47.130643199999994;7.240619199999999;0.030000001192092896;1673369917.6798227;-8.989519119262695;7.851920127868652;90.52408599853516
35;1673369917.8000803;47.130643299999996;7.240619;0.06700000166893005;1673369917.8808618;-7.854343891143799;4.949767589569092;90.33509063720703
36;1673369917.997482;47.1306434;7.240619;0.125;1673369918.0839126;-7.67303991317749;9.945267677307129;89.01180267333984
37;1673369918.2040858;47.1306434;7.2406191;0.20000000298023224;1673369918.289828;-7.309389591217041;7.908603191375732;88.91070556640625
38;1673369918.3956459;47.130643299999996;7.2406193;0.29100000858306885;1673369918.4733639;-6.673615455627441;4.53930139541626;89.01324462890625
39;1673369918.5901685;47.1306431;7.2406194;0.3970000147819519;1673369918.6727185;-6.179736614227295;8.224928855895996;88.16815948486328
40;1673369918.7985582;47.1306429;7.2406196;0.5139999985694885;1673369918.8817122;-5.935846328735352;7.884329319000244;87.84343719482422
41;1673369919.014195;47.130642599999995;7.2406197;0.6470000147819519;1673369919.1226542;-6.215851306915283;2.9390647411346436;88.21575164794922
42;1673369919.2361088;47.1306424;7.2406198999999996;0.7980000376701355;1673369919.3108616;-6.152757167816162;6.791507244110107;87.70881652832031
43;1673369919.422534;47.1306424;7.2406198999999996;0.9590000510215759;1673369919.5041864;-5.965848445892334;8.127999305725098;87.38653564453125
44;1673369919.6109145;47.1306425;7.24062;1.1400001049041748;1673369919.693994;-6.241513729095459;3.8721978664398193;87.8719711303711
45;1673369919.804415;47.1306424;7.24062;1.3390001058578491;1673369919.8824944;-6.235055446624756;5.869136810302734;87.34298706054688
46;1673369919.9988384;47.1306424;7.24062;1.5380001068115234;1673369920.082881;-5.964745044708252;9.254751205444336;87.57699584960938
47;1673369920.1968813;47.1306424;7.24062;1.7340000867843628;1673369920.2797267;-5.764318943023682;4.453911781311035;87.8058853149414
48;1673369920.40149;47.1306425;7.24062;1.9340001344680786;1673369920.4834652;-6.348159313201904;5.653690814971924;87.49147033691406
49;1673369920.6151693;47.130642599999995;7.2406198999999996;2.138000011444092;1673369920.6981769;-6.223576545715332;9.821269989013672;86.7822265625
50;1673369920.8153214;47.130642699999996;7.2406198999999996;2.3400001525878906;1673369920.886608;-6.354671478271484;6.413984775543213;87.19058990478516
51;1673369920.99168;47.130642699999996;7.2406198999999996;2.5420000553131104;1673369921.0724003;-6.694565773010254;4.124090671539307;87.55268096923828
52;1673369921.195239;47.130642599999995;7.2406198999999996;2.739000082015991;1673369921.290068;-6.316961765289307;9.289782524108887;87.05241394042969
53;1673369921.4123294;47.130642599999995;7.2406198999999996;2.936000108718872;1673369921.4906592;-6.304909706115723;5.922242641448975;87.49353790283203
54;1673369921.606562;47.1306425;7.2406198999999996;3.1410000324249268;1673369921.6846707;-6.696092128753662;3.9528918266296387;87.77105712890625
55;1673369921.7994554;47.130642599999995;7.2406198999999996;3.3520002365112305;1673369921.887904;-6.520290374755859;9.336448669433594;87.05767822265625
56;1673369922.0111966;47.1306428;7.2406198999999996;3.565000057220459;1673369922.0962212;-6.106659412384033;7.73837947845459;87.32098388671875
57;1673369922.2144976;47.1306429;7.24062;3.7720000743865967;1673369922.3004258;-6.259318828582764;4.303457260131836;87.70263671875
58;1673369922.4108603;47.1306429;7.24062;3.9750001430511475;1673369922.4870348;-6.471807479858398;8.311335563659668;87.17415618896484
59;1673369922.6062505;47.1306429;7.2406201;4.179000377655029;1673369922.6884696;-6.2307658195495605;8.389861106872559;87.1410140991211
60;1673369922.8099337;47.130643;7.2406201;4.37600040435791;1673369922.8889725;-6.327635765075684;4.24772834777832;87.70579528808594
61;1673369923.105362;47.130643;7.2406201;4.574000358581543;1673369923.1927073;-6.391881465911865;8.908746719360352;87.27108001708984
62;1673369923.315295;47.1306431;7.2406201;4.775000095367432;1673369923.3973498;-6.234120845794678;9.46662712097168;87.28270721435547
63;1673369923.5118737;47.1306431;7.2406201;4.978000164031982;1673369923.596825;-6.401718616485596;4.4734907150268555;87.8570785522461
64;1673369923.713241;47.1306429;7.2406201;5.180000305175781;1673369923.8043845;-6.690328121185303;6.901892185211182;87.47786712646484
65;1673369923.9273467;47.1306429;7.2406201;5.391000270843506;1673369924.0027218;-6.3867573738098145;9.508376121520996;87.18013000488281
66;1673369924.1201088;47.1306428;7.24062;5.594000339508057;1673369924.2001722;-6.492135047912598;4.721881866455078;87.7062759399414
67;1673369924.330156;47.1306428;7.2406201;5.801000118255615;1673369924.411707;-6.723759651184082;6.315776348114014;87.56594848632812
68;1673369924.5576844;47.1306429;7.2406201;6.011000156402588;1673369924.6345518;-6.41588830947876;9.788229942321777;87.06206512451172
69;1673369924.7453835;47.1306428;7.2406201999999995;6.219000339508057;1673369924.8163664;-6.271383762359619;5.34021520614624;87.50875091552734
70;1673369924.9526927;47.1306428;7.2406201999999995;6.422000408172607;1673369925.022722;-6.622692584991455;4.775530815124512;87.47149658203125
71;1673369925.1180332;47.130642699999996;7.2406201999999995;6.622000217437744;1673369925.204128;-6.254718780517578;9.837888717651367;86.94893646240234
72;1673369925.3215365;47.130642699999996;7.2406203;6.822000503540039;1673369925.3967483;-6.244894981384277;6.11746072769165;87.39608764648438
73;1673369925.510273;47.1306428;7.2406201999999995;7.020000457763672;1673369925.5932775;-6.561370849609375;4.9826765060424805;87.6561279296875
74;1673369925.7136798;47.1306429;7.2406201999999995;7.219000339508057;1673369925.7918816;-6.296492576599121;10.148276329040527;87.23118591308594
75;1673369925.903707;47.1306429;7.2406201999999995;7.4160003662109375;1673369925.9874973;-6.372259616851807;7.229282855987549;87.5456314086914
76;1673369926.112275;47.1306428;7.2406201999999995;7.609000205993652;1673369926.1984727;-6.762518405914307;4.303032398223877;87.77586364746094
77;1673369926.322904;47.130642699999996;7.2406201999999995;7.802000522613525;1673369926.4090617;-6.66613245010376;9.197972297668457;87.2546615600586
78;1673369926.5258625;47.130642699999996;7.2406201;7.996000289916992;1673369926.608125;-6.682943820953369;7.251431465148926;87.50975799560547
79;1673369926.724442;47.130642699999996;7.2406201;8.190000534057617;1673369926.8026102;-6.769765853881836;4.1234941482543945;87.83316802978516
80;1673369926.9543157;47.1306428;7.2406201;8.383000373840332;1673369927.0307343;-6.689587116241455;9.030385971069336;87.28924560546875
81;1673369927.2090664;47.1306429;7.2406201;8.57800006866455;1673369927.3539243;-6.148037910461426;9.183237075805664;87.2515640258789
82;1673369927.4755716;47.1306429;7.2406201999999995;8.773000717163086;1673369927.5314796;-6.433718681335449;4.421624183654785;87.62611389160156
83;1673369927.6726685;47.1306428;7.2406201999999995;8.969000816345215;1673369927.732751;-6.879496097564697;7.468323707580566;87.10508728027344
84;1673369927.8133764;47.1306428;7.2406201999999995;9.168000221252441;1673369927.8847106;-6.662319660186768;9.063807487487793;87.02120971679688
85;1673369927.996765;47.1306428;7.2406203;9.36400032043457;1673369928.071254;-6.657537937164307;4.531320095062256;87.73970794677734
86;1673369928.1757312;47.1306428;7.2406203;9.5600004196167;1673369928.2663283;-6.530879020690918;7.422869682312012;87.47404479980469
87;1673369928.3704786;47.1306428;7.2406203;9.756000518798828;1673369928.4403286;-6.102900981903076;9.558379173278809;87.10408782958984
88;1673369928.5531948;47.1306428;7.2406203;9.950000762939453;1673369928.6270533;-6.446125030517578;4.4248576164245605;87.77224731445312
89;1673369928.7311544;47.130642699999996;7.2406204;10.146000862121582;1673369928.8044062;-6.491966724395752;5.54586935043335;87.66144561767578
90;1673369928.9190435;47.130642699999996;7.2406204999999995;10.404000282287598;1673369928.9964385;-6.936913013458252;10.409873008728027;87.22686004638672
91;1673369929.1120586;47.130642699999996;7.2406206;10.761000633239746;1673369929.1966786;-6.952638626098633;8.160043716430664;87.61894226074219
92;1673369929.3099968;47.130642599999995;7.240620799999999;11.145000457763672;1673369929.3933506;-6.459955215454102;4.5112128257751465;87.76010131835938
93;1673369929.5158687;47.1306425;7.240621099999999;11.541000366210938;1673369929.5949807;-5.836155891418457;8.212376594543457;87.1529312133789
94;1673369929.7097757;47.1306425;7.2406213;11.939000129699707;1673369929.787597;-5.1742401123046875;7.986235618591309;87.15823364257812
95;1673369929.9042928;47.1306423;7.2406215;12.343000411987305;1673369929.9848924;-5.3039679527282715;3.545305013656616;87.76781463623047
96;1673369930.11752;47.1306422;7.2406215;12.74000072479248;1673369930.200552;-5.381458282470703;6.450776100158691;87.35931396484375
97;1673369930.3376052;47.1306422;7.2406215;13.143000602722168;1673369930.4558332;-5.42124080657959;8.187710762023926;87.16332244873047
98;1673369930.5792012;47.1306423;7.240621399999999;13.546000480651855;1673369930.6641734;-5.70315408706665;4.2564311027526855;87.7342758178711
99;1673369930.7811127;47.1306424;7.2406212;13.947000503540039;1673369930.8633862;-6.307831287384033;6.742587566375732;87.55547332763672
100;1673369930.9871027;47.1306425;7.240621099999999;14.348000526428223;1673369931.0568442;-5.942191123962402;9.503231048583984;87.25726318359375
101;1673369931.1580713;47.1306425;7.2406209;14.749000549316406;1673369931.2339141;-6.307182788848877;5.239902973175049;87.68047332763672
102;1673369931.3369946;47.1306425;7.240620799999999;15.154000282287598;1673369931.4111855;-6.8038859367370605;5.451555252075195;87.39712524414062
103;1673369931.5207658;47.1306425;7.2406207;15.565000534057617;1673369931.6018271;-6.5292253494262695;9.853373527526855;87.05302429199219
104;1673369931.717744;47.1306425;7.2406207;15.975000381469727;1673369931.7992864;-6.541484832763672;6.115588188171387;87.5603256225586
105;1673369931.9140549;47.130642599999995;7.2406206;16.380001068115234;1673369931.9929125;-6.611451625823975;5.256800651550293;87.862548828125
106;1673369932.1084945;47.130642599999995;7.2406207;16.788000106811523;1673369932.2037427;-6.336398124694824;9.010114669799805;87.08795928955078
107;1673369932.344389;47.130642599999995;7.2406206;17.200000762939453;1673369932.416804;-6.115362167358398;7.455376625061035;87.26993560791016
108;1673369932.5391972;47.1306425;7.2406206;17.613000869750977;1673369932.6266677;-6.3024139404296875;3.9543933868408203;87.71569061279297
109;1673369932.7453268;47.1306424;7.2406207;18.0260009765625;1673369932.8309698;-6.285128116607666;8.396376609802246;87.2785415649414
110;1673369932.954347;47.1306424;7.2406207;18.44500160217285;1673369933.0336497;-6.239871501922607;7.447889804840088;87.40896606445312
111;1673369933.135825;47.1306424;7.2406207;18.86600112915039;1673369933.209256;-6.298651218414307;4.162946701049805;87.72179412841797
112;1673369933.3334112;47.1306425;7.2406207;19.27800178527832;1673369933.4154248;-6.228367328643799;7.282973289489746;87.45285034179688
113;1673369933.5983777;47.130642599999995;7.2406207;19.69099998474121;1673369933.7036984;-5.833776950836182;9.013766288757324;87.10802459716797
114;1673369933.8094099;47.1306425;7.2406206;20.100000381469727;1673369933.8807302;-6.39183235168457;4.217566967010498;87.72442626953125
115;1673369934.0223897;47.1306425;7.2406206;20.511001586914062;1673369934.0829039;-6.479720592498779;6.483243465423584;87.41184997558594
116;1673369934.1909933;47.1306425;7.2406204999999995;20.921001434326172;1673369934.2660947;-6.267648220062256;9.212242126464844;87.09420013427734
117;1673369934.39257;47.130642599999995;7.2406204999999995;21.328001022338867;1673369934.4639792;-6.115461826324463;5.0312066078186035;87.54527282714844
118;1673369934.5724585;47.130642699999996;7.2406204999999995;21.726001739501953;1673369934.6464531;-6.396132469177246;6.681912899017334;87.51322937011719
119;1673369934.7490993;47.1306428;7.2406204;22.12900161743164;1673369934.8223324;-6.119372367858887;9.612024307250977;87.36009979248047
120;1673369934.948277;47.1306428;7.2406204;22.533000946044922;1673369935.0287673;-6.347458839416504;6.21047830581665;87.6440658569336
121;1673369935.1496918;47.130642699999996;7.2406204;22.933000564575195;1673369935.2322278;-6.5261030197143555;4.368302822113037;87.5859603881836
122;1673369935.352983;47.130642599999995;7.2406204;23.33300018310547;1673369935.4324725;-6.420046806335449;9.556612014770508;87.02915954589844
123;1673369935.5462997;47.130642699999996;7.2406204;23.737001419067383;1673369935.6147978;-6.290738105773926;6.8419413566589355;87.4022216796875
124;1673369935.722992;47.130642699999996;7.2406204;24.136001586914062;1673369935.8032105;-6.4098219871521;4.692742824554443;87.91178131103516
125;1673369935.9209008;47.130642699999996;7.2406203;24.531002044677734;1673369936.0027268;-6.410064697265625;8.06692123413086;87.25909423828125
126;1673369936.1182613;47.130642699999996;7.2406204;24.933000564575195;1673369936.1970854;-6.009878158569336;9.078132629394531;87.10723876953125
127;1673369936.3134634;47.130642599999995;7.2406203;25.339000701904297;1673369936.3975995;-6.007453441619873;3.9236741065979004;87.68445587158203
128;1673369936.513543;47.1306425;7.2406203;25.746000289916992;1673369936.5951424;-6.289389133453369;6.9500250816345215;87.43955993652344
129;1673369936.734802;47.1306425;7.2406201999999995;26.154001235961914;1673369936.8120186;-6.176024436950684;9.18614673614502;87.2802505493164
130;1673369936.9292564;47.130642599999995;7.2406201999999995;26.559001922607422;1673369937.012258;-6.429433345794678;4.987786293029785;87.65917205810547
131;1673369937.1355689;47.130642699999996;7.2406201999999995;26.95400047302246;1673369937.2226677;-6.577305316925049;6.499094486236572;87.47975158691406
132;1673369937.3361776;47.1306428;7.2406201999999995;27.351001739501953;1673369937.4193444;-5.989261150360107;9.966813087463379;86.86038208007812
133;1673369937.527622;47.1306428;7.2406201999999995;27.750001907348633;1673369937.6165729;-5.962214946746826;5.90758752822876;87.36592864990234
134;1673369937.7470973;47.130642699999996;7.2406201999999995;28.152000427246094;1673369937.8251777;-6.235101699829102;5.293396949768066;87.65110778808594
135;1673369937.9649172;47.130642699999996;7.2406201999999995;28.551000595092773;1673369938.0424492;-6.316364765167236;9.800163269042969;87.38192749023438
136;1673369938.1503098;47.130642699999996;7.2406201;28.94700050354004;1673369938.2208407;-6.167585372924805;7.543041706085205;87.5018081665039
137;1673369938.3332753;47.130642699999996;7.2406201;29.347002029418945;1673369938.415678;-6.614572525024414;4.731041431427002;87.63862609863281
138;1673369938.5233364;47.130642699999996;7.24062;29.74100112915039;1673369938.6113229;-6.268828868865967;9.024965286254883;87.09638214111328
139;1673369938.7357373;47.130642699999996;7.24062;30.136001586914062;1673369938.817863;-6.231574535369873;7.7356133460998535;87.31976318359375
140;1673369938.9210207;47.130642599999995;7.24062;30.530000686645508;1673369938.998816;-6.61959171295166;4.1457905769348145;87.81704711914062
141;1673369939.1196454;47.130642599999995;7.24062;30.92500114440918;1673369939.2169275;-6.495752811431885;8.321242332458496;87.24647521972656
142;1673369939.3467753;47.130642599999995;7.24062;31.32600212097168;1673369939.4242823;-6.295620441436768;8.38866901397705;87.12261962890625
143;1673369939.5323477;47.130642699999996;7.24062;31.72500228881836;1673369939.6116364;-6.242558002471924;4.759013652801514;87.72164916992188
144;1673369939.7225301;47.1306428;7.24062;32.11900329589844;1673369939.8016398;-6.577892780303955;7.4340739250183105;87.47947692871094
145;1673369939.916453;47.1306428;7.24062;32.5160026550293;1673369940.0032291;-6.2289886474609375;10.009992599487305;87.24054718017578
146;1673369940.135684;47.1306428;7.24062;32.91600036621094;1673369940.2158253;-6.364943027496338;5.506918430328369;87.58731079101562
147;1673369940.3252778;47.130642699999996;7.24062;33.316001892089844;1673369940.4121864;-6.5109453201293945;5.434010982513428;87.37579345703125
148;1673369940.5412211;47.130642699999996;7.24062;33.71600341796875;1673369940.6479483;-6.436760902404785;9.897351264953613;86.90823364257812
149;1673369940.7629218;47.130642699999996;7.24062;34.11600112915039;1673369940.8447278;-6.242530345916748;6.339859962463379;87.44119262695312
150;1673369940.960633;47.130642699999996;7.2406201;34.51300048828125;1673369941.0354426;-6.430520534515381;4.783593654632568;87.7423324584961
151;1673369941.1405184;47.130642699999996;7.2406201;34.90700149536133;1673369941.219741;-6.148951053619385;9.214433670043945;87.20849609375
152;1673369941.3354208;47.130642699999996;7.2406201;35.30800247192383;1673369941.4194567;-6.012491226196289;7.423713207244873;87.3365478515625
153;1673369941.5350482;47.130642699999996;7.2406201;35.711002349853516;1673369941.615249;-6.379189491271973;4.219316005706787;87.73052215576172
154;1673369941.7338738;47.130642699999996;7.2406201;36.1140022277832;1673369941.8195572;-6.624221324920654;8.431825637817383;87.20808410644531
155;1673369941.9314866;47.1306428;7.2406201;36.520999908447266;1673369942.0159554;-6.38071346282959;8.43704891204834;87.28260803222656
156;1673369942.1361363;47.1306429;7.2406201;36.927001953125;1673369942.2142947;-6.365756034851074;4.729529857635498;87.77471160888672
157;1673369942.3456051;47.130643;7.2406201;37.323001861572266;1673369942.4300828;-6.5385847091674805;7.8549485206604;87.30103302001953
158;1673369942.547967;47.130643;7.2406201;37.72100067138672;1673369942.6289907;-6.126265048980713;9.923416137695312;87.08702850341797
159;1673369942.754046;47.130643;7.2406201;38.11900329589844;1673369942.8361254;-6.330255031585693;4.9498491287231445;87.71630096435547
160;1673369942.9583015;47.1306429;7.2406201;38.51700210571289;1673369943.0389779;-6.509761333465576;6.626370906829834;87.48177337646484
161;1673369943.154581;47.1306429;7.2406201;38.9170036315918;1673369943.2280438;-6.155392169952393;9.889288902282715;87.20903015136719
162;1673369943.3546798;47.1306429;7.2406201;39.31300354003906;1673369943.447962;-6.2454304695129395;5.200812339782715;87.71223449707031
163;1673369943.5528016;47.1306429;7.2406201999999995;39.707000732421875;1673369943.6261601;-6.3744587898254395;6.127546310424805;87.39256286621094
164;1673369943.740579;47.1306428;7.2406201999999995;40.09400177001953;1673369943.823576;-6.234335422515869;9.081930160522461;86.99478912353516
165;1673369943.9326966;47.130642699999996;7.2406201999999995;40.487003326416016;1673369944.0125532;-6.319905757904053;6.017864227294922;87.54441833496094
166;1673369944.125994;47.130642699999996;7.2406201999999995;40.88100051879883;1673369944.2117105;-6.356051445007324;4.811085224151611;87.83039855957031
167;1673369944.328239;47.130642699999996;7.2406201999999995;41.27900314331055;1673369944.4098108;-6.275087356567383;9.55886173248291;87.17473602294922
168;1673369944.5246441;47.1306428;7.2406201999999995;41.67400360107422;1673369944.6083546;-5.9380784034729;7.37158727645874;87.37608337402344
169;1673369944.7405028;47.1306429;7.2406201999999995;42.07400131225586;1673369944.827389;-6.365695953369141;4.8028693199157715;87.67020416259766
170;1673369944.939222;47.1306429;7.2406201999999995;42.467002868652344;1673369945.020848;-6.377921104431152;8.968042373657227;87.21758270263672
171;1673369945.1357303;47.1306429;7.2406201;42.86300277709961;1673369945.216809;-6.272775173187256;8.498673439025879;87.3355941772461
172;1673369945.3325214;47.1306429;7.24062;43.259002685546875;1673369945.422393;-6.593305587768555;4.444674491882324;87.71381378173828
173;1673369945.5364587;47.1306429;7.24062;43.65500259399414;1673369945.6301992;-6.7322187423706055;8.19739818572998;87.25965881347656
174;1673369945.7640934;47.1306429;7.24062;44.053001403808594;1673369945.8501487;-6.493781089782715;8.967472076416016;87.15126037597656
175;1673369945.9974232;47.1306429;7.24062;44.448001861572266;1673369946.0963554;-6.41441535949707;4.984750270843506;87.77079010009766
176;1673369946.1964598;47.1306429;7.2406198999999996;44.840003967285156;1673369946.2693038;-6.571467876434326;6.847154140472412;87.56654357910156
177;1673369946.378256;47.1306428;7.24062;45.22600173950195;1673369946.4540668;-6.086133003234863;9.411727905273438;87.10964965820312
178;1673369946.5736253;47.130642699999996;7.24062;45.618003845214844;1673369946.6602392;-6.367424488067627;4.737041473388672;87.50662994384766
179;1673369946.777073;47.130642699999996;7.24062;46.01300048828125;1673369946.8567874;-6.694601535797119;5.924578666687012;87.41078186035156
180;1673369946.9863305;47.1306428;7.24062;46.410003662109375;1673369947.0544202;-6.516828536987305;9.956869125366211;87.0618896484375
181;1673369947.1526062;47.1306429;7.24062;46.80400085449219;1673369947.2299254;-6.468893527984619;6.605967044830322;87.55224609375
182;1673369947.3471394;47.1306429;7.24062;47.19900131225586;1673369947.423277;-6.695830821990967;5.2578864097595215;87.86650848388672
183;1673369947.5429993;47.1306429;7.24062;47.590003967285156;1673369947.6284618;-6.334559917449951;9.240297317504883;87.08702850341797
184;1673369947.7819247;47.1306429;7.24062;47.98200225830078;1673369947.8517847;-6.363468170166016;8.12595272064209;87.19132232666016
185;1673369947.9578755;47.1306428;7.24062;48.3390007019043;1673369948.0356567;-6.727748870849609;4.831749439239502;87.6758804321289
186;1673369948.1601136;47.1306429;7.2406198999999996;48.64400100708008;1673369948.2404613;-6.494175434112549;10.169631004333496;87.2057876586914
187;1673369948.3527935;47.130643;7.2406198999999996;48.900001525878906;1673369948.4271343;-6.4856858253479;6.808349132537842;87.47676849365234
188;1673369948.5448453;47.1306431;7.240619799999999;49.1150016784668;1673369948.6275136;-6.659626007080078;4.991334915161133;87.67837524414062
189;1673369948.7442222;47.1306431;7.2406197;49.28900146484375;1673369948.827831;-2.027818441390991;11.447185516357422;86.96914672851562
190;1673369948.9454308;47.1306431;7.2406194;49.43000411987305;1673369949.024495;18.331802368164062;-2.354375123977661;80.21719360351562
191;1673369949.1369863;47.130643299999996;7.240617599999999;49.557003021240234;1673369949.2195172;28.550966262817383;-21.40382194519043;67.3332748413086
192;1673369949.336405;47.1306443;7.2406131;49.66800308227539;1673369949.4171643;17.339628219604492;-25.784835815429688;59.96554183959961
193;1673369949.5403159;47.130646299999995;7.240605899999999;49.7650032043457;1673369949.6239054;4.261337757110596;-24.845434188842773;50.41972351074219
194;1673369949.7427614;47.130649399999996;7.240596999999999;49.84700393676758;1673369949.8313313;-5.144923210144043;-25.336219787597656;39.735107421875
195;1673369949.9527028;47.1306534;7.240586899999999;49.91800308227539;1673369950.0315921;-16.191213607788086;-37.27487564086914;29.020273208618164
196;1673369950.154738;47.1306589;7.240575499999999;49.970001220703125;1673369950.2281234;-32.43436813354492;-40.97036361694336;18.430688858032227
197;1673369950.3367555;47.130666399999996;7.240561899999999;50.00100326538086;1673369950.4178927;-45.42548370361328;-40.887420654296875;7.568202018737793
198;1673369950.5409765;47.1306764;7.240545399999999;50.02000427246094;1673369950.6288815;-53.01748275756836;-37.79481887817383;-3.5574142932891846
199;1673369950.745739;47.1306887;7.2405254;50.02100372314453;1673369950.8265646;-56.242042541503906;-28.341890335083008;-15.911669731140137
200;1673369950.9361484;47.130703;7.2405019;50.009002685546875;1673369951.0188758;-54.85342788696289;-17.99776840209961;-25.344079971313477
201;1673369951.1356359;47.1307189;7.2404756;49.97100067138672;1673369951.2225387;-54.213008880615234;-11.60875415802002;-30.866914749145508
202;1673369951.3382814;47.1307361;7.240447499999999;49.9170036315918;1673369951.4188507;-51.416229248046875;-7.021182537078857;-37.16939163208008
203;1673369951.5355363;47.1307541;7.240418099999999;49.871002197265625;1673369951.6240883;-51.04710388183594;-4.216729640960693;-43.43514633178711
204;1673369951.7411354;47.1307729;7.2403875;49.810001373291016;1673369951.8319967;-49.938148498535156;2.335498571395874;-50.71928024291992
205;1673369951.9389966;47.130792199999995;7.2403558;49.75100326538086;1673369952.0196505;-45.51389694213867;6.769352436065674;-52.65278625488281
206;1673369952.1338937;47.1308118;7.240323999999999;49.69700241088867;1673369952.217229;-45.69430923461914;6.973702907562256;-50.00791549682617
207;1673369952.3319354;47.130831699999995;7.2402922;49.66400146484375;1673369952.4121678;-46.15884780883789;4.824485778808594;-47.510459899902344
208;1673369952.5376987;47.130852;7.2402606;49.65500259399414;1673369952.6197162;-46.984703063964844;3.7340564727783203;-46.61730194091797
209;1673369952.7576926;47.130872499999995;7.240229299999999;49.6670036315918;1673369952.839663;-49.30070495605469;2.640681505203247;-46.30625915527344
210;1673369952.9814763;47.1308934;7.2401976999999995;49.685001373291016;1673369953.0561783;-49.75346374511719;1.0858415365219116;-45.91020202636719
211;1673369953.1768057;47.1309147;7.240165999999999;49.704002380371094;1673369953.2712188;-48.71814727783203;0.267785906791687;-45.904510498046875
212;1673369953.3917708;47.1309361;7.2401341;49.72600173950195;1673369953.462222;-48.229034423828125;-0.15115225315093994;-45.94981002807617
213;1673369953.6056316;47.1309575;7.240101999999999;49.720001220703125;1673369953.6709168;-32.74607849121094;-1.1565508842468262;-46.271968841552734
214;1673369953.7735624;47.1309787;7.2400702;49.42000198364258;1673369953.846676;7.067545413970947;-3.47348690032959;-47.659427642822266
215;1673369953.9566624;47.130999499999994;7.2400388;48.76100158691406;1673369954.035442;67.41586303710938;-15.227195739746094;-58.842979431152344
216;1673369954.164671;47.131020299999996;7.240007599999999;47.676002502441406;1673369954.2455878;53.030006408691406;-172.16436767578125;143.69821166992188
217;1673369954.373624;47.1310411;7.2399762999999995;46.25400161743164;1673369954.4617212;19.020212173461914;-177.55088806152344;135.0921173095703
218;1673369954.6077595;47.131061599999995;7.2399454;44.480003356933594;1673369954.684646;12.945295333862305;-176.54319763183594;132.1333770751953
219;1673369954.7926784;47.1310818;7.2399149;42.33000183105469;1673369954.8715582;34.806156158447266;-173.98638916015625;133.84657287597656
220;1673369955.0157065;47.131101699999995;7.239884999999999;39.819000244140625;1673369955.097404;80.58738708496094;-101.82559204101562;-153.60665893554688
221;1673369955.2013113;47.1311215;7.2398551;36.95500183105469;1673369955.2751017;17.42755699157715;-4.3107829093933105;-58.882659912109375
222;1673369955.3797688;47.131141299999996;7.2398251;33.68000030517578;1673369955.4485378;-44.33455276489258;1.9025181531906128;-53.341392517089844
223;1673369955.5598395;47.131160799999996;7.2397956;30.032001495361328;1673369955.637715;-68.85810089111328;-2.1493802070617676;-45.2268180847168
224;1673369955.7475722;47.13118;7.239766599999999;26.060001373291016;1673369955.8296356;-51.2746467590332;-3.286527156829834;-41.2617301940918
225;1673369955.9577339;47.131198999999995;7.239738099999999;21.764001846313477;1673369956.0486739;8.418353080749512;-0.6922361850738525;-40.041847229003906
226;1673369956.14769;47.1312176;7.23971;17.079999923706055;1673369956.2327104;78.29222869873047;25.15480613708496;-15.153279304504395
227;1673369956.3518388;47.1312364;7.2396816;12.0260009765625;1673369956.4328258;65.43904113769531;159.57858276367188;118.22825622558594
228;1673369956.5454674;47.1312551;7.239653499999999;6.669000148773193;1673369956.628585;77.309326171875;105.98126983642578;66.34233093261719
229;1673369956.7715464;47.1312736;7.2396255;1.0049999952316284;1673369956.8556302;-28.143651962280273;9.86640739440918;-40.3213996887207
230;1673369957.0207558;47.1312873;7.2396236;0.7750000357627869;1673369957.095618;-80.71279907226562;178.78448486328125;150.89654541015625
231;1673369957.209586;47.1312962;7.239632299999999;1.2430000305175781;1673369957.2825124;-3.3593556880950928;158.1079864501953;159.22874450683594
232;1673369957.3977811;47.1313037;7.2396416;1.2470000982284546;1673369957.4676063;16.733922958374023;166.2606658935547;148.9726104736328
233;1673369957.578587;47.1313086;7.2396528;1.4160000085830688;1673369957.6527233;16.776344299316406;166.53868103027344;149.25958251953125
234;1673369957.7736256;47.131312699999995;7.239661;1.7370001077651978;1673369957.8563712;16.895811080932617;166.79379272460938;149.52587890625
235;1673369957.9745693;47.1313174;7.239668099999999;2.0880000591278076;1673369958.0526886;16.943370819091797;167.3335723876953;150.25860595703125
236;1673369958.166605;47.131319999999995;7.2396702;2.392000198364258;1673369958.2527964;16.76099395751953;167.82449340820312;151.064453125
237;1673369958.3596683;47.1313214;7.2396709999999995;2.4650001525878906;1673369958.4355216;16.567096710205078;168.169677734375;151.65802001953125
238;1673369958.5435443;47.131322399999995;7.2396704;2.44100022315979;1673369958.6358619;16.476537704467773;168.52059936523438;152.20108032226562
239;1673369958.7658055;47.1313235;7.2396685;2.376000165939331;1673369958.8449419;16.468027114868164;168.87229919433594;152.69276428222656
240;1673369958.97556;47.131325;7.2396655999999995;2.2990000247955322;1673369959.0655816;16.408971786499023;169.1678924560547;153.1173095703125
241;1673369959.1924665;47.1313269;7.2396617;2.2280001640319824;1673369959.288606;16.507038116455078;169.3319854736328;153.24783325195312
242;1673369959.4177754;47.131332;7.239661099999999;2.2240002155303955;1673369959.4896116;16.51353645324707;169.56268310546875;153.52960205078125
243;1673369959.5937467;47.131335199999995;7.2396574;2.19100022315979;1673369959.672647;16.430204391479492;169.9200897216797;153.94073486328125
244;1673369959.7907495;47.1313379;7.2396525;2.142000198364258;1673369959.8676982;16.39327049255371;170.21826171875;154.2454833984375
245;1673369959.9937618;47.1313403;7.239647199999999;2.077000141143799;1673369960.0787625;16.336137771606445;170.48281860351562;154.48480224609375
246;1673369960.2346368;47.1313435;7.2396424999999995;2.009000062942505;1673369960.307442;16.302820205688477;170.71717834472656;154.62205505371094
247;1673369960.458325;47.1313469;7.2396379;1.9290001392364502;1673369960.5178578;16.35413932800293;170.8373565673828;154.65078735351562
248;1673369960.6141238;47.131355;7.2396372;1.8720000982284546;1673369960.6879997;16.52180290222168;170.81854248046875;154.51695251464844
249;1673369960.8086126;47.131367;7.2396385;1.7850000858306885;1673369960.8923216;16.68461799621582;170.80555725097656;154.3859405517578
250;1673369961.0102928;47.1313816;7.2396389;1.5830000638961792;1673369961.0881596;16.798320770263672;170.80322265625;154.47592163085938
251;1673369961.203864;47.1313977;7.239641499999999;1.4720001220703125;1673369961.2806337;16.962770462036133;170.8020782470703;154.3468780517578
252;1673369961.3865926;47.131415;7.239643999999999;1.3580000400543213;1673369961.454137;17.097116470336914;170.8021240234375;154.26576232910156
253;1673369961.5702922;47.1314335;7.2396464;1.2420001029968262;1673369961.6562486;17.237688064575195;170.8172607421875;154.14271545410156
254;1673369961.7711823;47.131453;7.2396484999999995;1.1260000467300415;1673369961.854979;17.377548217773438;170.84107971191406;154.04559326171875
255;1673369961.968269;47.1314736;7.2396503999999995;0.9930000305175781;1673369962.0519447;17.470687866210938;170.84219360351562;153.94667053222656
256;1673369962.1791856;47.1314949;7.2396519999999995;0.8750000596046448;1673369962.2641537;17.614139556884766;170.8917999267578;153.8436737060547
257;1673369962.3762088;47.131516999999995;7.2396531;0.76500004529953;1673369962.4502423;17.72700309753418;170.93011474609375;153.7599334716797
258;1673369962.564143;47.1315397;7.239653799999999;0.6610000133514404;1673369962.6523676;17.815773010253906;170.98800659179688;153.6788330078125
259;1673369962.7622862;47.131563199999995;7.2396541;0.562000036239624;1673369962.8484855;17.94746208190918;171.01283264160156;153.60086059570312
260;1673369962.9820356;47.1315873;7.2396541;0.46700000762939453;1673369963.066331;18.03394889831543;171.03610229492188;153.5079803466797
261;1673369963.1820815;47.1316129;7.2396538999999995;0.33000001311302185;1673369963.2642972;18.121522903442383;171.08743286132812;153.4136199951172
262;1673369963.3764675;47.131638699999996;7.2396531;0.2240000069141388;1673369963.46217;18.154333114624023;171.17486572265625;153.32945251464844
263;1673369963.5763154;47.1316649;7.2396519999999995;0.13199999928474426;1673369963.6484578;18.22227668762207;171.20147705078125;153.2523956298828
264;1673369963.7564132;47.1316914;7.2396505;0.05900000408291817;1673369963.8392057;18.303997039794922;171.24049377441406;153.16458129882812
265;1673369963.959411;47.1317187;7.239648799999999;-0.05300000309944153;1673369964.0401645;18.36713981628418;171.28036499023438;153.1173858642578
266;1673369964.1611075;47.1317466;7.2396476;-0.11400000751018524;1673369964.240085;18.433151245117188;171.28477478027344;153.09007263183594
267;1673369964.3816738;47.1317752;7.2396467;-0.05000000074505806;1673369964.464325;18.542638778686523;171.32008361816406;153.05496215820312
268;1673369964.5842073;47.1318061;7.239645899999999;29.229001998901367;;;;
