;pos_time;latitude;longitude;altitude;alt_time;pitch;roll;yaw
0;1673371570.1343348;47.1306425;7.2406197;0.00800000037997961;1673371570.2155416;0.01985173299908638;-0.10112396627664566;90.39820861816406
1;1673371570.337608;47.1306425;7.2406196;0.012000000104308128;1673371570.423663;0.048443667590618134;-0.2851080000400543;90.50008392333984
2;1673371570.5468307;47.1306425;7.2406196;0.013000000268220901;1673371570.622;0.3286546766757965;-0.15264032781124115;90.39213562011719
3;1673371570.725635;47.1306425;7.2406196;0.010000000707805157;1673371570.80373;0.24312147498130798;-0.11514635384082794;90.35281372070312
4;1673371570.9216506;47.1306424;7.2406196;0.01100000087171793;1673371571.0055401;0.09579722583293915;-0.19138994812965393;90.61946868896484
5;1673371571.117675;47.1306424;7.2406196;0.01100000087171793;1673371571.2000866;-0.044138215482234955;-0.12575410306453705;90.3310317993164
6;1673371571.316555;47.1306424;7.2406197;0.00800000037997961;1673371571.392261;-0.1187567189335823;-0.2167985886335373;90.48824310302734
7;1673371571.5202918;47.1306424;7.2406196;0.006000000052154064;1673371571.6033564;-0.11972957849502563;-0.19400207698345184;90.47331237792969
8;1673371571.7367969;47.1306424;7.2406197;0.009000000543892384;1673371571.8251762;-0.0663670152425766;-0.265175461769104;90.55574035644531
9;1673371571.9592159;47.1306424;7.2406197;0.0010000000474974513;1673371572.0275474;-0.22847114503383636;-0.2327902764081955;90.37374877929688
10;1673371572.1591673;47.1306424;7.240619799999999;-0.003000000026077032;1673371572.2353094;-0.3244849741458893;-0.26972565054893494;90.30036163330078
11;1673371572.357952;47.1306423;7.240619799999999;-0.006000000052154064;1673371572.4426835;-0.28720465302467346;-0.13793112337589264;90.39314270019531
12;1673371572.5661087;47.1306423;7.240619799999999;-0.00800000037997961;1673371572.6395745;-0.3171379268169403;-0.19470185041427612;90.42353820800781
13;1673371572.7418427;47.1306423;7.240619799999999;-0.00800000037997961;1673371572.8134987;-0.3589293658733368;-0.07654108107089996;90.33621978759766
14;1673371572.9216456;47.1306423;7.240619799999999;-0.005000000353902578;1673371573.001685;-0.29847949743270874;-0.26458555459976196;90.5855712890625
15;1673371573.120806;47.1306424;7.240619799999999;-0.006000000052154064;1673371573.2027652;-0.3779067099094391;0.2495492696762085;90.40283203125
16;1673371573.3157582;47.1306424;7.240619799999999;-0.005000000353902578;1673371573.398249;-0.7257792949676514;-0.13646657764911652;90.38473510742188
17;1673371573.5077972;47.1306424;7.240619799999999;0.0010000000474974513;1673371573.589704;-0.7701334953308105;0.02424733340740204;90.33325958251953
18;1673371573.7135475;47.1306424;7.2406197;0.0010000000474974513;1673371573.7997677;-0.8508265614509583;0.18081700801849365;90.3725814819336
19;1673371573.9184062;47.1306425;7.240619799999999;0.0020000000949949026;1673371574.007676;-0.865071713924408;0.05975803732872009;90.50672912597656
20;1673371574.1247308;47.1306425;7.2406198999999996;0.0020000000949949026;1673371574.2046533;-0.9124463200569153;-0.130389004945755;90.3545150756836
21;1673371574.3226633;47.1306425;7.2406198999999996;0.0010000000474974513;1673371574.404636;-0.8978294134140015;-0.0524405799806118;90.36883544921875
22;1673371574.5347223;47.1306425;7.2406198999999996;0.005000000353902578;1673371574.6085997;-1.1071600914001465;-0.15306730568408966;90.53839111328125
23;1673371574.7129862;47.1306425;7.2406198999999996;0.007000000216066837;1673371574.7958508;-1.4131004810333252;-0.16303357481956482;90.58303833007812
24;1673371574.9126923;47.1306425;7.24062;0.007000000216066837;1673371575.0048764;-1.5556679964065552;-0.08687444031238556;93.4512710571289
25;1673371575.1317253;47.130642599999995;7.2406204;0.0010000000474974513;1673371575.2168605;0.9690327048301697;0.0570518784224987;99.37828063964844
26;1673371575.3263693;47.130642599999995;7.2406217999999996;0.009000000543892384;1673371575.4079351;4.148090839385986;-0.09845152497291565;96.3843002319336
27;1673371575.5316532;47.130642599999995;7.2406242;0.01600000075995922;1673371575.6148703;8.959421157836914;1.1987413167953491;95.67855834960938
28;1673371575.7168536;47.130642599999995;7.2406276;0.02500000037252903;1673371575.8045092;14.890378952026367;1.735496997833252;95.81053161621094
29;1673371575.9148715;47.130642699999996;7.2406318;0.032999999821186066;1673371575.9960396;16.073694229125977;2.2330710887908936;94.98868560791016
30;1673371576.1162484;47.130642599999995;7.2406367;0.049000002443790436;1673371576.1987147;17.161102294921875;2.5467171669006348;94.42727661132812
31;1673371576.3267198;47.130642599999995;7.2406422;0.07100000232458115;1673371576.404958;18.68588638305664;2.009660005569458;93.87689971923828
32;1673371576.5136402;47.130642599999995;7.240647999999999;0.10300000756978989;1673371576.5908244;20.461254119873047;1.592031478881836;93.35771179199219
33;1673371576.7087662;47.1306425;7.2406539;0.13300000131130219;1673371576.793345;22.367252349853516;1.8717694282531738;93.0656967163086
34;1673371576.907992;47.1306425;7.2406597999999995;0.1680000126361847;1673371576.9930935;24.36610984802246;1.7831870317459106;92.79947662353516
35;1673371577.124569;47.1306425;7.2406654999999995;0.20900000631809235;1673371577.2190583;26.459081649780273;1.3007227182388306;92.4710922241211
36;1673371577.3515315;47.1306425;7.240670799999999;0.24800001084804535;1673371577.4355974;28.574298858642578;1.4673084020614624;92.40808868408203
37;1673371577.5538914;47.1306425;7.2406757;0.27900001406669617;1673371577.6358836;30.693981170654297;1.4393781423568726;92.24812316894531
38;1673371577.741447;47.1306425;7.2406798;0.3050000071525574;1673371577.8196595;32.85695266723633;1.5957813262939453;92.17587280273438
39;1673371577.9335477;47.1306425;7.240683199999999;0.33100003004074097;1673371578.0121639;35.02613830566406;1.3097237348556519;92.04136657714844
40;1673371578.142459;47.1306425;7.2406856;0.3570000231266022;1673371578.222909;37.22331237792969;1.2740601301193237;91.92361450195312
41;1673371578.3322828;47.1306425;7.240686999999999;0.3840000033378601;1673371578.4071183;39.36756134033203;1.3628724813461304;91.8387451171875
42;1673371578.5280926;47.1306425;7.2406871;0.40800002217292786;1673371578.6185846;41.58527374267578;1.4294979572296143;91.80281829833984
43;1673371578.7326286;47.1306424;7.240685999999999;0.42500001192092896;1673371578.8151429;43.79286193847656;1.3177051544189453;91.71424865722656
44;1673371578.9501727;47.1306424;7.2406834;0.4410000145435333;1673371579.0314665;46.003211975097656;1.4137227535247803;91.73394012451172
45;1673371579.144027;47.1306424;7.2406793;0.4570000171661377;1673371579.2256005;48.03939437866211;1.4830963611602783;91.58873748779297
46;1673371579.3387728;47.1306424;7.2406736;0.47600001096725464;1673371579.4151313;45.06015396118164;1.1278825998306274;91.46857452392578
47;1673371579.530905;47.1306423;7.2406666;0.4880000352859497;1673371579.637103;40.26331329345703;1.17368483543396;91.50926971435547
48;1673371579.7413273;47.1306423;7.240659;0.4970000088214874;1673371579.8110566;34.630733489990234;0.8930211663246155;91.5021743774414
49;1673371579.9283702;47.1306423;7.240651199999999;0.5320000052452087;1673371580.01192;30.389490127563477;0.5995750427246094;91.55919647216797
50;1673371580.1267507;47.1306423;7.240643899999999;0.5920000076293945;1673371580.211157;24.5537166595459;1.1922097206115723;91.7335433959961
51;1673371580.3298144;47.1306423;7.2406375999999995;0.6490000486373901;1673371580.4239552;21.552324295043945;0.8348616361618042;91.66718292236328
52;1673371580.5369892;47.1306423;7.2406324;0.7040000557899475;1673371580.62638;19.7413330078125;0.12573033571243286;91.37853240966797
53;1673371580.7465732;47.1306423;7.2406286;0.76500004529953;1673371580.8168967;19.422975540161133;0.5295857787132263;91.41580200195312
54;1673371580.9277716;47.1306423;7.240626;0.8250000476837158;1673371581.0112836;20.400999069213867;2.456087112426758;92.11431884765625
55;1673371581.1271226;47.1306423;7.2406245;0.893000066280365;1673371581.2099185;22.223567962646484;-0.7461823225021362;91.18362426757812
56;1673371581.3206131;47.1306423;7.2406239;0.9730000495910645;1673371581.4043462;24.498788833618164;0.08503774553537369;91.05075073242188
57;1673371581.5319452;47.1306424;7.2406238;1.0660001039505005;1673371581.617966;26.414615631103516;2.909844398498535;91.79056549072266
58;1673371581.7417476;47.1306424;7.2406239999999995;1.1700000762939453;1673371581.829318;28.10409927368164;0.059747204184532166;90.98102569580078
59;1673371581.9451091;47.1306425;7.2406241;1.284000039100647;1673371582.0306342;28.979446411132812;0.262359619140625;90.85295867919922
60;1673371582.153137;47.1306424;7.2406242;1.4100000858306885;1673371582.225397;29.568973541259766;2.760655164718628;91.54297637939453
61;1673371582.3314207;47.1306424;7.2406241;1.5500000715255737;1673371582.410243;29.598804473876953;0.6417762637138367;87.56330108642578
62;1673371582.5336406;47.1306423;7.2406238;1.7020000219345093;1673371582.619906;29.3040714263916;-1.5902632474899292;87.15383911132812
63;1673371582.7434375;47.1306424;7.2406234;1.8650001287460327;1673371582.8328586;28.7651309967041;2.0771141052246094;88.00418090820312
64;1673371582.9570012;47.1306424;7.2406229;2.0400002002716064;1673371583.044866;28.206850051879883;0.7760773301124573;87.72357177734375
65;1673371583.1679423;47.1306425;7.2406222;2.2210001945495605;1673371583.2450554;27.70273780822754;-0.5513081550598145;87.0224838256836
66;1673371583.3644006;47.1306425;7.240621699999999;2.4100000858306885;1673371583.44553;27.19754981994629;2.131704568862915;87.8095932006836
67;1673371583.5765657;47.1306424;7.2406212;2.6000001430511475;1673371583.6612065;27.123104095458984;1.1215770244598389;87.6064453125
68;1673371583.7883437;47.1306424;7.240620799999999;2.7890000343322754;1673371583.869567;27.069082260131836;-0.8039637804031372;86.94407653808594
69;1673371583.9776978;47.1306424;7.2406204999999995;2.9780001640319824;1673371584.068668;26.877239227294922;1.786281943321228;87.71630859375
70;1673371584.1953793;47.1306424;7.2406201999999995;3.1660001277923584;1673371584.2742007;26.994421005249023;2.146015167236328;87.848388671875
71;1673371584.3871121;47.1306424;7.2406201;3.3560001850128174;1673371584.46701;27.24193572998047;-0.9530203938484192;86.9343490600586
72;1673371584.583783;47.1306423;7.2406201;3.5410001277923584;1673371584.6681705;27.279605865478516;0.7897387742996216;87.51025390625
73;1673371584.7830205;47.130642099999996;7.2406201;3.7340002059936523;1673371584.8638406;27.48134994506836;1.3969210386276245;87.89749145507812
74;1673371584.9758854;47.130641999999995;7.2406201;3.9270002841949463;1673371585.0762954;27.600605010986328;-1.554525375366211;87.14965057373047
75;1673371585.2177444;47.1306419;7.2406201;4.11899995803833;1673371585.2970083;27.68650245666504;0.15107466280460358;87.59889221191406
76;1673371585.401654;47.1306419;7.2406201999999995;4.314000129699707;1673371585.4941096;27.805444717407227;1.6251524686813354;88.05961608886719
77;1673371585.6128013;47.1306419;7.2406201;4.50700044631958;1673371585.6874638;27.659812927246094;-1.1841402053833008;87.1732177734375
78;1673371585.809894;47.130641999999995;7.2406201;4.700000286102295;1673371585.877814;27.808452606201172;-0.322810560464859;87.33766174316406
79;1673371585.9809299;47.130641999999995;7.2406201;4.897000312805176;1673371586.0604131;27.756227493286133;1.8551610708236694;88.04000854492188
80;1673371586.171482;47.130641999999995;7.2406201;5.093000411987305;1673371586.2437131;27.759925842285156;-0.6420241594314575;87.32479858398438
81;1673371586.3496616;47.130642099999996;7.2406201;5.288000106811523;1673371586.4302785;27.646093368530273;-0.5557944178581238;87.10006713867188
82;1673371586.5470421;47.1306422;7.24062;5.4830002784729;1673371586.628917;27.528350830078125;2.279834747314453;87.9613037109375
83;1673371586.748243;47.1306422;7.24062;5.676000118255615;1673371586.8253894;27.547618865966797;0.13882900774478912;87.36551666259766
84;1673371586.9398642;47.1306423;7.2406198999999996;5.865000247955322;1673371587.031917;27.466341018676758;-0.6792728900909424;87.0315933227539
85;1673371587.1467683;47.1306424;7.2406198999999996;6.060000419616699;1673371587.2274132;27.506412506103516;2.2914650440216064;87.90660858154297
86;1673371587.3519537;47.1306423;7.24062;6.258000373840332;1673371587.4278412;27.5988826751709;0.653149425983429;87.66935729980469
87;1673371587.5437381;47.1306424;7.2406201;6.455000400543213;1673371587.6279337;27.626733779907227;-1.1020259857177734;86.97232055664062
88;1673371587.7448733;47.1306424;7.2406201;6.654000282287598;1673371587.8254693;27.806591033935547;1.5894343852996826;87.65264129638672
89;1673371587.949379;47.1306424;7.2406201;6.848000526428223;1673371588.032373;27.775318145751953;1.2074569463729858;87.67037200927734
90;1673371588.152675;47.1306424;7.2406201;7.0410003662109375;1673371588.2367022;27.64177131652832;-1.1703007221221924;87.09174346923828
91;1673371588.3564599;47.1306423;7.2406201;7.2360005378723145;1673371588.4351745;27.732093811035156;1.1265263557434082;87.7389144897461
92;1673371588.5412097;47.1306423;7.2406201;7.431000232696533;1673371588.6280835;27.711912155151367;1.576027274131775;87.81510162353516
93;1673371588.7508502;47.1306423;7.2406201;7.630000591278076;1673371588.8324516;27.70958137512207;-1.0564895868301392;87.09896087646484
94;1673371588.952332;47.1306424;7.2406201;7.827000141143799;1673371589.0368087;27.6018123626709;0.6021630764007568;87.37730407714844
95;1673371589.161533;47.1306424;7.2406201;8.02500057220459;1673371589.2530665;27.70629119873047;2.4261412620544434;87.89508056640625
96;1673371589.3764145;47.1306424;7.24062;8.222000122070312;1673371589.4437962;27.581960678100586;-0.772786557674408;87.0753173828125
97;1673371589.5570667;47.1306424;7.24062;8.421000480651855;1673371589.6453106;27.619239807128906;0.362478107213974;87.3757095336914
98;1673371589.760723;47.1306423;7.24062;8.623000144958496;1673371589.8464155;27.51232147216797;2.336919069290161;88.0187759399414
99;1673371589.962507;47.1306423;7.24062;8.826000213623047;1673371590.033345;27.718711853027344;-0.5075593590736389;87.28954315185547
100;1673371590.139463;47.1306424;7.24062;9.030000686645508;1673371590.217213;27.768268585205078;-0.08892056345939636;87.2661361694336
101;1673371590.342009;47.1306424;7.2406201;9.238000869750977;1673371590.4191954;27.71651840209961;2.365182876586914;87.971435546875
102;1673371590.5359685;47.1306423;7.2406201;9.445000648498535;1673371590.6211379;27.80107879638672;-0.03345322608947754;87.39622497558594
103;1673371590.7428212;47.1306423;7.2406201;9.647000312805176;1673371590.8245616;27.816192626953125;-0.6682451367378235;87.12354278564453
104;1673371590.941352;47.1306423;7.2406201;9.855000495910645;1673371591.0243611;27.833721160888672;2.084470272064209;87.90853118896484
105;1673371591.1439729;47.1306422;7.2406201;10.062000274658203;1673371591.228786;27.70388412475586;0.20061782002449036;87.32420349121094
106;1673371591.3434508;47.1306422;7.24062;10.302000045776367;1673371591.4409163;26.82431411743164;-0.2497483640909195;87.30197143554688
107;1673371591.5746446;47.1306422;7.240619499999999;10.653000831604004;1673371591.6508515;28.50689125061035;1.310686707496643;87.71675109863281
108;1673371591.7559464;47.1306422;7.240619;11.047000885009766;1673371591.8316529;27.273162841796875;1.322162389755249;87.71622467041016
109;1673371591.9377499;47.130642099999996;7.2406182999999995;11.445000648498535;1673371592.0214212;25.843576431274414;-1.186714768409729;87.02027130126953
110;1673371592.1472256;47.130642099999996;7.2406178;11.85200023651123;1673371592.2361686;25.447248458862305;0.9162355661392212;87.56169128417969
111;1673371592.3506138;47.130641999999995;7.2406175;12.262001037597656;1673371592.4293227;25.12894058227539;1.4993321895599365;87.8416748046875
112;1673371592.5479636;47.130642099999996;7.240617299999999;12.675000190734863;1673371592.6314654;25.21444320678711;-1.0518405437469482;87.06363677978516
113;1673371592.7502801;47.1306422;7.2406174;13.089000701904297;1673371592.8347468;25.415725708007812;0.8384426236152649;87.417724609375
114;1673371592.9612708;47.1306422;7.240617599999999;13.507000923156738;1673371593.0477066;26.01039695739746;1.8671964406967163;87.79034423828125
115;1673371593.1708062;47.130642099999996;7.2406178;13.92300033569336;1673371593.3520327;26.20121192932129;-1.043180227279663;87.14800262451172
116;1673371593.4556923;47.130642099999996;7.2406181;14.328001022338867;1673371593.525036;26.63709831237793;0.4918639361858368;87.46316528320312
117;1673371593.6282063;47.130642099999996;7.2406184;14.733000755310059;1673371593.7059414;27.004724502563477;1.9661043882369995;87.94364166259766
118;1673371593.8220847;47.1306422;7.2406187;15.142001152038574;1673371593.898259;27.37122917175293;-0.22041837871074677;87.37932586669922
119;1673371594.014087;47.1306422;7.240618899999999;15.54900074005127;1673371594.0976567;27.26105499267578;0.10116640478372574;87.31929779052734
120;1673371594.2084422;47.1306423;7.240619;15.955000877380371;1673371594.2823317;27.31918716430664;2.079397201538086;87.9072036743164
121;1673371594.408894;47.1306422;7.240619;16.36600112915039;1673371594.5084279;27.17472267150879;-0.3404872715473175;87.31951141357422
122;1673371594.6286983;47.1306422;7.240619;16.767000198364258;1673371594.7029796;26.933584213256836;-0.5098132491111755;87.21530151367188
123;1673371594.8089867;47.1306422;7.240619;17.172000885009766;1673371594.8866785;26.83580207824707;2.024338722229004;87.89485168457031
124;1673371594.9926329;47.1306422;7.240618899999999;17.578001022338867;1673371595.061936;26.617835998535156;0.4499988853931427;87.51505279541016
125;1673371595.1762798;47.1306423;7.2406188;17.983001708984375;1673371595.2681148;26.544408798217773;-0.8173496127128601;87.04287719726562
126;1673371595.411181;47.1306424;7.2406188;18.386001586914062;1673371595.4826643;26.606365203857422;1.9302523136138916;87.75282287597656
127;1673371595.5907307;47.1306424;7.2406188;18.78900146484375;1673371595.6733804;26.75209617614746;1.1637831926345825;87.70557403564453
128;1673371595.7872229;47.1306424;7.240618899999999;19.19099998474121;1673371595.8623774;26.624109268188477;-0.8829279541969299;87.08869934082031
129;1673371595.9704695;47.1306424;7.240618899999999;19.586000442504883;1673371596.0517054;26.68631935119629;1.5858101844787598;87.67512512207031
130;1673371596.164729;47.1306424;7.240618899999999;19.99100112915039;1673371596.2473042;26.736963272094727;1.7680925130844116;87.86170196533203
131;1673371596.363018;47.1306424;7.240619;20.398000717163086;1673371596.4467332;26.740013122558594;-0.6863929629325867;87.06256866455078
132;1673371596.5646913;47.1306425;7.240619;20.802000045776367;1673371596.6444867;26.688499450683594;0.9390222430229187;87.45032501220703
133;1673371596.763725;47.1306425;7.240619;21.21000099182129;1673371596.8491771;26.913808822631836;2.252960681915283;87.84178924560547
134;1673371596.974406;47.1306425;7.2406191;21.61400032043457;1673371597.0632591;26.790504455566406;-0.7134037613868713;87.11569213867188
135;1673371597.180028;47.1306425;7.2406191;22.010000228881836;1673371597.2623162;26.78131675720215;0.22671805322170258;87.31626892089844
136;1673371597.380877;47.1306424;7.2406191;22.409000396728516;1673371597.4600906;26.766338348388672;2.2658705711364746;87.9629898071289
137;1673371597.5631523;47.1306424;7.240619199999999;22.81100082397461;1673371597.6490242;27.039016723632812;-0.5436155200004578;87.19002532958984
138;1673371597.7730753;47.1306424;7.2406193;23.21500015258789;1673371597.85438;26.87650489807129;0.1277977079153061;87.23583984375
139;1673371597.96088;47.1306424;7.2406193;23.617000579833984;1673371598.0386558;26.829856872558594;2.4215898513793945;88.07842254638672
140;1673371598.1673014;47.1306424;7.2406193;24.018001556396484;1673371598.2518287;26.888736724853516;-0.09242609888315201;87.46102142333984
141;1673371598.3835607;47.1306424;7.2406193;24.418001174926758;1673371598.4647462;26.6962833404541;-0.2400883138179779;87.19055938720703
142;1673371598.576373;47.1306424;7.2406193;24.81100082397461;1673371598.6516376;26.836278915405273;2.135307788848877;87.84310913085938
143;1673371598.7725139;47.1306424;7.2406193;25.21200180053711;1673371598.8571556;26.740245819091797;0.39274126291275024;87.43709564208984
144;1673371598.9747932;47.1306425;7.2406193;25.615001678466797;1673371599.054032;26.76903533935547;-0.3301827311515808;87.095703125
145;1673371599.1697917;47.1306425;7.2406193;26.020000457763672;1673371599.2484565;26.716228485107422;2.3125712871551514;87.8670654296875
146;1673371599.3776443;47.1306424;7.2406193;26.427001953125;1673371599.4586544;26.84014129638672;0.7039766311645508;87.50066375732422
147;1673371599.5810397;47.1306424;7.2406194;26.830001831054688;1673371599.6690278;26.880615234375;-0.7995833158493042;86.99620056152344
148;1673371599.7881033;47.1306424;7.2406194;27.222002029418945;1673371599.8732905;26.802684783935547;1.1541404724121094;87.4759521484375
149;1673371599.976193;47.1306424;7.2406194;27.623001098632812;1673371600.0563195;26.86824607849121;1.5823936462402344;87.7611312866211
150;1673371600.1687868;47.1306424;7.2406194;28.024002075195312;1673371600.247944;26.886463165283203;-0.8705259561538696;87.09419250488281
151;1673371600.3919399;47.1306425;7.240619499999999;28.426000595092773;1673371600.470022;26.911775588989258;0.7636190056800842;87.45870971679688
152;1673371600.583335;47.1306425;7.240619499999999;28.82900047302246;1673371600.6714475;26.824508666992188;1.9743858575820923;87.90184020996094
153;1673371600.7931347;47.1306424;7.240619499999999;29.235000610351562;1673371600.8742783;26.793193817138672;-0.9055573344230652;87.18547821044922
154;1673371600.9876199;47.1306424;7.240619499999999;29.64000129699707;1673371601.071569;26.78642463684082;0.8273504972457886;87.47232055664062
155;1673371601.1801968;47.1306425;7.240619499999999;30.03400230407715;1673371601.2583244;26.761154174804688;2.2166616916656494;87.91861724853516
156;1673371601.3733406;47.1306425;7.240619499999999;30.435001373291016;1673371601.4529433;26.82671356201172;-0.3364165425300598;87.18846130371094
157;1673371601.5707765;47.130642599999995;7.240619499999999;30.83700180053711;1673371601.6475003;26.770282745361328;0.15806439518928528;87.1833267211914
158;1673371601.760361;47.130642599999995;7.2406196;31.239002227783203;1673371601.8387341;26.904218673706055;2.4636566638946533;87.91703796386719
159;1673371601.9607596;47.1306425;7.2406196;31.644001007080078;1673371602.0472124;26.856531143188477;0.8748542666435242;87.59565734863281
160;1673371602.1572304;47.1306425;7.2406196;32.05000305175781;1673371602.239763;26.905540466308594;-0.6107345223426819;87.08638763427734
161;1673371602.3606985;47.1306425;7.2406196;32.444000244140625;1673371602.444514;26.813413619995117;1.3745981454849243;87.71491241455078
162;1673371602.5689754;47.1306425;7.2406196;32.84300231933594;1673371602.647227;26.840375900268555;2.082777738571167;87.98904418945312
163;1673371602.7626617;47.1306425;7.2406196;33.24400329589844;1673371602.8433466;26.83346176147461;-0.8471639752388;87.06566619873047
164;1673371602.9642115;47.1306425;7.2406196;33.645999908447266;1673371603.0444365;26.784820556640625;0.8763047456741333;87.44474029541016
165;1673371603.1546469;47.1306425;7.2406197;34.04899978637695;1673371603.2354445;26.9796085357666;2.0659937858581543;87.93590545654297
166;1673371603.363469;47.1306424;7.2406197;34.4530029296875;1673371603.4550364;26.908479690551758;-0.7462541460990906;87.2047119140625
167;1673371603.5755835;47.1306424;7.2406197;34.85700225830078;1673371603.6549227;26.928428649902344;0.5105934143066406;87.44480895996094
168;1673371603.764718;47.1306424;7.2406196;35.25200271606445;1673371603.848089;26.71068000793457;2.2695369720458984;87.89818572998047
169;1673371603.9674234;47.1306424;7.2406196;35.64900207519531;1673371604.055315;26.69585418701172;-0.46559736132621765;87.07903289794922
170;1673371604.1769366;47.1306425;7.240619499999999;36.052001953125;1673371604.2614179;26.7381591796875;0.2567843794822693;87.23887634277344
171;1673371604.3810685;47.1306425;7.240619499999999;36.454002380371094;1673371604.4627273;26.72553253173828;2.4462077617645264;87.96807098388672
172;1673371604.575775;47.1306424;7.2406194;36.858001708984375;1673371604.656359;26.730361938476562;-0.12276934832334518;87.2779769897461
173;1673371604.763396;47.1306424;7.2406194;37.2650032043457;1673371604.851667;26.69896125793457;-0.1723567694425583;87.13103485107422
174;1673371604.961375;47.1306424;7.2406194;37.660003662109375;1673371605.0444694;26.817907333374023;2.3735499382019043;87.8756103515625
175;1673371605.1624625;47.1306425;7.2406194;38.060001373291016;1673371605.2479641;26.7962646484375;0.3326886296272278;87.38594055175781
176;1673371605.360881;47.1306425;7.2406194;38.46200180053711;1673371605.443771;26.829299926757812;-0.38526129722595215;87.17155456542969
177;1673371605.567482;47.1306425;7.2406194;38.8650016784668;1673371605.6617007;26.691301345825195;2.313271999359131;87.9813461303711
178;1673371605.7904482;47.1306424;7.2406194;39.268001556396484;1673371605.8808985;26.683130264282227;0.6212453246116638;87.59957885742188
179;1673371605.9907753;47.1306424;7.2406194;39.669002532958984;1673371606.0756817;26.6988468170166;-0.6441011428833008;87.14837646484375
180;1673371606.210653;47.1306425;7.2406194;40.07200241088867;1673371606.2877598;26.753881454467773;2.0512874126434326;87.78890991210938
181;1673371606.4041786;47.1306425;7.2406194;40.46500015258789;1673371606.4834538;26.62213897705078;1.0971759557724;87.60670471191406
182;1673371606.6007383;47.1306425;7.2406194;40.867000579833984;1673371606.6804404;26.71542739868164;-0.6449987888336182;86.98200988769531
183;1673371606.7922761;47.1306425;7.2406194;41.272003173828125;1673371606.8755574;26.694581985473633;1.5444679260253906;87.65511322021484
184;1673371606.987947;47.1306425;7.2406193;41.67500305175781;1673371607.0756824;26.68570327758789;1.4553136825561523;87.77336883544922
185;1673371607.1901944;47.1306425;7.2406193;42.077003479003906;1673371607.2626128;26.638748168945312;-0.9138221740722656;87.0589828491211
186;1673371607.3871033;47.1306425;7.2406193;42.47700119018555;1673371607.5288835;26.589027404785156;1.6459823846817017;87.62250518798828
187;1673371607.6366148;47.1306425;7.2406193;42.867000579833984;1673371607.708611;26.67355728149414;1.7802759408950806;87.72466278076172
188;1673371607.81173;47.130642599999995;7.2406194;43.26900100708008;1673371607.8973672;26.750614166259766;-0.6031140089035034;87.0944595336914
189;1673371608.014098;47.130642599999995;7.2406194;43.672000885009766;1673371608.0964854;26.889066696166992;1.1780036687850952;87.53919982910156
190;1673371608.2063348;47.1306425;7.240619499999999;44.079002380371094;1673371608.2777886;26.821901321411133;2.0159621238708496;87.8479995727539
191;1673371608.3917422;47.1306424;7.240619499999999;44.48400115966797;1673371608.4694593;26.818546295166016;-0.858203649520874;87.13243865966797
192;1673371608.576099;47.1306424;7.240619499999999;44.88500213623047;1673371608.660262;26.675289154052734;0.6950527429580688;87.40762329101562
193;1673371608.7768722;47.1306424;7.240619499999999;45.28700256347656;1673371608.8555806;26.8059024810791;2.3071866035461426;88.00308990478516
194;1673371608.984166;47.1306424;7.240619499999999;45.678001403808594;1673371609.0647376;26.658092498779297;-0.5959576368331909;87.1922607421875
195;1673371609.1765513;47.1306424;7.240619499999999;46.077003479003906;1673371609.2585185;26.684036254882812;0.12006872892379761;87.19966125488281
196;1673371609.366122;47.1306424;7.240619499999999;46.47800064086914;1673371609.4488404;26.72926139831543;2.0920090675354004;87.90203094482422
197;1673371609.5655684;47.1306424;7.240619499999999;46.88300323486328;1673371609.6472023;26.664241790771484;-0.10452491044998169;87.29057312011719
198;1673371609.7649212;47.1306425;7.240619499999999;47.284000396728516;1673371609.8475184;26.741851806640625;0.12848065793514252;87.31214141845703
199;1673371609.9827714;47.1306425;7.240619499999999;47.68400192260742;1673371610.0634103;26.74704360961914;2.630002498626709;87.90045166015625
200;1673371610.17881;47.1306425;7.240619499999999;48.073001861572266;1673371610.2590303;26.86293601989746;0.5028321743011475;87.45177459716797
201;1673371610.3726425;47.130642599999995;7.2406197;48.428001403808594;1673371610.4595625;27.02806854248047;0.20544841885566711;87.16735076904297
202;1673371610.5806577;47.130642599999995;7.2406198999999996;48.73600387573242;1673371610.663486;27.02147102355957;2.413987874984741;88.05724334716797
203;1673371610.7860792;47.1306425;7.2406201999999995;48.996002197265625;1673371610.863745;27.431110382080078;0.42568957805633545;87.3880844116211
204;1673371610.9696958;47.130642599999995;7.2406207;49.21200180053711;1673371611.0463746;27.92112922668457;-0.4500771462917328;87.05931854248047
205;1673371611.1621637;47.1306425;7.240621099999999;49.393001556396484;1673371611.2477825;38.886474609375;-2.611156940460205;83.54203033447266
206;1673371611.3674123;47.1306425;7.240620799999999;49.553001403808594;1673371611.4509268;47.70608139038086;-21.471498489379883;71.21025848388672
207;1673371611.5726457;47.130643;7.2406185999999995;49.682003021240234;1673371611.6592891;46.20368194580078;-30.376035690307617;62.23880386352539
208;1673371611.7766705;47.1306443;7.240614099999999;49.78700256347656;1673371611.8602026;35.379791259765625;-37.994606018066406;53.719032287597656
209;1673371611.9878557;47.1306465;7.2406077;49.88300323486328;1673371612.0761087;25.61798858642578;-38.420631408691406;44.166526794433594
210;1673371612.186372;47.1306496;7.2406004;49.957000732421875;1673371612.2713504;13.138351440429688;-42.951072692871094;32.696537017822266
211;1673371612.3859544;47.1306534;7.2405924;50.03400421142578;1673371612.4686697;-4.326817035675049;-48.92897033691406;21.4965763092041
212;1673371612.5961282;47.1306582;7.240583699999999;50.09800338745117;1673371612.671914;-25.17159080505371;-48.68746566772461;10.203670501708984
213;1673371612.7878733;47.1306643;7.240574199999999;50.1150016784668;1673371612.875805;-37.333984375;-42.94737243652344;-1.6118664741516113
214;1673371612.9946003;47.130671799999995;7.2405639;50.11900329589844;1673371613.0800612;-40.44546127319336;-36.0954475402832;-11.833930969238281
215;1673371613.2129142;47.1306805;7.2405528;50.117000579833984;1673371613.303547;-47.52839279174805;-33.97846984863281;-20.589054107666016
216;1673371613.4181883;47.1306902;7.2405409;50.10700225830078;1673371613.5073206;-50.82826232910156;-27.924219131469727;-31.690122604370117
217;1673371613.6183178;47.1307006;7.2405279;50.083003997802734;1673371613.6976812;-48.285301208496094;-21.00818634033203;-39.131492614746094
218;1673371613.7997103;47.130711399999996;7.2405143;50.03900146484375;1673371613.8764787;-46.925411224365234;-15.539278984069824;-44.81958770751953
219;1673371613.9903035;47.1307225;7.240500399999999;49.992000579833984;1673371614.0800884;-46.500343322753906;-11.746853828430176;-51.20217514038086
220;1673371614.1935613;47.1307337;7.240486199999999;49.94400405883789;1673371614.2851007;-46.80500411987305;-7.502017498016357;-56.78062057495117
221;1673371614.4130867;47.130744899999996;7.240472;49.90400314331055;1673371614.509411;-43.02424621582031;-6.595702648162842;-54.077362060546875
222;1673371614.6281135;47.1307561;7.240457999999999;49.87000274658203;1673371614.709744;-42.82304000854492;-7.382070541381836;-50.967464447021484
223;1673371614.8207943;47.130767399999996;7.2404443999999994;49.85200119018555;1673371614.8965468;-46.40399169921875;-8.85728931427002;-49.77212142944336
224;1673371615.000669;47.130778799999995;7.2404310999999995;49.84600067138672;1673371615.070037;-48.29718017578125;-10.229300498962402;-49.40205001831055
225;1673371615.1769779;47.130790499999996;7.2404176;49.84400177001953;1673371615.267324;-47.99722671508789;-11.212717056274414;-49.42514419555664
226;1673371615.387951;47.1308023;7.240404;49.836002349853516;1673371615.4696677;-47.173683166503906;-14.909368515014648;-50.92842102050781
227;1673371615.5753582;47.130814099999995;7.2403901;49.83400344848633;1673371615.6678398;-45.41289138793945;-11.238541603088379;-61.543949127197266
228;1673371615.7836912;47.1308254;7.2403758;49.833003997802734;1673371615.8750346;-43.76138687133789;-4.371622562408447;-72.13465881347656
229;1673371616.046976;47.130835999999995;7.2403615;49.836002349853516;1673371616.118376;-42.383644104003906;1.8347008228302002;-81.08246612548828
230;1673371616.2292964;47.1308461;7.2403471999999995;49.840003967285156;1673371616.294703;-41.66069412231445;7.517129898071289;-89.65180206298828
231;1673371616.4052782;47.1308556;7.2403331;49.840003967285156;1673371616.4835682;-39.64867401123047;12.875360488891602;-98.6749038696289
232;1673371616.604722;47.130864599999995;7.2403192999999995;49.83700180053711;1673371616.6845176;-35.82571792602539;16.785795211791992;-107.92511749267578
233;1673371616.8040733;47.130873;7.2403058;49.82200241088867;1673371616.887338;-32.113609313964844;19.965803146362305;-117.80896759033203
234;1673371617.0085943;47.1308809;7.2402928;49.80600357055664;1673371617.1089022;-29.585676193237305;25.212852478027344;-128.50393676757812
235;1673371617.2596502;47.130888;7.2402801;49.81700134277344;1673371617.370786;-28.978979110717773;35.53731155395508;-139.2020263671875
236;1673371617.5013046;47.1308946;7.2402674;49.8640022277832;1673371617.5672832;-27.45313262939453;43.79975128173828;-147.2946014404297
237;1673371617.719755;47.1309008;7.2402538;49.93400192260742;1673371617.777279;-27.035303115844727;45.26763153076172;-146.18234252929688
238;1673371617.8712914;47.1309068;7.2402393;49.99100112915039;1673371617.9435549;-32.339324951171875;40.07289505004883;-141.52601623535156
239;1673371618.046824;47.130912699999996;7.2402239999999995;50.04300308227539;1673371618.1246147;-32.32233810424805;20.532136917114258;-133.7892303466797
240;1673371618.2355077;47.1309179;7.240208999999999;50.0890007019043;1673371618.3151033;-26.974624633789062;-1.3705350160598755;-124.2818832397461
241;1673371618.4278975;47.1309219;7.2401956;50.12800216674805;1673371618.5020752;-19.947105407714844;-13.370165824890137;-113.72513580322266
242;1673371618.6108084;47.1309246;7.2401846999999995;50.14600372314453;1673371618.6884956;-15.317316055297852;-10.669142723083496;-102.9115982055664
243;1673371618.799805;47.130926099999996;7.2401763;50.16100311279297;1673371618.8803816;-22.431123733520508;7.240044593811035;-94.0227279663086
244;1673371619.1168177;47.130927299999996;7.2401697;50.18700408935547;1673371619.176353;-41.269798278808594;28.732776641845703;-87.50284576416016
245;1673371619.2769222;47.1309299;7.2401636;50.20100402832031;1673371619.343845;-55.12963104248047;27.078962326049805;-74.9753189086914
246;1673371619.432262;47.1309354;7.240157;50.169002532958984;1673371619.5064764;-44.211360931396484;16.140274047851562;-60.6229133605957
247;1673371619.608526;47.1309429;7.2401507;50.1410026550293;1673371619.6808572;-44.36555099487305;10.086915016174316;-56.714256286621094
248;1673371619.8000126;47.130952;7.2401449;50.134002685546875;1673371619.8835146;-46.52645492553711;-1.6866888999938965;-48.271671295166016
249;1673371620.0090573;47.1309624;7.240139;50.163002014160156;1673371620.080903;-54.0310173034668;-16.311845779418945;-41.216617584228516
250;1673371620.1936822;47.130973499999996;7.2401323;50.137001037597656;1673371620.2790616;-36.521114349365234;-20.76639175415039;-48.15940856933594
251;1673371620.4245517;47.1309847;7.2401257;49.80800247192383;1673371620.530468;-2.055049180984497;-25.463741302490234;-61.832218170166016
252;1673371620.6436107;47.1309958;7.2401195;49.082000732421875;1673371620.7147813;44.627017974853516;-46.836334228515625;-94.26998138427734
253;1673371620.8156743;47.1310071;7.2401135;47.970001220703125;1673371620.8958392;52.23862838745117;-124.28723907470703;174.1436767578125
254;1673371621.0327923;47.1310186;7.2401075;46.493003845214844;1673371621.106741;24.007566452026367;-142.232421875;138.35867309570312
255;1673371621.2211497;47.1310298;7.240101699999999;44.66200256347656;1673371621.3158925;9.826051712036133;-131.76658630371094;129.85372924804688
256;1673371621.4307325;47.131040999999996;7.2400964;42.4640007019043;1673371621.5169957;9.591209411621094;-103.7834701538086;137.13365173339844
257;1673371621.6537914;47.131051899999996;7.2400915999999995;39.915000915527344;1673371621.729888;10.019585609436035;-51.26919937133789;163.5385284423828
258;1673371621.8367472;47.1310625;7.240086799999999;37.005001068115234;1673371621.9060788;-26.60935401916504;1.0113078355789185;-172.21969604492188
259;1673371622.0370119;47.131073;7.240081999999999;33.66800308227539;1673371622.1228652;-64.72760009765625;45.715091705322266;176.40811157226562
260;1673371622.2328908;47.1310837;7.2400778;29.968002319335938;1673371622.3194728;-79.54544067382812;70.26509094238281;155.7140350341797
261;1673371622.4328895;47.1310941;7.240074099999999;25.94500160217285;1673371622.515643;-65.17765808105469;-10.202872276306152;-144.1797637939453
262;1673371622.6360629;47.1311045;7.2400709;21.599000930786133;1673371622.7237551;-14.849452018737793;-38.012577056884766;-160.78060913085938
263;1673371622.831872;47.131115199999996;7.2400679;16.87900161743164;1673371622.911125;26.782089233398438;-70.28389739990234;160.8092803955078
264;1673371623.015597;47.1311257;7.240064599999999;11.806000709533691;1673371623.0938818;43.20930099487305;-81.89485931396484;136.99127197265625
265;1673371623.2116506;47.131135799999996;7.2400613;6.419000148773193;1673371623.299864;41.9534912109375;-32.345726013183594;171.20452880859375
266;1673371623.4259083;47.131145499999995;7.2400581;0.7150000333786011;1673371623.5139432;1.921266794204712;21.456125259399414;-161.7414093017578
267;1673371623.6249397;47.131152799999995;7.240049;0.38700002431869507;1673371623.7037625;0.3618646264076233;6.627263069152832;-150.34188842773438
268;1673371623.8177593;47.131160699999995;7.2400414;0.48100003600120544;1673371623.9058728;0.8685197234153748;15.757452011108398;-152.91795349121094
269;1673371624.0277991;47.131168599999995;7.2400341;0.5450000166893005;1673371624.1158285;1.218380331993103;12.413352012634277;-153.5321502685547
270;1673371624.2577782;47.1311764;7.2400261;0.5760000348091125;1673371624.3381352;1.3973991870880127;13.647307395935059;-154.0907440185547
271;1673371624.4393544;47.131183799999995;7.2400176;0.5870000123977661;1673371624.524674;1.5875049829483032;13.085718154907227;-154.6051025390625
272;1673371624.6282418;47.131192;7.2400074;0.5990000367164612;1673371624.7119172;1.674145221710205;13.034937858581543;-155.193603515625
273;1673371624.8275921;47.131198499999996;7.2399982;0.5980000495910645;1673371624.919754;1.7143832445144653;12.742375373840332;-155.65951538085938
274;1673371625.0422907;47.1312035;7.23999;0.5879999995231628;1673371625.1350152;1.7502493858337402;12.444015502929688;-156.10739135742188
275;1673371625.2487311;47.131210499999995;7.239979;0.5670000314712524;1673371625.3357034;1.8638330698013306;12.227166175842285;-156.58592224121094
276;1673371625.4440913;47.131219099999996;7.239965499999999;0.534000039100647;1673371625.5167086;1.977379560470581;12.056943893432617;-156.9358673095703
277;1673371625.631181;47.131228799999995;7.2399502;0.4930000305175781;1673371625.7157757;2.0859625339508057;12.052146911621094;-157.28260803222656
278;1673371625.832363;47.131239199999996;7.2399336;0.4490000307559967;1673371625.9160228;2.1367690563201904;12.106337547302246;-157.70668029785156
279;1673371626.0277216;47.1312502;7.2399157;0.4010000228881836;1673371626.107764;2.2011654376983643;12.090354919433594;-158.06068420410156
280;1673371626.2259295;47.131261599999995;7.2398967999999995;0.35100001096725464;1673371626.3071418;2.29903507232666;12.07233715057373;-158.4041748046875
281;1673371626.4158244;47.1312734;7.239876799999999;0.30300000309944153;1673371626.4918926;2.370159864425659;12.03464126586914;-158.74139404296875
282;1673371626.6147778;47.1312856;7.239855899999999;0.24900001287460327;1673371626.700768;2.436880350112915;12.057982444763184;-159.08749389648438
283;1673371626.8170006;47.131298099999995;7.239834;0.19200000166893005;1673371626.9059155;2.5287628173828125;12.034852027893066;-159.3909454345703
284;1673371627.0188985;47.131310899999995;7.2398112;0.13100001215934753;1673371627.1079214;2.584165334701538;12.018623352050781;-159.67337036132812
285;1673371627.2309296;47.1313241;7.2397874;0.052000001072883606;1673371627.3246193;2.633924722671509;11.942642211914062;-160.0029296875
286;1673371627.4768972;47.131337599999995;7.2397627;-0.017000000923871994;1673371627.5668702;2.696117877960205;11.840848922729492;-160.2798614501953
287;1673371627.6824167;47.1313513;7.2397373;-0.07900000363588333;1673371627.7459767;2.780301332473755;11.749865531921387;-160.53077697753906
288;1673371627.8626027;47.1313653;7.239711;-0.14000000059604645;1673371627.947858;2.8178601264953613;11.63366413116455;-160.7839813232422
289;1673371628.040802;47.1313795;7.239683899999999;-0.20100000500679016;1673371628.1110244;2.821221351623535;11.518568992614746;-161.04200744628906
290;1673371628.2688394;47.131394;7.239656;-0.2590000033378601;1673371628.343542;2.855154514312744;11.405054092407227;-161.25013732910156
291;1673371628.4527738;47.1314089;7.239626899999999;-0.3450000286102295;1673371628.524691;2.919358253479004;11.257237434387207;-161.4455108642578
292;1673371628.664718;47.131423899999994;7.2395973;-0.40800002217292786;1673371628.7470026;2.9100046157836914;11.114075660705566;-161.6798858642578
293;1673371628.8569045;47.131439099999994;7.239567;-0.45900002121925354;1673371628.9380744;2.8487470149993896;11.248332977294922;-161.9075164794922
294;1673371629.0568757;47.1314545;7.2395361;-0.5049999952316284;1673371629.134608;2.8551206588745117;11.3904390335083;-162.08216857910156
295;1673371629.2439573;47.1314701;7.2395045;-0.5430000424385071;1673371629.3259878;2.851837635040283;11.480902671813965;-162.2241668701172
296;1673371629.4387045;47.1314859;7.2394720999999995;-0.578000009059906;1673371629.527732;2.834434986114502;11.456660270690918;-162.31117248535156
297;1673371629.6426368;47.131501899999996;7.2394389;-0.6080000400543213;1673371629.7189124;2.865280866622925;11.374751091003418;-162.3933868408203
298;1673371629.834859;47.1315185;7.2394041;-0.675000011920929;1673371629.911221;2.827425479888916;11.295567512512207;-162.4732666015625
299;1673371630.0519812;47.1315205;7.2393998999999996;-0.718000054359436;1673371630.1439302;2.8359670639038086;11.237985610961914;-162.54832458496094
300;;;;;1673371630.3420415;2.7935469150543213;11.986226081848145;-162.60769653320312
301;;;;;1673371630.5379715;2.791172504425049;12.146405220031738;-162.6739044189453
302;;;;;1673371630.7369258;2.7717843055725098;12.252908706665039;-162.74571228027344
