;pos_time;latitude;longitude;altitude;alt_time;pitch;roll;yaw
0;1673370509.2262459;47.1306425;7.240619799999999;-0.0020000000949949026;1673370509.3439426;0.12373366951942444;-0.486031174659729;90.36840057373047
1;1673370509.4135172;47.1306425;7.2406198999999996;-0.004000000189989805;1673370509.554106;-0.1903659701347351;-0.567638099193573;90.35252380371094
2;1673370509.6470468;47.1306425;7.24062;-0.004000000189989805;1673370509.7703152;-0.1720637083053589;-0.7509042024612427;90.2696304321289
3;1673370509.8722415;47.1306425;7.2406201;-0.00800000037997961;1673370510.0278573;-0.050875987857580185;-0.4876607656478882;90.50689697265625
4;1673370510.091401;47.1306424;7.2406201;-0.012000000104308128;1673370510.1953979;-0.25006935000419617;0.19154633581638336;90.28855895996094
5;1673370510.2611363;47.1306424;7.24062;-0.012000000104308128;1673370510.3667154;-0.1959439516067505;-0.2987087368965149;90.49235534667969
6;1673370510.4388776;47.1306423;7.240619799999999;-0.013000000268220901;1673370510.5552905;-0.2117035686969757;0.06790464371442795;90.41194152832031
7;1673370510.6263618;47.1306423;7.2406197;-0.01600000075995922;1673370510.7381473;0.05245503783226013;-0.09248214960098267;90.26460266113281
8;1673370510.8119175;47.1306422;7.2406197;-0.020000001415610313;1673370510.927664;0.11288005113601685;-0.06907138973474503;90.2914810180664
9;1673370511.013355;47.1306422;7.2406197;-0.02200000174343586;1673370511.130202;0.17868010699748993;-0.15816046297550201;90.4096450805664
10;1673370511.2056422;47.1306423;7.2406197;-0.02200000174343586;1673370511.3261538;-0.06636654585599899;-0.15609222650527954;90.40237426757812
11;1673370511.4019654;47.1306423;7.240619799999999;-0.020000001415610313;1673370511.5130293;-0.06437654793262482;-0.18615934252738953;90.53300476074219
12;1673370511.5854204;47.1306423;7.2406198999999996;-0.018000001087784767;1673370511.7236183;-0.29597193002700806;-0.08466071635484695;90.51643371582031
13;1673370511.7953932;47.1306423;7.24062;-0.014000000432133675;1673370511.9220912;-0.29629820585250854;-0.08516635745763779;90.33534240722656
14;1673370512.008774;47.1306424;7.2406198999999996;-0.007000000216066837;1673370512.1244855;0.07025431096553802;-0.21451565623283386;90.468017578125
15;1673370512.2021437;47.1306424;7.24062;0.0010000000474974513;1673370512.3338761;0.033695001155138016;-0.1152624636888504;90.26275634765625
16;1673370512.4135418;47.1306424;7.24062;0.004000000189989805;1673370512.5381517;0.03277558460831642;-0.2648637592792511;90.49124145507812
17;1673370512.6180677;47.1306424;7.2406201;0.009000000543892384;1673370512.728586;0.11127470433712006;-0.17456603050231934;90.39213562011719
18;1673370512.8040771;47.1306424;7.2406201;0.012000000104308128;1673370512.9204962;0.029963625594973564;-0.0703057050704956;90.336669921875
19;1673370512.9960623;47.1306424;7.2406203;0.01600000075995922;1673370513.1140869;0.08613166958093643;-0.09787511825561523;90.22701263427734
20;1673370513.1889787;47.1306423;7.2406204;0.017000000923871994;1673370513.3072605;0.004612885415554047;-0.45600229501724243;90.29120635986328
21;1673370513.379616;47.1306423;7.2406204;0.01600000075995922;1673370513.5130641;-0.11558806151151657;-0.3071751296520233;90.47928619384766
22;1673370513.5902963;47.1306423;7.2406204999999995;0.014000000432133675;1673370513.7091591;0.10400582104921341;-0.19768987596035004;90.45830535888672
23;1673370513.784092;47.1306423;7.2406204;0.0;1673370513.90803;0.08974374085664749;0.0005747837712988257;90.38874816894531
24;1673370513.997187;47.1306423;7.2406204;0.0;1673370514.140002;0.01713414303958416;-0.24770484864711761;90.48529052734375
25;1673370514.215144;47.1306422;7.2406203;-0.0010000000474974513;1673370514.3295388;0.32231831550598145;-0.12198475748300552;90.43800354003906
26;1673370514.4280157;47.1306422;7.2406203;0.0;1673370514.588306;0.1334225982427597;0.02566285990178585;90.33399200439453
27;1673370514.6769984;47.1306422;7.2406203;-0.003000000026077032;1673370514.8151636;0.12809616327285767;-0.06507793813943863;90.63469696044922
28;1673370514.886821;47.1306422;7.2406203;0.0;1673370514.9911957;0.14414140582084656;-0.2835210859775543;90.69413757324219
29;1673370515.0663004;47.1306422;7.2406203;0.003000000026077032;1673370515.1745634;0.32805389165878296;-0.09698411077260971;90.71488189697266
30;1673370515.2550154;47.1306422;7.2406203;0.005000000353902578;1673370515.3748436;0.6305438280105591;-0.4423399567604065;90.7812728881836
31;1673370515.4443426;47.1306422;7.2406201999999995;0.009000000543892384;1673370515.5611181;1.4112309217453003;-0.32103368639945984;92.95494079589844
32;1673370515.6364374;47.130642099999996;7.24062;0.014000000432133675;1673370515.7452154;0.12280048429965973;-0.6931507587432861;99.81474304199219
33;1673370515.816185;47.130642099999996;7.2406196;0.01600000075995922;1673370515.934958;-3.991929531097412;1.7367013692855835;100.2439956665039
34;1673370516.0207105;47.130642099999996;7.240618899999999;0.032999999821186066;1673370516.1572106;-8.731807708740234;-6.02544641494751;98.75702667236328
35;1673370516.2671423;47.1306422;7.2406181;0.06000000238418579;1673370516.369092;-11.050558090209961;-5.049388885498047;97.36046600341797
36;1673370516.4440756;47.1306423;7.240617599999999;0.10400000214576721;1673370516.5881257;-12.677935600280762;1.2648084163665771;95.80497741699219
37;1673370516.6601462;47.130642599999995;7.240617299999999;0.16600000858306885;1673370516.7791154;-12.5985689163208;-1.1394129991531372;95.17704772949219
38;1673370516.9133985;47.1306429;7.240617299999999;0.24400001764297485;1673370517.0482318;-12.104779243469238;-2.803858757019043;94.5199966430664
39;1673370517.1053946;47.130643;7.2406175;0.33900001645088196;1673370517.2084038;-11.082887649536133;2.062777519226074;93.16650390625
40;1673370517.2792928;47.1306429;7.240617899999999;0.445000022649765;1673370517.3875732;-10.44678783416748;0.09106355160474777;92.6326904296875
41;1673370517.4500248;47.1306428;7.2406184;0.5640000104904175;1673370517.560044;-9.290776252746582;-3.7523066997528076;92.87418365478516
42;1673370517.6327627;47.130642599999995;7.240619;0.6970000267028809;1673370517.742336;-8.430557250976562;0.7624146938323975;91.61972045898438
43;1673370517.8151526;47.130642599999995;7.240619499999999;0.8440000414848328;1673370517.932838;-8.384062767028809;0.9047794342041016;91.24295806884766
44;1673370518.0096002;47.130642699999996;7.2406198999999996;1.0080000162124634;1673370518.1380079;-7.952539920806885;-3.363614082336426;91.56510162353516
45;1673370518.2178314;47.130642599999995;7.2406201;1.186000108718872;1673370518.337575;-8.223258972167969;0.0032957277726382017;91.01570892333984
46;1673370518.4149857;47.1306425;7.2406201999999995;1.3730000257492065;1673370518.5343003;-8.164214134216309;1.0628892183303833;90.38373565673828
47;1673370518.607182;47.1306425;7.2406201999999995;1.565000057220459;1673370518.727626;-8.701386451721191;-3.2758774757385254;91.03059387207031
48;1673370518.8003972;47.1306424;7.2406201999999995;1.7620000839233398;1673370518.924081;-8.689010620117188;-1.561922550201416;90.75745391845703
49;1673370518.9959562;47.1306424;7.2406201;1.9610000848770142;1673370519.1275632;-9.200883865356445;2.2706587314605713;90.10291290283203
50;1673370519.2117202;47.1306425;7.24062;2.1590001583099365;1673370519.3408127;-9.249731063842773;-1.9639198780059814;90.76647186279297
51;1673370519.4255493;47.1306425;7.24062;2.3610000610351562;1673370519.554975;-9.369420051574707;-1.9582091569900513;90.76972198486328
52;1673370519.6353986;47.1306425;7.24062;2.562000036239624;1673370519.7721527;-9.401388168334961;1.9260767698287964;90.27464294433594
53;1673370519.8561115;47.1306424;7.2406198999999996;2.760000228881836;1673370519.9960396;-9.616735458374023;-1.555289387702942;91.00881958007812
54;1673370520.0893154;47.1306423;7.2406198999999996;2.957000255584717;1673370520.2149005;-9.761411666870117;-3.645676374435425;91.40418243408203
55;1673370520.2927027;47.1306422;7.2406198999999996;3.1590001583099365;1673370520.4260552;-9.508703231811523;1.33405339717865;90.58889770507812
56;1673370520.5107634;47.1306423;7.2406198999999996;3.3630001544952393;1673370520.6022716;-9.584728240966797;-0.05329503118991852;90.847900390625
57;1673370520.6709108;47.1306424;7.24062;3.563000202178955;1673370520.8078837;-9.710052490234375;-2.903441905975342;91.31396484375
58;1673370520.8905861;47.1306425;7.24062;3.765000104904175;1673370520.9818223;-9.572548866271973;1.2165594100952148;90.79549407958984
59;1673370521.0433154;47.1306425;7.24062;3.9640002250671387;1673370521.150297;-9.483552932739258;0.9413982033729553;90.5251235961914
60;1673370521.2191646;47.1306424;7.2406201;4.160000324249268;1673370521.3335404;-9.238204956054688;-3.8525381088256836;91.42708587646484
61;1673370521.4162252;47.1306423;7.2406201999999995;4.357000350952148;1673370521.5542986;-9.133512496948242;-1.619196891784668;90.76895904541016
62;1673370521.638904;47.1306422;7.2406203;4.560000419616699;1673370521.7984924;-9.051347732543945;1.7980115413665771;90.34783935546875
63;1673370521.8688018;47.1306424;7.2406204;4.766000270843506;1673370522.0114803;-8.997918128967285;-2.626457691192627;91.19862365722656
64;1673370522.0749223;47.1306424;7.2406204999999995;4.9730000495910645;1673370522.2127202;-8.975050926208496;-1.0401575565338135;91.08772277832031
65;1673370522.3012307;47.1306424;7.2406204999999995;5.176000118255615;1673370522.426262;-9.068127632141113;2.0114285945892334;90.5037612915039
66;1673370522.505004;47.1306424;7.2406204999999995;5.380000114440918;1673370522.6060836;-9.324689865112305;-2.5807833671569824;91.1497573852539
67;1673370522.704213;47.1306423;7.2406204;5.582000255584717;1673370522.81537;-9.538772583007812;-2.3194680213928223;91.373046875
68;1673370522.880805;47.1306423;7.2406203;5.785000324249268;1673370523.000223;-9.579930305480957;2.5595240592956543;90.55335998535156
69;1673370523.0695267;47.1306425;7.2406203;5.988000392913818;1673370523.19088;-9.65318775177002;-1.025204062461853;91.09403228759766
70;1673370523.2724154;47.130642599999995;7.2406201999999995;6.191000461578369;1673370523.3943615;-9.666257858276367;-2.6554017066955566;91.35095977783203
71;1673370523.4962993;47.1306425;7.2406201999999995;6.396000385284424;1673370523.5975232;-9.611499786376953;2.004748582839966;90.53479766845703
72;1673370523.658036;47.1306424;7.2406201999999995;6.598000526428223;1673370523.7748;-9.574981689453125;-0.47895994782447815;90.86426544189453
73;1673370523.8507857;47.1306423;7.2406201999999995;6.797000408172607;1673370523.9544349;-9.52047348022461;-3.8603782653808594;91.1423568725586
74;1673370524.0242722;47.1306422;7.2406203;6.997000217437744;1673370524.1417594;-9.642313957214355;0.7422493696212769;90.67438507080078
75;1673370524.2213356;47.1306422;7.2406203;7.196000576019287;1673370524.3582761;-9.526774406433105;0.4230627119541168;90.59916687011719
76;1673370524.4300764;47.1306423;7.2406203;7.395000457763672;1673370524.5508103;-9.386119842529297;-3.5686092376708984;91.37202453613281
77;1673370524.6393907;47.1306423;7.2406203;7.592000484466553;1673370524.771397;-9.626707077026367;0.6495886445045471;90.6212387084961
78;1673370524.8422337;47.1306423;7.2406204;7.7900004386901855;1673370524.982663;-9.413554191589355;1.266547441482544;90.617431640625
79;1673370525.0633218;47.1306424;7.2406204;7.992000579833984;1673370525.174841;-9.448529243469238;-3.5649173259735107;91.5084457397461
80;1673370525.2419167;47.1306424;7.2406204;8.194000244140625;1673370525.3635547;-9.351198196411133;-0.8250855207443237;90.91764068603516
81;1673370525.4418015;47.1306424;7.2406204;8.40000057220459;1673370525.567944;-9.522624015808105;2.373514175415039;90.54811096191406
82;1673370525.6496587;47.1306425;7.2406204;8.605000495910645;1673370525.775251;-9.642483711242676;-2.56284761428833;91.22274017333984
83;1673370525.8538778;47.1306425;7.2406204;8.807000160217285;1673370525.9649608;-9.60644817352295;-1.3700687885284424;91.15303802490234
84;1673370526.0416245;47.1306424;7.2406204;9.006000518798828;1673370526.1565828;-9.494623184204102;1.9922164678573608;90.41351318359375
85;1673370526.234413;47.1306423;7.2406204;9.206000328063965;1673370526.3626466;-9.672809600830078;-2.845486640930176;91.27393341064453
86;1673370526.446315;47.1306423;7.2406204;9.404000282287598;1673370526.6045125;-9.463459968566895;-2.4846808910369873;91.26044464111328
87;1673370526.6838856;47.1306422;7.2406204999999995;9.60300064086914;1673370526.823548;-9.585213661193848;2.035578966140747;90.4897232055664
88;1673370526.8926685;47.1306423;7.2406204999999995;9.804000854492188;1673370527.0336967;-9.468116760253906;-1.3799984455108643;91.06156158447266
89;1673370527.1012774;47.1306424;7.2406206;10.004000663757324;1673370527.2111933;-9.397282600402832;-2.9915552139282227;91.29545593261719
90;1673370527.3045516;47.1306423;7.2406207;10.209000587463379;1673370527.411563;-9.46857738494873;0.9726002216339111;90.63758850097656
91;1673370527.4823449;47.1306423;7.240620799999999;10.493000030517578;1673370527.5939956;-11.022905349731445;0.8286195397377014;90.62798309326172
92;1673370527.667187;47.1306424;7.240621099999999;10.850000381469727;1673370527.7899854;-9.817764282226562;-3.0891671180725098;91.2583999633789
93;1673370527.8697438;47.1306424;7.2406215;11.231000900268555;1673370527.9918144;-8.8713960647583;-1.7165402173995972;91.09749603271484
94;1673370528.061113;47.1306424;7.2406219;11.624000549316406;1673370528.1887848;-8.366985321044922;2.51051664352417;90.42093658447266
95;1673370528.2607567;47.1306425;7.2406222;12.023000717163086;1673370528.3836021;-7.670671463012695;-1.8818758726119995;91.0489273071289
96;1673370528.460303;47.1306425;7.2406223999999995;12.42400074005127;1673370528.5859165;-7.765201568603516;-1.8605905771255493;91.11927795410156
97;1673370528.6530335;47.1306424;7.2406223999999995;12.822000503540039;1673370528.7567406;-7.78215217590332;2.070823907852173;90.53719329833984
98;1673370528.8295076;47.1306423;7.2406223;13.219000816345215;1673370528.9431705;-8.352656364440918;-1.7250841856002808;90.96141052246094
99;1673370529.0345476;47.1306422;7.2406220999999995;13.61400032043457;1673370529.1817305;-8.599512100219727;-3.417752265930176;91.2210464477539
100;1673370529.2590988;47.130642099999996;7.2406217999999996;14.011000633239746;1673370529.364531;-8.963781356811523;1.3640081882476807;90.69512939453125
101;1673370529.4337451;47.1306422;7.2406216;14.407000541687012;1673370529.5465753;-9.37798023223877;-0.379306823015213;90.97030639648438
102;1673370529.616555;47.1306423;7.240621399999999;14.79900074005127;1673370529.7362237;-9.491681098937988;-3.3835830688476562;91.42829132080078
103;1673370529.8081846;47.1306423;7.2406212;15.18600082397461;1673370529.9502609;-9.55685806274414;1.0045937299728394;90.71055603027344
104;1673370530.0357282;47.1306423;7.240621099999999;15.571001052856445;1673370530.1614966;-9.532682418823242;0.8663325309753418;90.6730728149414
105;1673370530.2377393;47.1306423;7.240621;15.954000473022461;1673370530.3718786;-9.912945747375488;-3.372506856918335;91.26667022705078
106;1673370530.4490418;47.1306424;7.2406209;16.338001251220703;1673370530.579649;-9.617114067077637;0.10197008401155472;90.8834228515625
107;1673370530.6621912;47.1306424;7.240621;16.725000381469727;1673370530.7909162;-9.530399322509766;2.1208012104034424;90.61164855957031
108;1673370530.8744857;47.130642599999995;7.240621;17.113000869750977;1673370531.0007868;-9.240442276000977;-2.3756728172302246;91.30220031738281
109;1673370531.0663302;47.130642599999995;7.240621099999999;17.50200080871582;1673370531.2071228;-9.192730903625488;-1.3320904970169067;91.1698226928711
110;1673370531.3032167;47.130642599999995;7.240621099999999;17.892000198364258;1673370531.4305792;-8.832061767578125;2.1822595596313477;90.44840240478516
111;1673370531.4952612;47.1306425;7.240621099999999;18.285001754760742;1673370531.6066904;-9.17054557800293;-2.0655884742736816;91.08484649658203
112;1673370531.6740773;47.1306424;7.240621099999999;18.671001434326172;1673370531.7928953;-8.948740005493164;-2.6737918853759766;91.11466217041016
113;1673370531.8578923;47.1306424;7.2406212;19.05500030517578;1673370531.9689386;-9.194279670715332;1.8905458450317383;90.4703369140625
114;1673370532.0417316;47.1306425;7.240621099999999;19.444000244140625;1673370532.184341;-8.94092845916748;-0.5670451521873474;90.90130615234375
115;1673370532.266023;47.130642599999995;7.240621099999999;19.83500099182129;1673370532.3964381;-9.104242324829102;-3.0132791996002197;91.4073715209961
116;1673370532.4845183;47.1306425;7.240621099999999;20.23000144958496;1673370532.5836296;-9.117891311645508;1.1780800819396973;90.55699920654297
117;1673370532.6546001;47.1306425;7.240621;20.623001098632812;1673370532.8035088;-9.162969589233398;1.0500797033309937;90.7741928100586
118;1673370532.8767495;47.130642599999995;7.240621;21.01300048828125;1673370532.9909341;-9.164008140563965;-3.1482994556427;91.34734344482422
119;1673370533.0687344;47.130642599999995;7.2406209;21.402000427246094;1673370533.1752977;-9.329367637634277;0.1637280285358429;91.10455322265625
120;1673370533.2537324;47.130642699999996;7.240620799999999;21.793001174926758;1673370533.4038484;-9.265731811523438;2.078077793121338;90.60379791259766
121;1673370533.4793868;47.1306428;7.2406207;22.183000564575195;1673370533.58796;-9.461326599121094;-2.394334316253662;91.17897033691406
122;1673370533.669363;47.1306428;7.2406206;22.575000762939453;1673370533.8041472;-9.48677921295166;-1.0575617551803589;90.97965240478516
123;1673370533.8815663;47.130642699999996;7.2406206;22.96500015258789;1673370534.009887;-9.373605728149414;1.9723743200302124;90.49425506591797
124;1673370534.081288;47.130642599999995;7.2406204999999995;23.352001190185547;1673370534.1894958;-9.527487754821777;-1.8995115756988525;91.0267333984375
125;1673370534.2620425;47.1306425;7.2406204999999995;23.73400115966797;1673370534.3811975;-9.381625175476074;-2.8747074604034424;91.24589538574219
126;1673370534.4559839;47.1306424;7.2406204;24.121000289916992;1673370534.590667;-9.32456111907959;1.7639983892440796;90.62154388427734
127;1673370534.6650455;47.1306425;7.2406204;24.51300048828125;1673370534.783677;-9.230003356933594;-0.3721368908882141;90.96508026123047
128;1673370534.8564358;47.1306425;7.2406204;24.906002044677734;1673370534.9838514;-9.53756332397461;-2.9420299530029297;91.37220001220703
129;1673370535.0644655;47.1306425;7.2406204;25.301000595092773;1673370535.1854327;-9.39808177947998;1.1206024885177612;90.58625793457031
130;1673370535.2632244;47.1306425;7.2406204;25.696001052856445;1673370535.3853667;-9.324121475219727;0.9045701622962952;90.65933990478516
131;1673370535.4562433;47.1306425;7.2406204;26.090002059936523;1673370535.596478;-9.158598899841309;-3.0904691219329834;91.3012924194336
132;1673370535.6698916;47.1306425;7.2406203;26.479001998901367;1673370535.7991915;-9.506551742553711;-0.1676555871963501;90.86298370361328
133;1673370535.8626962;47.130642599999995;7.2406203;26.874000549316406;1673370536.0236263;-9.535667419433594;2.159058094024658;90.4766616821289
134;1673370536.1052997;47.130642699999996;7.2406203;27.272001266479492;1673370536.2365115;-9.518592834472656;-1.7783689498901367;91.18425750732422
135;1673370536.3094242;47.130642699999996;7.2406203;27.671001434326172;1673370536.4126635;-9.246395111083984;-1.0350315570831299;91.15855407714844
136;1673370536.4800353;47.130642599999995;7.2406203;28.067001342773438;1673370536.5802276;-9.253959655761719;2.31254243850708;90.48240661621094
137;1673370536.6492865;47.1306425;7.2406204;28.459001541137695;1673370536.7632146;-9.105876922607422;-1.004592776298523;91.02662658691406
138;1673370536.839656;47.1306424;7.2406204;28.84800148010254;1673370536.9591298;-9.24189567565918;-2.908703327178955;91.13793182373047
139;1673370537.037942;47.1306423;7.2406204;29.239002227783203;1673370537.1763303;-9.507357597351074;1.512837529182434;90.45237731933594
140;1673370537.2570846;47.1306424;7.2406203;29.630001068115234;1673370537.3830276;-9.237103462219238;0.07636699080467224;90.74093627929688
141;1673370537.4628403;47.1306425;7.2406203;30.022001266479492;1673370537.5905445;-9.303794860839844;-3.136110305786133;91.40584564208984
142;1673370537.6672304;47.1306424;7.2406203;30.418001174926758;1673370537.7907577;-9.328865051269531;0.8140484094619751;90.80564880371094
143;1673370537.8676329;47.1306424;7.2406203;30.81300163269043;1673370537.9836564;-9.623598098754883;1.2215490341186523;90.7349624633789
144;1673370538.0628822;47.1306424;7.2406203;31.207000732421875;1673370538.1842425;-9.506819725036621;-2.9990596771240234;91.46649932861328
145;1673370538.2798429;47.1306424;7.2406203;31.601001739501953;1673370538.4072764;-9.426300048828125;-0.1776670664548874;90.921142578125
146;1673370538.4796872;47.1306425;7.2406204;31.998001098632812;1673370538.5959308;-9.187882423400879;2.103684663772583;90.41891479492188
147;1673370538.666788;47.130642599999995;7.2406204;32.39800262451172;1673370538.7913387;-9.398784637451172;-1.5172877311706543;90.9768295288086
148;1673370538.8709764;47.130642599999995;7.2406204;32.79899978637695;1673370538.988138;-9.297557830810547;-2.029986619949341;91.1733169555664
149;1673370539.0664995;47.1306425;7.2406204;33.198001861572266;1673370539.1962569;-9.403264045715332;2.3608813285827637;90.444091796875
150;1673370539.2887886;47.1306424;7.2406204;33.59300231933594;1673370539.4074304;-9.179194450378418;-1.5060741901397705;90.99300384521484
151;1673370539.4871168;47.1306423;7.2406204;33.98500061035156;1673370539.609038;-9.24654483795166;-3.3598780632019043;91.25780487060547
152;1673370539.689108;47.1306423;7.2406204;34.38300323486328;1673370539.8152843;-9.283195495605469;1.3090072870254517;90.767578125
153;1673370539.9016135;47.1306423;7.2406204;34.78300094604492;1673370540.0124862;-9.43173885345459;0.29123955965042114;90.85306549072266
154;1673370540.0849075;47.1306425;7.2406204;35.182003021240234;1673370540.1880023;-9.366399765014648;-3.186593770980835;91.40245819091797
155;1673370540.263828;47.1306425;7.2406204;35.58100128173828;1673370540.378577;-9.293593406677246;1.0232235193252563;90.72476959228516
156;1673370540.4484446;47.1306425;7.2406204;35.97800064086914;1673370540.5632722;-9.317262649536133;1.6239880323410034;90.61540222167969
157;1673370540.6370828;47.130642599999995;7.2406204;36.37300109863281;1673370540.7642975;-9.352593421936035;-2.6880667209625244;91.13963317871094
158;1673370540.8438983;47.130642599999995;7.2406203;36.76100158691406;1673370540.97829;-9.369987487792969;-0.8099245429039001;91.01123809814453
159;1673370541.0629406;47.130642599999995;7.2406203;37.150001525878906;1673370541.187689;-9.457501411437988;2.6758294105529785;90.45445251464844
160;1673370541.2678518;47.1306428;7.2406203;37.54100036621094;1673370541.4004061;-9.360889434814453;-1.1495550870895386;91.02001953125
161;1673370541.4907858;47.1306429;7.2406203;37.93600082397461;1673370541.5928354;-9.539300918579102;-1.6960736513137817;91.22936248779297
162;1673370541.6578038;47.1306428;7.2406203;38.332000732421875;1673370541.779628;-9.471026420593262;2.501992702484131;90.48584747314453
163;1673370541.85827;47.1306428;7.2406203;38.720001220703125;1673370541.9955678;-9.381765365600586;-0.31137898564338684;90.8960189819336
164;1673370542.082027;47.130642699999996;7.2406203;39.10700225830078;1673370542.193899;-9.430828094482422;-2.889002561569214;91.32870483398438
165;1673370542.2605612;47.1306425;7.2406203;39.49700164794922;1673370542.3765037;-9.215400695800781;0.7888514995574951;90.77112579345703
166;1673370542.4542072;47.130642599999995;7.2406203;39.8900032043457;1673370542.587969;-9.319197654724121;0.9807552695274353;90.6265640258789
167;1673370542.661242;47.130642699999996;7.2406203;40.28600311279297;1673370542.7824428;-9.253766059875488;-2.7627198696136475;91.43228912353516
168;1673370542.8626251;47.130642699999996;7.2406203;40.68400192260742;1673370542.9765441;-9.400176048278809;0.008501201868057251;90.92549133300781
169;1673370543.0484076;47.130642599999995;7.2406201999999995;41.079002380371094;1673370543.161319;-9.374807357788086;1.932206630706787;90.59246826171875
170;1673370543.2342734;47.130642599999995;7.2406201999999995;41.470001220703125;1673370543.4037342;-9.481914520263672;-2.7589874267578125;91.11727905273438
171;1673370543.5319233;47.1306425;7.2406201;41.85900115966797;1673370543.6571233;-9.545037269592285;-1.367929220199585;91.1371078491211
172;1673370543.7663178;47.1306425;7.2406201;42.255001068115234;1673370543.892916;-9.507789611816406;2.50956392288208;90.38090515136719
173;1673370543.9500988;47.130642599999995;7.2406201;42.652000427246094;1673370544.0709615;-9.499387741088867;-1.1756492853164673;91.0694808959961
174;1673370544.1526136;47.130642699999996;7.24062;43.051002502441406;1673370544.2527504;-9.309374809265137;-2.175062894821167;91.2159194946289
175;1673370544.317209;47.130642699999996;7.24062;43.448001861572266;1673370544.4315577;-9.483951568603516;2.239534616470337;90.55146026611328
176;1673370544.5000327;47.130642699999996;7.24062;43.8390007019043;1673370544.613613;-9.409045219421387;-0.2954450249671936;90.91339111328125
177;1673370544.6942184;47.130642599999995;7.24062;44.22700119018555;1673370544.8224103;-9.449037551879883;-3.1517937183380127;91.42710876464844
178;1673370544.8909557;47.1306425;7.24062;44.61900329589844;1673370545.0116742;-9.524208068847656;1.3376344442367554;90.76265716552734
179;1673370545.0840385;47.130642599999995;7.24062;45.01300048828125;1673370545.190669;-9.398646354675293;0.947876513004303;90.70571899414062
180;1673370545.2651746;47.130642599999995;7.24062;45.40500259399414;1673370545.3842921;-9.358757972717285;-2.9991261959075928;91.41889190673828
181;1673370545.4776332;47.130642699999996;7.24062;45.797000885009766;1673370545.594319;-9.603914260864258;0.06752192229032516;90.76610565185547
182;1673370545.6612256;47.130642699999996;7.24062;46.19300079345703;1673370545.7743099;-9.447829246520996;2.2141530513763428;90.54081726074219
183;1673370545.8573496;47.130642699999996;7.24062;46.5890007019043;1673370545.982885;-9.562634468078613;-2.862347364425659;91.2225570678711
184;1673370546.060619;47.130642699999996;7.24062;46.980003356933594;1673370546.2147589;-9.440869331359863;-0.729215145111084;91.03229522705078
185;1673370546.2809396;47.130642699999996;7.24062;47.37300109863281;1673370546.409664;-9.493319511413574;2.924522876739502;90.39205932617188
186;1673370546.5063486;47.1306428;7.24062;47.7660026550293;1673370546.6397748;-9.5116548538208;-2.2200896739959717;91.24778747558594
187;1673370546.7061896;47.1306429;7.2406198999999996;48.14900207519531;1673370546.8245323;-9.830249786376953;0.20584599673748016;90.87651062011719
188;1673370546.8919582;47.1306428;7.2406198999999996;48.4900016784668;1673370547.0139136;-9.735475540161133;2.322327136993408;90.78743743896484
189;1673370547.0882952;47.130642699999996;7.240619799999999;48.78000259399414;1673370547.2084613;-9.767014503479004;-2.476093292236328;91.11518859863281
190;1673370547.2855654;47.130642599999995;7.2406196;49.0160026550293;1673370547.4035072;-10.155357360839844;-1.05325186252594;90.96630096435547
191;1673370547.5443735;47.1306425;7.240619499999999;49.215003967285156;1673370547.6501057;-9.634384155273438;2.027637243270874;90.3245620727539
192;1673370547.717524;47.1306425;7.2406193;49.37700271606445;1673370547.828893;9.107675552368164;-9.336309432983398;85.41842651367188
193;1673370547.9021258;47.130642699999996;7.2406184;49.5150032043457;1673370547.996511;26.170040130615234;-25.163433074951172;71.77655029296875
194;1673370548.0703256;47.1306435;7.2406153;49.63200378417969;1673370548.202972;17.901676177978516;-28.846759796142578;65.65773010253906
195;1673370548.2856483;47.130645099999995;7.2406090999999995;49.72500228881836;1673370548.4089994;3.2105374336242676;-32.78693389892578;56.312923431396484
196;1673370548.4849498;47.130647599999996;7.240600499999999;49.80800247192383;1673370548.5947716;-9.04885482788086;-25.22365379333496;45.32258224487305
197;1673370548.6746259;47.130651199999996;7.240590699999999;49.87000274658203;1673370548.7948165;-18.44507598876953;-36.89568328857422;34.2425537109375
198;1673370548.877381;47.130655999999995;7.2405797;49.92100143432617;1673370548.9961083;-33.39350509643555;-41.486778259277344;24.430614471435547
199;1673370549.0728643;47.1306625;7.2405668;49.958003997802734;1673370549.1957135;-45.33015441894531;-40.720924377441406;13.586791038513184
200;1673370549.2722862;47.130671299999996;7.2405513;49.987003326416016;1673370549.395317;-51.99905776977539;-38.5136604309082;2.5371522903442383
201;1673370549.4661582;47.1306823;7.2405325;49.999000549316406;1673370549.5916455;-56.839385986328125;-31.61037254333496;-8.708220481872559
202;1673370549.6735146;47.1306953;7.2405101;49.98500061035156;1673370549.7970102;-54.15228271484375;-21.98524284362793;-17.987451553344727
203;1673370549.8776581;47.1307098;7.240484899999999;49.952003479003906;1673370550.004163;-53.5300407409668;-13.140667915344238;-25.47260284423828
204;1673370550.0819347;47.130725399999996;7.2404575;49.90400314331055;1673370550.2303734;-53.667850494384766;-7.703003883361816;-31.755521774291992
205;1673370550.2998238;47.130742;7.2404285999999995;49.855003356933594;1673370550.425351;-50.74256134033203;-3.1457393169403076;-38.28914260864258
206;1673370550.5022442;47.1307593;7.2403987;49.798004150390625;1673370550.6230145;-48.814720153808594;2.180969715118408;-45.452938079833984
207;1673370550.6987016;47.130777099999996;7.2403680999999995;49.73800277709961;1673370550.8174477;-45.441471099853516;8.165923118591309;-51.25587463378906
208;1673370550.8843877;47.1307951;7.2403371;49.695003509521484;1673370550.9991848;-44.75035095214844;11.088098526000977;-50.41233825683594
209;1673370551.0810058;47.1308134;7.240306299999999;49.676002502441406;1673370551.2008288;-47.90220642089844;11.136374473571777;-47.64902114868164
210;1673370551.2816796;47.130832;7.2402758;49.676002502441406;1673370551.4086535;-49.19211196899414;9.12405776977539;-45.71592712402344
211;1673370551.4864097;47.130851299999996;7.2402454;49.68000411987305;1673370551.5892422;-49.05400848388672;6.867785453796387;-44.55210876464844
212;1673370551.6620574;47.1308709;7.240215;49.67900085449219;1673370551.7857783;-48.72085952758789;5.361487865447998;-44.2553596496582
213;1673370551.8571167;47.1308909;7.2401845;49.68100357055664;1673370551.9787207;-47.803157806396484;4.616048812866211;-44.30156707763672
214;1673370552.0526962;47.1309111;7.2401541;49.68700408935547;1673370552.1770046;-47.58026885986328;4.430423259735107;-44.543758392333984
215;1673370552.275482;47.1309312;7.240123499999999;49.69300079345703;1673370552.402769;-47.61042022705078;4.519476413726807;-44.765193939208984
216;1673370552.471648;47.1309514;7.240093;49.70100402832031;1673370552.592565;-43.48075485229492;3.6587307453155518;-44.47551727294922
217;1673370552.6723127;47.1309715;7.2400625;49.60700225830078;1673370552.806605;-16.608999252319336;0.07929867506027222;-43.428993225097656
218;1673370552.87653;47.1309913;7.240032299999999;49.173004150390625;1673370552.9956288;35.143611907958984;-6.518582344055176;-45.72502517700195
219;1673370553.0803106;47.1310108;7.2400024;48.35600280761719;1673370553.204624;79.96250915527344;-138.05758666992188;-174.64076232910156
220;1673370553.2765093;47.1310304;7.2399724999999995;47.13900375366211;1673370553.3985512;34.923519134521484;-177.10008239746094;147.05360412597656
221;1673370553.4776196;47.131049999999995;7.239942699999999;45.573001861572266;1673370553.608641;15.177675247192383;-179.7240753173828;141.80755615234375
222;1673370553.6808817;47.1310692;7.2399132999999996;43.63800048828125;1673370553.8004405;23.85036277770996;-179.3710174560547;140.58230590820312
223;1673370553.874642;47.131088;7.239884399999999;41.31800079345703;1673370553.991725;63.42291259765625;-177.26634216308594;142.07069396972656
224;1673370554.0636473;47.1311065;7.2398558;38.650001525878906;1673370554.1846237;50.039093017578125;-2.722412109375;-45.014381408691406
225;1673370554.26153;47.1311251;7.239827099999999;35.63500213623047;1673370554.3864436;-21.448041915893555;2.3043556213378906;-43.31249237060547
226;1673370554.467499;47.1311435;7.2397985;32.217002868652344;1673370554.597746;-63.06258773803711;2.0521128177642822;-41.12713623046875
227;1673370554.680474;47.1311615;7.239770399999999;28.44700050354004;1673370554.804708;-63.38515090942383;-0.8071794509887695;-37.34757995605469
228;1673370554.8758655;47.1311792;7.2397427;24.352001190185547;1673370555.0045538;-20.783205032348633;-0.8097153306007385;-36.91312789916992
229;1673370555.0776756;47.131196499999994;7.2397154;19.910001754760742;1673370555.1968348;51.82577896118164;-0.039007652550935745;-34.92908477783203
230;1673370555.3128715;47.131213699999996;7.2396883;15.06100082397461;1673370555.4217155;75.18183898925781;168.7836151123047;133.43331909179688
231;1673370555.4955692;47.1312311;7.239661;9.87600040435791;1673370555.626543;72.32339477539062;166.38348388671875;130.64468383789062
232;1673370555.6995044;47.131248199999995;7.239633899999999;4.398000240325928;1673370555.825488;57.82010269165039;8.9531831741333;-26.62811279296875
233;1673370555.8966177;47.131263999999994;7.2396135;0.3190000057220459;1673370556.0195699;-44.75972366333008;4.2851104736328125;-49.20568084716797
234;1673370556.0864055;47.1312673;7.2396201;0.8640000224113464;1673370556.2194648;-78.30078887939453;62.866519927978516;-132.61521911621094
235;1673370556.2914617;47.131267;7.239628799999999;1.100000023841858;1673370556.4136229;-71.42132568359375;148.33865356445312;132.40936279296875
236;1673370556.4928362;47.131265899999995;7.239637699999999;1.2970000505447388;1673370556.6239238;-60.4061279296875;161.095458984375;118.82148742675781
237;1673370556.7075055;47.1312649;7.2396452;1.349000096321106;1673370556.8295562;-38.68434524536133;168.73016357421875;109.67753601074219
238;1673370556.9015532;47.1312639;7.2396499;1.25600004196167;1673370557.0225418;4.869788646697998;171.44468688964844;102.43402862548828
239;1673370557.092586;47.131263;7.239653;1.1120001077651978;1673370557.2195392;5.301666259765625;171.55772399902344;102.68587493896484
240;1673370557.3015785;47.1312626;7.2396552;1.1410000324249268;1673370557.4336004;5.622010707855225;171.72459411621094;102.90950012207031
241;1673370557.5087767;47.131262799999995;7.2396562;1.1740000247955322;1673370557.6217458;5.778183937072754;171.78970336914062;102.88761138916016
242;1673370557.6976197;47.1312612;7.2396505;1.2760000228881836;1673370557.8156464;7.095541954040527;172.64376831054688;104.21366119384766
243;1673370557.8826466;47.1312579;7.2396362;1.3930000066757202;1673370557.998029;7.51831579208374;172.83160400390625;104.40213775634766
244;1673370558.0828338;47.1312563;7.2396252;1.4510000944137573;1673370558.2015884;7.674008369445801;172.9562530517578;104.38814544677734
245;1673370558.280392;47.1312559;7.2396177999999995;1.4520000219345093;1673370558.4086168;7.811561584472656;173.11163330078125;104.34754180908203
246;1673370558.4896097;47.131256099999995;7.2396129;1.4160000085830688;1673370558.6174848;7.873080253601074;173.2404327392578;104.32258605957031
247;1673370558.6977036;47.1312566;7.239609799999999;1.3610000610351562;1673370558.8186345;7.944007396697998;173.39625549316406;104.27214050292969
248;1673370558.8994598;47.1312575;7.239607599999999;1.311000108718872;1673370559.0184865;8.143970489501953;173.42942810058594;104.19224548339844
249;1673370559.095659;47.1312589;7.2396059;1.28000009059906;1673370559.2115433;8.131635665893555;173.58050537109375;104.15200805664062
250;1673370559.283665;47.131259799999995;7.2396047999999995;1.2200000286102295;1673370559.4111032;8.095876693725586;173.754150390625;104.0822982788086
251;1673370559.4921417;47.131260499999996;7.239604099999999;1.1500000953674316;1673370559.6109953;8.132973670959473;173.91845703125;104.03089141845703
252;1673370559.6877022;47.1312612;7.2396036;1.0820000171661377;1673370559.8066993;8.14045238494873;174.03323364257812;103.97052764892578
253;1673370559.8841317;47.1312619;7.239603;1.0260000228881836;1673370560.0166311;8.13536548614502;174.14849853515625;103.91046142578125
254;1673370560.0933847;47.131262799999995;7.239602199999999;0.9830000400543213;1673370560.2208843;8.253450393676758;174.1586151123047;103.84538269042969
255;1673370560.2944717;47.131263999999994;7.239600899999999;0.9630000591278076;1673370560.4210484;8.263286590576172;174.26702880859375;103.80143737792969
256;1673370560.490891;47.131264699999996;7.2396004;0.940000057220459;1673370560.6065896;8.28248119354248;174.3817901611328;103.77242279052734
257;1673370560.686179;47.1312651;7.2396001;0.9180000424385071;1673370560.8196054;8.323270797729492;174.45896911621094;103.73762512207031
258;1673370560.9041133;47.1312654;7.239599999999999;0.9020000696182251;1673370561.0252821;8.36594009399414;174.50204467773438;103.70655059814453
259;1673370561.1004992;47.1312658;7.2395999;0.8890000581741333;1673370561.2271762;8.380803108215332;174.56236267089844;103.66487121582031
260;1673370561.308438;47.1312662;7.2395998;0.8800000548362732;1673370561.417393;8.40605354309082;174.60855102539062;103.62228393554688
261;1673370561.4872975;47.1312668;7.2395992;0.8770000338554382;1673370561.601856;8.49765396118164;174.6875762939453;103.55547332763672
262;1673370561.678039;47.131267799999996;7.239598;0.878000020980835;1673370561.7960095;8.554314613342285;174.73609924316406;103.51808166503906
263;1673370561.872578;47.131268299999995;7.2395974999999995;0.8760000467300415;1673370561.9952831;8.585214614868164;174.76541137695312;103.47250366210938
264;1673370562.0755064;47.1312686;7.2395971999999995;0.8760000467300415;1673370562.202601;8.659272193908691;174.7958526611328;103.42649841308594
265;1673370562.2854662;47.1312688;7.239597;0.8750000596046448;1673370562.4119632;8.753750801086426;174.82818603515625;103.383544921875
266;1673370562.4896839;47.1312691;7.2395969;0.8760000467300415;1673370562.6094775;8.777620315551758;174.86668395996094;103.33683776855469
267;1673370562.7243812;47.131269499999995;7.2395963;0.8720000386238098;1673370562.8382714;8.885031700134277;174.85118103027344;103.28160858154297
268;1673370562.904243;47.1312704;7.2395951;0.0;1673370563.052321;8.43658447265625;175.02728271484375;103.28019714355469
269;1673370563.1307433;47.131263399999995;7.239608;0.8010000586509705;;;;
