;pos_time;latitude;longitude;altitude;alt_time;pitch;roll;yaw
0;1673370736.0596187;47.1306424;7.2406197;-0.02500000037252903;1673370736.2270792;0.138979971408844;-0.14066526293754578;90.2010269165039
1;1673370736.269093;47.1306424;7.2406197;-0.02500000037252903;1673370736.4320705;0.30712783336639404;-0.11294921487569809;90.23170471191406
2;1673370736.469159;47.1306424;7.2406197;-0.024000000208616257;1673370736.619335;-0.007610013242810965;-0.022282756865024567;90.21539306640625
3;1673370736.6654506;47.1306425;7.2406197;-0.024000000208616257;1673370736.8279846;-0.11918961256742477;-0.09775332361459732;90.21635437011719
4;1673370736.8643117;47.1306425;7.2406197;-0.023000001907348633;1673370737.0232284;-0.0648173838853836;-0.1825718730688095;90.41548156738281
5;1673370737.0574222;47.1306425;7.2406196;-0.02200000174343586;1673370737.2241745;0.14739607274532318;0.01759984716773033;90.21178436279297
6;1673370737.2632167;47.1306425;7.240619499999999;-0.024000000208616257;1673370737.4325502;0.22552496194839478;-0.2795874774456024;90.34354400634766
7;1673370737.4688084;47.1306425;7.240619499999999;-0.027000000700354576;1673370737.6364446;0.12421529740095139;-0.13650211691856384;90.45927429199219
8;1673370737.6815124;47.1306425;7.2406194;-0.02800000086426735;1673370737.8428707;0.04479530453681946;-0.024838177487254143;90.23429107666016
9;1673370737.8752367;47.1306425;7.2406194;-0.02800000086426735;1673370738.0356123;0.008798410184681416;-0.19006133079528809;90.2968521118164
10;1673370738.069797;47.1306425;7.240619499999999;-0.02500000037252903;1673370738.2281587;0.07766394317150116;-0.1147000640630722;90.37615966796875
11;1673370738.2712615;47.1306425;7.2406196;-0.017000000923871994;1673370738.4326746;0.16244696080684662;-0.1284477859735489;90.38764190673828
12;1673370738.4718018;47.1306425;7.2406197;-0.015000000596046448;1673370738.640335;0.06590402871370316;-0.06819504499435425;90.29627227783203
13;1673370738.7001708;47.1306424;7.240619799999999;-0.013000000268220901;1673370738.8364518;-0.18430574238300323;-0.13101273775100708;90.36129760742188
14;1673370738.873727;47.1306424;7.2406198999999996;-0.01100000087171793;1673370739.0276513;-0.16579373180866241;-0.09820007532835007;90.36587524414062
15;1673370739.0686433;47.1306424;7.2406198999999996;0.0;1673370739.2321055;-0.2365807741880417;-0.11422738432884216;90.33425903320312
16;1673370739.2673924;47.1306425;7.24062;0.0;1673370739.4356697;-0.2550532817840576;-0.14967182278633118;90.3494873046875
17;1673370739.4708111;47.1306425;7.2406201;0.0010000000474974513;1673370739.6234064;-0.010915430262684822;-0.021320752799510956;90.41239929199219
18;1673370739.6596365;47.1306425;7.24062;0.003000000026077032;1673370739.834146;0.27101147174835205;-0.12898986041545868;90.50745391845703
19;1673370739.8693514;47.1306425;7.24062;0.004000000189989805;1673370740.0411685;0.3202669620513916;-0.2297458052635193;90.43403625488281
20;1673370740.078201;47.1306425;7.24062;0.003000000026077032;1673370740.2450655;0.2685684263706207;0.1019764095544815;90.53507995605469
21;1673370740.2893717;47.1306425;7.2406201;0.0020000000949949026;1673370740.4673934;0.13514405488967896;-0.14322488009929657;90.40522766113281
22;1673370740.5040255;47.1306424;7.2406201;0.0;1673370740.6598454;0.06832399219274521;0.3088444769382477;90.29269409179688
23;1673370740.6889765;47.1306425;7.2406201;0.0;1673370740.8267884;0.43872785568237305;-0.03785823658108711;90.40409088134766
24;1673370740.873141;47.1306425;7.24062;-0.0010000000474974513;1673370741.0593464;0.3279745578765869;0.1568337082862854;90.30492401123047
25;1673370741.092916;47.1306425;7.2406198999999996;-0.003000000026077032;1673370741.249913;0.30818262696266174;-0.32614171504974365;90.5516128540039
26;1673370741.2890072;47.1306425;7.2406198999999996;-0.004000000189989805;1673370741.499071;0.36646437644958496;-0.09133847057819366;90.33197021484375
27;1673370741.5321147;47.1306425;7.2406198999999996;-0.006000000052154064;1673370741.6920528;0.35452428460121155;-0.10051305592060089;90.40544128417969
28;1673370741.7252107;47.1306425;7.24062;-0.006000000052154064;1673370741.9115055;0.9583526253700256;0.08801831305027008;90.38826751708984
29;1673370741.9377728;47.1306425;7.2406198999999996;-0.003000000026077032;1673370742.0766768;2.244474411010742;-0.1111932322382927;90.43211364746094
30;1673370742.1093454;47.1306424;7.2406198999999996;0.004000000189989805;1673370742.283056;3.9611287117004395;-0.127423495054245;90.23332977294922
31;1673370742.3173318;47.1306424;7.2406198999999996;0.013000000268220901;1673370742.4812677;0.46790918707847595;0.19306565821170807;88.32586669921875
32;1673370742.5204964;47.1306425;7.240619499999999;0.007000000216066837;1673370742.6716921;-3.864713430404663;-0.6106930375099182;86.98822784423828
33;1673370742.7109334;47.1306425;7.2406182999999995;0.01100000087171793;1673370742.8640304;-11.148113250732422;-0.6818497180938721;87.56710815429688
34;1673370742.9020643;47.1306425;7.2406166;0.024000000208616257;1673370743.0630708;-14.19363021850586;-1.579116702079773;88.97126770019531
35;1673370743.0984328;47.1306424;7.2406144999999995;0.05300000309944153;1673370743.271509;-14.881439208984375;1.772371530532837;88.5975341796875
36;1673370743.3172321;47.1306423;7.240612199999999;0.10300000756978989;1673370743.5293276;-16.445213317871094;0.9057219624519348;88.88422393798828
37;1673370743.5539758;47.130642099999996;7.2406098;0.1680000126361847;1673370743.7171092;-18.433324813842773;-3.2806661128997803;90.06122589111328
38;1673370743.7429678;47.130641999999995;7.2406076;0.2460000067949295;1673370743.8868349;-20.538352966308594;-0.7366266846656799;89.80587768554688
39;1673370743.9190314;47.130641999999995;7.2406057;0.33800002932548523;1673370744.095978;-22.484458923339844;1.8916555643081665;89.39671325683594
40;1673370744.161052;47.130641999999995;7.240604299999999;0.445000022649765;1673370744.3060324;-24.46143341064453;-2.7838737964630127;90.45319366455078
41;1673370744.3428104;47.130641999999995;7.2406033999999995;0.5710000395774841;1673370744.4848917;-26.605941772460938;-2.4538192749023438;90.65982055664062
42;1673370744.5292597;47.1306422;7.2406033;0.7090000510215759;1673370744.675471;-28.607770919799805;1.7722216844558716;89.8651123046875
43;1673370744.7067573;47.1306422;7.240603999999999;0.8580000400543213;1673370744.8456683;-26.806800842285156;-1.5113954544067383;90.59915161132812
44;1673370744.8813517;47.1306423;7.240605599999999;1.0220000743865967;1673370745.0500813;-24.408456802368164;-3.7007012367248535;91.33013153076172
45;1673370745.087903;47.1306423;7.240607799999999;1.1990000009536743;1673370745.247786;-21.509437561035156;1.2039473056793213;90.15556335449219
46;1673370745.2874675;47.1306423;7.2406104;1.3850001096725464;1673370745.4443433;-18.129379272460938;-0.3486504852771759;84.65140533447266
47;1673370745.4820633;47.1306424;7.2406128999999995;1.5800000429153442;1673370745.6449354;-16.125125885009766;-3.1305627822875977;86.9334487915039
48;1673370745.6845696;47.1306425;7.2406152;1.78600013256073;1673370745.8442726;-14.150246620178223;0.6414345502853394;86.83013916015625
49;1673370745.8877528;47.130642599999995;7.240616999999999;1.9930001497268677;1673370746.0812984;-13.661165237426758;1.3099348545074463;87.08251953125
50;1673370746.1154585;47.130642599999995;7.2406182;2.200000047683716;1673370746.2655761;-13.808321952819824;-3.6623523235321045;88.62457275390625
51;1673370746.3012445;47.130642599999995;7.240619;2.4060001373291016;1673370746.447323;-14.82554817199707;0.45640453696250916;87.86642456054688
52;1673370746.4849517;47.130642699999996;7.240619199999999;2.6100001335144043;1673370746.6504447;-15.739665031433105;2.1955034732818604;87.27859497070312
53;1673370746.6872284;47.130642699999996;7.2406191;2.815000057220459;1673370746.8431532;-17.238765716552734;-2.075392961502075;87.92835235595703
54;1673370746.8778818;47.1306429;7.2406188;3.0210001468658447;1673370747.0292;-18.146682739257812;0.7112300992012024;87.524658203125
55;1673370747.0616667;47.1306429;7.2406185;3.2250001430511475;1673370747.2294343;-19.10919189453125;3.0251967906951904;86.6546630859375
56;1673370747.263596;47.1306428;7.2406182;3.431000232696533;1673370747.4344642;-19.508716583251953;-2.079806327819824;87.77814483642578
57;1673370747.470597;47.130642599999995;7.2406181;3.638000249862671;1673370747.6310098;-19.962602615356445;-1.4511618614196777;87.71282196044922
58;1673370747.6700594;47.1306425;7.2406181;3.8400001525878906;1673370747.828536;-19.63885498046875;2.624490737915039;86.8182601928711
59;1673370747.8637056;47.1306424;7.2406182;4.039999961853027;1673370748.0333095;-19.586740493774414;-1.4418131113052368;87.6337661743164
60;1673370748.073333;47.1306423;7.2406182999999995;4.242000102996826;1673370748.2365174;-19.149192810058594;-1.9057002067565918;87.71967315673828
61;1673370748.2761064;47.1306423;7.2406185;4.445000171661377;1673370748.4390519;-19.120454788208008;2.3128204345703125;86.7581787109375
62;1673370748.47865;47.1306422;7.2406188;4.648000240325928;1673370748.6363597;-18.410560607910156;-0.7441199421882629;87.30406951904297
63;1673370748.6779294;47.130641999999995;7.2406191;4.850000381469727;1673370748.8436236;-18.363155364990234;-3.0559287071228027;87.75273895263672
64;1673370748.8803737;47.130641999999995;7.2406194;5.050000190734863;1673370749.0507798;-17.84166717529297;2.3213722705841064;86.64483642578125
65;1673370749.0926251;47.130641999999995;7.2406197;5.246000289916992;1673370749.2709165;-17.8521728515625;0.5920761227607727;87.0224609375
66;1673370749.3090544;47.130642099999996;7.2406198999999996;5.444000244140625;1673370749.4619849;-17.835941314697266;-2.2434661388397217;87.73226928710938
67;1673370749.495841;47.1306422;7.24062;5.645000457763672;1673370749.653686;-18.04295539855957;1.7720917463302612;86.869873046875
68;1673370749.7279134;47.1306423;7.2406201;5.8470001220703125;1673370749.8841946;-17.79150390625;1.9725226163864136;86.6330795288086
69;1673370749.9232297;47.130642099999996;7.2406201;6.048000335693359;1673370750.0914595;-18.290721893310547;-3.2203457355499268;87.76528930664062
70;1673370750.1324537;47.130641999999995;7.2406201;6.249000072479248;1673370750.2777495;-18.329593658447266;1.2853562831878662;86.65949249267578
71;1673370750.3114753;47.130642099999996;7.2406201;6.449000358581543;1673370750.4761734;-18.35567283630371;2.609645128250122;86.40447998046875
72;1673370750.5167413;47.130642099999996;7.24062;6.646000385284424;1673370750.665784;-18.648902893066406;-2.5539705753326416;87.59242248535156
73;1673370750.704394;47.130642099999996;7.24062;6.842000484466553;1673370750.8514214;-18.46489715576172;0.5583779215812683;87.12641906738281
74;1673370750.88736;47.1306422;7.24062;7.039000511169434;1673370751.0462751;-18.8443603515625;3.1626429557800293;86.2780990600586
75;1673370751.0809577;47.130642099999996;7.24062;7.2360005378723145;1673370751.2320168;-18.345903396606445;-2.687709093093872;87.569091796875
76;1673370751.2710612;47.130641999999995;7.24062;7.431000232696533;1673370751.4364612;-18.718557357788086;-0.47726184129714966;87.16109466552734
77;1673370751.4728067;47.130641999999995;7.24062;7.625000476837158;1673370751.6447947;-18.467700958251953;2.5833992958068848;86.51402282714844
78;1673370751.6839004;47.130642099999996;7.24062;7.821000576019287;1673370751.83952;-18.676116943359375;-1.7118613719940186;87.4685287475586
79;1673370751.876661;47.1306422;7.2406201;8.019000053405762;1673370752.032177;-18.418142318725586;-0.9035881757736206;87.54656982421875
80;1673370752.0751832;47.1306422;7.2406201;8.21500015258789;1673370752.2327244;-18.531177520751953;3.2991373538970947;86.51435852050781
81;1673370752.273806;47.1306422;7.2406201999999995;8.409000396728516;1673370752.4383287;-18.273555755615234;-1.2202399969100952;87.27996063232422
82;1673370752.4734845;47.130642099999996;7.2406201999999995;8.604000091552734;1673370752.6441145;-18.65859031677246;-1.6840542554855347;87.68416595458984
83;1673370752.683706;47.1306422;7.2406203;8.79900074005127;1673370752.8315794;-18.312192916870117;2.9224250316619873;86.45804595947266
84;1673370752.8717048;47.1306422;7.2406203;8.994000434875488;1673370753.0554547;-18.41824722290039;-0.3631265461444855;87.2529067993164
85;1673370753.0951638;47.1306423;7.2406203;9.190000534057617;1673370753.2600393;-18.587419509887695;-1.231500267982483;87.5590591430664
86;1673370753.2947497;47.1306424;7.2406203;9.38900089263916;1673370753.4532492;-18.461227416992188;3.120272636413574;86.65384674072266
87;1673370753.4886832;47.1306423;7.2406204;9.587000846862793;1673370753.6707587;-18.285459518432617;0.34622499346733093;86.95350646972656
88;1673370753.7054362;47.1306422;7.2406204999999995;9.782999992370605;1673370753.8524065;-18.327482223510742;-2.8814055919647217;87.8575439453125
89;1673370753.8871074;47.1306422;7.2406204999999995;9.980000495910645;1673370754.0275736;-18.30780601501465;2.878248929977417;86.54873657226562
90;1673370754.0598128;47.1306423;7.2406204999999995;10.177000045776367;1673370754.238983;-19.581687927246094;1.016913890838623;86.9676742553711
91;1673370754.2838812;47.1306423;7.2406206;10.440000534057617;1673370754.470221;-22.944961547851562;-3.1200497150421143;87.93019104003906
92;1673370754.5093083;47.1306423;7.240621099999999;10.785000801086426;1673370754.6565673;-19.741500854492188;0.5202911496162415;87.30693054199219
93;1673370754.6962013;47.1306424;7.240622;11.158000946044922;1673370754.8588996;-17.997182846069336;2.4436068534851074;86.57392883300781
94;1673370754.8917835;47.1306424;7.240622999999999;11.546000480651855;1673370755.0459368;-15.936878204345703;-2.217850685119629;87.59300231933594
95;1673370755.0861065;47.1306424;7.2406238;11.940000534057617;1673370755.2481353;-14.855802536010742;-0.001240151235833764;87.26253509521484
96;1673370755.2908702;47.1306425;7.2406244;12.338000297546387;1673370755.4608252;-14.391139030456543;3.559699773788452;86.59648895263672
97;1673370755.4891765;47.130642699999996;7.240624599999999;12.731000900268555;1673370755.66077;-14.659045219421387;-0.7875460982322693;87.49964141845703
98;1673370755.6974547;47.130642699999996;7.2406244;13.117000579833984;1673370755.8405778;-15.432025909423828;-0.29391488432884216;87.4820556640625
99;1673370755.8727896;47.130642699999996;7.2406239999999995;13.497000694274902;1673370756.0354497;-16.26546859741211;3.425502300262451;86.33295440673828
100;1673370756.0764437;47.130642599999995;7.2406235;13.870000839233398;1673370756.2315915;-17.23988914489746;-1.1114566326141357;87.27791595458984
101;1673370756.2687457;47.1306424;7.2406228;14.237000465393066;1673370756.43447;-18.20118522644043;-2.0521481037139893;87.65901947021484
102;1673370756.4728699;47.1306423;7.2406222;14.60300064086914;1673370756.6446037;-18.763492584228516;2.750947952270508;86.69091796875
103;1673370756.6818767;47.1306423;7.240621699999999;14.9660005569458;1673370756.842601;-19.036958694458008;-0.188574880361557;87.23455047607422
104;1673370756.8768158;47.1306423;7.2406213;15.327000617980957;1673370757.053733;-19.19974708557129;-2.395453453063965;87.8592529296875
105;1673370757.0894377;47.1306423;7.240621099999999;15.691000938415527;1673370757.243178;-19.258438110351562;2.236985683441162;86.82669830322266
106;1673370757.2773774;47.1306422;7.240621099999999;16.06100082397461;1673370757.444425;-18.68809700012207;0.9437663555145264;87.0931396484375
107;1673370757.4836946;47.1306422;7.240621099999999;16.43400001525879;1673370757.6747966;-18.667165756225586;-2.747501850128174;87.9061050415039
108;1673370757.7051003;47.1306423;7.2406213;16.8070011138916;1673370757.8601074;-17.875957489013672;1.8511011600494385;87.04569244384766
109;1673370757.896758;47.1306424;7.240621399999999;17.1820011138916;1673370758.0722187;-17.796855926513672;2.0639407634735107;86.92304229736328
110;1673370758.1129465;47.1306424;7.2406215;17.55900001525879;1673370758.2684717;-17.77120590209961;-2.0374579429626465;87.86775970458984
111;1673370758.3070886;47.1306425;7.2406216;17.937000274658203;1673370758.456116;-17.324203491210938;1.1210836172103882;87.18240356445312
112;1673370758.4854054;47.1306425;7.240621699999999;18.319000244140625;1673370758.6377792;-17.228927612304688;2.4411206245422363;86.64862823486328
113;1673370758.6760273;47.1306424;7.2406217999999996;18.700000762939453;1673370758.8477035;-17.567270278930664;-2.4233155250549316;87.73768615722656
114;1673370758.8898067;47.1306424;7.2406217999999996;19.08100128173828;1673370759.0569878;-17.386192321777344;0.4716932773590088;87.24999237060547
115;1673370759.0951912;47.1306425;7.240621699999999;19.45800018310547;1673370759.2690473;-17.5042667388916;2.8909430503845215;86.70036315917969
116;1673370759.3058972;47.1306425;7.2406216;19.83500099182129;1673370759.476314;-17.829904556274414;-2.0095927715301514;87.65648651123047
117;1673370759.5081882;47.1306424;7.2406215;20.21000099182129;1673370759.6407576;-17.98641014099121;-0.7074483633041382;87.46983337402344
118;1673370759.6749744;47.1306424;7.2406213;20.584001541137695;1673370759.8431516;-17.912567138671875;2.8252499103546143;86.64652252197266
119;1673370759.8812454;47.1306424;7.2406212;20.961000442504883;1673370760.0472174;-18.099990844726562;-1.3374347686767578;87.67935180664062
120;1673370760.0864527;47.1306424;7.240621099999999;21.339000701904297;1673370760.251763;-18.35808563232422;-1.2453978061676025;87.75707244873047
121;1673370760.2878857;47.1306425;7.240621;21.71900177001953;1673370760.4607997;-18.25914192199707;3.3554091453552246;86.78904724121094
122;1673370760.5052614;47.130642599999995;7.2406209;22.104001998901367;1673370760.6642683;-18.273197174072266;0.11095881462097168;87.50308990478516
123;1673370760.7004526;47.130642699999996;7.240620799999999;22.487001419067383;1673370760.8741267;-18.250200271606445;-1.5309014320373535;87.84215545654297
124;1673370760.907418;47.130642599999995;7.2406207;22.86800193786621;1673370761.0663867;-18.419801712036133;3.0336649417877197;86.67044067382812
125;1673370761.1011155;47.130642599999995;7.2406207;23.25200080871582;1673370761.2521408;-18.034833908081055;0.634300947189331;87.11485290527344
126;1673370761.2889144;47.1306425;7.2406207;23.63800048828125;1673370761.4601388;-18.1093692779541;-2.096951723098755;87.70006561279297
127;1673370761.49938;47.130642599999995;7.2406207;24.023000717163086;1673370761.6638465;-17.836809158325195;2.1934430599212646;87.01698303222656
128;1673370761.7035735;47.130642699999996;7.240620799999999;24.409000396728516;1673370761.8576348;-18.0316162109375;1.9604402780532837;86.79366302490234
129;1673370761.8929365;47.130642699999996;7.240620799999999;24.796001434326172;1673370762.04725;-17.872467041015625;-1.9495285749435425;87.61856842041016
130;1673370762.0804348;47.130642699999996;7.240620799999999;25.1820011138916;1673370762.2516327;-17.77924346923828;1.7280908823013306;86.90177917480469
131;1673370762.2885385;47.130642599999995;7.240620799999999;25.564001083374023;1673370762.4515624;-17.814916610717773;2.614866018295288;86.67015075683594
132;1673370762.4886506;47.130642599999995;7.240620799999999;25.95100212097168;1673370762.6489048;-18.142778396606445;-2.0434725284576416;87.59248352050781
133;1673370762.688913;47.130642599999995;7.2406207;26.341001510620117;1673370762.855124;-17.887422561645508;1.0226410627365112;87.10041046142578
134;1673370762.890485;47.130642699999996;7.2406207;26.737001419067383;1673370763.0470927;-18.10441017150879;3.420649766921997;86.60474395751953
135;1673370763.0842662;47.130642699999996;7.2406206;27.132001876831055;1673370763.256914;-18.020755767822266;-1.53047776222229;87.65695190429688
136;1673370763.2911913;47.130642699999996;7.2406206;27.519001007080078;1673370763.4557283;-18.142696380615234;-0.10530268400907516;87.36548614501953
137;1673370763.4977577;47.130642599999995;7.2406204999999995;27.90300178527832;1673370763.654165;-17.90030860900879;2.8896501064300537;86.67950439453125
138;1673370763.693407;47.1306425;7.2406204999999995;28.293001174926758;1673370763.855666;-18.18100929260254;-1.2383849620819092;87.62256622314453
139;1673370763.896827;47.1306425;7.2406204999999995;28.68600082397461;1673370764.0601282;-18.22458839416504;-0.6682995557785034;87.52413177490234
140;1673370764.0947316;47.130642599999995;7.2406204;29.07600212097168;1673370764.2585638;-18.10643768310547;3.487858772277832;86.64506530761719
141;1673370764.2937272;47.130642599999995;7.2406204;29.465002059936523;1673370764.448337;-18.145177841186523;-0.3620934784412384;87.54933166503906
142;1673370764.4846165;47.130642599999995;7.2406204;29.85500144958496;1673370764.6389346;-18.199424743652344;-1.27605140209198;87.85797119140625
143;1673370764.6727762;47.130642599999995;7.2406204;30.24300193786621;1673370764.830479;-18.485692977905273;3.2856528759002686;86.58854675292969
144;1673370764.8675678;47.1306425;7.2406203;30.628002166748047;1673370765.0569298;-18.007171630859375;0.5358533263206482;87.10125732421875
145;1673370765.0950832;47.1306425;7.2406204;31.019001007080078;1673370765.275912;-18.428937911987305;-1.6270155906677246;87.85450744628906
146;1673370765.31368;47.130642599999995;7.2406204;31.41400146484375;1673370765.5089047;-18.014556884765625;2.9578940868377686;86.81126403808594
147;1673370765.5450509;47.130642699999996;7.2406204;31.810001373291016;1673370765.7031195;-18.096702575683594;2.104694366455078;86.75496673583984
148;1673370765.743138;47.130642699999996;7.2406204;32.20600128173828;1673370765.9073424;-18.169069290161133;-1.9959920644760132;87.73114776611328
149;1673370765.9366128;47.130642599999995;7.2406204;32.60000228881836;1673370766.070268;-18.275327682495117;1.9382528066635132;86.94384002685547
150;1673370766.1024926;47.1306425;7.2406204;32.9890022277832;1673370766.2550046;-18.172067642211914;1.9582550525665283;86.78382873535156
151;1673370766.2950883;47.1306425;7.2406204;33.38199996948242;1673370766.459165;-18.208791732788086;-2.1295034885406494;87.88053894042969
152;1673370766.491374;47.130642599999995;7.2406203;33.777000427246094;1673370766.641023;-18.09418296813965;1.2601629495620728;87.26624298095703
153;1673370766.67624;47.130642699999996;7.2406203;34.17399978637695;1673370766.8342752;-18.319293975830078;3.3219900131225586;86.77754211425781
154;1673370766.875392;47.130642699999996;7.2406203;34.57400131225586;1673370767.0512605;-18.16266441345215;-1.5171310901641846;87.76129913330078
155;1673370767.0834525;47.130642699999996;7.2406203;34.97100067138672;1673370767.235991;-18.133684158325195;0.5667855143547058;87.37105560302734
156;1673370767.276045;47.130642699999996;7.2406203;35.36300277709961;1673370767.448191;-18.099443435668945;3.246225118637085;86.64945983886719
157;1673370767.4882095;47.130642699999996;7.2406203;35.75200271606445;1673370767.6551092;-18.198455810546875;-0.4894331991672516;87.37841796875
158;1673370767.690241;47.130642699999996;7.2406203;36.145999908447266;1673370767.8439662;-18.17344093322754;-0.3390549421310425;87.52642822265625
159;1673370767.8782427;47.1306428;7.2406203;36.5420036315918;1673370768.0399556;-18.083425521850586;3.708446741104126;86.60078430175781
160;1673370768.0801146;47.1306428;7.2406204;36.94000244140625;1673370768.247091;-18.051904678344727;0.16468261182308197;87.34691619873047
161;1673370768.2882242;47.1306428;7.2406203;37.33700180053711;1673370768.4521494;-18.35074806213379;-1.4872597455978394;87.87223815917969
162;1673370768.4911714;47.130642699999996;7.2406203;37.72600173950195;1673370768.6551404;-18.226062774658203;3.273479700088501;86.73334503173828
163;1673370768.6922452;47.130642699999996;7.2406203;38.11000061035156;1673370768.8516648;-18.2691593170166;1.1520206928253174;87.1219253540039
164;1673370768.8848772;47.130642699999996;7.2406203;38.50100326538086;1673370769.0417514;-18.379945755004883;-1.5598695278167725;87.80000305175781
165;1673370769.077872;47.130642699999996;7.2406203;38.893001556396484;1673370769.2564638;-18.10150718688965;3.022855520248413;86.73422241210938
166;1673370769.3034756;47.1306428;7.2406203;39.28600311279297;1673370769.457285;-18.151315689086914;1.9628033638000488;86.93606567382812
167;1673370769.4943793;47.130642699999996;7.2406203;39.67900085449219;1673370769.6550682;-18.163616180419922;-1.7293583154678345;87.71342468261719
168;1673370769.6912177;47.130642699999996;7.2406203;40.073001861572266;1673370769.8603587;-18.2291259765625;2.775269031524658;86.7348861694336
169;1673370769.8945184;47.1306428;7.2406203;40.46600341796875;1673370770.0607104;-18.120119094848633;2.8081881999969482;86.77186584472656
170;1673370770.103897;47.1306428;7.2406201999999995;40.85200119018555;1673370770.2678964;-18.315723419189453;-1.5389068126678467;87.79174041748047
171;1673370770.3011076;47.1306428;7.2406201999999995;41.24100112915039;1673370770.4733524;-18.231998443603516;1.7649641036987305;87.21569061279297
172;1673370770.510702;47.1306429;7.2406201999999995;41.634002685546875;1673370770.6713383;-18.33243751525879;3.47099232673645;86.69342803955078
173;1673370770.7052312;47.1306428;7.2406201999999995;42.031002044677734;1673370770.881037;-18.316164016723633;-1.5362234115600586;87.75555419921875
174;1673370770.9173546;47.130642699999996;7.2406201999999995;42.42900085449219;1673370771.0852578;-18.174345016479492;0.5958844423294067;87.34156036376953
175;1673370771.1194737;47.130642699999996;7.2406201;42.82100296020508;1673370771.2825913;-18.18709373474121;3.4753451347351074;86.61115264892578
176;1673370771.3162372;47.130642599999995;7.2406201;43.20900344848633;1673370771.4823635;-18.23219871520996;-0.9089769721031189;87.65454864501953
177;1673370771.51412;47.130642599999995;7.2406201;43.60100173950195;1673370771.695462;-18.316139221191406;-0.14582760632038116;87.56153869628906
178;1673370771.7282486;47.130642699999996;7.2406201;43.99400329589844;1673370771.877734;-18.281455993652344;3.916257858276367;86.65010833740234
179;1673370771.9154704;47.130642599999995;7.24062;44.38900375366211;1673370772.0861173;-18.307954788208008;-0.0745542049407959;87.43233489990234
180;1673370772.1399264;47.1306425;7.24062;44.78600311279297;1673370772.2997139;-18.467771530151367;-1.2672761678695679;87.70103454589844
181;1673370772.3315043;47.1306425;7.24062;45.18400192260742;1673370772.4826012;-18.30888557434082;3.3622374534606934;86.68992614746094
182;1673370772.5159345;47.1306425;7.24062;45.579002380371094;1673370772.6708894;-18.431766510009766;1.150315523147583;87.18732452392578
183;1673370772.7041433;47.130642599999995;7.2406198999999996;45.97100067138672;1673370772.857696;-18.467248916625977;-1.1572245359420776;87.81344604492188
184;1673370772.8998196;47.130642599999995;7.2406198999999996;46.36600112915039;1673370773.0661511;-18.328914642333984;3.4750924110412598;86.79911041259766
185;1673370773.0983586;47.130642699999996;7.2406198999999996;46.76300048828125;1673370773.2616901;-18.488365173339844;2.086442232131958;86.99092864990234
186;1673370773.2974248;47.130642599999995;7.2406198999999996;47.159000396728516;1673370773.466918;-18.51734733581543;-1.8297861814498901;87.84076690673828
187;1673370773.521143;47.1306425;7.2406198999999996;47.55500411987305;1673370773.66797;-18.4074649810791;2.715965986251831;86.91887664794922
188;1673370773.702299;47.130642599999995;7.2406198999999996;47.94900131225586;1673370773.8671012;-18.83887481689453;3.2736685276031494;86.99198150634766
189;1673370773.904203;47.130642599999995;7.2406198999999996;48.31900405883789;1673370774.069172;-18.50277328491211;-1.7293663024902344;87.78116607666016
190;1673370774.1063168;47.130642599999995;7.240619799999999;48.64500045776367;1673370774.2833903;-18.266542434692383;3.126258373260498;86.72103881835938
191;1673370774.3148763;47.130642599999995;7.2406197;48.92500305175781;1673370774.4687319;-18.26145362854004;2.315081834793091;86.73542022705078
192;1673370774.5128164;47.1306424;7.2406194;49.15700149536133;1673370774.7036104;-18.276201248168945;-0.983013391494751;87.607421875
193;1673370774.7394748;47.1306423;7.2406191;49.35000228881836;1673370774.880647;-0.47431445121765137;-5.979158878326416;83.93159484863281
194;1673370774.9119024;47.1306423;7.2406182;49.505001068115234;1673370775.0612588;17.875539779663086;-23.534700393676758;68.65907287597656
195;1673370775.095419;47.1306428;7.2406153;49.625003814697266;1673370775.2605991;6.922358989715576;-28.24620819091797;61.792049407958984
196;1673370775.293906;47.1306442;7.2406092;49.7030029296875;1673370775.4519615;-9.145063400268555;-26.559030532836914;52.85173034667969
197;1673370775.494972;47.130646899999995;7.2406006;49.77800369262695;1673370775.667036;-18.214439392089844;-19.5150203704834;42.46758270263672
198;1673370775.7051742;47.1306507;7.240590399999999;49.85000228881836;1673370775.8597407;-26.73297119140625;-30.748563766479492;32.21369934082031
199;1673370775.9017751;47.1306558;7.2405788;49.92400360107422;1673370776.0632892;-39.63682174682617;-37.77876281738281;22.391035079956055
200;1673370776.0984304;47.130662699999995;7.2405650999999995;49.98600387573242;1673370776.2645257;-48.76253890991211;-37.239158630371094;10.735005378723145
201;1673370776.3025806;47.130671899999996;7.2405482999999995;50.02000427246094;1673370776.4763446;-49.708160400390625;-33.49877166748047;-0.45699095726013184
202;1673370776.5134318;47.130683499999996;7.2405279;50.03400421142578;1673370776.6720815;-52.852909088134766;-28.34147071838379;-8.097810745239258
203;1673370776.707219;47.1306966;7.240504;50.03300094604492;1673370776.8576827;-54.725242614746094;-19.060604095458984;-16.52344512939453
204;1673370776.898843;47.1307112;7.2404768;50.00700378417969;1673370777.0483012;-52.653076171875;-9.227996826171875;-25.125288009643555
205;1673370777.081489;47.130727099999994;7.240447;49.97100067138672;1673370777.2456686;-53.402259826660156;-2.0887460708618164;-32.693668365478516
206;1673370777.2798245;47.130744199999995;7.2404154;49.93100357055664;1673370777.4664533;-52.16655731201172;4.502225875854492;-39.89458084106445
207;1673370777.5113804;47.1307622;7.240382599999999;49.88100051879883;1673370777.6670616;-47.71677017211914;11.084531784057617;-47.17119598388672
208;1673370777.701382;47.1307808;7.2403490999999995;49.833003997802734;1673370777.8656144;-45.871437072753906;16.21865463256836;-50.89954376220703
209;1673370777.9057698;47.1308;7.2403154999999995;49.79300308227539;1673370778.0637267;-45.34154510498047;15.805336952209473;-47.478736877441406
210;1673370778.0979562;47.130819699999996;7.2402817;49.75600051879883;1673370778.2739947;-45.53752899169922;14.233672142028809;-44.93891525268555
211;1673370778.310123;47.1308401;7.2402482;49.73100280761719;1673370778.461834;-46.32927322387695;13.508977890014648;-44.23952102661133
212;1673370778.4951806;47.130860899999995;7.2402149;49.7140007019043;1673370778.6580353;-45.920841217041016;12.14119815826416;-43.84259033203125
213;1673370778.7000394;47.1308821;7.2401819;49.704002380371094;1673370778.865247;-45.65695571899414;11.317686080932617;-43.85020446777344
214;1673370778.8991778;47.1309034;7.240149199999999;49.70500183105469;1673370779.0565064;-46.24094009399414;10.993278503417969;-44.08838653564453
215;1673370779.09557;47.130924799999995;7.2401167;49.7140007019043;1673370779.2556643;-45.9777946472168;10.614252090454102;-44.30860900878906
216;1673370779.2937598;47.1309465;7.2400841;49.724002838134766;1673370779.4661942;-38.42970657348633;7.511078357696533;-42.825870513916016
217;1673370779.505276;47.1309681;7.240051599999999;49.650001525878906;1673370779.6781924;-6.891521453857422;-0.42320361733436584;-40.49510955810547
218;1673370779.7271934;47.130989299999996;7.2400193999999995;49.24100112915039;1673370779.8852444;46.789642333984375;-15.080546379089355;-47.00475311279297
219;1673370779.9250653;47.1310103;7.2399875;48.45500183105469;1673370780.1042066;67.33790588378906;-152.577880859375;-179.40811157226562
220;1673370780.1371572;47.1310313;7.2399556;47.275001525878906;1673370780.3042083;27.88107681274414;-177.0250701904297;157.2188720703125
221;1673370780.3432164;47.1310522;7.239923699999999;45.74500274658203;1673370780.4881468;14.244970321655273;-178.81971740722656;154.0711669921875
222;1673370780.5232372;47.1310727;7.2398922;43.84300231933594;1673370780.6762328;27.9432430267334;-177.5217742919922;152.28851318359375
223;1673370780.7111979;47.1310928;7.239860999999999;41.573001861572266;1673370780.8795638;70.9737777709961;-164.681396484375;161.748291015625
224;1673370780.9132476;47.131112699999996;7.2398301;38.954002380371094;1673370781.0872223;38.03113555908203;-1.596423625946045;-39.71266555786133
225;1673370781.1201506;47.1311325;7.2397991;35.987003326416016;1673370781.2872694;-30.806846618652344;5.5212602615356445;-39.19903564453125
226;1673370781.3241303;47.131152199999995;7.239768199999999;32.611000061035156;1673370781.4881175;-66.6199951171875;7.0103631019592285;-38.39054489135742
227;1673370781.521122;47.1311714;7.2397377;28.871002197265625;1673370781.683206;-61.42722702026367;1.0186511278152466;-30.810924530029297
228;1673370781.7243235;47.1311903;7.2397073999999995;24.802001953125;1673370781.8781967;-13.595125198364258;-0.7829039096832275;-27.772878646850586
229;1673370781.9454713;47.131208799999996;7.2396775;20.4010009765625;1673370782.1105776;59.513893127441406;2.6808369159698486;-23.14445686340332
230;1673370782.1594338;47.1312271;7.239647799999999;15.592000961303711;1673370782.3672903;71.94181823730469;164.6280059814453;138.29420471191406
231;1673370782.4011164;47.1312457;7.2396179;10.43600082397461;1673370782.5442004;73.84203338623047;155.3309326171875;128.34645080566406
232;1673370782.5762486;47.131263999999994;7.2395882;4.988000392913818;1673370782.7512193;52.097354888916016;11.127006530761719;-17.009252548217773
233;1673370782.7815902;47.1312815;7.2395599;0.05000000074505806;1673370782.9163957;-42.05404281616211;-19.82150650024414;-26.844867706298828
234;1673370782.9541159;47.131279799999994;7.2395472;1.0640000104904175;1673370783.1015496;-58.00261306762695;-17.316791534423828;-37.46007537841797
235;1673370783.1321988;47.1312765;7.239538;1.8370001316070557;1673370783.2720945;-58.02435302734375;-16.845787048339844;-38.488155364990234
236;1673370783.305147;47.131273799999995;7.2395308;2.5900001525878906;1673370783.4781907;-50.8288459777832;-14.115633010864258;-43.79164505004883
237;1673370783.5183995;47.1312729;7.2395244;3.2780001163482666;1673370783.714457;-30.877849578857422;-9.70683479309082;-50.055503845214844
238;1673370783.7443895;47.1312734;7.2395194;3.88700008392334;1673370783.9372845;-23.431503295898438;-8.836938858032227;-53.24278259277344
239;1673370783.967216;47.1312759;7.2395143;4.402000427246094;1673370784.1140406;-22.479965209960938;-8.200786590576172;-54.47006607055664
240;1673370784.1542315;47.1312791;7.2395084;4.8420000076293945;1673370784.3083797;-22.156579971313477;-7.752989768981934;-55.068687438964844
241;1673370784.345194;47.131282399999996;7.239502;5.197000026702881;1673370784.5216708;-21.757591247558594;-7.328502178192139;-56.10922622680664
242;1673370784.552265;47.1312864;7.2394978;5.470000267028809;1673370784.693158;-21.398277282714844;-7.0628767013549805;-56.94232177734375
243;1673370784.7271411;47.131290199999995;7.239494199999999;5.658000469207764;1673370784.879359;-21.022220611572266;-6.925843715667725;-57.614036560058594
244;1673370784.9199893;47.131293;7.2394906;5.640000343322754;1673370785.085172;-20.539121627807617;-6.951816558837891;-58.164424896240234
245;1673370785.121422;47.131294399999994;7.239486299999999;5.372000217437744;1673370785.2834408;-20.135997772216797;-6.976982593536377;-58.6678466796875
246;1673370785.315232;47.1312952;7.2394818999999995;4.997000217437744;1673370785.4922643;-19.727460861206055;-6.922024726867676;-59.26145553588867
247;1673370785.5520377;47.131296;7.2394754;4.645000457763672;1673370785.7084615;-19.70595932006836;-6.978013038635254;-59.43172073364258
248;1673370785.7453604;47.1312972;7.2394618;4.37000036239624;1673370785.9300625;-19.64907455444336;-7.067882537841797;-59.565460205078125
249;1673370785.9782848;47.1312984;7.2394433;4.080000400543213;1673370786.1999986;-19.552438735961914;-7.174695014953613;-59.73545837402344
250;1673370786.2241035;47.131299899999995;7.2394213999999995;3.7970001697540283;1673370786.3340764;-19.538909912109375;-7.263538837432861;-59.921417236328125
251;1673370786.3672931;47.1313015;7.2393969;3.5290002822875977;1673370786.5101736;-19.50023078918457;-7.256866455078125;-60.09779357910156
252;1673370786.545204;47.1313034;7.2393702;3.2770001888275146;1673370786.7001433;-19.39754295349121;-7.287535667419434;-60.262393951416016
253;1673370786.7298315;47.1313056;7.2393417;3.0420000553131104;1673370786.8777099;-19.37352752685547;-7.306873798370361;-60.39746856689453
254;1673370786.9229894;47.1313081;7.2393114999999995;2.819000244140625;1673370787.0891433;-19.279373168945312;-7.287420272827148;-60.58461380004883
255;1673370787.1222742;47.1313108;7.239279799999999;2.6000001430511475;1673370787.2749238;-19.284591674804688;-7.299977779388428;-60.69328308105469
256;1673370787.3112233;47.1313137;7.2392467;2.3930001258850098;1673370787.4957964;-19.191509246826172;-7.241772651672363;-60.876346588134766
257;1673370787.5340204;47.131316899999995;7.2392122;2.193000078201294;1673370787.6768708;-19.209291458129883;-7.191831111907959;-61.02598190307617
258;1673370787.7109818;47.1313203;7.239176499999999;2.001000165939331;1673370787.8579917;-19.148725509643555;-7.16213846206665;-61.15128707885742
259;1673370787.892841;47.131324;7.2391396;1.8130000829696655;1673370788.0468976;-19.065065383911133;-7.095705986022949;-61.28191375732422
260;1673370788.0819435;47.1313278;7.2391013;1.6120001077651978;1673370788.2461388;-18.999614715576172;-7.053625106811523;-61.419490814208984
261;1673370788.2859561;47.1313318;7.2390617;1.4040000438690186;1673370788.4719007;-18.914291381835938;-6.9836039543151855;-61.51955032348633
262;1673370788.5050697;47.131336;7.2390216999999994;1.2260000705718994;1673370788.6779616;-18.8284912109375;-6.8957719802856445;-61.6343879699707
263;1673370788.7141302;47.1313405;7.238981;1.0670000314712524;1673370788.8730264;-18.742387771606445;-6.85106086730957;-61.741661071777344
264;1673370788.9121027;47.1313452;7.2389396999999995;0.9230000376701355;1673370789.0679936;-18.594839096069336;-6.764830112457275;-61.87620162963867
265;1673370789.1067233;47.13135;7.2388976;0.7890000343322754;1673370789.269042;-18.46989631652832;-6.732369422912598;-61.95982360839844
266;1673370789.3082378;47.131355;7.238853799999999;0.6370000243186951;1673370789.4758992;-18.368240356445312;-6.483460426330566;-62.069129943847656
267;1673370789.51614;47.13136;7.2388084;0.4650000333786011;1673370789.6869624;-18.3372802734375;-6.220531463623047;-62.10968780517578
268;1673370789.7193382;47.1313652;7.2387634;0.3330000042915344;1673370789.8809996;-18.21775245666504;-6.173698425292969;-62.15712356567383
269;1673370789.9213855;47.131370499999996;7.2387178;29.22300148010254;;;;
