;pos_time;latitude;longitude;altitude;alt_time;pitch;roll;yaw
0;1673371341.4012663;47.1306425;7.2406198999999996;-0.01900000125169754;1673371341.5522377;0.05556928738951683;-0.08330439031124115;90.09139251708984
1;1673371341.6035733;47.1306425;7.2406198999999996;-0.020000001415610313;1673371341.7467196;0.031800635159015656;-0.11728926748037338;90.35987091064453
2;1673371341.8050914;47.1306425;7.2406198999999996;-0.021000001579523087;1673371341.9481833;-0.13964879512786865;-0.2793152332305908;90.20233154296875
3;1673371342.0084453;47.1306425;7.2406198999999996;-0.02200000174343586;1673371342.1478052;0.04916495457291603;-0.19262266159057617;90.09614562988281
4;1673371342.204007;47.1306425;7.2406198999999996;-0.024000000208616257;1673371342.3471437;0.153365358710289;-0.2821584939956665;90.35157775878906
5;1673371342.4051008;47.1306424;7.240619799999999;-0.024000000208616257;1673371342.5530705;0.21283525228500366;-0.26900166273117065;90.36589813232422
6;1673371342.6063757;47.1306424;7.240619799999999;-0.026000000536441803;1673371342.7426574;0.22882260382175446;-0.216360941529274;90.29130554199219
7;1673371342.8010178;47.1306424;7.2406197;-0.029000001028180122;1673371342.9438066;0.15072792768478394;-0.2657456398010254;90.27394104003906
8;1673371342.9990988;47.1306424;7.2406197;-0.032999999821186066;1673371343.1793714;-0.024785760790109634;-0.20018164813518524;90.16969299316406
9;1673371343.2326236;47.1306424;7.2406197;-0.03700000047683716;1673371343.383035;-0.11327538639307022;-0.1336309313774109;90.14921569824219
10;1673371343.426959;47.1306424;7.2406197;0.0;1673371343.5475724;-0.24462150037288666;-0.3744460642337799;90.20745086669922
11;1673371343.601881;47.1306423;7.2406197;0.0;1673371343.73906;-0.14857397973537445;-0.3362521529197693;90.30419158935547
12;1673371343.7923455;47.1306423;7.2406197;0.0010000000474974513;1673371343.9314747;0.08384756743907928;-0.18966469168663025;90.2613525390625
13;1673371343.991581;47.1306423;7.2406197;0.0020000000949949026;1673371344.1298833;-0.13249243795871735;-0.39796873927116394;90.28536987304688
14;1673371344.1852973;47.1306423;7.240619799999999;0.006000000052154064;1673371344.330501;-0.03469831123948097;-0.2986885607242584;90.3544921875
15;1673371344.4124985;47.1306423;7.240619799999999;0.005000000353902578;1673371344.5650828;-0.17901279032230377;-0.07281062752008438;90.27952575683594
16;1673371344.6261945;47.1306423;7.240619799999999;0.003000000026077032;1673371344.7614367;-0.1498033106327057;-0.006230734288692474;90.20209503173828
17;1673371344.8253028;47.1306423;7.2406198999999996;0.0010000000474974513;1673371344.9771607;-0.3754482865333557;-0.8023474216461182;90.36551666259766
18;1673371345.0322742;47.1306423;7.2406198999999996;0.004000000189989805;1673371345.172321;-0.49736499786376953;-0.1307612508535385;90.19691467285156
19;1673371345.2283704;47.1306423;7.2406198999999996;0.0010000000474974513;1673371345.3763678;-0.5254354476928711;-0.20972472429275513;90.47466278076172
20;1673371345.4349942;47.1306423;7.2406198999999996;-0.0010000000474974513;1673371345.5812812;-0.5631207823753357;-0.37303856015205383;90.37493133544922
21;1673371345.6352704;47.1306423;7.2406198999999996;-0.0020000000949949026;1673371345.7835608;-0.5464131236076355;-0.033215176314115524;90.25148010253906
22;1673371345.840571;47.1306423;7.24062;0.0;1673371345.9853325;-0.5790956020355225;-0.08966047316789627;90.39415740966797
23;1673371346.04153;47.1306423;7.24062;0.006000000052154064;1673371346.1764019;-0.5051208138465881;-0.19920553267002106;90.46947479248047
24;1673371346.2323673;47.1306423;7.24062;0.006000000052154064;1673371346.3643973;-0.5145416855812073;-0.24613714218139648;90.50211334228516
25;1673371346.4093804;47.1306423;7.24062;0.003000000026077032;1673371346.5423408;-0.5690726041793823;-0.18984930217266083;91.0508041381836
26;1673371346.5954468;47.1306423;7.2406201;0.0010000000474974513;1673371346.7314625;0.8370428681373596;-0.46139129996299744;93.71371459960938
27;1673371346.7844112;47.1306423;7.2406204;0.0020000000949949026;1673371346.9313276;5.910677433013916;-0.41432860493659973;94.1972427368164
28;1673371346.9872172;47.1306423;7.2406212;0.01600000075995922;1673371347.1273098;13.343953132629395;-0.4583969712257385;93.08061218261719
29;1673371347.185235;47.1306423;7.2406225;0.036000002175569534;1673371347.3305793;14.985859870910645;0.9707611799240112;92.84263610839844
30;1673371347.387449;47.1306423;7.2406241;0.06400000303983688;1673371347.5232036;15.692147254943848;2.9133362770080566;92.56050872802734
31;1673371347.5792396;47.1306423;7.2406258;0.10500000417232513;1673371347.7235937;17.053850173950195;-0.45585134625434875;91.59016418457031
32;1673371347.7803357;47.1306423;7.2406277;0.16300000250339508;1673371347.9436688;18.77482032775879;-0.5843412280082703;91.20834350585938
33;1673371348.0017302;47.1306422;7.2406293999999995;0.23500001430511475;1673371348.1514218;20.61972999572754;2.5774576663970947;91.501220703125
34;1673371348.2121105;47.1306422;7.240630899999999;0.32200002670288086;1673371348.3574607;22.593111038208008;0.1914551556110382;91.02803039550781
35;1673371348.4128056;47.1306422;7.2406321;0.4220000207424164;1673371348.5559802;24.666149139404297;-1.695194959640503;90.4272232055664
36;1673371348.610409;47.1306423;7.2406327;0.5320000052452087;1673371348.7449548;26.774307250976562;1.9292964935302734;90.84842681884766
37;1673371348.8001845;47.1306424;7.2406326;0.6490000486373901;1673371348.9433053;28.43639373779297;0.6352151036262512;90.6454849243164
38;1673371348.9997103;47.1306425;7.2406318;0.7720000147819519;1673371349.147766;26.76434326171875;-1.4289721250534058;89.89112091064453
39;1673371349.2039437;47.1306425;7.240630299999999;0.9010000228881836;1673371349.353073;24.40614891052246;1.7878626585006714;90.42924499511719
40;1673371349.4093697;47.1306425;7.2406282;1.0390000343322754;1673371349.549553;21.84026527404785;0.8361251950263977;90.35140228271484
41;1673371349.607855;47.1306425;7.240626;1.183000087738037;1673371349.7596886;19.246639251708984;-2.087106227874756;89.5555419921875
42;1673371349.8129184;47.1306425;7.2406238;1.3360000848770142;1673371349.9559999;17.184921264648438;1.2032146453857422;90.08935546875
43;1673371350.012184;47.130642599999995;7.2406217999999996;1.502000093460083;1673371350.144488;15.667386054992676;1.63628351688385;98.23188018798828
44;1673371350.1997318;47.1306425;7.2406203;1.6790001392364502;1673371350.334954;15.4105863571167;-2.0354998111724854;95.75885772705078
45;1673371350.3920987;47.1306424;7.2406193;1.8610000610351562;1673371350.5312881;15.20783519744873;-0.25781384110450745;94.66410064697266
46;1673371350.5846603;47.1306423;7.2406185999999995;2.0460000038146973;1673371350.7277522;15.94352912902832;1.085378646850586;94.03104400634766
47;1673371350.781007;47.1306423;7.2406185;2.2330000400543213;1673371350.9252427;16.56393051147461;-2.2526419162750244;92.6797103881836
48;1673371350.9833753;47.1306424;7.2406185999999995;2.4190001487731934;1673371351.1333516;17.652681350708008;-0.19638998806476593;91.9937973022461
49;1673371351.1885877;47.130642599999995;7.2406188;2.6050000190734863;1673371351.328731;18.545230865478516;3.0897364616394043;92.47188568115234
50;1673371351.3849041;47.130642699999996;7.240619199999999;2.7910001277923584;1673371351.539831;19.114978790283203;-0.5234552025794983;92.1001205444336
51;1673371351.596673;47.1306428;7.240619499999999;2.9740002155303955;1673371351.7358613;19.525297164916992;-0.47318464517593384;92.04069519042969
52;1673371351.7901585;47.130642699999996;7.240619799999999;3.1640000343322754;1673371351.928319;19.703710556030273;2.467668294906616;92.4486312866211
53;1673371351.989492;47.130642599999995;7.24062;3.3570001125335693;1673371352.1306138;19.76545524597168;-0.2862063944339752;92.20854949951172
54;1673371352.197633;47.1306425;7.2406201999999995;3.5480000972747803;1673371352.3378992;19.737186431884766;-1.202257513999939;92.00093078613281
55;1673371352.395109;47.1306425;7.2406201999999995;3.7360000610351562;1673371352.5384517;19.832752227783203;2.6189773082733154;92.60249328613281
56;1673371352.5908535;47.1306424;7.2406201999999995;3.92900013923645;1673371352.7360415;19.636802673339844;-0.021156655624508858;92.26742553710938
57;1673371352.8064725;47.1306423;7.2406201999999995;4.121000289916992;1673371352.961969;19.21916961669922;-2.2240593433380127;92.08683013916016
58;1673371353.0210655;47.1306422;7.24062;4.311000347137451;1673371353.180863;19.110929489135742;1.4507253170013428;92.63427734375
59;1673371353.2517397;47.130642099999996;7.2406198999999996;4.5;1673371353.3886704;18.990922927856445;0.6912990212440491;92.63467407226562
60;1673371353.4423387;47.130642099999996;7.240619799999999;4.690000057220459;1673371353.5763974;18.977529525756836;-1.7349903583526611;92.12991333007812
61;1673371353.6291466;47.1306422;7.2406197;4.88100004196167;1673371353.775161;18.781526565551758;1.7642256021499634;92.56898498535156
62;1673371353.8358674;47.1306422;7.2406196;5.074000358581543;1673371353.9660645;18.889789581298828;2.1572976112365723;92.67426300048828
63;1673371354.0194573;47.1306422;7.2406196;5.266000270843506;1673371354.1751072;18.789976119995117;-1.4227182865142822;92.05254364013672
64;1673371354.2284684;47.1306422;7.240619499999999;5.462000370025635;1673371354.376595;18.873472213745117;1.0306695699691772;92.48985290527344
65;1673371354.4396448;47.130642099999996;7.240619499999999;5.658000469207764;1673371354.57278;18.856489181518555;2.236320972442627;92.73065185546875
66;1673371354.6325684;47.1306422;7.240619499999999;5.854000091552734;1673371354.7748175;18.7678279876709;-1.348770022392273;92.15172576904297
67;1673371354.8359418;47.1306422;7.240619499999999;6.051000118255615;1673371354.9985218;18.802242279052734;0.4463125765323639;92.10330963134766
68;1673371355.0522208;47.1306422;7.240619499999999;6.247000217437744;1673371355.1964715;19.055419921875;3.018026113510132;92.56688690185547
69;1673371355.2472553;47.1306422;7.2406196;6.442000389099121;1673371355.390635;18.96396255493164;-0.2142719328403473;92.32512664794922
70;1673371355.4589536;47.1306422;7.2406197;6.636000156402588;1673371355.5958602;19.047109603881836;-0.9696173071861267;92.11840057373047
71;1673371355.6495407;47.130642099999996;7.2406197;6.828000545501709;1673371355.7848349;19.014890670776367;2.727050304412842;92.60184478759766
72;1673371355.8401525;47.130642099999996;7.240619799999999;7.01900053024292;1673371355.975572;18.91520881652832;0.18964923918247223;92.36311340332031
73;1673371356.0294354;47.1306422;7.240619799999999;7.212000370025635;1673371356.1759107;19.028364181518555;-1.279382348060608;92.01544189453125
74;1673371356.2262468;47.1306423;7.2406198999999996;7.406000137329102;1673371356.3693366;19.131183624267578;2.6316206455230713;92.63648223876953
75;1673371356.4275043;47.1306423;7.24062;7.600000381469727;1673371356.5804222;19.076732635498047;0.9573084712028503;92.57588958740234
76;1673371356.6385968;47.1306423;7.24062;7.794000148773193;1673371356.8287568;19.08713150024414;-1.4753856658935547;92.14974975585938
77;1673371356.8785431;47.1306422;7.24062;7.992000579833984;1673371357.0628743;19.283517837524414;2.0479981899261475;92.62406921386719
78;1673371357.1088197;47.130642099999996;7.2406201;8.188000679016113;1673371357.2943835;19.152936935424805;1.3866136074066162;92.61223602294922
79;1673371357.3935058;47.1306422;7.2406201;8.385000228881836;1673371357.4833004;19.218765258789062;-1.5114319324493408;92.1689682006836
80;1673371357.535732;47.1306422;7.2406201999999995;8.587000846862793;1673371357.6487694;19.31675148010254;2.1147494316101074;92.71377563476562
81;1673371357.7088385;47.1306423;7.2406201999999995;8.789000511169434;1673371357.8129995;19.17593002319336;1.9621119499206543;92.63262176513672
82;1673371357.8608742;47.1306423;7.2406201999999995;8.988000869750977;1673371358.0005577;19.022594451904297;-1.6206609010696411;91.9967041015625
83;1673371358.0542378;47.1306423;7.2406201999999995;9.184000015258789;1673371358.1876566;19.107236862182617;1.0803757905960083;92.40304565429688
84;1673371358.238964;47.1306423;7.2406201999999995;9.380000114440918;1673371358.391466;18.990480422973633;2.658489465713501;92.74011993408203
85;1673371358.4617407;47.1306424;7.2406201999999995;9.57800006866455;1673371358.624698;19.078195571899414;-0.9962787628173828;92.21638488769531
86;1673371358.672731;47.1306425;7.2406201999999995;9.77500057220459;1673371358.8066056;19.11429214477539;0.815494954586029;92.34058380126953
87;1673371358.8700514;47.1306425;7.2406201999999995;9.972000122070312;1673371359.0184436;19.23562240600586;3.365651845932007;92.91062927246094
88;1673371359.0683484;47.1306425;7.2406203;10.175000190734863;1673371359.203299;19.235729217529297;-0.03988046199083328;92.4707260131836
89;1673371359.2560506;47.1306424;7.2406201;10.462000846862793;1673371359.4105294;20.3427734375;0.0726495161652565;92.27002716064453
90;1673371359.4849286;47.1306423;7.2406196;10.82800006866455;1673371359.62183;19.36892318725586;2.541046380996704;92.85352325439453
91;1673371359.6854334;47.1306422;7.2406191;11.208000183105469;1673371359.8711135;18.018774032592773;0.1025286391377449;92.64502716064453
92;1673371359.9117508;47.1306422;7.2406185999999995;11.598000526428223;1673371360.0304997;17.297407150268555;-0.9388606548309326;92.18115997314453
93;1673371360.0773103;47.1306422;7.2406182;11.995000839233398;1673371360.2121284;16.658056259155273;2.4020700454711914;92.81388854980469
94;1673371360.2649026;47.1306422;7.240617899999999;12.396000862121582;1673371360.4307024;16.554821014404297;1.004140019416809;92.60531616210938
95;1673371360.4776883;47.1306422;7.240617899999999;12.797000885009766;1673371360.6078386;16.96109962463379;-1.0411489009857178;92.1875228881836
96;1673371360.6636279;47.1306422;7.2406179999999996;13.200000762939453;1673371360.8484492;17.324026107788086;2.4869096279144287;92.65036010742188
97;1673371360.894432;47.1306423;7.2406182;13.60300064086914;1673371361.0458272;17.865163803100586;1.3846864700317383;92.55784606933594
98;1673371361.1344686;47.1306424;7.2406185;14.005001068115234;1673371361.2433856;18.21080780029297;-0.8338066339492798;92.09833526611328
99;1673371361.2845876;47.1306424;7.2406188;14.41100025177002;1673371361.430344;18.782968521118164;2.4796135425567627;92.57003784179688
100;1673371361.4791358;47.1306424;7.240619;14.821001052856445;1673371361.625838;18.793807983398438;2.2056705951690674;92.70733642578125
101;1673371361.7024786;47.1306423;7.240619199999999;15.231000900268555;1673371361.86432;18.85594940185547;-1.0721778869628906;92.25421142578125
102;1673371361.9221423;47.1306423;7.2406193;15.63900089263916;1673371362.0374572;18.84821319580078;1.711801528930664;92.62452697753906
103;1673371362.0853581;47.1306422;7.2406194;16.052000045776367;1673371362.2403717;18.760461807250977;2.1744508743286133;92.7883071899414
104;1673371362.293152;47.1306422;7.2406194;16.468000411987305;1673371362.4319508;18.631988525390625;-0.908331573009491;92.30713653564453
105;1673371362.5067034;47.1306422;7.2406194;16.881999969482422;1673371362.630165;18.444421768188477;0.8150711059570312;92.4329605102539
106;1673371362.6766088;47.1306422;7.2406193;17.29800033569336;1673371362.7967694;18.31478500366211;2.9439990520477295;92.8299331665039
107;1673371362.8442187;47.1306422;7.2406193;17.713001251220703;1673371362.967959;18.338054656982422;-0.9074217677116394;92.35320281982422
108;1673371363.0221763;47.1306422;7.2406193;18.128000259399414;1673371363.1539414;18.422605514526367;0.40665462613105774;92.3994140625
109;1673371363.2067125;47.1306422;7.2406193;18.53900146484375;1673371363.3577077;18.209524154663086;2.5909006595611572;92.69637298583984
110;1673371363.4148896;47.1306423;7.2406193;18.952001571655273;1673371363.5592148;18.268878936767578;-0.011297984048724174;92.31404876708984
111;1673371363.6190841;47.1306424;7.2406193;19.367000579833984;1673371363.7563035;18.470083236694336;0.16862358152866364;92.2937240600586
112;1673371363.8115387;47.1306424;7.2406193;19.7810001373291;1673371363.9547698;18.520042419433594;3.184441089630127;92.78089904785156
113;1673371364.012101;47.1306424;7.2406194;20.192001342773438;1673371364.1525047;18.341115951538086;0.04787501320242882;92.38854217529297
114;1673371364.2122812;47.1306424;7.2406194;20.601001739501953;1673371364.3675158;18.50887680053711;-0.23994068801403046;92.29369354248047
115;1673371364.4290578;47.1306424;7.2406194;21.003000259399414;1673371364.5686207;18.54786491394043;2.812788248062134;92.72952270507812
116;1673371364.629625;47.1306425;7.2406194;21.4060001373291;1673371364.7678525;18.50779151916504;0.701733410358429;92.50841522216797
117;1673371364.860209;47.1306425;7.2406194;21.808000564575195;1673371365.0037825;18.59962272644043;-0.26125311851501465;92.1375503540039
118;1673371365.057622;47.130642599999995;7.2406194;22.207000732421875;1673371365.1930275;18.680505752563477;3.2524712085723877;92.75421905517578
119;1673371365.2482913;47.130642599999995;7.2406194;22.608001708984375;1673371365.3728955;18.476213455200195;1.0338757038116455;92.53657531738281
120;1673371365.423004;47.1306425;7.2406194;23.011001586914062;1673371365.5554557;18.561094284057617;-0.6571991443634033;92.13481903076172
121;1673371365.6098435;47.130642599999995;7.2406193;23.416000366210938;1673371365.7472205;18.39020538330078;2.823267698287964;92.71576690673828
122;1673371365.8043776;47.130642599999995;7.2406193;23.816001892089844;1673371365.9445317;18.307483673095703;1.831305742263794;92.62914276123047
123;1673371365.9993508;47.130642599999995;7.240619199999999;24.220001220703125;1673371366.1464968;18.487796783447266;-0.5524188876152039;92.17100524902344
124;1673371366.22073;47.130642599999995;7.240619199999999;24.624000549316406;1673371366.3783944;18.253950119018555;2.7283830642700195;92.6534652709961
125;1673371366.4310248;47.1306425;7.240619199999999;25.030000686645508;1673371366.5829935;18.27991485595703;1.6386008262634277;92.66914367675781
126;1673371366.6425693;47.1306425;7.240619199999999;25.435001373291016;1673371366.7848992;18.40118980407715;-0.9518237113952637;92.19314575195312
127;1673371366.8274124;47.1306425;7.240619199999999;25.838001251220703;1673371366.9568458;18.599576950073242;2.1966676712036133;92.63824462890625
128;1673371367.012242;47.1306425;7.240619199999999;26.233001708984375;1673371367.163397;18.315013885498047;2.1928870677948;92.73104858398438
129;1673371367.224107;47.130642599999995;7.2406193;26.634000778198242;1673371367.3733952;18.4976863861084;-0.5479653477668762;92.13906860351562
130;1673371367.4262674;47.130642599999995;7.2406193;27.038002014160156;1673371367.5606816;18.652280807495117;1.995996356010437;92.49665832519531
131;1673371367.6150234;47.130642599999995;7.2406193;27.44300079345703;1673371367.7662668;18.476835250854492;2.630277633666992;92.67433166503906
132;1673371367.828958;47.130642599999995;7.2406193;27.845001220703125;1673371367.9682817;18.4703426361084;-0.7698002457618713;92.15140533447266
133;1673371368.020658;47.130642599999995;7.2406193;28.249000549316406;1673371368.1533368;18.535022735595703;1.8040084838867188;92.4171371459961
134;1673371368.2152271;47.130642599999995;7.2406193;28.656002044677734;1673371368.3674192;18.361618041992188;3.073406934738159;92.68925476074219
135;1673371368.4172537;47.130642599999995;7.2406193;29.0570011138916;1673371368.5572982;18.473405838012695;-0.46243685483932495;92.23846435546875
136;1673371368.611553;47.1306425;7.2406193;29.455001831054688;1673371368.7466438;18.4766902923584;1.0999610424041748;92.3471450805664
137;1673371368.808699;47.1306424;7.2406193;29.85500144958496;1673371368.9643333;18.615591049194336;2.8111722469329834;92.70693969726562
138;1673371369.0247374;47.1306424;7.2406194;30.256000518798828;1673371369.1667073;18.531896591186523;-0.13299618661403656;92.33836364746094
139;1673371369.2248428;47.1306423;7.2406194;30.657001495361328;1673371369.3778415;18.576513290405273;0.37351882457733154;92.31425476074219
140;1673371369.4370677;47.1306424;7.2406194;31.059001922607422;1673371369.5996702;18.626962661743164;3.1260228157043457;92.80769348144531
141;1673371369.6568222;47.1306424;7.240619499999999;31.454002380371094;1673371369.8022213;18.41834259033203;0.3750331997871399;92.34521484375
142;1673371369.8611314;47.1306423;7.2406194;31.85300064086914;1673371370.004199;18.6705265045166;-0.12147632241249084;92.25768280029297
143;1673371370.0601892;47.1306423;7.2406194;32.25200271606445;1673371370.1861494;18.423826217651367;3.103743076324463;92.77659606933594
144;1673371370.2384486;47.1306423;7.240619499999999;32.64900207519531;1673371370.3719914;18.569976806640625;0.4964850842952728;92.40577697753906
145;1673371370.4331832;47.1306423;7.240619499999999;33.051002502441406;1673371370.5772653;18.48027801513672;-0.07613753527402878;92.24790954589844
146;1673371370.6374056;47.1306423;7.240619499999999;33.45500183105469;1673371370.7765703;18.640262603759766;3.2164483070373535;92.75708770751953
147;1673371370.8308427;47.1306424;7.240619499999999;33.85900115966797;1673371370.9748719;18.510955810546875;1.0229840278625488;92.48639678955078
148;1673371371.0392902;47.1306423;7.2406196;34.255001068115234;1673371371.171536;18.570266723632812;-0.5521224737167358;92.17467498779297
149;1673371371.2268102;47.1306423;7.2406196;34.6510009765625;1673371371.3622103;18.587852478027344;2.6968677043914795;92.68513488769531
150;1673371371.4147172;47.1306423;7.2406196;35.052001953125;1673371371.5530899;18.563989639282227;1.8558636903762817;92.6493911743164
151;1673371371.6171372;47.1306423;7.2406196;35.457000732421875;1673371371.759431;18.61209487915039;-0.6838487386703491;92.18402862548828
152;1673371371.8309886;47.1306424;7.2406196;35.867000579833984;1673371371.9757454;18.584253311157227;2.573469638824463;92.62732696533203
153;1673371372.0339346;47.1306425;7.2406197;36.277000427246094;1673371372.188955;18.422887802124023;2.3514583110809326;92.71459197998047
154;1673371372.2448256;47.1306425;7.2406197;36.677001953125;1673371372.3999896;18.486282348632812;-0.4912852346897125;92.23210906982422
155;1673371372.4523695;47.1306424;7.2406197;37.0780029296875;1673371372.5975616;18.614742279052734;1.763715386390686;92.5206298828125
156;1673371372.6518815;47.1306424;7.2406197;37.48400115966797;1673371372.7833204;18.543119430541992;2.6095221042633057;92.7833480834961
157;1673371372.837013;47.1306425;7.2406197;37.8910026550293;1673371372.9703283;18.530855178833008;-0.4506056308746338;92.18566131591797
158;1673371373.0265133;47.130642599999995;7.2406197;38.29500198364258;1673371373.1638389;18.66572380065918;1.3273447751998901;92.36238861083984
159;1673371373.2210734;47.130642599999995;7.240619799999999;38.698001861572266;1673371373.3732648;18.572917938232422;3.4926645755767822;92.81451416015625
160;1673371373.4320953;47.130642699999996;7.240619799999999;39.10200119018555;1673371373.584285;18.58086585998535;-0.01140676811337471;92.25813293457031
161;1673371373.649903;47.130642599999995;7.2406197;39.49800109863281;1673371373.7942362;18.629056930541992;0.8415329456329346;92.35055541992188
162;1673371373.8501124;47.130642599999995;7.2406197;39.893001556396484;1673371373.9894762;18.620361328125;3.44769024848938;92.79865264892578
163;1673371374.0424666;47.130642599999995;7.2406197;40.2920036315918;1673371374.1935542;18.47773551940918;0.523033857345581;92.32621002197266
164;1673371374.249017;47.130642699999996;7.2406197;40.695003509521484;1673371374.3862128;18.459980010986328;0.7209234833717346;92.29806518554688
165;1673371374.439473;47.1306428;7.2406196;41.09600067138672;1673371374.5874863;18.528034210205078;3.7947142124176025;92.80677795410156
166;1673371374.6446857;47.1306428;7.2406196;41.496002197265625;1673371374.7811592;18.561079025268555;0.890505313873291;92.47972869873047
167;1673371374.8354213;47.130642699999996;7.2406196;41.8910026550293;1673371374.9728217;18.63391876220703;-0.189867302775383;92.22505950927734
168;1673371375.0271204;47.130642599999995;7.2406196;42.290000915527344;1673371375.1615336;18.530353546142578;2.961970090866089;92.76129913330078
169;1673371375.2266166;47.130642599999995;7.2406196;42.69300079345703;1673371375.3833816;18.365095138549805;1.9723875522613525;92.67975616455078
170;1673371375.4444509;47.130642599999995;7.2406196;43.10000228881836;1673371375.6200814;18.53852653503418;-0.3073783218860626;92.28034210205078
171;1673371375.6728537;47.130642699999996;7.2406196;43.509002685546875;1673371375.8394754;18.484357833862305;3.158400297164917;92.67428588867188
172;1673371375.885354;47.1306428;7.2406196;43.9170036315918;1673371376.015895;18.447830200195312;2.452070713043213;92.75977325439453
173;1673371376.0692987;47.130642699999996;7.2406196;44.32200241088867;1673371376.199059;18.586973190307617;-0.4797195494174957;92.25797271728516
174;1673371376.2860987;47.130642699999996;7.2406196;44.71800231933594;1673371376.426603;18.76278305053711;1.8951526880264282;92.53544616699219
175;1673371376.480282;47.130642699999996;7.2406196;45.11600112915039;1673371376.6196723;18.5410099029541;2.8369340896606445;92.75069427490234
176;1673371376.6780648;47.130642699999996;7.2406196;45.51700210571289;1673371376.8360748;18.67727279663086;-0.28935351967811584;92.1171646118164
177;1673371376.921264;47.1306428;7.2406196;45.919002532958984;1673371377.068089;18.45904541015625;2.1090891361236572;92.37835693359375
178;1673371377.128788;47.1306428;7.2406196;46.31900405883789;1673371377.2535586;18.446081161499023;3.2788093090057373;92.69497680664062
179;1673371377.3043394;47.1306428;7.2406196;46.720001220703125;1673371377.436189;18.534343719482422;-0.2836671769618988;92.16747283935547
180;1673371377.5413475;47.130642699999996;7.2406196;47.11600112915039;1673371377.6563354;18.63471794128418;1.590518593788147;92.30323028564453
181;1673371377.7023556;47.130642699999996;7.2406196;47.51300048828125;1673371377.8325179;18.5008487701416;3.0182948112487793;92.67984008789062
182;1673371377.893059;47.130642699999996;7.2406196;47.9170036315918;1673371378.043732;18.4820556640625;0.33343812823295593;92.19017028808594
183;1673371378.0935037;47.130642699999996;7.2406196;48.301002502441406;1673371378.2104716;18.536664962768555;0.8456689119338989;92.10806274414062
184;1673371378.27071;47.130642699999996;7.2406197;48.63600158691406;1673371378.4126318;18.472593307495117;3.6927237510681152;92.82157897949219
185;1673371378.4678397;47.130642699999996;7.24062;48.91800308227539;1673371378.6174734;18.69684600830078;0.5235906839370728;92.30755615234375
186;1673371378.678091;47.130642699999996;7.2406203;49.152000427246094;1673371378.8316565;19.141855239868164;0.14812344312667847;91.9859619140625
187;1673371378.9101155;47.130642699999996;7.2406206;49.3390007019043;1673371379.0386088;30.412822723388672;-0.749208390712738;89.54541778564453
188;1673371379.0953362;47.1306428;7.2406207;49.50400161743164;1673371379.2390084;42.81656265258789;-17.606821060180664;76.27084350585938
189;1673371379.291904;47.130643199999994;7.2406193;49.65400314331055;1673371379.4631314;43.20908737182617;-26.9222469329834;67.0907974243164
190;1673371379.5356307;47.1306443;7.2406155;49.78000259399414;1673371379.6758685;32.00911331176758;-34.18657302856445;58.42832565307617
191;1673371379.7227266;47.1306462;7.2406093;49.88900375366211;1673371379.8642538;21.175790786743164;-37.2858772277832;49.17491912841797
192;1673371379.9161613;47.130649;7.240601799999999;49.97700119018555;1673371380.0561483;9.677862167358398;-38.898006439208984;38.35895919799805
193;1673371380.1032245;47.130652399999995;7.2405934;50.04500198364258;1673371380.2338026;-5.594274044036865;-47.17631530761719;27.33456802368164
194;1673371380.2894669;47.1306569;7.2405840999999995;50.11000061035156;1673371380.4281723;-25.103626251220703;-48.85647964477539;16.467924118041992
195;1673371380.481928;47.130662699999995;7.2405738;50.169002532958984;1673371380.6316917;-41.227638244628906;-46.81394577026367;4.8769965171813965
196;1673371380.6835175;47.1306703;7.240561899999999;50.207000732421875;1673371380.7963471;-47.59217834472656;-41.03693389892578;-7.7997331619262695
197;1673371380.8447402;47.1306796;7.2405481;50.22900390625;1673371380.9838827;-50.28306579589844;-33.16050338745117;-19.658191680908203
198;1673371381.0430071;47.1306902;7.2405325;50.22800064086914;1673371381.2004027;-49.37331008911133;-25.709535598754883;-27.09512710571289
199;1673371381.2542057;47.1307015;7.240515599999999;50.19600296020508;1673371381.404547;-48.587120056152344;-19.764896392822266;-32.42473602294922
200;1673371381.460347;47.1307134;7.2404978;50.1410026550293;1673371381.608499;-48.37114715576172;-14.692065238952637;-38.55515670776367
201;1673371381.683546;47.130725899999995;7.240479499999999;50.083003997802734;1673371381.837618;-47.29557800292969;-10.947035789489746;-45.5041389465332
202;1673371381.927835;47.130738799999996;7.240460799999999;50.038002014160156;1673371382.052255;-46.613216400146484;-7.420382022857666;-52.61466598510742
203;1673371382.1029887;47.1307518;7.2404417;50.00600051879883;1673371382.258352;-46.95618438720703;-2.4561963081359863;-54.696022033691406
204;1673371382.3130076;47.130764799999994;7.240422499999999;49.97800064086914;1673371382.4432538;-45.875396728515625;-2.7839818000793457;-51.301387786865234
205;1673371382.4901338;47.130778;7.240403499999999;49.95900344848633;1673371382.6050477;-47.20368194580078;-4.285949230194092;-49.36819076538086
206;1673371382.6595926;47.1307915;7.2403847;49.945003509521484;1673371382.7953799;-48.320613861083984;-5.0848612785339355;-48.94733428955078
207;1673371382.849636;47.1308052;7.240366;49.939002990722656;1673371382.992828;-48.45720672607422;-5.805568218231201;-48.582794189453125
208;1673371383.052;47.1308191;7.240347099999999;49.94400405883789;1673371383.199184;-48.21247100830078;-6.893730163574219;-48.40210723876953
209;1673371383.256991;47.1308332;7.2403281999999995;49.957000732421875;1673371383.39614;-48.39963150024414;-7.914157867431641;-48.31772232055664
210;1673371383.4532938;47.1308474;7.2403092;49.97300338745117;1673371383.589784;-48.50897979736328;-8.326255798339844;-48.49026107788086
211;1673371383.6513736;47.1308617;7.2402899;49.9900016784668;1673371383.8088145;-48.5896110534668;-8.469633102416992;-48.6581916809082
212;1673371383.8681397;47.1308759;7.240270499999999;50.00400161743164;1673371383.9975069;-48.50861740112305;-8.391403198242188;-48.91324234008789
213;1673371384.0478592;47.130890099999995;7.2402508;50.00400161743164;1673371384.1870434;-47.67837142944336;-7.981765270233154;-49.243553161621094
214;1673371384.245258;47.1309043;7.240230899999999;50.00400161743164;1673371384.391265;-47.33285140991211;-8.0960111618042;-49.24482727050781
215;1673371384.4484506;47.1309184;7.2402109999999995;50.0150032043457;1673371384.6000414;-47.75791931152344;-8.43761920928955;-49.218467712402344
216;1673371384.653781;47.1309324;7.2401911;50.02900314331055;1673371384.796949;-48.476234436035156;-8.54163646697998;-49.37087631225586
217;1673371384.851198;47.1309464;7.2401709;50.04500198364258;1673371384.9993773;-48.835262298583984;-8.398736953735352;-49.58405685424805
218;1673371385.05992;47.1309603;7.2401506;50.06100082397461;1673371385.19504;-48.770729064941406;-8.205892562866211;-49.752288818359375
219;1673371385.246362;47.1309742;7.240130199999999;50.06100082397461;1673371385.3833485;-39.92766189575195;-6.243753910064697;-51.2232551574707
220;1673371385.4473698;47.130987999999995;7.2401098;49.926002502441406;1673371385.5909426;-6.967021942138672;-2.0285589694976807;-53.628318786621094
221;1673371385.6465082;47.1310017;7.2400899999999995;49.4530029296875;1673371385.787488;49.547855377197266;3.6961941719055176;-52.68526840209961
222;1673371385.844325;47.1310151;7.240070599999999;48.59300231933594;1673371385.9826446;67.70628356933594;173.790771484375;113.7855453491211
223;1673371386.0416903;47.1310286;7.2400511;47.34800338745117;1673371386.1940007;26.107362747192383;-179.63140869140625;117.90646362304688
224;1673371386.2513433;47.131042099999995;7.2400319;45.755001068115234;1673371386.3962789;13.700568199157715;-178.490966796875;116.93751525878906
225;1673371386.4525473;47.1310552;7.2400132;43.790000915527344;1673371386.603455;29.57671546936035;178.76699829101562;113.06306457519531
226;1673371386.662375;47.1310682;7.2399952;41.435001373291016;1673371386.8086007;76.45317077636719;170.67662048339844;109.86358642578125
227;1673371386.8634229;47.131080999999995;7.2399776;38.72800064086914;1673371387.0000646;31.450441360473633;-2.354560613632202;-59.8343391418457
228;1673371387.0563667;47.131093799999995;7.2399597;35.663002014160156;1673371387.2004986;-34.964111328125;-4.121892929077148;-55.668907165527344
229;1673371387.2574592;47.131106599999995;7.2399422;32.185001373291016;1673371387.385525;-65.62857055664062;-10.619763374328613;-47.87856674194336
230;1673371387.4406104;47.131119;7.2399252999999995;28.35700225830078;1673371387.5796344;-54.73640060424805;-5.086887359619141;-51.517086029052734
231;1673371387.6344078;47.1311313;7.239908799999999;24.21200180053711;1673371387.784406;-0.6528083086013794;0.059774044901132584;-52.93284225463867
232;1673371387.8445837;47.1311432;7.2398931;19.70400047302246;1673371387.9955146;70.1450424194336;14.866785049438477;-40.53285598754883
233;1673371388.0644536;47.131155199999995;7.2398774999999995;14.789000511169434;1673371388.2104733;69.15552520751953;163.27879333496094;107.39974212646484
234;1673371388.2682984;47.1311673;7.2398617;9.557000160217285;1673371388.4194598;80.14231872558594;132.95750427246094;78.91577911376953
235;1673371388.4714284;47.1311792;7.2398462;4.035000324249268;1673371388.597576;49.7675895690918;17.161287307739258;-37.844200134277344
236;1673371388.652289;47.1311895;7.239838;0.12000000476837158;1673371388.796269;-10.04719066619873;11.73947811126709;-48.096763610839844
237;1673371388.8528302;47.131192399999996;7.2398541;0.20400001108646393;1673371388.9925036;5.042393684387207;10.732458114624023;-45.826820373535156
238;1673371389.04607;47.1311933;7.2398719;0.18900001049041748;1673371389.1843777;3.550750970840454;12.986944198608398;-45.011558532714844
239;1673371389.2444925;47.1311944;7.2398897;0.22700001299381256;1673371389.3934445;3.673637866973877;11.888336181640625;-44.506492614746094
240;1673371389.4463656;47.1311949;7.2399055;0.26500001549720764;1673371389.5839198;3.565741777420044;11.655112266540527;-43.90208435058594
241;1673371389.6396198;47.1311955;7.2399216;0.289000004529953;1673371389.783592;3.5084574222564697;11.619433403015137;-43.60490036010742
242;1673371389.8373942;47.1311964;7.2399391;0.29200002551078796;1673371389.9826136;3.523007869720459;11.593308448791504;-43.30004119873047
243;1673371390.039407;47.1311977;7.239957899999999;0.28200000524520874;1673371390.1885574;3.5260472297668457;11.559144020080566;-43.0048713684082
244;1673371390.2525468;47.1311992;7.2399776;0.26500001549720764;1673371390.4005675;3.491673231124878;11.5359468460083;-42.714229583740234
245;1673371390.459593;47.131200899999996;7.239998099999999;0.2330000102519989;1673371390.6105978;3.465895652770996;11.502798080444336;-42.42034149169922
246;1673371390.6644385;47.131202699999996;7.2400193999999995;0.1990000158548355;1673371390.8084426;3.4354424476623535;11.441404342651367;-42.159969329833984
247;1673371390.867481;47.1312047;7.2400411;0.16900001466274261;1673371391.0077279;3.379685640335083;11.384836196899414;-41.89285659790039
248;1673371391.0674963;47.1312068;7.2400635;0.14300000667572021;1673371391.2386055;3.299487590789795;11.326963424682617;-41.630889892578125
249;1673371391.2923317;47.131209;7.2400864;0.11600000411272049;1673371391.4485006;3.267094373703003;11.25326156616211;-41.37855911254883
250;1673371391.497422;47.1312113;7.240109899999999;0.08500000089406967;1673371391.6442645;3.2378551959991455;11.159297943115234;-41.08539581298828
251;1673371391.725426;47.131213699999996;7.240133999999999;0.05300000309944153;1673371391.8356664;3.1897242069244385;11.099691390991211;-40.87125778198242
252;1673371391.9206111;47.1312163;7.240158999999999;0.00800000037997961;1673371392.0835323;3.1756467819213867;11.0388765335083;-40.659175872802734
253;1673371392.142374;47.131218999999994;7.2401845;-0.03500000014901161;1673371392.2685094;3.116687297821045;10.922295570373535;-40.42100524902344
254;1673371392.3119767;47.1312217;7.2402104;-0.07100000232458115;1673371392.4424498;3.0683810710906982;10.803902626037598;-40.181297302246094
255;1673371392.4963555;47.131224499999995;7.2402368;-0.10500000417232513;1673371392.630514;3.048004388809204;10.702922821044922;-39.935916900634766
256;1673371392.6825576;47.1312274;7.240263799999999;-0.13600000739097595;1673371392.816289;3.0107357501983643;10.59985637664795;-39.753273010253906
257;1673371392.8696787;47.1312304;7.2402912;-0.16600000858306885;1673371392.9975867;2.967078447341919;10.4886474609375;-39.558162689208984
258;1673371393.0524106;47.131233699999996;7.240319599999999;-0.2110000103712082;1673371393.1866417;2.9131503105163574;10.393638610839844;-39.356021881103516
259;1673371393.2424932;47.1312369;7.2403485;-0.25300002098083496;1673371393.395367;2.8884260654449463;10.297982215881348;-39.11844253540039
260;1673371393.4534256;47.1312401;7.2403777;-0.28600001335144043;1673371393.5993152;2.8547310829162598;10.186532020568848;-38.8997802734375
261;1673371393.6674364;47.1312433;7.240406999999999;-0.30800002813339233;1673371393.8184998;2.8261513710021973;10.085762977600098;-38.705142974853516
262;1673371393.882737;47.131246499999996;7.2404369;-0.328000009059906;1673371394.035559;2.7681238651275635;9.980277061462402;-38.49263381958008
263;1673371394.0947008;47.1312497;7.240467199999999;-0.3450000286102295;1673371394.2405107;2.740680456161499;9.847793579101562;-38.26850509643555
264;1673371394.297726;47.131253;7.2404981;-0.36000001430511475;1673371394.440681;2.716482162475586;9.72762680053711;-38.11327362060547
265;1673371394.49736;47.1312542;7.2405094;-0.39000001549720764;1673371394.6365087;2.6950466632843018;9.621346473693848;-37.886070251464844
266;;;;;1673371394.8357522;2.640873432159424;9.510398864746094;-37.72807312011719
267;;;;;1673371395.0524833;2.614825963973999;9.379465103149414;-37.51382827758789
268;;;;;1673371395.2384398;2.5433435440063477;9.240140914916992;-37.38264846801758
269;;;;;1673371395.4354415;2.47845721244812;8.787437438964844;-37.25743865966797
270;;;;;1673371395.628578;2.516880512237549;8.511467933654785;-37.20362854003906
271;;;;;1673371395.8535566;2.526031017303467;8.476826667785645;-37.12550354003906
272;;;;;1673371396.0314713;2.503824472427368;8.33465576171875;-37.00585174560547
273;;;;;1673371396.2594702;2.5170841217041016;8.198486328125;-36.93892288208008
