;pos_time;latitude;longitude;altitude;alt_time;pitch;roll;yaw
0;1673372798.9093602;47.1306422;7.2406197;0.0010000000474974513;1673372799.0599818;-0.05048609524965286;-0.08991491794586182;90.28890991210938
1;1673372799.1335552;47.1306423;7.2406197;0.0020000000949949026;1673372799.2676985;0.18061594665050507;-0.21385911107063293;90.5823974609375
2;1673372799.324848;47.1306423;7.240619799999999;0.005000000353902578;1673372799.4651651;-0.05200698599219322;-0.46915051341056824;90.54177856445312
3;1673372799.521483;47.1306423;7.2406198999999996;0.004000000189989805;1673372799.6482058;-0.06920468807220459;-0.24084798991680145;90.45043182373047
4;1673372799.7024446;47.1306424;7.240619799999999;0.0020000000949949026;1673372799.8358152;-0.029212037101387978;-0.2628389596939087;90.52958679199219
5;1673372799.890506;47.1306424;7.240619799999999;0.004000000189989805;1673372800.036287;0.0034023679327219725;-0.28401675820350647;90.59516906738281
6;1673372800.09807;47.1306423;7.240619799999999;0.00800000037997961;1673372800.2348938;-0.00025818648282438517;-0.30426377058029175;90.62067413330078
7;1673372800.292672;47.1306423;7.240619799999999;0.007000000216066837;1673372800.4389267;-0.051343563944101334;-0.3385673761367798;90.59661102294922
8;1673372800.4918141;47.1306423;7.2406197;0.00800000037997961;1673372800.6414125;-0.13401150703430176;-0.4428110420703888;90.62770080566406
9;1673372800.7058487;47.1306423;7.2406197;-0.0020000000949949026;1673372800.8592114;-0.2523769438266754;-0.6824924349784851;90.55957794189453
10;1673372800.9192967;47.1306423;7.2406197;-0.005000000353902578;1673372801.0577848;-0.27816644310951233;-0.5361303091049194;90.47577667236328
11;1673372801.1109214;47.1306423;7.2406197;-0.01100000087171793;1673372801.2472684;-0.16195759177207947;-0.7134326696395874;90.51542663574219
12;1673372801.306799;47.1306423;7.240619799999999;-0.012000000104308128;1673372801.4487808;-0.16149817407131195;-0.4904058873653412;90.58042907714844
13;1673372801.5008733;47.1306423;7.240619799999999;-0.012000000104308128;1673372801.6368585;-0.04677807539701462;-0.6378481984138489;90.6980209350586
14;1673372801.704883;47.1306423;7.2406198999999996;-0.018000001087784767;1673372801.879702;-0.24861988425254822;-0.3424215018749237;90.50474548339844
15;1673372801.9358008;47.1306423;7.2406198999999996;-0.02200000174343586;1673372802.0688748;-0.09782975912094116;-0.45928820967674255;90.4079360961914
16;1673372802.1727302;47.1306423;7.2406198999999996;-0.026000000536441803;1673372802.2919347;0.05681183561682701;-0.9088863134384155;90.55281066894531
17;1673372802.3427436;47.1306423;7.2406198999999996;0.0;1673372802.4788291;-0.09661809355020523;-0.5436508655548096;90.46212005615234
18;1673372802.536843;47.1306424;7.240619799999999;0.0;1673372802.6588671;0.22262635827064514;-0.37691256403923035;90.33851623535156
19;1673372802.7089891;47.1306424;7.240619799999999;0.004000000189989805;1673372802.8569758;0.21408264338970184;-0.4485737085342407;90.48546600341797
20;1673372802.906786;47.1306424;7.2406197;0.00800000037997961;1673372803.0318553;0.23261134326457977;-0.4224065840244293;90.7129135131836
21;1673372803.091982;47.1306424;7.2406197;0.007000000216066837;1673372803.2250693;0.14331822097301483;-0.33901306986808777;90.70911407470703
22;1673372803.2810996;47.1306424;7.2406197;0.007000000216066837;1673372803.4137995;0.16088363528251648;0.07728668302297592;90.86420440673828
23;1673372803.47573;47.1306425;7.240619799999999;0.00800000037997961;1673372803.6340973;0.26558175683021545;-0.5114063620567322;90.77050018310547
24;1673372803.696821;47.1306425;7.240619799999999;0.00800000037997961;1673372803.8439522;0.27929410338401794;-0.3391839861869812;90.4840087890625
25;1673372803.9048629;47.1306425;7.2406198999999996;0.006000000052154064;1673372804.0491104;0.3845115900039673;-0.2604726254940033;90.3206787109375
26;1673372804.102821;47.1306425;7.2406198999999996;0.006000000052154064;1673372804.2486691;-0.0893850028514862;-0.24462848901748657;87.18431091308594
27;1673372804.2987933;47.130642599999995;7.240619799999999;0.009000000543892384;1673372804.451906;-1.2569191455841064;2.6556589603424072;84.93314361572266
28;1673372804.5048234;47.130642699999996;7.240619499999999;0.01900000125169754;1673372804.64675;-4.387861728668213;6.181757926940918;85.83589172363281
29;1673372804.7100067;47.1306429;7.2406191;0.04000000283122063;1673372804.86202;-7.496939659118652;9.670783996582031;86.54576873779297
30;1673372804.9231756;47.1306429;7.2406187;0.08400000631809235;1673372805.0627577;-7.247758388519287;10.02314567565918;86.72915649414062
31;1673372805.1210113;47.130642699999996;7.2406184;0.1420000046491623;1673372805.2754378;-8.102124214172363;5.9704508781433105;86.94047546386719
32;1673372805.324807;47.1306424;7.2406182999999995;0.20900000631809235;1673372805.4637117;-8.292757987976074;5.013459205627441;87.18087005615234
33;1673372805.5216057;47.1306423;7.2406184;0.2939999997615814;1673372805.66326;-7.787937641143799;9.196264266967773;86.69483184814453
34;1673372805.716894;47.1306422;7.2406185999999995;0.3970000147819519;1673372805.88059;-7.300969123840332;6.059885501861572;87.11738586425781
35;1673372805.9393084;47.130642099999996;7.2406188;0.5090000033378601;1673372806.0830128;-6.888850212097168;3.9692344665527344;87.68215942382812
36;1673372806.1373627;47.130642099999996;7.2406191;0.6360000371932983;1673372806.2733788;-5.822849273681641;7.8788275718688965;87.3828125
37;1673372806.3394465;47.130642099999996;7.2406193;0.7800000309944153;1673372806.473854;-5.683341026306152;7.8505096435546875;87.4335708618164
38;1673372806.5349412;47.130641999999995;7.240619499999999;0.9380000233650208;1673372806.671249;-5.995395183563232;3.1311631202697754;88.12188720703125
39;1673372806.721706;47.1306419;7.2406197;1.1100000143051147;1673372806.849584;-5.9753618240356445;6.4725341796875;87.7878189086914
40;1673372806.9048822;47.1306419;7.240619799999999;1.2970000505447388;1673372807.0558133;-6.0443243980407715;8.79763126373291;87.60742950439453
41;1673372807.115062;47.130641999999995;7.240619799999999;1.4900001287460327;1673372807.2617276;-6.086757659912109;4.063791275024414;88.4531478881836
42;1673372807.3229969;47.130642099999996;7.240619799999999;1.6800000667572021;1673372807.4601154;-6.126136302947998;6.741722583770752;88.1175765991211
43;1673372807.5124006;47.1306423;7.2406197;1.8720000982284546;1673372807.647676;-5.971030235290527;9.973220825195312;87.6656494140625
44;1673372807.7067842;47.1306423;7.2406197;2.065999984741211;1673372807.8577142;-6.218282222747803;4.465157985687256;88.03624725341797
45;1673372807.9149258;47.1306422;7.2406196;2.257000207901001;1673372808.0618484;-6.659338474273682;5.3049116134643555;87.66820526123047
46;1673372808.1366243;47.1306422;7.2406196;2.454000234603882;1673372808.2793124;-6.62164831161499;9.952613830566406;87.1200942993164
47;1673372808.3368003;47.1306423;7.240619499999999;2.6550002098083496;1673372808.4815485;-6.886488437652588;5.6935553550720215;87.61751556396484
48;1673372808.5363758;47.1306423;7.240619499999999;2.8590002059936523;1673372808.6748352;-6.9412031173706055;5.118213653564453;87.49601745605469
49;1673372808.7339773;47.1306423;7.240619499999999;3.057000160217285;1673372808.882674;-6.703373908996582;9.215147972106934;86.92086791992188
50;1673372808.9382975;47.1306422;7.2406196;3.255000114440918;1673372809.067332;-6.449562072753906;6.634957313537598;87.12307739257812
51;1673372809.1144102;47.130642099999996;7.2406196;3.455000162124634;1673372809.2425644;-6.6681060791015625;3.3346407413482666;87.46265411376953
52;1673372809.3086302;47.130642099999996;7.2406197;3.6620001792907715;1673372809.4578204;-6.401487350463867;9.181012153625488;86.86436462402344
53;1673372809.5210075;47.1306423;7.240619799999999;3.869000196456909;1673372809.6671746;-6.141323089599609;8.135595321655273;86.99170684814453
54;1673372809.7284176;47.1306424;7.2406198999999996;4.073000431060791;1673372809.89843;-6.4984893798828125;4.596432209014893;87.47425079345703
55;1673372809.9493504;47.1306425;7.2406198999999996;4.271000385284424;1673372810.079607;-6.306978702545166;8.608983039855957;86.96890258789062
56;1673372810.1355479;47.130642599999995;7.24062;4.475000381469727;1673372810.263969;-5.817047119140625;9.305477142333984;86.91120910644531
57;1673372810.339699;47.130642599999995;7.2406201;4.683000087738037;1673372810.4714317;-5.977750301361084;4.196991920471191;87.4661636352539
58;1673372810.5266814;47.1306424;7.2406201;4.88700008392334;1673372810.679567;-6.367076396942139;7.389477729797363;87.08550262451172
59;1673372810.731275;47.1306424;7.2406201;5.089000225067139;1673372810.8697436;-6.155516147613525;9.337667465209961;87.03980255126953
60;1673372810.9332669;47.1306425;7.2406201;5.2920002937316895;1673372811.0617902;-6.421288013458252;4.602846622467041;87.57151794433594
61;1673372811.1229134;47.1306424;7.24062;5.497000217437744;1673372811.2874644;-6.7761101722717285;6.47676420211792;87.30593872070312
62;1673372811.3886695;47.1306424;7.2406198999999996;5.696000099182129;1673372811.5262969;-6.652917385101318;9.264498710632324;86.96214294433594
63;1673372811.5712612;47.1306422;7.2406198999999996;5.898000240325928;1673372811.6943562;-6.655712127685547;4.537024974822998;87.48955535888672
64;1673372811.7451072;47.130642099999996;7.2406198999999996;6.1020002365112305;1673372811.8735218;-6.8358964920043945;5.397256374359131;87.29988098144531
65;1673372811.9199338;47.1306422;7.2406198999999996;6.306000232696533;1673372812.0464714;-6.442505836486816;9.901679992675781;86.7828369140625
66;1673372812.1018567;47.1306424;7.24062;6.51300048828125;1673372812.24276;-6.401731967926025;6.414268493652344;87.1866683959961
67;1673372812.2961574;47.1306424;7.24062;6.7210001945495605;1673372812.4509704;-6.773180961608887;5.167286396026611;87.37238311767578
68;1673372812.5121486;47.1306424;7.24062;6.926000118255615;1673372812.6572409;-6.480319976806641;9.814656257629395;86.7693099975586
69;1673372812.7163782;47.1306424;7.24062;7.136000156402588;1673372812.8613834;-6.292109489440918;7.038053512573242;87.07893371582031
70;1673372812.9214802;47.1306423;7.24062;7.341000556945801;1673372813.074128;-6.628504276275635;4.5597991943359375;87.47660827636719
71;1673372813.1324272;47.1306423;7.24062;7.549000263214111;1673372813.287932;-6.364753723144531;9.756624221801758;86.96650695800781
72;1673372813.3406336;47.1306424;7.24062;7.756000518798828;1673372813.477266;-6.324108123779297;8.542465209960938;87.07418060302734
73;1673372813.5324612;47.1306425;7.2406198999999996;7.959000587463379;1673372813.67728;-6.71021032333374;4.564838409423828;87.5846176147461
74;1673372813.7388315;47.1306424;7.2406198999999996;8.159000396728516;1673372813.858509;-6.688596248626709;8.538016319274902;87.0331039428711
75;1673372813.9088385;47.1306424;7.240619799999999;8.355999946594238;1673372814.0470126;-6.644286155700684;8.170544624328613;87.09456634521484
76;1673372814.11118;47.1306423;7.2406198999999996;8.54800033569336;1673372814.2735841;-6.747665882110596;3.594557523727417;87.60746002197266
77;1673372814.3383398;47.1306422;7.2406198999999996;8.743000030517578;1673372814.4550402;-6.754244327545166;8.091912269592285;87.09367370605469
78;1673372814.509279;47.1306423;7.2406198999999996;8.942000389099121;1673372814.6445782;-6.353142261505127;8.805750846862793;86.90758514404297
79;1673372814.7009203;47.1306424;7.24062;9.13800048828125;1673372814.8618162;-6.283545970916748;4.361425876617432;87.31592559814453
80;1673372814.9200213;47.1306424;7.24062;9.333000183105469;1673372815.0654774;-6.568826675415039;6.792980194091797;87.03377532958984
81;1673372815.120223;47.1306424;7.24062;9.528000831604004;1673372815.2546008;-6.459314346313477;9.65218448638916;86.80281066894531
82;1673372815.3117921;47.1306423;7.24062;9.726000785827637;1673372815.4501002;-6.631409168243408;4.875153541564941;87.4555892944336
83;1673372815.5112934;47.1306423;7.24062;9.925000190734863;1673372815.658526;-6.9527997970581055;5.998216152191162;87.34992218017578
84;1673372815.7256775;47.1306425;7.24062;10.12600040435791;1673372815.8627608;-6.598361015319824;9.438057899475098;86.99230194091797
85;1673372815.919907;47.130642599999995;7.2406201;10.384000778198242;1673372816.0681748;-7.435750961303711;8.3473539352417;87.25502014160156
86;1673372816.120812;47.1306425;7.2406201999999995;10.734000205993652;1673372816.2638571;-7.257102012634277;5.42641544342041;87.63916015625
87;1673372816.3217082;47.1306423;7.2406204999999995;11.116000175476074;1673372816.461898;-6.281346797943115;8.53199291229248;87.07061767578125
88;1673372816.5192122;47.130642099999996;7.2406207;11.508000373840332;1673372816.6693542;-5.63944673538208;7.68400764465332;86.87788391113281
89;1673372816.7232196;47.1306419;7.2406209;11.906000137329102;1673372816.9079077;-5.4992170333862305;2.8940234184265137;87.29825592041016
90;1673372816.9606414;47.1306418;7.240621;12.304000854492188;1673372817.09039;-5.660681247711182;6.712423801422119;87.10853576660156
91;1673372817.1349733;47.1306419;7.240621099999999;12.704000473022461;1673372817.271253;-5.517473220825195;8.432480812072754;87.00251007080078
92;1673372817.3349602;47.130641999999995;7.240621099999999;13.107000350952148;1673372817.4790354;-5.8409552574157715;4.173768520355225;87.70294952392578
93;1673372817.5382328;47.130642099999996;7.240621;13.507000923156738;1673372817.6794262;-6.012424468994141;6.13754415512085;87.35462188720703
94;1673372817.733641;47.130642099999996;7.2406209;13.904000282287598;1673372817.884955;-6.075024127960205;9.281482696533203;86.72927856445312
95;1673372817.9377048;47.1306422;7.2406207;14.29800033569336;1673372818.0821729;-6.136232852935791;5.128400802612305;87.26862335205078
96;1673372818.1344783;47.1306422;7.2406206;14.694000244140625;1673372818.2879682;-6.628020763397217;5.565116882324219;87.32025909423828
97;1673372818.3403835;47.1306423;7.2406204999999995;15.088000297546387;1673372818.4675004;-6.636784553527832;10.104423522949219;87.00801086425781
98;1673372818.527917;47.1306424;7.2406204;15.481000900268555;1673372818.6710176;-6.704750061035156;6.663992881774902;87.35394287109375
99;1673372818.7322505;47.1306425;7.2406204;15.875000953674316;1673372818.883354;-6.853140830993652;4.864046096801758;87.36524200439453
100;1673372818.9411497;47.1306424;7.2406204;16.270000457763672;1673372819.0840821;-6.365712642669678;9.387661933898926;86.87406921386719
101;1673372819.139797;47.1306424;7.2406204;16.661001205444336;1673372819.3050318;-6.3849968910217285;6.929609775543213;87.09246826171875
102;1673372819.3638833;47.1306423;7.2406204;17.054000854492188;1673372819.5053377;-6.447632312774658;4.285556793212891;87.51514434814453
103;1673372819.5542004;47.1306423;7.2406204;17.44900131225586;1673372819.6796732;-6.415779113769531;8.132617950439453;87.0909194946289
104;1673372819.737939;47.1306424;7.2406204;17.843000411987305;1673372819.875402;-5.870579242706299;8.797279357910156;86.95488739013672
105;1673372819.9298768;47.1306425;7.2406204;18.236000061035156;1673372820.0649927;-5.999547004699707;4.385528564453125;87.38202667236328
106;1673372820.122704;47.1306424;7.2406204;18.628000259399414;1673372820.2700777;-6.435214519500732;7.267928123474121;87.07455444335938
107;1673372820.32845;47.1306424;7.2406204;19.018001556396484;1673372820.481031;-6.293421745300293;9.284686088562012;87.01642608642578
108;1673372820.535321;47.1306423;7.2406204;19.405000686645508;1673372820.6842835;-6.534838676452637;4.268055438995361;87.5737533569336
109;1673372820.7376466;47.1306423;7.2406204;19.799001693725586;1673372820.9356475;-6.576526641845703;5.956545829772949;87.3562240600586
110;1673372821.009529;47.1306423;7.2406204;20.196001052856445;1673372821.171632;-6.092909812927246;9.617462158203125;86.7968521118164
111;1673372821.2303917;47.1306424;7.2406204;20.595001220703125;1673372821.348355;-6.0297088623046875;5.921515464782715;87.3371810913086
112;1673372821.3938487;47.1306424;7.2406204;20.992000579833984;1673372821.5262427;-6.255895137786865;5.003062725067139;87.46796417236328
113;1673372821.5751874;47.1306425;7.2406204;21.387001037597656;1673372821.7032187;-6.166532516479492;9.86437702178955;86.89258575439453
114;1673372821.7491574;47.1306425;7.2406204;21.77400016784668;1673372821.8803384;-6.209447383880615;6.177469730377197;87.15335083007812
115;1673372821.9335923;47.1306425;7.2406203;22.167001724243164;1673372822.0763297;-6.469128608703613;4.854442596435547;87.27808380126953
116;1673372822.1316175;47.1306425;7.2406203;22.565000534057617;1673372822.2793958;-6.453908920288086;9.6207857131958;86.94884490966797
117;1673372822.3527653;47.130642699999996;7.2406201999999995;22.959001541137695;1673372822.4909787;-6.278173446655273;8.499377250671387;87.18383026123047
118;1673372822.5466886;47.130642699999996;7.2406201999999995;23.351001739501953;1673372822.6826456;-6.512801647186279;4.46994686126709;87.67070007324219
119;1673372822.7307847;47.130642599999995;7.2406201999999995;23.742000579833984;1673372822.8691857;-6.410589694976807;8.402037620544434;86.92191314697266
120;1673372822.9327722;47.130642599999995;7.2406201;24.128000259399414;1673372823.0787218;-6.247042655944824;8.271712303161621;86.84496307373047
121;1673372823.1390562;47.1306425;7.2406201;24.51700210571289;1673372823.2774372;-6.373488426208496;4.072206020355225;87.45864868164062
122;1673372823.3441584;47.1306425;7.24062;24.916000366210938;1673372823.5042217;-6.663471698760986;7.447357654571533;87.31461334228516
123;1673372823.5541816;47.130642599999995;7.2406198999999996;25.31300163269043;1673372823.6797893;-6.4813385009765625;9.40700912475586;87.03291320800781
124;1673372823.7359674;47.130642699999996;7.240619799999999;25.7080020904541;1673372823.8833647;-6.658644199371338;5.189173221588135;87.3602066040039
125;1673372823.942652;47.130642599999995;7.240619799999999;26.104001998901367;1673372824.0789332;-6.842791557312012;6.059072017669678;87.20951843261719
126;1673372824.1353967;47.130642599999995;7.240619799999999;26.499000549316406;1673372824.2737548;-6.583059310913086;9.831111907958984;86.89117431640625
127;1673372824.3319597;47.130642599999995;7.240619799999999;26.889001846313477;1673372824.4713292;-6.392940521240234;6.599397659301758;87.10087585449219
128;1673372824.5275562;47.1306425;7.240619799999999;27.283000946044922;1673372824.6816432;-6.5540547370910645;4.9040937423706055;87.45353698730469
129;1673372824.742797;47.130642599999995;7.2406198999999996;27.679000854492188;1673372824.8704798;-6.230931282043457;9.54256534576416;87.0354995727539
130;1673372824.9215906;47.130642699999996;7.2406198999999996;28.077001571655273;1673372825.0648372;-5.890632629394531;7.8127055168151855;86.9727554321289
131;1673372825.1240187;47.130642699999996;7.24062;28.47500228881836;1673372825.2639213;-5.882530212402344;4.911965370178223;87.43260955810547
132;1673372825.3303137;47.130642699999996;7.24062;28.875001907348633;1673372825.4794838;-6.234810829162598;8.486825942993164;87.03881072998047
133;1673372825.5382044;47.130642599999995;7.24062;29.266000747680664;1673372825.683313;-6.133058547973633;8.403288841247559;87.19694519042969
134;1673372825.741003;47.1306425;7.24062;29.65900230407715;1673372825.8871946;-6.443183422088623;4.14811372756958;87.5625228881836
135;1673372825.945339;47.1306425;7.2406198999999996;30.056001663208008;1673372826.0906358;-6.470538139343262;8.276598930358887;86.98419952392578
136;1673372826.153721;47.130642599999995;7.2406198999999996;30.45100212097168;1673372826.291094;-6.200623512268066;9.090947151184082;86.78791046142578
137;1673372826.3480144;47.130642599999995;7.2406198999999996;30.847002029418945;1673372826.4985032;-6.224825382232666;5.231576442718506;87.3342056274414
138;1673372826.5532653;47.130642599999995;7.240619799999999;31.24100112915039;1673372826.6913035;-6.342602729797363;6.833664894104004;87.22565460205078
139;1673372826.7448046;47.1306425;7.240619799999999;31.636001586914062;1673372826.8885727;-6.260956287384033;9.824222564697266;87.04326629638672
140;1673372826.941828;47.1306425;7.2406197;32.025001525878906;1673372827.084873;-6.517625331878662;5.060537815093994;87.37939453125
141;1673372827.1396682;47.1306424;7.2406197;32.42000198364258;1673372827.2966568;-6.789187431335449;5.962954998016357;87.20105743408203
142;1673372827.3515244;47.1306424;7.2406197;32.81700134277344;1673372827.5431688;-6.540282249450684;9.812545776367188;86.80718994140625
143;1673372827.6098037;47.1306425;7.2406197;33.211002349853516;1673372827.7359648;-6.366846561431885;7.08432149887085;87.14688873291016
144;1673372827.7877724;47.1306424;7.2406197;33.605003356933594;1673372827.9147007;-6.714300632476807;4.892083644866943;87.36981201171875
145;1673372827.9679742;47.1306424;7.2406197;34.00200271606445;1673372828.1008363;-6.4816508293151855;9.46993637084961;86.96268463134766
146;1673372828.151814;47.1306423;7.2406197;34.397003173828125;1673372828.299139;-6.179828643798828;6.971670150756836;87.09237670898438
147;1673372828.3548088;47.1306422;7.2406197;34.79800033569336;1673372828.495183;-6.352782726287842;4.2055277824401855;87.44042205810547
148;1673372828.5680964;47.1306423;7.2406197;35.202003479003906;1673372828.6953018;-6.524385452270508;8.786643028259277;87.01322937011719
149;1673372828.7779543;47.1306424;7.2406197;35.60600280761719;1673372828.90757;-6.369889259338379;9.036437034606934;87.06910705566406
150;1673372828.9677277;47.1306425;7.2406197;36.009002685546875;1673372829.102027;-6.76901388168335;4.378162860870361;87.68206024169922
151;1673372829.1465688;47.1306424;7.2406197;36.40999984741211;1673372829.2868307;-6.59273099899292;7.148982524871826;87.05242156982422
152;1673372829.387729;47.1306424;7.2406197;36.81500244140625;1673372829.5435054;-6.303342819213867;9.278050422668457;86.71517181396484
153;1673372829.591367;47.1306424;7.2406197;37.2130012512207;1673372829.7225513;-6.233621597290039;4.813838005065918;87.3589859008789
154;1673372829.7765083;47.1306425;7.240619799999999;37.617000579833984;1673372829.9177458;-6.489713191986084;6.662388324737549;87.36441040039062
155;1673372829.9754272;47.130642599999995;7.2406197;38.020999908447266;1673372830.116352;-6.33074426651001;10.223261833190918;87.10946655273438
156;1673372830.1691895;47.130642699999996;7.240619799999999;38.42300033569336;1673372830.3021371;-6.256891250610352;5.862227439880371;87.42474365234375
157;1673372830.3482444;47.130642699999996;7.240619799999999;38.82200241088867;1673372830.46884;-6.688298225402832;5.580975532531738;87.18038940429688
158;1673372830.5261126;47.130642699999996;7.2406197;39.22500228881836;1673372830.6701598;-6.6463751792907715;9.872227668762207;86.73838806152344
159;1673372830.7361023;47.130642599999995;7.2406197;39.61900329589844;1673372830.8881266;-6.4660186767578125;6.542492866516113;87.12596130371094
160;1673372830.945014;47.1306425;7.2406197;40.02000045776367;1673372831.0882995;-6.743497848510742;4.956439018249512;87.45809936523438
161;1673372831.1472123;47.130642599999995;7.2406197;40.42500305175781;1673372831.2951899;-6.435335636138916;9.415377616882324;86.98971557617188
162;1673372831.3523555;47.130642699999996;7.2406197;40.82600021362305;1673372831.4999177;-6.11378812789917;8.11983585357666;87.1224594116211
163;1673372831.5458212;47.130642699999996;7.240619799999999;41.224002838134766;1673372831.6755376;-6.254218578338623;4.494825839996338;87.42842102050781
164;1673372831.739178;47.130642599999995;7.2406198999999996;41.61900329589844;1673372831.8932247;-6.409871578216553;8.525604248046875;86.96122741699219
165;1673372831.9484348;47.130642699999996;7.2406198999999996;42.018001556396484;1673372832.0781376;-6.219066143035889;9.234901428222656;87.0233154296875
166;1673372832.129148;47.130642599999995;7.2406198999999996;42.40800094604492;1673372832.2749457;-6.343593120574951;4.51596736907959;87.49846649169922
167;1673372832.342602;47.130642599999995;7.24062;42.80400085449219;1673372832.4985342;-6.427048206329346;7.96918249130249;87.05525207519531
168;1673372832.5532227;47.130642699999996;7.24062;43.202003479003906;1673372832.698209;-5.918762683868408;9.596794128417969;86.82264709472656
169;1673372832.755505;47.1306428;7.24062;43.60100173950195;1673372832.9000123;-6.10654878616333;5.211258888244629;87.39291381835938
170;1673372832.980242;47.130642699999996;7.24062;43.99400329589844;1673372833.1275795;-6.348159313201904;6.363720893859863;87.27808380126953
171;1673372833.1844635;47.130642699999996;7.2406198999999996;44.3910026550293;1673372833.3218844;-6.257875442504883;9.77079963684082;86.9614028930664
172;1673372833.3756137;47.130642599999995;7.240619799999999;44.77900314331055;1673372833.506177;-6.324313163757324;5.407746315002441;87.47830963134766
173;1673372833.5653107;47.130642599999995;7.240619799999999;45.172000885009766;1673372833.7024949;-6.822138786315918;5.827996253967285;87.1941909790039
174;1673372833.7557528;47.130642599999995;7.240619799999999;45.570003509521484;1673372833.9001017;-6.379716396331787;9.906550407409668;86.73316955566406
175;1673372833.9647646;47.130642699999996;7.240619799999999;45.96600341796875;1673372834.1070905;-6.174520492553711;6.948446273803711;87.1334457397461
176;1673372834.160499;47.130642699999996;7.240619799999999;46.35700225830078;1673372834.2966735;-6.529753684997559;4.813546657562256;87.45320892333984
177;1673372834.350394;47.130642599999995;7.240619799999999;46.74800109863281;1673372834.5254123;-6.45152473449707;9.174691200256348;87.0597152709961
178;1673372834.5879133;47.130642599999995;7.2406197;47.14500045776367;1673372834.7203324;-6.335395336151123;7.868660926818848;87.11701965332031
179;1673372834.7755308;47.130642599999995;7.2406197;47.535003662109375;1673372834.913778;-6.470212459564209;4.650760173797607;87.4535140991211
180;1673372834.9680057;47.130642599999995;7.240619799999999;47.932003021240234;1673372835.105795;-6.554701805114746;8.172853469848633;87.20732116699219
181;1673372835.171043;47.1306428;7.2406197;48.302001953125;1673372835.3135624;-6.439191818237305;10.115592956542969;87.10124206542969
182;1673372835.3744326;47.1306428;7.2406197;48.621002197265625;1673372835.511816;-6.700941562652588;4.364339828491211;87.55001068115234
183;1673372835.566095;47.130642699999996;7.2406196;48.8910026550293;1673372835.7095277;-6.962906837463379;8.651840209960938;86.9791030883789
184;1673372835.7701812;47.1306428;7.2406194;49.11600112915039;1673372835.8982925;-6.707727432250977;8.80345630645752;87.0457992553711
185;1673372835.9486754;47.1306428;7.2406193;49.29300308227539;1673372836.0869212;-0.15010754764080048;2.5075185298919678;86.26634216308594
186;1673372836.1468754;47.1306429;7.240619;49.44400405883789;1673372836.3153317;18.14409828186035;-21.70861053466797;75.18782806396484
187;1673372836.375418;47.1306437;7.240617599999999;49.57600402832031;1673372836.5176976;24.93853187561035;-42.787166595458984;63.09284591674805
188;1673372836.5720189;47.1306459;7.240613199999999;49.689002990722656;1673372836.7322454;23.879507064819336;-54.5584831237793;55.06171798706055
189;1673372836.7948263;47.1306504;7.240604599999999;49.77700424194336;1673372836.9174876;10.661667823791504;-56.07754135131836;46.2621955871582
190;1673372836.9737036;47.130657199999995;7.2405915;49.83000183105469;1673372837.103126;-8.10444450378418;-53.47390365600586;35.533660888671875
191;1673372837.1559227;47.1306661;7.2405743;49.8650016784668;1673372837.3054123;-24.471071243286133;-50.611854553222656;24.98382568359375
192;1673372837.3652241;47.130677;7.2405539999999995;49.88800048828125;1673372837.5134315;-38.71064376831055;-45.24612808227539;13.33478832244873
193;1673372837.5745976;47.1306897;7.2405308999999995;49.88500213623047;1673372837.713856;-48.72983169555664;-36.741912841796875;-0.12982705235481262
194;1673372837.7710435;47.130704099999996;7.2405054;49.86900329589844;1673372837.9112606;-51.30815124511719;-27.45196533203125;-12.417413711547852
195;1673372837.960691;47.1307203;7.2404777;49.833003997802734;1673372838.0948036;-49.83940505981445;-20.787109375;-18.473491668701172
196;1673372838.148292;47.130737599999996;7.2404484;49.781002044677734;1673372838.296959;-47.70691680908203;-11.924527168273926;-25.899871826171875
197;1673372838.3509202;47.1307555;7.240418699999999;49.56700134277344;1673372838.5069902;-30.3524169921875;1.7204089164733887;-33.573089599609375
198;1673372838.559882;47.1307733;7.2403894;48.99500274658203;1673372838.6999218;8.036641120910645;15.902501106262207;-31.998960494995117
199;1673372838.755956;47.130790999999995;7.2403602;48.04900360107422;1673372838.91304;58.99559020996094;53.07746505737305;0.5231072306632996
200;1673372838.9720767;47.130808699999996;7.240330999999999;46.70500183105469;1673372839.1207836;53.442970275878906;148.70333862304688;97.85110473632812
201;1673372839.176512;47.1308266;7.2403016;45.000003814697266;1673372839.3249128;29.464866638183594;161.9049835205078;116.98695373535156
202;1673372839.3890588;47.1308442;7.2402726;42.95000076293945;1673372839.5309615;30.134939193725586;156.224853515625;120.03736877441406
203;1673372839.5842752;47.130861599999996;7.2402441;40.54300308227539;1673372839.7278023;55.665035247802734;127.7253646850586;101.98194122314453
204;1673372839.8010614;47.1308787;7.2402158;37.78700256347656;1673372839.9399464;45.26101303100586;23.716615676879883;6.431527614593506
205;1673372840.0241864;47.130895699999996;7.240187799999999;34.67000198364258;1673372840.2081242;-17.81342124938965;-0.7966353297233582;-13.443269729614258
206;1673372840.266868;47.1309129;7.2401598;31.1510009765625;1673372840.3821843;-59.328372955322266;-0.21594226360321045;-22.454587936401367
207;1673372840.454976;47.130929699999996;7.240132399999999;27.268001556396484;1673372840.5681176;-59.85368347167969;18.00054931640625;-38.6797981262207
208;1673372840.6230116;47.1309462;7.2401054;23.07200050354004;1673372840.7779453;-18.233346939086914;19.47050666809082;-31.22816276550293
209;1673372840.8286655;47.1309623;7.240078899999999;18.543001174926758;1673372840.9437737;46.055511474609375;24.918777465820312;-12.19870662689209
210;1673372840.9987917;47.1309781;7.240052299999999;13.617000579833984;1673372841.1239882;78.98143005371094;118.02436828613281;93.42391967773438
211;1673372841.1819549;47.130994;7.2400256;8.331000328063965;1673372841.320999;84.29061126708984;131.64608764648438;114.84603118896484
212;1673372841.3800187;47.131009999999996;7.2399990999999995;2.757000207901001;1673372841.518279;-82.6189193725586;146.8099365234375;-161.68759155273438
213;1673372841.5719204;47.131025;7.2399781999999995;0.8110000491142273;1673372841.7117906;-25.439550399780273;-3.4628615379333496;-6.722984790802002
214;1673372841.7696724;47.1310323;7.239965499999999;1.8010001182556152;1673372841.9184177;55.069427490234375;31.478271484375;33.66682434082031
215;1673372841.9770904;47.1310363;7.2399549;2.2990000247955322;1673372842.1180258;7.664098262786865;141.23440551757812;142.20166015625
216;1673372842.1740093;47.131045799999995;7.2399536;2.302000045776367;1673372842.3100743;-67.68195343017578;-91.71202850341797;53.35865020751953
217;1673372842.3658159;47.131058499999995;7.2399533;1.846000075340271;1673372842.5028725;2.988754987716675;30.572233200073242;80.65160369873047
218;1673372842.561;47.131073799999996;7.2399565;1.7050000429153442;1673372842.7037888;-8.23438549041748;-94.87327575683594;30.67015266418457
219;1673372842.7569127;47.1310885;7.2399572999999995;1.6470000743865967;1673372842.9140468;-10.499906539916992;143.77523803710938;71.08930206298828
220;1673372842.9729187;47.1311025;7.2399512999999995;1.7990001440048218;1673372843.114894;8.633295059204102;47.80086135864258;84.12513732910156
221;1673372843.1689303;47.131117499999995;7.2399425;1.8310000896453857;1673372843.3040395;-5.226866722106934;-30.260229110717773;66.7564926147461
222;1673372843.3678284;47.1311337;7.2399355;1.5970001220703125;1673372843.5263946;-24.081031799316406;-39.59989929199219;59.29944610595703
223;1673372843.6130822;47.1311505;7.2399303999999995;1.5430001020431519;1673372843.765924;-20.512168884277344;-42.232357025146484;57.8884162902832
224;1673372843.8150892;47.131169;7.2399236;1.5600000619888306;1673372843.972291;-21.846017837524414;-43.543312072753906;57.48200225830078
225;1673372844.027133;47.131190499999995;7.239916699999999;1.503000020980835;1673372844.167885;-21.942668914794922;-45.897647857666016;57.35633850097656
226;1673372844.2382224;47.1312158;7.2399084;1.3000000715255737;1673372844.359986;-21.865869522094727;-44.62241744995117;57.122074127197266
227;1673372844.410975;47.131242199999996;7.2399005999999995;1.0750000476837158;1673372844.5378492;-21.763458251953125;-44.98622512817383;56.911468505859375
228;1673372844.586007;47.131271399999996;7.2398910999999995;0.7800000309944153;1673372844.7088728;-21.693708419799805;-44.50167465209961;56.612056732177734
229;1673372844.7609575;47.131302299999994;7.2398804;0.45600003004074097;1673372844.891967;-21.519033432006836;-44.255924224853516;56.23482894897461
230;1673372844.9488938;47.131333999999995;7.2398685;0.12000000476837158;1673372845.1090205;-21.403898239135742;-44.04941940307617;56.024784088134766
231;1673372845.169917;47.1313688;7.2398558;-0.3760000169277191;1673372845.3089871;-21.50009536743164;-44.04974365234375;56.0107421875
232;1673372845.3732638;47.131406899999995;7.2398424;-1.0500000715255737;1673372845.5422134;-21.53126335144043;-44.00048065185547;55.94890594482422
233;1673372845.5950613;47.1314498;7.239827699999999;-1.8950001001358032;1673372845.7340157;-21.5537109375;-43.97010040283203;55.89007568359375
234;1673372845.7901673;47.1314919;7.2398133;-2.7810001373291016;1673372845.9279487;-21.58357810974121;-43.929683685302734;55.81238555908203
235;1673372845.9841866;47.1315381;7.2397974;-3.7850000858306885;1673372846.121968;-21.653553009033203;-43.91719055175781;55.82948303222656
236;1673372846.1797984;47.1315878;7.239780799999999;-4.711000442504883;1673372846.3487399;-21.61487579345703;-43.824710845947266;55.713645935058594
237;1673372846.4209476;47.1316383;7.2397629;-5.842000484466553;1673372846.5557132;-21.2738037109375;-43.191219329833984;55.29320526123047
238;1673372846.6072044;47.1316807;7.239744099999999;-6.503000259399414;1673372846.735327;-21.008853912353516;-42.52721405029297;54.84713363647461
239;1673372846.7869716;47.1317215;7.2397246;-1.2860000133514404;1673372846.9241054;-20.935163497924805;-42.32675552368164;54.664154052734375
240;1673372846.983101;47.1317702;7.239704199999999;-0.6840000152587891;1673372847.128137;-20.952442169189453;-42.313724517822266;54.617454528808594
241;1673372847.195957;47.131824699999996;7.239682999999999;-0.42500001192092896;1673372847.362482;-20.971227645874023;-42.25339889526367;54.57084274291992
242;1673372847.4380195;47.1318832;7.239661;-0.35200002789497375;1673372847.6111922;-20.970623016357422;-42.183841705322266;54.499603271484375
243;1673372847.6591675;47.1319448;7.2396382;-0.367000013589859;1673372847.802024;-20.972291946411133;-42.12849044799805;54.44084930419922
244;1673372847.85467;47.132009599999996;7.2396144;-0.5049999952316284;1673372847.9759636;-20.972169876098633;-42.00807571411133;54.35298538208008
245;1673372848.0292962;47.132075799999996;7.239590199999999;-0.5920000076293945;1673372848.1592226;-20.98040199279785;-41.866050720214844;54.276241302490234
246;1673372848.2082624;47.1321465;7.239564199999999;-0.6310000419616699;1673372848.3593948;-20.954748153686523;-41.292625427246094;54.21440887451172
247;1673372848.4161427;47.1322137;7.239539499999999;-0.6440000534057617;1673372848.551917;-20.935182571411133;-41.133445739746094;54.151405334472656
248;1673372848.6009564;47.1322311;7.2395331999999994;29.281002044677734;;;;
