;pos_time;latitude;longitude;altitude;alt_time;pitch;roll;yaw
0;1673372869.9510775;47.1306424;7.240619499999999;-0.012000000104308128;1673372870.095395;0.27342528104782104;-0.0138896144926548;89.82266998291016
1;1673372870.1512756;47.1306424;7.2406196;-0.014000000432133675;1673372870.2940667;-0.011963742785155773;-0.2717745304107666;89.84571075439453
2;1673372870.3520074;47.1306423;7.2406197;-0.015000000596046448;1673372870.5097413;-0.06099238619208336;-0.4391292333602905;89.83187866210938
3;1673372870.5881424;47.1306423;7.240619799999999;-0.01600000075995922;1673372870.736078;-0.05310199037194252;-0.3430507779121399;89.964599609375
4;1673372870.7871985;47.1306423;7.240619799999999;-0.015000000596046448;1673372870.9210486;0.010898459702730179;-0.35167017579078674;89.98261260986328
5;1673372870.9861882;47.1306423;7.240619799999999;-0.01100000087171793;1673372871.119089;0.3416653871536255;-0.32469359040260315;89.92545318603516
6;1673372871.169867;47.1306423;7.240619799999999;-0.010000000707805157;1673372871.2959971;0.3053194284439087;-0.377138614654541;90.0062484741211
7;1673372871.3418622;47.1306423;7.2406197;-0.00800000037997961;1673372871.4790537;0.07278645783662796;-0.32060205936431885;89.7997055053711
8;1673372871.5333085;47.1306423;7.2406197;-0.00800000037997961;1673372871.6672122;0.04123257100582123;-0.26054081320762634;89.96859741210938
9;1673372871.7315614;47.1306423;7.2406197;-0.012000000104308128;1673372871.8939004;-0.13779263198375702;-0.285404771566391;89.9229965209961
10;1673372871.956596;47.1306423;7.240619799999999;-0.015000000596046448;1673372872.0951028;-0.1977846920490265;-0.1467573493719101;89.78990936279297
11;1673372872.1550796;47.1306423;7.240619799999999;-0.017000000923871994;1673372872.306015;-0.09382172673940659;-0.5025857090950012;89.9832992553711
12;1673372872.36703;47.1306423;7.240619799999999;-0.018000001087784767;1673372872.5033584;0.12458505481481552;-0.2842893600463867;89.90667724609375
13;1673372872.5576134;47.1306423;7.2406197;-0.021000001579523087;1673372872.6988857;0.20070740580558777;-0.3856930732727051;89.7159194946289
14;1673372872.7558398;47.1306423;7.2406197;-0.027000000700354576;1673372872.9000175;0.29376545548439026;-0.43283990025520325;89.57960510253906
15;1673372872.9590628;47.1306423;7.2406197;-0.004000000189989805;1673372873.0915258;0.1750859171152115;-0.4974302649497986;89.92720794677734
16;1673372873.147256;47.1306423;7.240619799999999;-0.007000000216066837;1673372873.2925882;0.2761697769165039;-0.4634103775024414;89.74901580810547
17;1673372873.3492742;47.1306423;7.2406198999999996;-0.009000000543892384;1673372873.5065808;0.21585926413536072;-0.43810781836509705;89.786865234375
18;1673372873.5637841;47.1306423;7.2406198999999996;-0.009000000543892384;1673372873.7065423;0.08922700583934784;-0.5490525960922241;90.02655029296875
19;1673372873.7591255;47.1306423;7.24062;-0.006000000052154064;1673372873.9062266;0.07414598762989044;-0.6704241633415222;90.0733413696289
20;1673372873.9673514;47.1306423;7.24062;-0.004000000189989805;1673372874.118128;-0.15804386138916016;-0.4158417582511902;89.88189697265625
21;1673372874.170829;47.1306423;7.2406201;-0.006000000052154064;1673372874.3065472;0.006916206330060959;-0.7154665589332581;89.88533782958984
22;1673372874.3591013;47.1306423;7.2406201;-0.00800000037997961;1673372874.4993558;-0.003113979008048773;-0.7667931318283081;89.79485321044922
23;1673372874.5542204;47.1306423;7.2406201;0.0;1673372874.6933692;0.22298197448253632;-0.1854996532201767;89.73566436767578
24;1673372874.7593617;47.1306424;7.24062;-0.0020000000949949026;1673372874.8985467;0.035056162625551224;-0.7339916825294495;89.99453735351562
25;1673372874.9603612;47.1306424;7.24062;-0.006000000052154064;1673372875.1182442;0.4169769585132599;-0.757289469242096;90.00627136230469
26;1673372875.1793926;47.1306424;7.2406198999999996;-0.006000000052154064;1673372875.3282788;0.2967788577079773;-0.3420467674732208;90.33285522460938
27;1673372875.387378;47.1306424;7.2406198999999996;-0.006000000052154064;1673372875.532327;0.35579752922058105;-0.3892241418361664;90.2153549194336
28;1673372875.5892942;47.1306424;7.24062;-0.003000000026077032;1673372875.739331;0.17151375114917755;-0.5050027966499329;90.29237365722656
29;1673372875.7893353;47.1306424;7.24062;0.0;1673372875.9113317;0.14883124828338623;-0.5246104001998901;90.14285278320312
30;1673372875.9688215;47.1306424;7.24062;0.0;1673372876.1332896;0.39972078800201416;-0.5008831024169922;89.8473129272461
31;1673372876.1922474;47.1306424;7.24062;0.0;1673372876.330439;0.10931063443422318;-0.42948561906814575;87.95340728759766
32;1673372876.3834355;47.1306425;7.2406198999999996;0.0;1673372876.522418;-0.45538976788520813;2.2634739875793457;84.51721954345703
33;1673372876.5694516;47.130642599999995;7.2406196;0.00800000037997961;1673372876.7703776;-2.486701488494873;5.3005805015563965;85.02832794189453
34;1673372876.8159761;47.130642699999996;7.240619199999999;0.02500000037252903;1673372876.9282565;-8.21850872039795;8.342668533325195;85.83271789550781
35;1673372876.9963095;47.1306428;7.2406188;0.04700000211596489;1673372877.1185625;-10.138551712036133;9.197937965393066;86.51750946044922
36;1673372877.1684582;47.1306428;7.2406185;0.0860000029206276;1673372877.3085313;-8.435211181640625;10.536625862121582;86.79458618164062
37;1673372877.3605359;47.130642699999996;7.2406185;0.14800000190734863;1673372877.4998066;-6.6179070472717285;5.338207244873047;87.40657806396484
38;1673372877.563374;47.1306424;7.2406185;0.22800001502037048;1673372877.703195;-7.056967258453369;3.9483344554901123;88.0577621459961
39;1673372877.7619696;47.1306423;7.2406185999999995;0.32100000977516174;1673372877.9265773;-7.630178928375244;7.981194972991943;88.1675796508789
40;1673372877.9937396;47.1306423;7.2406188;0.4270000159740448;1673372878.1124341;-7.604618549346924;7.996024131774902;88.3203125
41;1673372878.1628084;47.1306423;7.2406191;0.5460000038146973;1673372878.3216486;-6.746556758880615;3.9701850414276123;88.88412475585938
42;1673372878.3833408;47.1306422;7.2406194;0.675000011920929;1673372878.5602758;-5.857468128204346;7.41251802444458;88.28837585449219
43;1673372878.613046;47.130641999999995;7.2406197;0.8160000443458557;1673372878.7869742;-5.647226810455322;8.350849151611328;88.07864379882812
44;1673372878.8620174;47.1306419;7.2406198999999996;0.9760000705718994;1673372878.983268;-5.63934326171875;3.1093173027038574;88.7496566772461
45;1673372879.0281484;47.1306418;7.2406201;1.152999997138977;1673372879.1410189;-5.666072368621826;6.213428497314453;88.5877456665039
46;1673372879.215729;47.1306418;7.2406201999999995;1.343000054359436;1673372879.3630664;-5.923771858215332;9.044567108154297;88.45821380615234
47;1673372879.4157696;47.1306418;7.2406201999999995;1.5390000343322754;1673372879.5424333;-6.294124603271484;4.843040943145752;87.62865447998047
48;1673372879.5928733;47.1306418;7.2406201;1.7380000352859497;1673372879.732008;-6.264374732971191;4.990373611450195;87.8039321899414
49;1673372879.7863448;47.1306418;7.2406201;1.9340001344680786;1673372879.919773;-6.477828502655029;9.45946216583252;87.23560333251953
50;1673372879.9711156;47.1306418;7.24062;2.132000207901001;1673372880.1231842;-6.350465297698975;5.006531238555908;87.76889038085938
51;1673372880.179941;47.1306417;7.2406198999999996;2.3350000381469727;1673372880.330861;-6.4365129470825195;3.6054329872131348;87.94989013671875
52;1673372880.380327;47.1306418;7.2406198999999996;2.5410001277923584;1673372880.5188055;-6.726522445678711;9.792787551879883;87.58321380615234
53;1673372880.6053681;47.130641999999995;7.2406198999999996;2.745000123977661;1673372880.7336586;-7.286791801452637;6.668062686920166;87.91860961914062
54;1673372880.7898805;47.130642099999996;7.240619799999999;2.945000171661377;1673372880.9271603;-7.048924922943115;4.377213954925537;88.17742919921875
55;1673372880.9794657;47.130642099999996;7.240619799999999;3.1440000534057617;1673372881.111926;-6.870372295379639;8.785407066345215;87.48873901367188
56;1673372881.170129;47.130642099999996;7.2406198999999996;3.3460001945495605;1673372881.3222907;-6.144594192504883;7.084293365478516;87.56241607666016
57;1673372881.3892019;47.130642099999996;7.2406201;3.5490002632141113;1673372881.529322;-6.288980484008789;3.8490495681762695;88.02735137939453
58;1673372881.591643;47.1306422;7.2406201;3.754000186920166;1673372881.7344887;-6.233988285064697;8.798632621765137;87.5631332397461
59;1673372881.7908063;47.1306424;7.2406201999999995;3.9610002040863037;1673372881.9467032;-6.3128743171691895;8.892905235290527;87.56700134277344
60;1673372882.001163;47.1306425;7.2406203;4.163000106811523;1673372882.15436;-6.265591621398926;4.364388942718506;87.98487854003906
61;1673372882.225744;47.1306425;7.2406203;4.360000133514404;1673372882.3920937;-6.686814308166504;7.8628764152526855;87.4909439086914
62;1673372882.4521782;47.1306424;7.2406203;4.559000015258789;1673372882.601307;-6.327592849731445;8.394865036010742;87.5228271484375
63;1673372882.6545634;47.1306424;7.2406203;4.76200008392334;1673372882.818333;-6.390073776245117;4.09231424331665;88.14897155761719
64;1673372882.8598602;47.1306424;7.2406203;4.966000080108643;1673372882.975695;-6.16077184677124;7.718635082244873;87.83888244628906
65;1673372883.0284326;47.130642599999995;7.2406203;5.172000408172607;1673372883.1433501;-6.1390180587768555;10.02133560180664;87.60440826416016
66;1673372883.1987615;47.130642699999996;7.2406201999999995;5.380000114440918;1673372883.3400776;-6.790928840637207;4.829514026641846;88.20075225830078
67;1673372883.4001462;47.130642699999996;7.2406201999999995;5.586000442504883;1673372883.5356455;-7.235876560211182;6.3726606369018555;87.79846954345703
68;1673372883.592907;47.130642699999996;7.2406201;5.7910003662109375;1673372883.7393372;-6.853160381317139;10.121940612792969;87.21648406982422
69;1673372883.7971704;47.130642599999995;7.24062;5.992000102996826;1673372883.9438775;-6.85398006439209;5.004294395446777;87.75234985351562
70;1673372883.995174;47.130642599999995;7.24062;6.195000171661377;1673372884.1415226;-6.679915428161621;5.654707431793213;87.85609436035156
71;1673372884.1978245;47.130642699999996;7.24062;6.401000499725342;1673372884.3400419;-6.356009006500244;10.532716751098633;87.5018310546875
72;1673372884.4001145;47.1306428;7.24062;6.604000091552734;1673372884.5308897;-6.559242248535156;6.2830986976623535;87.81980895996094
73;1673372884.5846236;47.1306428;7.24062;6.806000232696533;1673372884.7211113;-6.782797336578369;5.061675548553467;87.8994369506836
74;1673372884.7792387;47.130642699999996;7.2406201;7.006000518798828;1673372884.9035015;-6.7906107902526855;9.769036293029785;87.36968231201172
75;1673372884.952896;47.130642599999995;7.2406201999999995;7.203000545501709;1673372885.0961268;-6.783714771270752;6.6057844161987305;87.88155364990234
76;1673372885.155332;47.1306425;7.2406201999999995;7.40000057220459;1673372885.300519;-6.717168807983398;4.160143852233887;88.20074462890625
77;1673372885.3604841;47.1306425;7.2406203;7.6020002365112305;1673372885.505458;-6.150811672210693;9.32552433013916;87.48099517822266
78;1673372885.5637262;47.130642599999995;7.2406203;7.806000232696533;1673372885.70906;-6.2687225341796875;8.503862380981445;87.61834716796875
79;1673372885.7721467;47.130642599999995;7.2406203;8.01200008392334;1673372885.9202135;-6.345105171203613;4.048803806304932;88.14201354980469
80;1673372885.9754224;47.1306425;7.2406204;8.214000701904297;1673372886.1098695;-6.4391560554504395;8.344647407531738;87.6399154663086
81;1673372886.1719587;47.130642599999995;7.2406204;8.417000770568848;1673372886.3180509;-6.686910152435303;8.584806442260742;87.54219055175781
82;1673372886.375344;47.130642599999995;7.2406204;8.61500072479248;1673372886.5118287;-6.855461120605469;4.25498628616333;88.07327270507812
83;1673372886.5730417;47.130642699999996;7.2406204;8.813000679016113;1673372886.721289;-6.523036003112793;8.535653114318848;87.62200927734375
84;1673372886.7780983;47.1306428;7.2406204;9.010000228881836;1673372886.9272354;-6.254164218902588;9.738893508911133;87.35785675048828
85;1673372886.9864082;47.1306428;7.2406204;9.205000877380371;1673372887.1372514;-6.159624099731445;4.512786388397217;87.78900146484375
86;1673372887.198622;47.130642699999996;7.2406204;9.398000717163086;1673372887.3408358;-6.460052967071533;6.449807643890381;87.64944458007812
87;1673372887.399154;47.130642699999996;7.2406203;9.594000816345215;1673372887.5468788;-6.836706161499023;9.743359565734863;87.52820587158203
88;1673372887.6021504;47.130642699999996;7.2406203;9.789000511169434;1673372887.7502491;-6.846680164337158;4.932593822479248;88.1569595336914
89;1673372887.8050334;47.130642699999996;7.2406203;9.984000205993652;1673372887.9714465;-6.787853717803955;6.618181228637695;87.8992919921875
90;1673372888.0436697;47.130642699999996;7.2406203;10.182000160217285;1673372888.1881855;-6.724108695983887;9.759594917297363;87.4906997680664
91;1673372888.235033;47.130642699999996;7.2406204;10.455000877380371;1673372888.3929412;-7.422379970550537;7.855838775634766;87.86581420898438
92;1673372888.439784;47.1306425;7.2406206;10.809000968933105;1673372888.5675743;-6.759223937988281;4.564785480499268;88.26103973388672
93;1673372888.6193142;47.1306422;7.240620799999999;11.1850004196167;1673372888.7565646;-5.875069618225098;8.66546630859375;87.5521240234375
94;1673372888.8030124;47.130641999999995;7.240621099999999;11.575000762939453;1673372888.930481;-5.554052352905273;6.739808559417725;87.58577728271484
95;1673372888.9761758;47.1306419;7.2406213;11.971000671386719;1673372889.1155033;-5.436944484710693;3.2585160732269287;88.17571258544922
96;1673372889.171807;47.1306419;7.240621399999999;12.371000289916992;1673372889.3149562;-5.430189609527588;7.332091331481934;87.59957885742188
97;1673372889.3770745;47.130641999999995;7.240621399999999;12.772000312805176;1673372889.5131328;-5.359695911407471;8.261921882629395;87.49710083007812
98;1673372889.5733807;47.1306419;7.240621399999999;13.175000190734863;1673372889.7151773;-5.766595840454102;3.6536946296691895;87.97196197509766
99;1673372889.7719102;47.1306419;7.2406213;13.580000877380371;1673372889.9270115;-5.818234920501709;6.47437047958374;87.65608215332031
100;1673372889.9848459;47.130641999999995;7.240621099999999;13.983000755310059;1673372890.1291177;-6.106714725494385;9.066484451293945;87.51692962646484
101;1673372890.1804583;47.130641999999995;7.2406209;14.383000373840332;1673372890.3186831;-6.597735404968262;4.698126792907715;88.12303924560547
102;1673372890.377091;47.130642099999996;7.2406207;14.782000541687012;1673372890.5094843;-6.811093807220459;6.323820114135742;87.97260284423828
103;1673372890.5649047;47.1306422;7.2406206;15.178000450134277;1673372890.710871;-6.430362224578857;9.78634262084961;87.37516021728516
104;1673372890.7682836;47.1306423;7.2406204999999995;15.57300090789795;1673372890.903703;-6.373622894287109;5.542055606842041;87.6379165649414
105;1673372890.958577;47.1306422;7.2406204999999995;15.9660005569458;1673372891.0969043;-6.603318214416504;5.193042278289795;87.91275024414062
106;1673372891.1537538;47.1306423;7.2406204999999995;16.362001419067383;1673372891.306162;-6.34461784362793;9.950273513793945;87.53309631347656
107;1673372891.3608713;47.1306423;7.2406204999999995;16.756999969482422;1673372891.4997196;-6.363274097442627;7.1779351234436035;87.97090911865234
108;1673372891.5583472;47.1306424;7.2406204999999995;17.1510009765625;1673372891.7070034;-6.500929355621338;4.44052267074585;87.97511291503906
109;1673372891.7804823;47.1306424;7.2406204999999995;17.54800033569336;1673372891.9303532;-6.40434455871582;9.092560768127441;87.4224624633789
110;1673372891.9843853;47.1306424;7.2406204999999995;17.944000244140625;1673372892.1543677;-6.071154594421387;8.079534530639648;87.49565887451172
111;1673372892.2158709;47.1306424;7.2406206;18.34000015258789;1673372892.3554287;-6.096717357635498;4.008276462554932;87.95794677734375
112;1673372892.4037914;47.1306423;7.2406206;18.73400115966797;1673372892.5432682;-6.050012111663818;7.589559078216553;87.81084442138672
113;1673372892.6128438;47.1306423;7.2406206;19.12200164794922;1673372892.7315426;-5.994942665100098;8.355032920837402;87.5366439819336
114;1673372892.8176255;47.1306423;7.2406204999999995;19.51300048828125;1673372892.962421;-6.147721767425537;4.204298973083496;87.98648834228516
115;1673372893.013821;47.1306423;7.2406204999999995;19.910001754760742;1673372893.138649;-6.323830604553223;7.086619853973389;87.77734375
116;1673372893.1909943;47.1306424;7.2406204;20.306001663208008;1673372893.3589513;-6.384552955627441;9.614360809326172;87.49166870117188
117;1673372893.4121838;47.1306425;7.2406203;20.69900131225586;1673372893.5435152;-6.599999904632568;5.04949951171875;88.0948715209961
118;1673372893.5959127;47.1306424;7.2406203;21.093000411987305;1673372893.731197;-6.542060852050781;5.838672637939453;87.85504150390625
119;1673372893.7883856;47.1306424;7.2406201999999995;21.48900032043457;1673372893.9314713;-6.459096908569336;9.798176765441895;87.23696899414062
120;1673372894.0013738;47.1306425;7.2406201999999995;21.885000228881836;1673372894.1385245;-6.16140079498291;6.296213626861572;87.73346710205078
121;1673372894.1959145;47.1306425;7.2406201;22.27800178527832;1673372894.324613;-6.329006671905518;5.213184833526611;87.99579620361328
122;1673372894.390662;47.130642599999995;7.2406201;22.676000595092773;1673372894.5543587;-6.33542013168335;9.901654243469238;87.56876373291016
123;1673372894.6126168;47.130642599999995;7.24062;23.07200050354004;1673372894.7547002;-6.512583255767822;7.1225762367248535;87.88822174072266
124;1673372894.8186867;47.1306425;7.2406198999999996;23.465002059936523;1673372894.9640012;-6.914754390716553;4.348200798034668;88.02556610107422
125;1673372895.019328;47.1306424;7.2406198999999996;23.858001708984375;1673372895.1984076;-6.735774517059326;8.966108322143555;87.37730407714844
126;1673372895.2472212;47.1306424;7.2406198999999996;24.251001358032227;1673372895.3841622;-6.413772106170654;8.268982887268066;87.65288543701172
127;1673372895.4397843;47.1306424;7.2406198999999996;24.644001007080078;1673372895.565464;-6.350991725921631;4.36267614364624;88.06574249267578
128;1673372895.6196127;47.1306425;7.2406198999999996;25.041000366210938;1673372895.7582116;-6.310084342956543;8.181715965270996;87.54096984863281
129;1673372895.8163471;47.1306425;7.24062;25.439001083374023;1673372895.9509249;-6.027606010437012;9.387661933898926;87.35951232910156
130;1673372896.007113;47.1306425;7.24062;25.838001251220703;1673372896.1512294;-6.118575096130371;4.534832954406738;87.89875030517578
131;1673372896.2194653;47.1306424;7.24062;26.23900032043457;1673372896.3604183;-6.2631754875183105;6.794971942901611;87.93025207519531
132;1673372896.4107568;47.1306424;7.24062;26.64200210571289;1673372896.5646477;-6.234638690948486;9.6847505569458;87.52994537353516
133;1673372896.616447;47.1306424;7.2406198999999996;27.040000915527344;1673372896.7591221;-6.4518537521362305;5.447695732116699;87.87581634521484
134;1673372896.811487;47.1306424;7.240619799999999;27.435001373291016;1673372896.945853;-6.694798946380615;6.03923225402832;87.83863830566406
135;1673372897.0000808;47.1306425;7.240619799999999;27.832000732421875;1673372897.132607;-6.405881881713867;10.275742530822754;87.23109436035156
136;1673372897.1957142;47.1306425;7.240619799999999;28.229001998901367;1673372897.3311558;-6.319880962371826;6.72401237487793;87.68277740478516
137;1673372897.3932886;47.1306424;7.240619799999999;28.626001358032227;1673372897.531537;-6.203010082244873;4.561944961547852;88.0393295288086
138;1673372897.5837631;47.1306423;7.240619799999999;29.024002075195312;1673372897.7180536;-6.125478744506836;9.169238090515137;87.59843444824219
139;1673372897.770771;47.1306423;7.240619799999999;29.421001434326172;1673372897.9156106;-6.24099588394165;7.886919975280762;87.59796905517578
140;1673372897.9703176;47.1306422;7.240619799999999;29.81800079345703;1673372898.1199899;-6.530057430267334;4.269576072692871;87.97779083251953
141;1673372898.1772249;47.1306423;7.240619799999999;30.216001510620117;1673372898.320706;-6.549633502960205;8.495617866516113;87.44781494140625
142;1673372898.3839278;47.1306423;7.240619799999999;30.614002227783203;1673372898.5404072;-6.313818454742432;8.863828659057617;87.58091735839844
143;1673372898.5966275;47.1306422;7.240619799999999;31.012001037597656;1673372898.7473497;-6.616234302520752;4.07573127746582;88.15725708007812
144;1673372898.8017435;47.130642099999996;7.240619799999999;31.408000946044922;1673372898.9400463;-6.418761730194092;7.33879280090332;87.77079772949219
145;1673372899.0404136;47.130642099999996;7.240619799999999;31.810001373291016;1673372899.189926;-6.180896759033203;8.956092834472656;87.37145233154297
146;1673372899.2453108;47.1306422;7.240619799999999;32.21200180053711;1673372899.3783798;-6.173157691955566;5.191756248474121;87.906982421875
147;1673372899.430136;47.1306423;7.240619799999999;32.611000061035156;1673372899.5724876;-6.420919418334961;6.623631000518799;87.93974304199219
148;1673372899.622806;47.1306423;7.240619799999999;33.01100158691406;1673372899.7476764;-6.284029483795166;9.468490600585938;87.48106384277344
149;1673372899.7950532;47.1306423;7.240619799999999;33.41200256347656;1673372899.939246;-6.444180011749268;6.198999881744385;87.78939056396484
150;1673372899.993565;47.1306422;7.2406198999999996;33.8129997253418;1673372900.1360204;-6.648577690124512;4.8259687423706055;87.84929656982422
151;1673372900.1879761;47.1306422;7.2406198999999996;34.21500015258789;1673372900.3241825;-6.361749172210693;9.386905670166016;87.32653045654297
152;1673372900.383307;47.1306422;7.2406198999999996;34.617000579833984;1673372900.5226092;-6.114477634429932;6.801627159118652;87.6543960571289
153;1673372900.5821922;47.1306423;7.2406198999999996;35.01700210571289;1673372900.7288086;-6.307794094085693;4.498404026031494;88.14028930664062
154;1673372900.785991;47.1306424;7.2406198999999996;35.42100143432617;1673372900.9310143;-6.333271026611328;9.382406234741211;87.50182342529297
155;1673372900.9969554;47.1306425;7.2406198999999996;35.82200241088867;1673372901.1470659;-6.206800937652588;8.139328956604004;87.62957000732422
156;1673372901.206712;47.1306425;7.2406198999999996;36.220001220703125;1673372901.3539863;-6.547534465789795;4.396121978759766;88.0479965209961
157;1673372901.4077108;47.1306424;7.2406198999999996;36.61800003051758;1673372901.5450077;-6.684233665466309;8.369974136352539;87.45073699951172
158;1673372901.604146;47.1306425;7.2406198999999996;37.01700210571289;1673372901.7416418;-6.400500297546387;9.359617233276367;87.47927856445312
159;1673372901.7973676;47.130642599999995;7.2406198999999996;37.40800094604492;1673372901.9346683;-6.617404460906982;5.2749786376953125;88.1131820678711
160;1673372901.985042;47.130642599999995;7.2406198999999996;37.80000305175781;1673372902.1212614;-6.635623455047607;7.0017008781433105;87.7802505493164
161;1673372902.173055;47.130642699999996;7.2406198999999996;38.19700241088867;1673372902.3097963;-6.275363922119141;9.787773132324219;87.29469299316406
162;1673372902.3722706;47.130642599999995;7.2406198999999996;38.592002868652344;1673372902.5159216;-6.18994140625;5.456487655639648;87.7354736328125
163;1673372902.5716276;47.1306425;7.2406198999999996;38.986000061035156;1673372902.7213185;-6.279714584350586;5.546096324920654;87.92644500732422
164;1673372902.7873847;47.1306424;7.24062;39.38100051879883;1673372902.9345922;-6.372251033782959;9.761367797851562;87.56769561767578
165;1673372902.9870374;47.1306424;7.24062;39.77400207519531;1673372903.1323144;-6.416172504425049;5.934528827667236;87.8504409790039
166;1673372903.1910038;47.1306424;7.24062;40.1670036315918;1673372903.3429956;-6.497732639312744;5.362982273101807;87.94403839111328
167;1673372903.3982008;47.1306425;7.24062;40.56500244140625;1673372903.5395508;-6.39847469329834;9.52853775024414;87.38782501220703
168;1673372903.5924282;47.1306425;7.24062;40.96500015258789;1673372903.7907946;-6.145264148712158;7.457927703857422;87.61644744873047
169;1673372903.8426218;47.1306424;7.24062;41.36300277709961;1673372903.9632895;-6.4316487312316895;4.340439796447754;87.97306060791016
170;1673372904.0145967;47.1306424;7.2406198999999996;41.76100158691406;1673372904.1439562;-6.299680709838867;8.686071395874023;87.60355377197266
171;1673372904.193447;47.1306424;7.2406198999999996;42.16100311279297;1673372904.3397279;-6.083744525909424;8.637495994567871;87.55908966064453
172;1673372904.3960311;47.1306425;7.240619799999999;42.55500030517578;1673372904.5332806;-6.470233917236328;4.832337379455566;87.93302154541016
173;1673372904.5851173;47.1306425;7.240619799999999;42.94900131225586;1673372904.7356904;-6.62739896774292;7.705962657928467;87.56871032714844
174;1673372904.7947125;47.130642599999995;7.240619799999999;43.34600067138672;1673372904.938765;-6.264566421508789;9.652168273925781;87.4221420288086
175;1673372904.9922101;47.1306425;7.240619799999999;43.74100112915039;1673372905.1385033;-6.541656494140625;4.6080827713012695;88.14098358154297
176;1673372905.1888943;47.1306424;7.2406197;44.134002685546875;1673372905.343655;-6.635278224945068;6.440529823303223;87.8861312866211
177;1673372905.4008298;47.1306424;7.2406197;44.52800369262695;1673372905.5460281;-6.291595935821533;9.675589561462402;87.3605728149414
178;1673372905.604804;47.1306425;7.2406197;44.919002532958984;1673372905.7566545;-6.211550235748291;5.597212314605713;87.77291107177734
179;1673372905.8139927;47.1306425;7.240619799999999;45.310001373291016;1673372905.952278;-6.249200344085693;5.980162620544434;87.97882843017578
180;1673372906.0352;47.130642599999995;7.240619799999999;45.70500183105469;1673372906.1862438;-6.18544864654541;10.083487510681152;87.52574920654297
181;1673372906.242959;47.1306425;7.240619799999999;46.10200119018555;1673372906.3886993;-6.371129512786865;6.187857151031494;87.8945541381836
182;1673372906.4493055;47.1306425;7.240619799999999;46.500003814697266;1673372906.5787964;-6.654219150543213;4.942334175109863;87.82271575927734
183;1673372906.6340058;47.1306424;7.240619799999999;46.89800262451172;1673372906.7711902;-6.449188709259033;9.671557426452637;87.31412506103516
184;1673372906.8315322;47.1306425;7.240619799999999;47.29500198364258;1673372906.9884527;-6.226982116699219;7.334697246551514;87.6396713256836
185;1673372907.044119;47.1306424;7.240619799999999;47.68600082397461;1673372907.2103696;-6.317966938018799;4.451566696166992;88.17378234863281
186;1673372907.2640493;47.1306425;7.2406197;48.06900405883789;1673372907.388737;-6.503844738006592;10.36788272857666;87.6604995727539
187;1673372907.4460819;47.1306425;7.2406197;48.410003662109375;1673372907.582655;-6.548027515411377;7.028713226318359;87.93993377685547
188;1673372907.6449082;47.1306425;7.2406196;48.704002380371094;1673372907.7965713;-6.918187618255615;4.715775966644287;88.0876693725586
189;1673372907.8474696;47.1306425;7.240619499999999;48.954002380371094;1673372908.0031307;-6.773050308227539;9.425545692443848;87.59546661376953
190;1673372908.0743783;47.130642599999995;7.2406194;49.1670036315918;1673372908.227313;-6.45374059677124;8.602156639099121;87.608154296875
191;1673372908.2937398;47.130642699999996;7.240619199999999;49.34300231933594;1673372908.41403;11.308451652526855;0.5802000164985657;85.22025299072266
192;1673372908.477002;47.1306428;7.2406185999999995;49.48500061035156;1673372908.609544;28.243263244628906;-20.553821563720703;72.0691909790039
193;1673372908.6524882;47.1306434;7.240615999999999;49.61100387573242;1673372908.769212;23.929941177368164;-25.644140243530273;62.963111877441406
194;1673372908.8195498;47.1306448;7.2406105;49.707000732421875;1673372908.9560812;10.270647048950195;-28.408336639404297;53.89932632446289
195;1673372909.0100737;47.1306471;7.2406025;49.788002014160156;1673372909.1512287;-1.1664941310882568;-23.027568817138672;43.165122985839844
196;1673372909.2025495;47.1306504;7.240593;49.85300064086914;1673372909.3505216;-12.026578903198242;-33.27678680419922;32.93464279174805
197;1673372909.4039214;47.130654899999996;7.2405821999999995;49.919002532958984;1673372909.595239;-27.86587142944336;-38.88918685913086;23.00667953491211
198;1673372909.6518602;47.1306612;7.240569799999999;49.97500228881836;1673372909.7746432;-42.49325942993164;-40.29347229003906;11.571935653686523
199;1673372909.8289282;47.130669999999995;7.2405548;50.0260009765625;1673372909.9710753;-49.83472442626953;-39.60065841674805;0.6129732131958008
200;1673372910.031205;47.1306813;7.2405364;50.064002990722656;1673372910.1807244;-55.74750900268555;-31.712570190429688;-11.943342208862305
201;1673372910.233329;47.1306948;7.2405143;50.08500289916992;1673372910.380123;-57.27998733520508;-21.799686431884766;-22.07482147216797
202;1673372910.4363046;47.130710099999995;7.240488999999999;50.07200241088867;1673372910.5767403;-56.0989990234375;-14.72802448272705;-27.95892333984375
203;1673372910.6374044;47.1307268;7.2404613;50.02900314331055;1673372910.7867076;-52.54804611206055;-8.669099807739258;-35.07129669189453
204;1673372910.8472543;47.1307445;7.2404321;49.96900177001953;1673372910.970017;-50.77519607543945;-5.641788005828857;-40.693321228027344
205;1673372911.0195043;47.130762999999995;7.2404018;49.875003814697266;1673372911.1589208;-35.51830291748047;-3.3834564685821533;-46.616432189941406
206;1673372911.211503;47.1307816;7.2403714;49.48100280761719;1673372911.3685806;0.8695278167724609;-4.405966758728027;-51.84812545776367
207;1673372911.4262068;47.130800099999995;7.2403412;48.72500228881836;1673372911.5665674;56.81742477416992;-16.323530197143555;-65.16983795166016
208;1673372911.631626;47.1308185;7.2403112;47.57100296020508;1673372911.7715762;63.1677360534668;-155.95516967773438;154.3145294189453
209;1673372911.82513;47.130837;7.2402811;46.04100036621094;1673372911.959584;29.840909957885742;-169.06741333007812;139.68115234375
210;1673372912.0176315;47.1308553;7.2402513;44.163002014160156;1673372912.1674538;23.685333251953125;-169.45826721191406;134.98812866210938
211;1673372912.2266474;47.1308733;7.240221999999999;41.91600036621094;1673372912.369469;44.380611419677734;-159.42706298828125;143.16151428222656
212;1673372912.4387155;47.130891;7.240193199999999;39.302001953125;1673372912.571517;65.41658782958984;-62.18623352050781;-122.70628356933594
213;1673372912.6306293;47.1309086;7.2401645;36.35300064086914;1673372912.7778103;5.965559959411621;-6.798472881317139;-75.18189239501953
214;1673372912.8325248;47.1309263;7.2401355999999994;33.02000045776367;1673372912.9808161;-47.889156341552734;6.233707427978516;-67.92399597167969
215;1673372913.0366735;47.130943699999996;7.2401072;29.29100227355957;1673372913.171205;-64.83393859863281;4.968408584594727;-59.64107131958008
216;1673372913.2216454;47.1309609;7.2400793;25.231000900268555;1673372913.3558693;-37.89064407348633;-3.5504255294799805;-49.914405822753906
217;1673372913.4077103;47.130977699999995;7.2400519;20.847000122070312;1673372913.5376992;25.05927085876465;-4.702342987060547;-47.4586067199707
218;1673372913.5969353;47.130994099999995;7.2400250999999995;16.08300018310547;1673372913.7508516;86.19485473632812;32.82212829589844;-11.156683921813965
219;1673372913.8025157;47.1310108;7.239998099999999;10.947000503540039;1673372913.941686;73.92487335205078;150.87103271484375;105.65738677978516
220;1673372913.9946141;47.131027499999995;7.239971;5.514000415802002;1673372914.135698;66.35183715820312;33.84513473510742;-9.064614295959473
221;1673372914.1916518;47.1310449;7.2399436999999995;0.10000000149011612;1673372914.335589;-32.85747528076172;5.290472507476807;-39.98822784423828
222;1673372914.3878193;47.131052499999996;7.2399496;0.7600000500679016;1673372914.5276234;-38.403018951416016;9.636220932006836;-58.329627990722656
223;1673372914.5815136;47.1310575;7.2399612;1.1800000667572021;1673372914.7197807;-48.92375946044922;11.215136528015137;-63.145198822021484
224;1673372914.7725992;47.131062199999995;7.2399758;1.5040000677108765;1673372914.9159057;-47.0426025390625;10.38054084777832;-62.36464309692383
225;1673372914.9748514;47.131066399999995;7.239988599999999;1.852000117301941;1673372915.1225116;-42.448387145996094;9.038241386413574;-60.07720184326172
226;1673372915.176405;47.131068899999995;7.239996199999999;2.2320001125335693;1673372915.3226438;-28.339874267578125;6.915055274963379;-56.33026123046875
227;1673372915.3799407;47.1310694;7.2399993;2.628000020980835;1673372915.5198004;-11.620089530944824;3.263557195663452;-53.700721740722656
228;1673372915.581714;47.131068899999995;7.2399976;3.0240001678466797;1673372915.7236214;-12.051222801208496;6.216729640960693;-53.58128356933594
229;1673372915.7885683;47.1310637;7.2399872;3.492000102996826;1673372915.9288688;-12.563655853271484;2.2075536251068115;-50.0806770324707
230;1673372915.9836211;47.131053;7.2399686999999995;4.014000415802002;1673372916.131626;-12.589290618896484;2.972360134124756;-49.957523345947266
231;1673372916.1897168;47.1310462;7.2399569999999995;4.414000034332275;1673372916.3506072;-12.302743911743164;2.282557249069214;-49.65815734863281
232;1673372916.4035523;47.1310412;7.2399493999999995;4.799000263214111;1673372916.5397265;-12.03686809539795;2.2919867038726807;-49.525482177734375
233;1673372916.5948853;47.1310383;7.239944899999999;5.15500020980835;1673372916.7470062;-11.741114616394043;2.115795373916626;-49.46190643310547
234;1673372916.800842;47.1310368;7.2399425;5.353000164031982;1673372916.960733;-11.381985664367676;2.0844850540161133;-49.50060272216797
235;1673372917.021677;47.1310363;7.2399415;5.332000255584717;1673372917.1737602;-11.073853492736816;2.0182034969329834;-49.5224494934082
236;1673372917.2257342;47.1310364;7.239941099999999;5.228000164031982;1673372917.354554;-10.7693452835083;1.9307910203933716;-49.56764602661133
237;1673372917.4038613;47.1310371;7.2399404999999994;5.1650004386901855;1673372917.5348914;-10.665216445922852;1.9335722923278809;-49.634029388427734
238;1673372917.5890012;47.1310384;7.2399397;5.154000282287598;1673372917.739689;-10.388166427612305;1.8650705814361572;-49.72115707397461
239;1673372917.797607;47.1310392;7.239939499999999;5.1020002365112305;1673372917.9505517;-10.130969047546387;1.8163996934890747;-49.85248565673828
240;1673372918.008804;47.1310399;7.2399394;5.045000076293945;1673372918.1475935;-9.985888481140137;1.7680302858352661;-49.92224884033203
241;1673372918.2042675;47.1310406;7.2399393;5.0;1673372918.3452835;-9.768178939819336;1.713356852531433;-50.01850891113281
242;1673372918.4053674;47.1310413;7.239939;4.974000453948975;1673372918.5494354;-9.662618637084961;1.6682542562484741;-50.10638427734375
243;1673372918.6037;47.131042199999996;7.2399382999999995;4.994000434875488;1673372918.747882;-9.563156127929688;1.6586359739303589;-50.15673065185547
244;1673372918.8028636;47.131043299999995;7.2399372;5.044000148773193;1673372918.9354086;-9.37780475616455;1.6390773057937622;-50.248558044433594
245;1673372918.9902217;47.1310441;7.2399366999999994;5.075000286102295;1673372919.1274378;-9.30148983001709;1.6208173036575317;-50.34331130981445
246;1673372919.1838045;47.131044599999996;7.2399363999999995;5.093000411987305;1673372919.3270748;-9.211264610290527;1.5850303173065186;-50.394832611083984
247;1673372919.382848;47.131045099999994;7.2399360999999995;5.110000133514404;1673372919.531614;-9.097329139709473;1.564450740814209;-50.459930419921875
248;1673372919.592618;47.1310456;7.2399358;5.124000072479248;1673372919.7386274;-8.983109474182129;1.556913137435913;-50.52035903930664
249;1673372919.799682;47.1310461;7.2399356;5.135000228881836;1673372919.9370909;-8.855307579040527;1.5309829711914062;-50.61238098144531
250;1673372919.987863;47.1310468;7.2399347;5.1610002517700195;1673372920.1393583;-8.802556037902832;1.5147614479064941;-50.651615142822266
251;1673372920.1982405;47.1310478;7.2399336;5.196000099182129;1673372920.3436167;-8.777441024780273;1.5065269470214844;-50.70726013183594
252;1673372920.3998585;47.131048299999996;7.239933;5.216000080108643;1673372920.547803;-8.675554275512695;1.4924509525299072;-50.762454986572266
253;1673372920.6081839;47.1310487;7.2399328;5.2260003089904785;1673372920.7561467;-8.572260856628418;1.4822959899902344;-50.817779541015625
254;1673372920.8135657;47.131049;7.2399327;5.2270002365112305;1673372920.950461;-8.452681541442871;1.459258794784546;-50.865821838378906
255;1673372921.0037503;47.1310492;7.2399325;5.218000411987305;1673372921.1480584;-8.305489540100098;1.3725594282150269;-50.9033088684082
256;1673372921.2005594;47.1310498;7.2399318;5.209000110626221;1673372921.384786;-8.22362995147705;1.3641026020050049;-50.93207931518555
257;1673372921.4405026;47.1310505;7.2399306999999995;-0.02200000174343586;1673372921.5811284;-8.076408386230469;1.3732482194900513;-51.00452423095703
258;1673372921.653754;47.1310509;7.2399302;-0.14800000190734863;1673372921.7862399;-7.959561347961426;1.358886480331421;-51.11674880981445
259;1673372921.879022;47.131051;7.2399302;-0.32600000500679016;;;;
