;pos_time;latitude;longitude;altitude;alt_time;pitch;roll;yaw
0;1673374733.1517982;47.1306424;7.240619799999999;-0.021000001579523087;1673374733.323741;0.06354144960641861;-0.8320052027702332;90.18112182617188
1;1673374733.3393507;47.1306424;7.2406198999999996;-0.02200000174343586;1673374733.5153072;0.2965148091316223;-0.24953283369541168;90.13214874267578
2;1673374733.5299814;47.1306424;7.2406198999999996;-0.023000001907348633;1673374733.71076;0.30509865283966064;-0.2924109697341919;90.12026977539062
3;1673374733.7293043;47.1306424;7.2406198999999996;-0.026000000536441803;1673374733.9146955;0.12184827029705048;-0.2730829417705536;90.23997497558594
4;1673374733.9303117;47.1306424;7.2406198999999996;-0.029000001028180122;1673374734.1298332;0.11775436252355576;-0.3121492266654968;90.35201263427734
5;1673374734.1454484;47.1306424;7.24062;-0.029000001028180122;1673374734.3400846;-0.022856267169117928;-0.33939656615257263;90.23265075683594
6;1673374734.356673;47.1306424;7.24062;-0.027000000700354576;1673374734.535941;-0.006646254099905491;-0.42418089509010315;90.32417297363281
7;1673374734.55351;47.1306424;7.24062;-0.02500000037252903;1673374734.7416813;-0.06254049390554428;-0.21365422010421753;90.17178344726562
8;1673374734.76233;47.1306424;7.2406201;-0.024000000208616257;1673374734.9299233;-0.24656660854816437;-0.4444935619831085;90.31068420410156
9;1673374734.9455721;47.1306424;7.2406201;-0.021000001579523087;1673374735.1391275;-0.11154896765947342;-0.2135397344827652;90.12518310546875
10;1673374735.1605997;47.1306424;7.2406201;-0.020000001415610313;1673374735.344942;0.15010324120521545;-0.4728703498840332;90.33261108398438
11;1673374735.3634899;47.1306424;7.24062;-0.02500000037252903;1673374735.5414212;0.027036450803279877;-0.20884732902050018;90.25091552734375
12;1673374735.5589893;47.1306424;7.24062;-0.027000000700354576;1673374735.7185848;-0.22029955685138702;-0.24528788030147552;90.28461456298828
13;1673374735.7323909;47.1306424;7.2406201;-0.027000000700354576;1673374735.915946;-0.22932206094264984;-0.3640921115875244;90.42005920410156
14;1673374735.9315698;47.1306424;7.2406201;-0.027000000700354576;1673374736.1143887;-0.2893826365470886;-0.22313758730888367;90.31130981445312
15;1673374736.1339066;47.1306423;7.2406201;0.0;1673374736.3335094;-0.2912071645259857;-0.35512369871139526;90.317626953125
16;1673374736.3501015;47.1306424;7.2406201;-0.003000000026077032;1673374736.5405214;-0.2642332911491394;-0.3274500072002411;90.2981185913086
17;1673374736.5580833;47.1306424;7.24062;-0.003000000026077032;1673374736.734433;-0.25970593094825745;-0.2222055196762085;90.38352966308594
18;1673374736.750116;47.1306424;7.24062;-0.0010000000474974513;1673374736.9393952;-0.05453619733452797;-0.33807235956192017;90.35100555419922
19;1673374736.9573808;47.1306424;7.24062;0.0;1673374737.139406;-0.03315211087465286;-0.25287264585494995;90.412353515625
20;1673374737.1592853;47.1306424;7.24062;0.0020000000949949026;1673374737.318641;-0.301106333732605;-0.393512487411499;90.45571899414062
21;1673374737.3365114;47.1306425;7.24062;0.0;1673374737.507466;-0.7338448762893677;-0.2156832218170166;90.15786743164062
22;1673374737.5226536;47.1306425;7.2406201;0.0;1673374737.7274015;-0.5934432744979858;-0.48991280794143677;90.34180450439453
23;1673374737.742542;47.1306425;7.2406201999999995;0.0;1673374737.9393482;-0.6831411123275757;-0.5169553160667419;90.3778305053711
24;1673374737.9555073;47.1306424;7.2406201;-0.0010000000474974513;1673374738.139337;-0.6667230129241943;-0.5025902390480042;90.65187072753906
25;1673374738.154769;47.1306425;7.2406201;-0.004000000189989805;1673374738.336557;-0.9154383540153503;-0.3875395655632019;90.73271942138672
26;1673374738.3524508;47.1306425;7.24062;-0.004000000189989805;1673374738.551601;-0.9065293669700623;-0.4994926154613495;91.09918975830078
27;1673374738.5663307;47.1306425;7.24062;-0.003000000026077032;1673374738.7479036;-1.1689949035644531;-0.05449560657143593;91.22145080566406
28;1673374738.7650383;47.130642599999995;7.2406201;-0.004000000189989805;1673374738.9372764;-0.9756777286529541;0.055658161640167236;96.371826171875
29;1673374738.9555824;47.130642699999996;7.2406203;-0.004000000189989805;1673374739.1493173;-0.7126457691192627;0.018475808203220367;108.27882385253906
30;1673374739.16591;47.1306429;7.240620799999999;-0.0010000000474974513;1673374739.3556137;0.9623712301254272;-0.054140783846378326;109.94208526611328
31;1673374739.3683743;47.1306429;7.240622;0.0020000000949949026;1673374739.5314808;3.3076887130737305;0.03886406123638153;108.77764892578125
32;1673374739.5469742;47.1306429;7.2406242;0.00800000037997961;1673374739.7214954;9.070502281188965;0.2408006489276886;109.5501937866211
33;1673374739.7404172;47.130643;7.2406273;0.021000001579523087;1673374739.9236944;12.761396408081055;2.2731075286865234;108.95040893554688
34;1673374739.9393852;47.130643;7.240631199999999;0.030000001192092896;1673374740.1104448;14.668755531311035;4.7567830085754395;107.52418518066406
35;1673374740.1265588;47.130643;7.2406358;0.0430000014603138;1673374740.3166218;16.361221313476562;6.446151256561279;106.92955780029297
36;1673374740.3346062;47.130643;7.240641;0.06100000441074371;1673374740.5243716;17.474912643432617;7.228256702423096;106.65608215332031
37;1673374740.5413206;47.130643;7.2406467;0.08400000631809235;1673374740.7225647;18.986597061157227;6.68449592590332;106.25570678710938
38;1673374740.739248;47.1306429;7.2406526;0.10900000482797623;1673374740.927344;20.93159294128418;6.326596736907959;105.90386962890625
39;1673374740.942973;47.1306428;7.240658499999999;0.13700000941753387;1673374741.1185758;22.723573684692383;7.450161457061768;105.88313293457031
40;1673374741.1322503;47.130642599999995;7.2406644;0.17000000178813934;1673374741.3152947;24.688718795776367;7.329122066497803;105.70954895019531
41;1673374741.3377504;47.1306425;7.2406701;0.20100000500679016;1673374741.5128634;26.898283004760742;6.725063323974609;105.3158950805664
42;1673374741.5295131;47.1306423;7.2406752999999995;0.23000000417232513;1673374741.7068105;28.93025779724121;7.989001274108887;105.3399658203125
43;1673374741.7215548;47.1306423;7.240679999999999;0.2550000250339508;1673374741.9035466;30.967161178588867;8.19400691986084;105.25415802001953
44;1673374741.9181743;47.1306422;7.2406839;0.2770000100135803;1673374742.1119165;33.29088592529297;7.795721530914307;104.85203552246094
45;1673374742.1304605;47.130642099999996;7.2406871;0.29600000381469727;1673374742.3368857;35.31946563720703;8.822676658630371;104.91829681396484
46;1673374742.3530288;47.130642099999996;7.240689199999999;0.31700000166893005;1673374742.5341914;37.49552917480469;9.228094100952148;104.77140808105469
47;1673374742.5513277;47.130642099999996;7.2406903;0.33800002932548523;1673374742.7415671;39.744022369384766;9.183161735534668;104.4532470703125
48;1673374742.7577102;47.130642099999996;7.2406901999999995;0.3620000183582306;1673374742.9418826;41.8626594543457;9.611335754394531;104.22982025146484
49;1673374742.9580312;47.1306422;7.2406888;0.38600000739097595;1673374743.134323;44.13776397705078;10.10377311706543;104.0600814819336
50;1673374743.1505227;47.1306423;7.2406861;0.4090000092983246;1673374743.3388395;46.39889907836914;10.211776733398438;103.72366333007812
51;1673374743.3559337;47.1306424;7.2406818;0.4310000240802765;1673374743.540037;46.78523254394531;10.013708114624023;103.37487030029297
52;1673374743.5562274;47.1306424;7.240676;0.4520000219345093;1673374743.724961;42.205955505371094;8.750162124633789;102.47669982910156
53;1673374743.7415543;47.1306425;7.2406688;0.46300002932548523;1673374743.9389691;37.58465576171875;7.47797155380249;101.85289764404297
54;1673374743.9580777;47.1306425;7.240660999999999;0.46300002932548523;1673374744.1355193;30.869291305541992;5.905638694763184;101.45305633544922
55;1673374744.1537614;47.1306425;7.240653099999999;0.47700002789497375;1673374744.3344986;27.912355422973633;5.82758903503418;101.86001586914062
56;1673374744.3510785;47.1306425;7.240645499999999;0.5250000357627869;1673374744.5274246;22.544979095458984;4.720197677612305;101.6246337890625
57;1673374744.54794;47.1306425;7.2406388999999995;0.5710000395774841;1673374744.7277257;19.87668228149414;3.743999481201172;101.37201690673828
58;1673374744.742372;47.1306425;7.2406334999999995;0.6170000433921814;1673374744.9169655;18.829509735107422;3.8757193088531494;101.38134765625
59;1673374744.9316044;47.130642599999995;7.2406293999999995;0.6640000343322754;1673374745.1259081;19.607160568237305;5.317032814025879;101.91040802001953
60;1673374745.1434789;47.1306425;7.240626799999999;0.718000054359436;1673374745.3335059;20.91277503967285;4.073150634765625;101.57709503173828
61;1673374745.34918;47.1306425;7.2406251;0.7850000262260437;1673374745.5135834;22.631343841552734;2.9987592697143555;100.98943328857422
62;1673374745.5312262;47.130642599999995;7.2406242999999995;0.862000048160553;1673374745.7205925;24.605602264404297;7.149075984954834;101.82904815673828
63;1673374745.7371721;47.130642599999995;7.2406239999999995;0.9500000476837158;1673374745.930567;26.12113380432129;5.228756904602051;101.40503692626953
64;1673374745.9491153;47.130642699999996;7.2406239999999995;1.0500000715255737;1673374746.142937;27.882654190063477;4.317280292510986;100.90006256103516
65;1673374746.157614;47.130642699999996;7.2406241;1.1570000648498535;1673374746.3399887;28.60407257080078;7.412105560302734;101.53165435791016
66;1673374746.357119;47.130642699999996;7.2406242;1.2780001163482666;1673374746.544093;28.676651000976562;6.547294616699219;101.21211242675781
67;1673374746.5602484;47.130642699999996;7.2406241;1.4140000343322754;1673374746.7249844;29.022506713867188;4.294729232788086;100.3990249633789
68;1673374746.7396243;47.130642599999995;7.2406239;1.5630000829696655;1673374746.9181826;28.670833587646484;6.069907188415527;97.7886962890625
69;1673374746.9367306;47.130642599999995;7.2406235;1.725000023841858;1673374747.1161737;27.840099334716797;5.944720268249512;98.05773162841797
70;1673374747.1337378;47.130642599999995;7.2406229;1.8990000486373901;1673374747.3195097;27.516088485717773;3.398637056350708;97.11405944824219
71;1673374747.3370633;47.1306425;7.2406223;2.0810000896453857;1673374747.5296726;26.86299705505371;5.0765790939331055;97.53649139404297
72;1673374747.545367;47.1306425;7.240621699999999;2.2690000534057617;1673374747.731197;26.136962890625;6.17733907699585;97.79559326171875
73;1673374747.74786;47.1306424;7.2406212;2.4580001831054688;1673374747.9479194;26.386783599853516;3.195646286010742;96.72232055664062
74;1673374747.96408;47.1306424;7.2406209;2.6500000953674316;1673374748.1700892;26.59942626953125;5.260317325592041;97.08171081542969
75;1673374748.1876562;47.1306425;7.2406207;2.8410000801086426;1673374748.366542;26.50606346130371;6.628718852996826;97.50233459472656
76;1673374748.3811972;47.1306425;7.2406204999999995;3.0340001583099365;1673374748.5508287;26.990989685058594;3.090250015258789;96.69963836669922
77;1673374748.564061;47.1306424;7.2406204999999995;3.2300002574920654;1673374748.7345476;27.096725463867188;4.203398704528809;97.03499603271484
78;1673374748.7511332;47.1306423;7.2406204;3.4260001182556152;1673374748.9302087;27.097747802734375;6.542273998260498;97.58514404296875
79;1673374748.9478858;47.1306423;7.2406204;3.621000289916992;1673374749.1307304;27.27275276184082;3.4167792797088623;96.74180603027344
80;1673374749.150261;47.1306424;7.2406204;3.813000202178955;1673374749.3515913;27.476839065551758;4.3535966873168945;96.8102798461914
81;1673374749.3678691;47.1306425;7.2406204999999995;4.005000114440918;1673374749.55708;27.18613052368164;7.112021446228027;97.62869262695312
82;1673374749.5704527;47.1306425;7.2406204;4.201000213623047;1673374749.7329519;27.315753936767578;4.018582820892334;96.84418487548828
83;1673374749.7526026;47.1306425;7.2406204;4.398000240325928;1673374749.9276233;27.475666046142578;3.959825038909912;96.8440933227539
84;1673374749.9442153;47.1306424;7.2406204;4.595000267028809;1673374750.142148;27.27113151550293;6.430809497833252;97.43557739257812
85;1673374750.1622057;47.1306424;7.2406204;4.793000221252441;1673374750.33492;27.112411499023438;4.342965126037598;96.88536071777344
86;1673374750.3524895;47.1306424;7.2406203;4.98900032043457;1673374750.5389707;27.299726486206055;3.378952980041504;96.61550903320312
87;1673374750.5565267;47.1306424;7.2406203;5.185000419616699;1673374750.7492294;27.149328231811523;6.333175182342529;97.43212127685547
88;1673374750.764413;47.1306425;7.2406203;5.380000114440918;1673374750.944374;27.278995513916016;4.711202621459961;97.08345031738281
89;1673374750.960104;47.1306424;7.2406203;5.578000068664551;1673374751.1457531;27.371421813964844;3.2153406143188477;96.67044830322266
90;1673374751.1638813;47.1306424;7.2406204;5.772000312805176;1673374751.353995;27.313058853149414;6.246270656585693;97.47676086425781
91;1673374751.3687027;47.1306424;7.2406204;5.968000411987305;1673374751.5560899;27.33894157409668;5.020398139953613;97.07464599609375
92;1673374751.5722508;47.1306424;7.2406204;6.1620001792907715;1673374751.7445798;27.47869110107422;3.29947829246521;96.64745330810547
93;1673374751.7621372;47.1306424;7.2406203;6.3560004234313965;1673374751.9491565;27.27360725402832;6.05532693862915;97.2833251953125
94;1673374751.9628341;47.1306425;7.2406203;6.554000377655029;1673374752.1552818;27.16238021850586;5.756465435028076;97.34284210205078
95;1673374752.17241;47.1306424;7.2406203;6.747000217437744;1673374752.3676713;27.39862823486328;2.975310802459717;96.52462768554688
96;1673374752.3823123;47.1306423;7.2406201999999995;6.941000461578369;1673374752.5896375;27.2762451171875;5.453498363494873;97.19542694091797
97;1673374752.60818;47.1306423;7.2406201999999995;7.134000301361084;1673374752.8187556;27.19231414794922;5.969714164733887;97.32726287841797
98;1673374752.8314438;47.1306423;7.2406201999999995;7.330000400543213;1673374753.0100343;27.225341796875;3.3263590335845947;96.52821350097656
99;1673374753.0246744;47.1306423;7.2406201;7.52500057220459;1673374753.1955626;27.38068199157715;4.875518798828125;96.92878723144531
100;1673374753.2111776;47.1306423;7.2406201;7.724000453948975;1673374753.3872244;27.06965446472168;6.576435565948486;97.46106719970703
101;1673374753.3989356;47.1306423;7.2406201;7.922000408172607;1673374753.5666957;27.238006591796875;3.2463536262512207;96.65591430664062
102;1673374753.5799234;47.1306422;7.24062;8.121000289916992;1673374753.747361;27.25274658203125;4.164449691772461;96.95162963867188
103;1673374753.763969;47.1306422;7.24062;8.322000503540039;1673374753.9378424;27.200048446655273;6.677147388458252;97.59841918945312
104;1673374753.9534607;47.130642099999996;7.24062;8.522000312805176;1673374754.1243842;27.24574851989746;3.5567731857299805;96.76981353759766
105;1673374754.1400037;47.130642099999996;7.2406201;8.72700023651123;1673374754.3314042;27.380027770996094;4.22846794128418;96.80265045166016
106;1673374754.347986;47.1306422;7.2406201;8.926000595092773;1673374754.534677;27.028573989868164;6.576271057128906;97.49651336669922
107;1673374754.55028;47.1306422;7.2406201;9.128000259399414;1673374754.7487817;27.260181427001953;3.572031021118164;96.79847717285156
108;1673374754.7664907;47.130642099999996;7.2406201;9.330000877380371;1673374754.9464605;27.396888732910156;3.7806460857391357;96.83135223388672
109;1673374754.9601617;47.130642099999996;7.2406201;9.532000541687012;1673374755.1717167;27.04352569580078;6.376704692840576;97.56114959716797
110;1673374755.187318;47.130642099999996;7.24062;9.741000175476074;1673374755.3835595;27.2255859375;4.231415271759033;96.94512939453125
111;1673374755.3972094;47.130642099999996;7.2406201;9.952000617980957;1673374755.5692394;27.43071174621582;3.4039342403411865;96.743408203125
112;1673374755.586365;47.1306422;7.2406201;10.16200065612793;1673374755.7537718;26.536760330200195;5.76890230178833;97.33528137207031
113;1673374755.766481;47.1306422;7.2406198999999996;10.446000099182129;1673374755.9522018;28.45039176940918;5.522342681884766;97.27954864501953
114;1673374755.9688034;47.130642099999996;7.2406194;10.82800006866455;1673374756.1475873;27.11147689819336;2.9099950790405273;96.58740234375
115;1673374756.1631997;47.130642099999996;7.2406187;11.232000350952148;1673374756.3858063;25.651351928710938;5.044775485992432;97.07965850830078
116;1673374756.4014008;47.130642099999996;7.2406181;11.641000747680664;1673374756.6151826;25.019737243652344;5.156124591827393;97.26453399658203
117;1673374756.6279275;47.130642099999996;7.240617599999999;12.044000625610352;1673374756.7850223;24.60028839111328;2.7878150939941406;96.52599334716797
118;1673374756.8006387;47.130642099999996;7.2406174;12.445000648498535;1673374756.9716768;24.708839416503906;4.793564796447754;97.08568572998047
119;1673374756.989282;47.130642099999996;7.240617299999999;12.837000846862793;1673374757.1656973;24.759885787963867;5.515114784240723;97.36176300048828
120;1673374757.1848433;47.130642099999996;7.2406175;13.226000785827637;1673374757.417817;25.485994338989258;2.7470808029174805;96.62376403808594
121;1673374757.4304338;47.130642099999996;7.2406178;13.608000755310059;1673374757.602453;26.052995681762695;4.8984575271606445;97.04303741455078
122;1673374757.6200097;47.1306422;7.2406181;13.98900032043457;1673374757.8002813;26.244905471801758;6.18543004989624;97.50025177001953
123;1673374757.8119934;47.1306423;7.2406185;14.372000694274902;1673374757.9813159;26.726160049438477;3.4236538410186768;96.8230972290039
124;1673374757.9940038;47.1306423;7.2406188;14.75200080871582;1673374758.1724288;26.8878173828125;4.736306190490723;96.98653411865234
125;1673374758.18761;47.1306423;7.240619;15.125000953674316;1673374758.3558433;26.88922119140625;6.380372524261475;97.3504409790039
126;1673374758.3744876;47.1306423;7.2406193;15.50200080871582;1673374758.5595086;27.005027770996094;3.349613904953003;96.71521759033203
127;1673374758.5763574;47.1306423;7.2406194;15.882000923156738;1673374758.7586908;27.117719650268555;4.44417667388916;96.9058837890625
128;1673374758.776255;47.1306423;7.240619499999999;16.263999938964844;1673374758.9520814;26.812673568725586;6.458276271820068;97.49666595458984
129;1673374758.9667315;47.1306424;7.2406196;16.650001525878906;1673374759.1513078;26.60774803161621;3.936406373977661;96.86158752441406
130;1673374759.1669407;47.1306425;7.240619499999999;17.041000366210938;1673374759.34181;26.6828556060791;4.090801239013672;96.8326644897461
131;1673374759.3593774;47.1306425;7.240619499999999;17.43000030517578;1673374759.5519743;26.255512237548828;6.576501846313477;97.44207000732422
132;1673374759.5695484;47.1306424;7.2406194;17.814001083374023;1673374759.748558;26.293071746826172;4.395785808563232;97.03663635253906
133;1673374759.7612324;47.1306424;7.2406193;18.20400047302246;1673374759.9828546;26.41093635559082;3.8475661277770996;96.73771667480469
134;1673374759.999507;47.1306425;7.2406193;18.601001739501953;1673374760.175914;26.167875289916992;6.6028547286987305;97.49465942382812
135;1673374760.1950023;47.1306425;7.2406193;19.0;1673374760.3760846;26.200862884521484;4.764627456665039;97.052978515625
136;1673374760.3907716;47.1306425;7.2406194;19.392000198364258;1673374760.5711029;26.39109230041504;3.4358603954315186;96.60269927978516
137;1673374760.6073198;47.1306425;7.2406194;19.7810001373291;1673374760.8604662;26.377138137817383;6.1842169761657715;97.32431030273438
138;1673374760.8702366;47.1306425;7.2406194;20.16400146484375;1673374761.015904;26.388486862182617;4.686355113983154;97.13312530517578
139;1673374761.0295486;47.1306424;7.240619499999999;20.553001403808594;1673374761.2005491;26.564708709716797;3.3541977405548096;96.59774017333984
140;1673374761.2171407;47.1306424;7.240619499999999;20.94500160217285;1673374761.391887;26.55726432800293;6.162232398986816;97.40159606933594
141;1673374761.4065118;47.1306424;7.2406196;21.338001251220703;1673374761.6235714;26.303991317749023;5.236409664154053;97.2854232788086
142;1673374761.6392293;47.1306424;7.2406196;21.731000900268555;1673374761.8034208;26.73200225830078;3.148811101913452;96.57206726074219
143;1673374761.8190215;47.1306424;7.2406197;22.121000289916992;1673374761.9844081;26.538005828857422;5.816252708435059;97.28340148925781
144;1673374761.999044;47.1306424;7.2406197;22.51300048828125;1673374762.165633;26.36806869506836;5.319738864898682;97.2393798828125
145;1673374762.1802807;47.1306424;7.2406197;22.902000427246094;1673374762.3601675;26.651966094970703;3.173828363418579;96.57750701904297
146;1673374762.3767626;47.1306424;7.2406197;23.29800033569336;1673374762.5808592;26.528377532958984;5.75966739654541;97.25887298583984
147;1673374762.5989606;47.1306424;7.2406197;23.69700050354004;1673374762.7865143;26.391965866088867;5.823343276977539;97.431640625
148;1673374762.8040822;47.1306425;7.240619799999999;24.095001220703125;1673374762.989914;26.59986114501953;3.05450439453125;96.5962142944336
149;1673374763.0064957;47.1306424;7.240619799999999;24.49100112915039;1673374763.1962507;26.3721923828125;5.353267669677734;97.1356430053711
150;1673374763.2118657;47.1306424;7.2406197;24.88800048828125;1673374763.3745956;26.28483009338379;5.568298816680908;97.37015533447266
151;1673374763.390758;47.1306424;7.2406197;25.279001235961914;1673374763.5621748;26.476810455322266;3.2111923694610596;96.71686553955078
152;1673374763.5768096;47.1306424;7.2406197;25.677001953125;1673374763.763342;26.452430725097656;5.353549480438232;97.13374328613281
153;1673374763.7799397;47.1306425;7.2406197;26.07600212097168;1673374763.9593103;26.184202194213867;5.959029197692871;97.40096282958984
154;1673374763.974923;47.1306425;7.2406197;26.475000381469727;1673374764.150613;26.36091423034668;3.357078790664673;96.68929290771484
155;1673374764.1655722;47.1306425;7.2406197;26.8700008392334;1673374764.3723247;26.423463821411133;4.9226579666137695;96.97456359863281
156;1673374764.387622;47.130642599999995;7.2406197;27.26500129699707;1673374764.5662227;26.34088134765625;6.284261226654053;97.34526824951172
157;1673374764.5837963;47.130642599999995;7.240619799999999;27.66200065612793;1673374764.7508073;26.35935401916504;3.836259603500366;96.7206039428711
158;1673374764.7664256;47.130642599999995;7.240619799999999;28.051000595092773;1673374764.944881;26.63906478881836;4.710005760192871;96.76072692871094
159;1673374764.9604833;47.130642699999996;7.240619799999999;28.44500160217285;1673374765.148012;26.33557891845703;6.591061115264893;97.38875579833984
160;1673374765.163628;47.130642699999996;7.240619799999999;28.84200096130371;1673374765.3706706;26.44540023803711;3.864788055419922;96.77561950683594
161;1673374765.3843257;47.130642599999995;7.2406198999999996;29.239002227783203;1673374765.5826857;26.525066375732422;4.204139232635498;96.89450073242188
162;1673374765.5983977;47.130642599999995;7.2406198999999996;29.637001037597656;1673374765.7809749;26.345983505249023;6.67344856262207;97.59410095214844
163;1673374765.807962;47.1306425;7.2406198999999996;30.033000946044922;1673374765.9815311;26.32693862915039;4.027605056762695;97.02045440673828
164;1673374765.9986703;47.1306425;7.2406198999999996;30.423002243041992;1673374766.1819837;26.539745330810547;4.029483318328857;96.71553802490234
165;1673374766.1991076;47.1306425;7.2406198999999996;30.819002151489258;1673374766.3727121;26.399980545043945;6.436071872711182;97.43770599365234
166;1673374766.387355;47.1306425;7.2406198999999996;31.215002059936523;1673374766.5969093;26.41809844970703;4.463221073150635;96.97103118896484
167;1673374766.6155953;47.1306425;7.2406198999999996;31.613000869750977;1673374766.7889001;26.635812759399414;3.316077470779419;96.68128967285156
168;1673374766.8031032;47.1306424;7.24062;32.013999938964844;1673374767.0153062;26.389097213745117;6.316373825073242;97.39712524414062
169;1673374767.0299935;47.1306424;7.24062;32.41600036621094;1673374767.1845589;26.28148651123047;5.110496520996094;97.16556549072266
170;1673374767.1992383;47.1306424;7.24062;32.816001892089844;1673374767.38573;26.549097061157227;3.3915789127349854;96.70780181884766
171;1673374767.4038336;47.1306425;7.24062;33.20900344848633;1673374767.5941753;26.429393768310547;6.1409220695495605;97.33300018310547
172;1673374767.6088185;47.1306425;7.2406198999999996;33.608001708984375;1673374767.7941604;26.324459075927734;5.490291595458984;97.16515350341797
173;1673374767.8097785;47.1306424;7.2406198999999996;34.01000213623047;1673374767.9804473;26.497535705566406;2.934732437133789;96.60911560058594
174;1673374767.9946473;47.1306424;7.2406198999999996;34.41100311279297;1673374768.1698499;26.466609954833984;5.545166969299316;97.23970031738281
175;1673374768.1844976;47.1306423;7.2406198999999996;34.810001373291016;1673374768.373427;26.332788467407227;5.608951568603516;97.34131622314453
176;1673374768.3910096;47.1306423;7.2406198999999996;35.207000732421875;1673374768.5782342;26.5804386138916;3.3382465839385986;96.66773986816406
177;1673374768.5983195;47.1306423;7.2406198999999996;35.595001220703125;1673374768.7767708;26.426063537597656;4.844921588897705;97.01897430419922
178;1673374768.7933886;47.1306424;7.2406198999999996;35.98800277709961;1673374768.9823976;26.34046173095703;6.227189064025879;97.41806030273438
179;1673374768.9990175;47.1306424;7.2406198999999996;36.38500213623047;1673374769.1784115;26.49155616760254;3.328120231628418;96.6168441772461
180;1673374769.1950297;47.1306423;7.2406198999999996;36.784000396728516;1673374769.361178;26.568111419677734;4.512947082519531;96.88125610351562
181;1673374769.3788917;47.1306423;7.2406198999999996;37.18300247192383;1673374769.579043;26.22075843811035;6.255025386810303;97.39759063720703
182;1673374769.597778;47.1306424;7.240619799999999;37.58300018310547;1673374769.7742114;26.310012817382812;3.835726022720337;96.80191802978516
183;1673374769.7917886;47.1306424;7.240619799999999;37.98500061035156;1673374769.9825842;26.445554733276367;4.203060626983643;96.736572265625
184;1673374769.9997325;47.1306424;7.240619799999999;38.37900161743164;1673374770.1871877;26.27123260498047;6.339097499847412;97.39726257324219
185;1673374770.2040539;47.1306423;7.240619799999999;38.7760009765625;1673374770.4316626;26.373600006103516;3.66797137260437;96.88306427001953
186;1673374770.4462922;47.1306423;7.240619799999999;39.17300033569336;1673374770.6546075;26.344947814941406;3.773698091506958;96.7813949584961
187;1673374770.666318;47.1306423;7.240619799999999;39.570003509521484;1673374770.824825;26.303421020507812;6.398670673370361;97.44951629638672
188;1673374770.8395555;47.1306424;7.2406198999999996;39.970001220703125;1673374771.000254;26.27597999572754;4.674900054931641;97.04722595214844
189;1673374771.0119653;47.1306424;7.2406198999999996;40.36800003051758;1673374771.168847;26.51603126525879;3.69581937789917;96.76634216308594
190;1673374771.1883643;47.1306425;7.2406198999999996;40.76000213623047;1673374771.376391;26.294198989868164;6.288304328918457;97.4249496459961
191;1673374771.3959196;47.1306425;7.2406198999999996;41.15800094604492;1673374771.5864117;26.371755599975586;4.755523681640625;97.09559631347656
192;1673374771.6030495;47.1306425;7.2406198999999996;41.55800247192383;1673374771.7852798;26.377986907958984;3.507760763168335;96.66807556152344
193;1673374771.8024294;47.1306425;7.2406198999999996;41.957000732421875;1673374771.9837842;26.465974807739258;6.188132286071777;97.34468841552734
194;1673374771.9984305;47.1306425;7.2406198999999996;42.35600280761719;1673374772.1773257;26.241004943847656;5.289037227630615;97.19843292236328
195;1673374772.1919684;47.1306425;7.2406198999999996;42.755001068115234;1673374772.3758762;26.36310386657715;3.180539846420288;96.60741424560547
196;1673374772.391493;47.1306425;7.2406198999999996;43.150001525878906;1673374772.5723498;26.27338409423828;5.615293979644775;97.1745834350586
197;1673374772.5870624;47.1306425;7.2406198999999996;43.538002014160156;1673374772.7726946;26.25246238708496;5.620029926300049;97.3296890258789
198;1673374772.7873344;47.1306424;7.2406198999999996;43.93300247192383;1673374772.9868906;26.43113136291504;3.0723445415496826;96.73533630371094
199;1673374773.0030453;47.1306424;7.2406198999999996;44.3280029296875;1673374773.1951973;26.44149398803711;5.739463806152344;97.29583740234375
200;1673374773.2123668;47.1306425;7.2406198999999996;44.724002838134766;1673374773.4069128;26.27515983581543;5.740939617156982;97.34624481201172
201;1673374773.4235518;47.1306425;7.24062;45.11900329589844;1673374773.60286;26.3958683013916;3.466578722000122;96.67240142822266
202;1673374773.6199853;47.1306425;7.24062;45.51400375366211;1673374773.787988;26.33167266845703;5.234480857849121;97.1379165649414
203;1673374773.8036833;47.1306425;7.24062;45.902000427246094;1673374773.9951167;26.331512451171875;6.142035961151123;97.3857192993164
204;1673374774.0088224;47.1306425;7.24062;46.29500198364258;1673374774.1811793;26.46320152282715;3.3310506343841553;96.60548400878906
205;1673374774.1967978;47.1306424;7.24062;46.691001892089844;1673374774.370501;26.491621017456055;5.1067399978637695;97.05768585205078
206;1673374774.3911414;47.1306425;7.24062;47.09300231933594;1673374774.5918212;26.27350616455078;6.1682281494140625;97.42857360839844
207;1673374774.6104026;47.1306425;7.24062;47.493003845214844;1673374774.7898195;26.376482009887695;3.822913885116577;96.8493423461914
208;1673374774.8044693;47.1306425;7.24062;47.89400100708008;1673374774.9754531;26.568933486938477;4.665115833282471;97.01814270019531
209;1673374774.9910944;47.1306424;7.24062;48.27000045776367;1673374775.199054;26.31017303466797;6.588315486907959;97.58113861083984
210;1673374775.2171397;47.1306424;7.2406201;48.58500289916992;1673374775.3938088;26.568456649780273;3.988276958465576;96.82868957519531
211;1673374775.4119136;47.1306424;7.2406204;48.858001708984375;1673374775.5903032;27.010671615600586;4.130959510803223;96.86961364746094
212;1673374775.6049554;47.1306423;7.2406207;49.0890007019043;1673374775.7827876;27.28757667541504;6.60730504989624;97.5240707397461
213;1673374775.7995815;47.1306423;7.240621099999999;49.281002044677734;1673374775.988194;38.3665657043457;4.8331618309021;93.6595230102539
214;1673374776.0047984;47.1306423;7.2406213;49.452003479003906;1673374776.1927865;50.071067810058594;-15.54957389831543;80.71817016601562
215;1673374776.2108953;47.1306423;7.2406203;49.60300064086914;1673374776.4077442;48.93743133544922;-23.625045776367188;72.08597564697266
216;1673374776.4229262;47.1306431;7.2406169;49.71900177001953;1673374776.6389143;40.43081283569336;-32.77288818359375;63.84003448486328
217;1673374776.6535544;47.1306448;7.2406114;49.823001861572266;1673374776.8344915;33.330421447753906;-33.40114974975586;54.5353889465332
218;1673374776.851085;47.130647499999995;7.240604599999999;49.91400146484375;1673374777.026946;21.777267456054688;-40.52755355834961;42.90549087524414
219;1673374777.0435472;47.1306509;7.2405969;49.9900016784668;1673374777.2114744;9.34333324432373;-49.077880859375;32.380531311035156
220;1673374777.2270732;47.1306552;7.2405886;50.060001373291016;1673374777.4037738;-10.412841796875;-52.542945861816406;21.2963924407959
221;1673374777.4214258;47.1306605;7.2405794;50.112003326416016;1673374777.602667;-25.833147048950195;-46.90288162231445;9.435041427612305
222;1673374777.6178198;47.1306672;7.240569499999999;50.130001068115234;1673374777.7951853;-31.640703201293945;-41.71783447265625;0.18042853474617004
223;1673374777.8113523;47.1306751;7.240558999999999;50.124000549316406;1673374777.9943151;-37.617427825927734;-38.75028610229492;-7.459917068481445
224;1673374778.0124357;47.1306839;7.2405479999999995;50.10900115966797;1673374778.1897922;-43.54146194458008;-33.39458465576172;-18.40060806274414
225;1673374778.2093112;47.130693699999995;7.240536499999999;50.09600067138672;1673374778.4190564;-50.85384750366211;-29.81773567199707;-30.2774658203125
226;1673374778.4366252;47.1307043;7.240524199999999;50.08400344848633;1673374778.6190703;-48.8137092590332;-21.494306564331055;-39.298797607421875
227;1673374778.632733;47.1307152;7.240510899999999;50.048004150390625;1673374778.8262413;-45.842411041259766;-16.64019012451172;-44.406551361083984
228;1673374778.8418567;47.1307264;7.2404971;49.993003845214844;1673374779.0248077;-45.537147521972656;-13.24705696105957;-50.823055267333984
229;1673374779.0394819;47.130737599999996;7.240482999999999;49.94000244140625;1673374779.2462454;-46.717281341552734;-8.37336540222168;-57.213539123535156
230;1673374779.2657635;47.1307488;7.2404687999999995;49.90800094604492;1673374779.4700441;-44.07859802246094;-6.609576225280762;-55.04419708251953
231;1673374779.4846835;47.1307599;7.2404546;49.87200164794922;1673374779.6488726;-43.0892219543457;-7.158736705780029;-51.494956970214844
232;1673374779.662537;47.130770999999996;7.2404408;49.84400177001953;1673374779.8374639;-45.891414642333984;-8.72761344909668;-50.040191650390625
233;1673374779.8541877;47.1307823;7.2404272;49.83400344848633;1673374780.0349383;-48.416500091552734;-10.331220626831055;-49.61605453491211
234;1673374780.0505528;47.1307937;7.2404138;49.836002349853516;1673374780.2316709;-48.08552932739258;-13.409817695617676;-50.27426528930664
235;1673374780.247359;47.1308053;7.2404001;49.840003967285156;1673374780.4649625;-47.52652359008789;-12.437980651855469;-59.05367660522461
236;1673374780.479602;47.1308169;7.240386;49.83700180053711;1673374780.625477;-44.12377166748047;-5.575940132141113;-70.15986633300781
237;1673374780.639141;47.130828;7.2403716;49.836002349853516;1673374780.8137195;-42.67707824707031;0.5435815453529358;-79.03229522705078
238;1673374780.854538;47.130838499999996;7.2403572;49.836002349853516;1673374781.0972567;-41.69535827636719;6.270359516143799;-87.73976135253906
239;1673374781.1080015;47.1308484;7.2403429;49.836002349853516;1673374781.2623284;-39.115848541259766;11.390968322753906;-96.74921417236328
240;1673374781.2769587;47.1308578;7.2403287999999995;49.83000183105469;1673374781.4550517;-36.496002197265625;15.799554824829102;-105.80525970458984
241;1673374781.4696925;47.1308666;7.240315;49.81800079345703;1673374781.6267803;-27.41425323486328;13.756961822509766;-113.25828552246094
242;1673374781.6427326;47.130874899999995;7.2403017;49.71200180053711;1673374781.8268056;-2.2401723861694336;-6.5342020988464355;-118.53255462646484
243;1673374781.8474827;47.1308831;7.240289;49.27100372314453;1673374782.0235913;30.34295654296875;-50.651206970214844;-141.23489379882812
244;1673374782.04154;47.1308911;7.2402767;48.45000076293945;1673374782.2107651;33.078216552734375;-116.80793762207031;172.09930419921875
245;1673374782.2279215;47.130899;7.2402643;47.242000579833984;1673374782.4027288;14.16454029083252;-149.31491088867188;154.2137908935547
246;1673374782.41796;47.1309069;7.240252;45.68100357055664;1673374782.5944245;8.609682083129883;-152.71058654785156;154.9900360107422
247;1673374782.6116772;47.1309147;7.240240399999999;43.75100326538086;1673374782.805705;17.742942810058594;-129.26036071777344;163.3077392578125
248;1673374782.8359003;47.130922399999996;7.240229299999999;41.45600128173828;1673374783.015849;20.418916702270508;-70.25580596923828;-170.4232940673828
249;1673374783.032739;47.13093;7.2402185999999995;38.79900360107422;1673374783.2268503;0.36481544375419617;-2.4227240085601807;-149.60366821289062
250;1673374783.242759;47.130937499999995;7.2402076;35.7660026550293;1673374783.4407368;-24.378538131713867;41.280860900878906;-146.37289428710938
251;1673374783.454888;47.130944899999996;7.2401971;32.33100128173828;1673374783.6148133;-34.51176834106445;45.7977294921875;-140.68765258789062
252;1673374783.6303144;47.130952199999996;7.240187199999999;28.554000854492188;1673374783.821722;-20.061519622802734;8.009882926940918;-119.03012084960938
253;1673374783.8357606;47.130959399999995;7.240177999999999;24.441001892089844;1673374784.0424523;23.967538833618164;-39.88698196411133;-119.43453979492188
254;1673374784.056828;47.1309665;7.2401694;19.937000274658203;1673374784.2310495;52.41038513183594;-91.94373321533203;-154.59005737304688
255;1673374784.2467706;47.1309739;7.240160599999999;15.05000114440918;1673374784.4435914;64.63896942138672;-95.57493591308594;-163.76458740234375
256;1673374784.4596653;47.1309812;7.2401518;9.870000839233398;1673374784.6398919;50.212425231933594;-5.691494941711426;-93.16533660888672
257;1673374784.6557865;47.130988599999995;7.240143;4.388000011444092;1673374784.8666317;-1.813836693763733;19.444711685180664;-83.63867950439453
258;1673374784.8798356;47.1309963;7.2401366;0.1680000126361847;1673374785.070891;3.2387351989746094;16.907146453857422;-66.59928894042969
259;1673374785.0836751;47.131005699999996;7.2401390999999995;0.5170000195503235;1673374785.2389538;-1.8817765712738037;14.702012062072754;-61.63850021362305
260;1673374785.2533278;47.131015399999995;7.240140599999999;0.6270000338554382;1673374785.4246175;-5.828376770019531;17.629661560058594;-63.66187286376953
261;1673374785.4398685;47.131025199999996;7.2401418;0.675000011920929;1673374785.6068645;-6.274618625640869;16.754926681518555;-63.63709259033203
262;1673374785.622009;47.1310357;7.2401431999999994;0.7560000419616699;1673374785.798639;-6.212993144989014;16.18637466430664;-63.28729248046875
263;1673374785.815686;47.1310453;7.240144399999999;0.7940000295639038;1673374786.0045667;-6.220439910888672;15.733267784118652;-62.82160949707031
264;1673374786.020619;47.1310546;7.2401455;0.7990000247955322;1673374786.2166924;-6.178728103637695;15.23353385925293;-62.80070495605469
265;1673374786.2349377;47.1310663;7.2401469999999994;0.7930000424385071;1673374786.4059122;-6.13533878326416;14.96048355102539;-62.71504592895508
266;1673374786.419914;47.1310796;7.2401488;0.7750000357627869;1673374786.6009047;-6.154059886932373;14.689241409301758;-62.667808532714844
267;1673374786.6177485;47.1310942;7.2401507;0.7520000338554382;1673374786.7857995;-6.157175540924072;14.317968368530273;-62.58731460571289
268;1673374786.8015153;47.1311099;7.240152699999999;0.737000048160553;1673374786.9966822;-6.10569953918457;14.127668380737305;-62.480682373046875
269;1673374787.0166566;47.131126599999995;7.2401548;0.706000030040741;1673374787.2239103;-6.09162712097168;13.969603538513184;-62.408206939697266
270;1673374787.2406707;47.1311442;7.240157;0.6640000343322754;1673374787.4246237;-6.079995632171631;13.805368423461914;-62.329917907714844
271;1673374787.447904;47.131162599999996;7.2401594;0.6200000047683716;1673374787.6349945;-6.109642505645752;13.657546043395996;-62.26053237915039
272;1673374787.6527143;47.1311819;7.2401618;0.5710000395774841;1673374787.821723;-6.0580735206604;13.532862663269043;-62.172115325927734
273;1673374787.8408291;47.131201999999995;7.2401643;0.5180000066757202;1673374788.0291164;-6.029570579528809;13.394405364990234;-62.09273910522461
274;1673374788.0456371;47.131222799999996;7.240167;0.46300002932548523;1673374788.2210014;-6.014715671539307;13.285146713256836;-61.9956169128418
275;1673374788.2387185;47.1312444;7.2401697;0.3970000147819519;1673374788.474598;-5.998057842254639;13.190329551696777;-61.9109001159668
276;1673374788.5066817;47.1312666;7.240172599999999;0.3370000123977661;1673374788.6936576;-5.921665668487549;13.064154624938965;-61.797080993652344
277;1673374788.707995;47.1312894;7.2401756;0.27800002694129944;1673374788.8645856;-5.883016109466553;12.966100692749023;-61.69424057006836
278;1673374788.8790128;47.131313;7.2401786999999995;0.21700000762939453;1673374789.0547917;-5.883592128753662;12.88478946685791;-61.60660171508789
279;1673374789.071849;47.1313372;7.240182;0.15400001406669617;1673374789.287605;-5.84857177734375;12.74574089050293;-61.50057601928711
280;1673374789.3079972;47.131361999999996;7.2401854;0.09100000560283661;1673374789.4698603;-5.811988830566406;12.685599327087402;-61.42388916015625
281;1673374789.484741;47.1313878;7.240189;0.009000000543892384;1673374789.6579483;-5.803744792938232;12.592292785644531;-61.33707046508789
282;1673374789.6707416;47.1314139;7.2401927;-0.05700000375509262;1673374789.84064;-5.71819543838501;12.503044128417969;-61.19609451293945
283;1673374789.8546724;47.1314405;7.2401965;-0.11800000816583633;1673374790.026776;-5.76816987991333;12.397306442260742;-61.09732437133789
284;1673374790.0446415;47.1314676;7.2402006;-0.17500001192092896;1673374790.2180264;-5.688628196716309;12.297504425048828;-60.9705810546875
285;1673374790.2332048;47.1314953;7.2402048;-0.2290000170469284;1673374790.4108539;-5.642395496368408;12.208015441894531;-60.86813735961914
286;1673374790.4281414;47.1315234;7.2402093;-0.2770000100135803;1673374790.6088169;-5.631998538970947;12.07032299041748;-60.77970504760742
287;1673374790.6248426;47.1315521;7.2402139;-0.3270000219345093;1673374790.8118606;-5.573460102081299;12.039665222167969;-60.70811080932617
288;1673374790.8268743;47.1315762;7.240217599999999;-0.40400001406669617;1673374791.0078146;-5.554647445678711;11.98206901550293;-60.61492156982422
289;;;;;1673374791.218011;-5.510928630828857;11.934880256652832;-60.547855377197266
290;;;;;1673374791.406804;-5.45648717880249;11.897638320922852;-60.45174026489258
291;;;;;1673374791.5922408;-5.38321590423584;11.725841522216797;-60.306549072265625
292;;;;;1673374791.7903776;-5.455402851104736;11.388059616088867;-60.242942810058594
293;;;;;1673374792.001954;-5.470247745513916;11.23978042602539;-60.19980239868164
