;pos_time;latitude;longitude;altitude;alt_time;pitch;roll;yaw
0;1673373235.3877556;47.1306424;7.2406198999999996;0.0020000000949949026;1673373235.3916569;0.009334877133369446;-0.09986866265535355;90.1866683959961
1;1673373235.5686386;47.1306424;7.2406198999999996;0.0010000000474974513;1673373235.5715685;0.13705889880657196;-0.307120680809021;90.36152648925781
2;1673373235.7718897;47.1306424;7.24062;0.0020000000949949026;1673373235.7748191;-0.11695744842290878;-0.15270152688026428;90.1679916381836
3;1673373235.9896164;47.1306424;7.2406201;0.003000000026077032;1673373235.9915688;-0.1447620391845703;-0.2377864569425583;90.1265640258789
4;1673373236.1713135;47.1306424;7.2406201;0.004000000189989805;1673373236.1742616;-0.0033671297132968903;-0.1847696453332901;90.1028823852539
5;1673373236.3828635;47.1306424;7.2406201;0.003000000026077032;1673373236.3858025;0.05777162313461304;-0.3231658935546875;90.15306091308594
6;1673373236.591287;47.1306424;7.2406201;0.0010000000474974513;1673373236.5951917;-0.027314459905028343;-0.36421772837638855;90.16448211669922
7;1673373236.796321;47.1306423;7.24062;-0.0010000000474974513;1673373236.7992532;0.10947910696268082;-0.3123799264431;90.26132202148438
8;1673373236.9877598;47.1306424;7.24062;-0.005000000353902578;1673373236.9916644;0.023537738248705864;-0.32639938592910767;90.15516662597656
9;1673373237.2084649;47.1306424;7.2406198999999996;-0.007000000216066837;1673373237.211406;-0.036049261689186096;-0.13077424466609955;89.97209930419922
10;1673373237.4290128;47.1306424;7.240619799999999;-0.009000000543892384;1673373237.4319518;-0.07083750516176224;-0.3754865527153015;90.09166717529297
11;1673373237.6167965;47.1306424;7.240619799999999;-0.009000000543892384;1673373237.6197245;0.15099413692951202;-0.10876116156578064;89.9747314453125
12;1673373237.8259728;47.1306424;7.2406197;-0.010000000707805157;1673373237.8289025;0.09754126518964767;-0.338321328163147;90.18262481689453
13;1673373238.0250254;47.1306423;7.2406197;-0.01100000087171793;1673373238.0279543;-0.17295585572719574;-0.18234479427337646;89.9864273071289
14;1673373238.2166178;47.1306423;7.2406196;-0.0020000000949949026;1673373238.2185714;0.31887340545654297;-0.971042811870575;90.17575073242188
15;1673373238.4091136;47.1306424;7.2406197;0.0010000000474974513;1673373238.4120398;0.20491939783096313;-1.3153817653656006;89.85386657714844
16;1673373238.594815;47.1306424;7.2406197;0.006000000052154064;1673373238.5987191;0.18143127858638763;-0.9383971691131592;89.82860565185547
17;1673373238.7905483;47.1306424;7.2406197;0.00800000037997961;1673373238.8012812;0.2947523891925812;-1.1995633840560913;89.84954071044922
18;1673373239.025792;47.1306424;7.240619799999999;0.010000000707805157;1673373239.0297008;0.26330164074897766;-1.1153523921966553;89.89891815185547
19;1673373239.2146168;47.1306424;7.240619799999999;0.012000000104308128;1673373239.217539;-0.09103301167488098;-1.2505990266799927;90.02394104003906
20;1673373239.4043555;47.1306424;7.2406197;0.01100000087171793;1673373239.4072843;0.07239527255296707;-1.4799658060073853;89.88030242919922
21;1673373239.600918;47.1306424;7.2406196;0.0;1673373239.6034794;0.2099727988243103;-1.2432507276535034;89.7267074584961
22;1673373239.8210297;47.1306424;7.2406196;0.0;1673373239.824489;0.2821198105812073;-1.556519627571106;89.76924896240234
23;1673373240.0073843;47.1306424;7.240619499999999;0.0;1673373240.0123541;0.11706898361444473;-1.3794970512390137;89.4280776977539
24;1673373240.2002063;47.1306424;7.240619499999999;0.0020000000949949026;1673373240.2022161;0.25011852383613586;-1.0517879724502563;89.15650177001953
25;1673373240.3879375;47.1306425;7.240619499999999;0.005000000353902578;1673373240.3924403;0.5577901601791382;-0.4617937505245209;89.05984497070312
26;1673373240.5851989;47.130642599999995;7.240619499999999;0.005000000353902578;1673373240.5891;0.9080402255058289;-0.6859725117683411;88.71099853515625
27;1673373240.7863843;47.130642699999996;7.240619499999999;0.004000000189989805;1673373240.7893143;0.6522733569145203;-0.7570598721504211;87.78909301757812
28;1673373240.988262;47.1306428;7.240619499999999;0.003000000026077032;1673373240.992267;1.7824229001998901;-1.3281903266906738;87.47847747802734
29;1673373241.1792536;47.1306431;7.2406194;0.005000000353902578;1673373241.1831949;0.07318474352359772;-0.7806048393249512;79.05987548828125
30;1673373241.37627;47.1306438;7.2406187;0.005000000353902578;1673373241.379199;-1.3387062549591064;-0.4485214650630951;71.18885040283203
31;1673373241.576358;47.1306449;7.2406174;0.010000000707805157;1673373241.57937;-1.576561689376831;1.1771032810211182;73.39714050292969
32;1673373241.7802484;47.130646399999996;7.240615399999999;0.021000001579523087;1673373241.7823157;-3.4413161277770996;4.367574691772461;80.67813873291016
33;1673373241.983237;47.1306484;7.2406125999999995;0.029000001028180122;1673373241.9873676;-5.907891273498535;7.509859085083008;83.23038482666016
34;1673373242.1753757;47.130650599999996;7.2406093;0.04200000315904617;1673373242.1792803;-8.537363052368164;10.519125938415527;83.2479019165039
35;1673373242.3872092;47.130653099999996;7.2406054;0.06100000441074371;1673373242.3891616;-10.69273853302002;14.126720428466797;81.83784484863281
36;1673373242.580227;47.1306556;7.240601099999999;0.07900000363588333;1673373242.5832694;-11.166741371154785;15.685077667236328;80.86544036865234
37;1673373242.7753377;47.1306583;7.2405966;0.10100000351667404;1673373242.7802167;-12.039616584777832;16.89680290222168;80.10501861572266
38;1673373242.996251;47.130660899999995;7.2405919999999995;0.12700000405311584;1673373242.999189;-13.07191276550293;18.245939254760742;79.45226287841797
39;1673373243.2381613;47.1306635;7.240587499999999;0.15400001406669617;1673373243.2401142;-14.200169563293457;19.60889434814453;78.98085021972656
40;1673373243.4442763;47.130666;7.2405832;0.18300001323223114;1673373243.4471939;-15.487682342529297;21.16243553161621;78.63629150390625
41;1673373243.6285322;47.130668199999995;7.2405792;0.21300001442432404;1673373243.6334126;-16.81247901916504;22.667970657348633;78.4240951538086
42;1673373243.8261192;47.1306702;7.240575499999999;0.242000013589859;1673373243.8261192;-18.25909996032715;24.15353012084961;78.27921295166016
43;1673373244.0044405;47.130671899999996;7.2405724;0.2680000066757202;1673373244.00736;-19.802942276000977;25.627290725708008;78.32637023925781
44;1673373244.1916575;47.1306733;7.2405699;0.29200002551078796;1673373244.1955793;-21.43239974975586;26.959449768066406;78.39309692382812
45;1673373244.3948221;47.130674299999995;7.240568;0.31200000643730164;1673373244.3987262;-23.101816177368164;28.66475486755371;78.59883117675781
46;1673373244.5942624;47.1306748;7.2405669999999995;0.3290000259876251;1673373244.600118;-24.849990844726562;30.034900665283203;78.87892150878906
47;1673373244.7917247;47.130674899999995;7.240566899999999;0.3500000238418579;1673373244.7966115;-26.795209884643555;31.373369216918945;79.29852294921875
48;1673373244.9899805;47.1306744;7.2405678;0.3710000216960907;1673373244.9929082;-28.84827995300293;32.7005500793457;79.90835571289062
49;1673373245.1875775;47.1306733;7.2405696;0.3850000202655792;1673373245.191483;-31.006454467773438;33.8687858581543;80.54928588867188
50;1673373245.3952813;47.1306715;7.240572599999999;0.3970000147819519;1673373245.399174;-33.49119186401367;34.903770446777344;81.41365051269531
51;1673373245.5979147;47.130669;7.2405766;0.4100000262260437;1673373245.6027954;-34.96142578125;34.97276306152344;82.6572494506836
52;1673373245.8198347;47.1306659;7.2405817;0.41700002551078796;1673373245.8227625;-32.25812911987305;31.688459396362305;84.42340087890625
53;1673373246.0025456;47.1306624;7.2405874;0.4220000207424164;1673373246.0064414;-28.672603607177734;27.588361740112305;85.85165405273438
54;1673373246.183585;47.1306588;7.2405933;0.4280000329017639;1673373246.1874876;-24.057634353637695;22.961999893188477;87.17445373535156
55;1673373246.3703895;47.1306553;7.240598899999999;0.46400001645088196;1673373246.373308;-21.08827781677246;20.16310691833496;88.02400970458984
56;1673373246.5892074;47.1306522;7.240603999999999;0.5010000467300415;1673373246.5921519;-17.028329849243164;17.16654396057129;87.88434600830078
57;1673373246.7822278;47.1306496;7.2406083;0.5410000085830688;1673373246.786117;-14.47265911102295;15.403609275817871;87.45174407958984
58;1673373246.9739587;47.130647599999996;7.2406115;0.5820000171661377;1673373246.976901;-13.388041496276855;15.401192665100098;86.73486328125
59;1673373247.1780338;47.1306462;7.240613799999999;0.6270000338554382;1673373247.181937;-13.354175567626953;15.675206184387207;86.20372772216797
60;1673373247.3631587;47.1306453;7.240615099999999;0.6840000152587891;1673373247.3670745;-14.40750789642334;15.396698951721191;86.0564956665039
61;1673373247.5880144;47.1306447;7.2406159;0.7600000500679016;1673373247.5928981;-15.343831062316895;17.881811141967773;85.31436157226562
62;1673373247.8085563;47.1306444;7.2406160999999996;0.8460000157356262;1673373247.8105152;-15.863828659057617;19.88554573059082;84.52250671386719
63;1673373248.001739;47.1306443;7.240615999999999;0.9460000395774841;1673373248.003691;-17.914213180541992;17.961355209350586;84.95411682128906
64;1673373248.1943297;47.1306444;7.2406159;1.055999994277954;1673373248.199203;-19.18438148498535;20.237979888916016;84.41670227050781
65;1673373248.400522;47.130644499999995;7.2406158;1.1780000925064087;1673373248.4034665;-19.02837371826172;23.74387550354004;83.67979431152344
66;1673373248.5931468;47.1306446;7.2406158;1.3160001039505005;1673373248.598027;-19.745849609375;21.324670791625977;84.13641357421875
67;1673373248.7884064;47.1306446;7.240615999999999;1.4640001058578491;1673373248.7913346;-20.13096809387207;21.031614303588867;84.32727813720703
68;1673373248.993594;47.1306444;7.2406162;1.6230000257492065;1673373248.9955595;-19.313495635986328;23.782175064086914;86.22484588623047
69;1673373249.2035408;47.1306442;7.2406166;1.7880001068115234;1673373249.2064872;-19.498140335083008;21.52028465270996;86.30504608154297
70;1673373249.3924654;47.130643899999995;7.2406171;1.9640001058578491;1673373249.3953938;-19.11692237854004;19.23058319091797;86.95353698730469
71;1673373249.5909598;47.1306438;7.240617599999999;2.1460001468658447;1673373249.593888;-18.268354415893555;22.12251853942871;86.26820373535156
72;1673373249.806595;47.1306437;7.2406181;2.3330001831054688;1673373249.8095148;-17.141878128051758;21.674028396606445;86.30648040771484
73;1673373250.0055642;47.1306436;7.2406184;2.5210001468658447;1673373250.0084927;-17.64051055908203;18.796661376953125;86.94729614257812
74;1673373250.203778;47.1306435;7.2406187;2.7070000171661377;1673373250.2086704;-17.779659271240234;21.268949508666992;86.2669677734375
75;1673373250.4398587;47.130643299999996;7.2406188;2.8930001258850098;1673373250.44181;-17.497129440307617;22.33879280090332;86.04475402832031
76;1673373250.623647;47.130643199999994;7.240618899999999;3.0810000896453857;1673373250.626575;-18.30026626586914;19.449613571166992;86.73870086669922
77;1673373250.8250673;47.1306431;7.240618899999999;3.2700002193450928;1673373250.8270051;-19.071138381958008;20.69049072265625;86.65179443359375
78;1673373251.0204778;47.1306431;7.240618899999999;3.4610002040863037;1673373251.0224407;-18.381080627441406;22.955909729003906;86.08467102050781
79;1673373251.2112079;47.1306431;7.240619;3.6520001888275146;1673373251.2151127;-18.702543258666992;20.676115036010742;86.61511993408203
80;1673373251.4190807;47.130643;7.240619199999999;3.8430001735687256;1673373251.4220102;-18.945018768310547;20.154481887817383;86.92201232910156
81;1673373251.6092572;47.1306429;7.2406193;4.031000137329102;1673373251.6112084;-18.23944854736328;22.577024459838867;86.15843200683594
82;1673373251.8178804;47.130642699999996;7.2406194;4.219000339508057;1673373251.8208232;-18.4091796875;20.83879280090332;86.48847961425781
83;1673373252.0163193;47.130642599999995;7.240619499999999;4.410000324249268;1673373252.018271;-18.756364822387695;18.78911018371582;87.06695556640625
84;1673373252.2064843;47.130642599999995;7.2406196;4.604000091552734;1673373252.2093897;-18.478904724121094;21.65497589111328;86.33450317382812
85;1673373252.4067872;47.130642599999995;7.2406197;4.798000335693359;1673373252.4106903;-17.763952255249023;21.840225219726562;86.25230407714844
86;1673373252.6069646;47.130642599999995;7.240619799999999;4.98900032043457;1673373252.6089268;-18.591144561767578;19.10740089416504;87.00814056396484
87;1673373252.7936695;47.130642599999995;7.2406198999999996;5.179000377655029;1673373252.7975733;-18.336957931518555;20.74671745300293;86.62347412109375
88;1673373252.987866;47.1306425;7.24062;5.369000434875488;1673373252.9917696;-17.809120178222656;22.432252883911133;86.00004577636719
89;1673373253.196089;47.1306424;7.24062;5.557000160217285;1673373253.1998892;-18.253379821777344;19.400253295898438;86.81583404541016
90;1673373253.395378;47.1306423;7.24062;5.74500036239624;1673373253.3992646;-18.615442276000977;20.084575653076172;86.63925170898438
91;1673373253.587275;47.1306423;7.2406201;5.936000347137451;1673373253.590204;-17.95459747314453;22.470457077026367;86.1184310913086
92;1673373253.7874196;47.1306424;7.2406201;6.133000373840332;1673373253.7883909;-18.018829345703125;20.232608795166016;86.6314468383789
93;1673373253.9937975;47.1306424;7.2406201;6.329000473022461;1673373253.9986818;-18.713672637939453;19.571619033813477;86.80709075927734
94;1673373254.1930828;47.1306424;7.2406201;6.520000457763672;1673373254.1960115;-18.179147720336914;22.22468376159668;86.27019500732422
95;1673373254.3975825;47.1306423;7.2406201;6.713000297546387;1673373254.4015067;-18.006629943847656;21.44392204284668;86.41341400146484
96;1673373254.5994768;47.1306423;7.2406201;6.907000541687012;1673373254.6014285;-18.620811462402344;18.86819076538086;87.00773620605469
97;1673373254.7995105;47.1306423;7.2406201999999995;7.1010003089904785;1673373254.8014646;-18.356483459472656;21.64681053161621;86.3727035522461
98;1673373254.9953344;47.1306423;7.2406201999999995;7.294000148773193;1673373254.998264;-17.949609756469727;22.007654190063477;86.17879486083984
99;1673373255.1908717;47.1306423;7.2406201999999995;7.488000392913818;1673373255.193794;-18.44979476928711;19.224037170410156;86.89496612548828
100;1673373255.4030647;47.1306424;7.2406201999999995;7.682000160217285;1673373255.4069889;-18.6623477935791;20.56427001953125;86.72943878173828
101;1673373255.5977829;47.1306423;7.2406201999999995;7.879000186920166;1673373255.6016357;-17.88808250427246;22.535869598388672;86.01780700683594
102;1673373255.7970078;47.1306423;7.2406201999999995;8.082000732421875;1673373255.7999208;-18.422815322875977;19.697500228881836;86.74999237060547
103;1673373256.0134747;47.1306423;7.2406201999999995;8.288000106811523;1673373256.0154285;-18.779191970825195;20.053869247436523;86.79981994628906
104;1673373256.2245924;47.1306423;7.2406201999999995;8.49000072479248;1673373256.2323864;-17.97361183166504;22.472293853759766;86.14229583740234
105;1673373256.4415357;47.1306423;7.2406201999999995;8.696000099182129;1673373256.4444745;-18.417381286621094;20.22673797607422;86.56379699707031
106;1673373256.648757;47.1306424;7.2406201999999995;8.903000831604004;1673373256.6526601;-18.725461959838867;19.245590209960938;86.97560119628906
107;1673373256.8812637;47.1306423;7.2406203;9.109000205993652;1673373256.883216;-18.23558807373047;22.24380874633789;86.30628204345703
108;1673373257.0479946;47.1306423;7.2406203;9.318000793457031;1673373257.0499623;-17.988510131835938;21.29069709777832;86.45188903808594
109;1673373257.2204108;47.1306423;7.2406204;9.530000686645508;1673373257.222303;-18.655017852783203;18.85366439819336;86.91899108886719
110;1673373257.4022772;47.1306423;7.2406204;9.743000030517578;1673373257.4052048;-18.137487411499023;21.856679916381836;86.20598602294922
111;1673373257.6106682;47.1306423;7.2406204;9.950000762939453;1673373257.6489325;-17.67326545715332;21.717580795288086;86.31265258789062
112;1673373257.8494725;47.1306424;7.2406204;10.158000946044922;1673373257.851417;-18.258747100830078;18.879228591918945;87.013427734375
113;1673373258.0600986;47.1306424;7.2406204999999995;10.426000595092773;1673373258.0635798;-18.741737365722656;20.854684829711914;86.757080078125
114;1673373258.2585216;47.130642099999996;7.240620799999999;10.797000885009766;1673373258.260475;-21.128332138061523;24.2484188079834;86.1700439453125
115;1673373258.4827075;47.1306418;7.240621399999999;11.188000679016113;1673373258.4856076;-18.842273712158203;21.3480167388916;86.70550537109375
116;1673373258.7265642;47.130641399999995;7.2406220999999995;11.589000701904297;1673373258.727544;-17.904090881347656;19.829578399658203;86.65906524658203
117;1673373258.9276145;47.130641;7.2406226;11.99000072479248;1673373258.9295657;-16.52535057067871;20.579240798950195;86.18911743164062
118;1673373259.1324577;47.130640799999995;7.240622999999999;12.38800048828125;1673373259.1334345;-15.79794692993164;18.501028060913086;86.53413391113281
119;1673373259.2929049;47.1306407;7.2406232;12.780000686645508;1673373259.2948415;-15.961002349853516;17.39421272277832;86.81707000732422
120;1673373259.4671369;47.130640799999995;7.2406231;13.16300106048584;1673373259.4690897;-15.622248649597168;20.14611053466797;86.12484741210938
121;1673373259.6702864;47.130640899999996;7.2406229;13.53800106048584;1673373259.6722188;-15.981208801269531;19.203088760375977;86.37239837646484
122;1673373259.8859282;47.1306411;7.2406223999999995;13.91200065612793;1673373259.88788;-17.037195205688477;18.040660858154297;86.81780242919922
123;1673373260.0932047;47.130641399999995;7.2406219;14.281001091003418;1673373260.096123;-17.379405975341797;21.02222442626953;86.27255249023438
124;1673373260.2750826;47.1306417;7.240621399999999;14.641000747680664;1673373260.2863564;-17.618637084960938;21.562318801879883;86.28571319580078
125;1673373260.451508;47.130641999999995;7.240621;15.003000259399414;1673373260.4554133;-18.664243698120117;19.420570373535156;86.95862579345703
126;1673373260.6362767;47.1306422;7.2406206;15.369000434875488;1673373260.6392124;-18.933969497680664;21.345476150512695;86.62569427490234
127;1673373260.8238738;47.1306422;7.2406204;15.74000072479248;1673373260.8258255;-18.34538459777832;22.638912200927734;86.24972534179688
128;1673373261.025119;47.1306422;7.2406203;16.11600112915039;1673373261.0280457;-18.79063606262207;19.942842483520508;86.89324951171875
129;1673373261.2629898;47.1306423;7.2406203;16.4950008392334;1673373261.268015;-18.674768447875977;20.391202926635742;86.8080062866211
130;1673373261.4562435;47.1306422;7.2406204;16.8700008392334;1673373261.4581964;-17.89563751220703;22.407756805419922;86.22108459472656
131;1673373261.649871;47.1306422;7.2406204999999995;17.248001098632812;1673373261.6518233;-17.766101837158203;20.292787551879883;86.59550476074219
132;1673373261.924232;47.1306422;7.2406206;17.630001068115234;1673373261.9252143;-17.960275650024414;19.321041107177734;87.01115417480469
133;1673373262.112464;47.1306422;7.2406207;18.013999938964844;1673373262.115393;-17.447647094726562;21.82716178894043;86.38119506835938
134;1673373262.283239;47.130642099999996;7.2406207;18.40300178527832;1673373262.2847478;-17.19998550415039;20.794677734375;86.51152801513672
135;1673373262.4599457;47.130642099999996;7.2406207;18.791000366210938;1673373262.462883;-17.79485321044922;18.75335693359375;86.98595428466797
136;1673373262.6425116;47.130641999999995;7.2406206;19.177000045776367;1673373262.6473923;-17.569089889526367;21.38548469543457;86.36966705322266
137;1673373262.8251755;47.130641999999995;7.2406206;19.556001663208008;1673373262.826152;-17.02254295349121;21.245628356933594;86.29884338378906
138;1673373263.0158925;47.130641999999995;7.2406204999999995;19.935001373291016;1673373263.0197961;-17.959430694580078;18.79985809326172;86.77417755126953
139;1673373263.205341;47.130642099999996;7.2406204999999995;20.317001342773438;1673373263.2092447;-18.017295837402344;20.551456451416016;86.53112030029297
140;1673373263.413592;47.130641999999995;7.2406204;20.703001022338867;1673373263.4214015;-17.393728256225586;21.850540161132812;86.26593017578125
141;1673373263.6251526;47.130641999999995;7.2406203;21.09200096130371;1673373263.628081;-18.02510643005371;19.3759708404541;86.76695251464844
142;1673373263.801777;47.130641999999995;7.2406201999999995;21.483001708984375;1673373263.8047051;-18.195404052734375;19.96623992919922;86.69001007080078
143;1673373264.0722857;47.130641999999995;7.2406201999999995;21.86600112915039;1673373264.0771618;-17.710512161254883;22.310653686523438;86.08560180664062
144;1673373264.2389784;47.130642099999996;7.2406201999999995;22.25200080871582;1673373264.240934;-17.82871437072754;20.164209365844727;86.67047119140625
145;1673373264.436443;47.130642099999996;7.2406203;22.639001846313477;1673373264.438396;-18.27393913269043;19.34632682800293;86.93001556396484
146;1673373264.6333814;47.130642099999996;7.2406203;23.02800178527832;1673373264.636294;-17.622621536254883;22.092008590698242;86.31126403808594
147;1673373264.8317888;47.130642099999996;7.2406203;23.417001724243164;1673373264.8356738;-17.66816520690918;20.72357177734375;86.53952026367188
148;1673373265.029089;47.130642099999996;7.2406203;23.810001373291016;1673373265.0320253;-18.147138595581055;19.09688949584961;86.87376403808594
149;1673373265.2393086;47.130642099999996;7.2406203;24.200000762939453;1673373265.2422569;-17.868728637695312;21.193260192871094;86.42882537841797
150;1673373265.4376907;47.130642099999996;7.2406203;24.586000442504883;1673373265.4406183;-17.079538345336914;21.452350616455078;86.31248474121094
151;1673373265.6147752;47.1306422;7.2406203;24.976001739501953;1673373265.6177018;-18.057750701904297;18.989713668823242;86.80020904541016
152;1673373265.8230336;47.1306422;7.2406203;25.36800193786621;1673373265.8259637;-17.65677261352539;21.016759872436523;86.47288513183594
153;1673373266.0204847;47.1306422;7.2406203;25.76300048828125;1673373266.0224445;-17.358247756958008;21.661849975585938;86.19021606445312
154;1673373266.2227616;47.1306422;7.2406203;26.159000396728516;1673373266.226684;-17.9044246673584;19.551448822021484;86.7466812133789
155;1673373266.427301;47.1306423;7.2406201999999995;26.556001663208008;1673373266.4321826;-18.1298885345459;20.252168655395508;86.703369140625
156;1673373266.6225703;47.1306423;7.2406201999999995;26.944002151489258;1673373266.6274507;-17.507457733154297;22.215805053710938;86.22376251220703
157;1673373266.8112657;47.1306424;7.2406201999999995;27.3330020904541;1673373266.816145;-17.88068199157715;20.063873291015625;86.79961395263672
158;1673373267.0085654;47.1306424;7.2406201999999995;27.722002029418945;1673373267.0114915;-18.16938591003418;19.81453514099121;86.8681411743164
159;1673373267.2089248;47.1306424;7.2406203;28.113000869750977;1673373267.2128417;-17.52288246154785;21.9959659576416;86.26154327392578
160;1673373267.4015415;47.1306424;7.2406203;28.506000518798828;1673373267.4044757;-17.52752685546875;20.436830520629883;86.52699279785156
161;1673373267.599754;47.1306424;7.2406203;28.899002075195312;1673373267.6017053;-18.05397605895996;19.227664947509766;86.87152862548828
162;1673373267.819752;47.1306424;7.2406203;29.29100227355957;1673373267.8217142;-17.53032684326172;22.031352996826172;86.2934341430664
163;1673373268.0142713;47.1306424;7.2406203;29.677001953125;1673373268.017199;-17.265024185180664;21.279979705810547;86.3904800415039
164;1673373268.2111127;47.1306424;7.2406203;30.067001342773438;1673373268.2140443;-18.107952117919922;19.066944122314453;86.9157943725586
165;1673373268.4086466;47.1306424;7.2406203;30.461002349853516;1673373268.412551;-17.695934295654297;21.418689727783203;86.37930297851562
166;1673373268.6048572;47.1306423;7.2406203;30.854001998901367;1673373268.608761;-17.29876708984375;21.82509422302246;86.30680084228516
167;1673373268.832362;47.1306423;7.2406203;31.248001098632812;1673373268.8343146;-17.704097747802734;19.207645416259766;86.81449890136719
168;1673373269.0378702;47.1306423;7.2406203;31.645002365112305;1673373269.040828;-17.787019729614258;20.85484504699707;86.5846176147461
169;1673373269.2514875;47.1306423;7.2406203;32.03499984741211;1673373269.2544162;-17.14009666442871;22.1274356842041;86.2675552368164
170;1673373269.4862773;47.1306424;7.2406201999999995;32.426002502441406;1673373269.4882314;-17.55872917175293;19.71965789794922;86.69913482666016
171;1673373269.705312;47.1306424;7.2406201999999995;32.819000244140625;1673373269.7082403;-17.99372673034668;19.929798126220703;86.73224639892578
172;1673373269.9037778;47.1306424;7.2406201;33.2140007019043;1673373269.9076693;-17.64615821838379;22.3853759765625;86.19733428955078
173;1673373270.0764818;47.1306424;7.24062;33.608001708984375;1673373270.098635;-17.800567626953125;20.420595169067383;86.5069351196289
174;1673373270.2740307;47.1306424;7.2406198999999996;34.00200271606445;1673373270.2769563;-18.114242553710938;19.600828170776367;86.77245330810547
175;1673373270.5044255;47.1306424;7.2406198999999996;34.397003173828125;1673373270.5073624;-17.817583084106445;21.845088958740234;86.30844116210938
176;1673373270.7312517;47.1306424;7.2406198999999996;34.78600311279297;1673373270.7321858;-17.41907501220703;21.130212783813477;86.532470703125
177;1673373270.8904548;47.1306425;7.2406198999999996;35.177001953125;1673373270.8943536;-18.154422760009766;19.218896865844727;86.94900512695312
178;1673373271.068045;47.1306425;7.2406198999999996;35.57100296020508;1673373271.0709903;-17.836769104003906;21.567630767822266;86.46131896972656
179;1673373271.2486265;47.1306425;7.2406198999999996;35.967002868652344;1673373271.2525303;-17.34102439880371;21.798585891723633;86.32457733154297
180;1673373271.4390204;47.1306425;7.2406198999999996;36.3640022277832;1673373271.441931;-17.93763542175293;19.459924697875977;86.87095642089844
181;1673373271.6239505;47.1306425;7.240619799999999;36.76100158691406;1673373271.625916;-18.011951446533203;20.87557601928711;86.55890655517578
182;1673373271.8356836;47.1306425;7.240619799999999;37.152000427246094;1673373271.8395858;-17.375640869140625;22.30631446838379;86.2832260131836
183;1673373272.0303419;47.1306425;7.240619799999999;37.547000885009766;1673373272.0323145;-17.857587814331055;19.828231811523438;86.83474731445312
184;1673373272.2256405;47.1306425;7.240619799999999;37.944000244140625;1673373272.2275922;-18.07944679260254;20.431886672973633;86.62916564941406
185;1673373272.414084;47.1306425;7.240619799999999;38.3390007019043;1673373272.4180088;-17.508892059326172;22.32515525817871;86.20734405517578
186;1673373272.6210847;47.1306424;7.240619799999999;38.73200225830078;1673373272.624973;-17.813396453857422;20.16180992126465;86.5810775756836
187;1673373272.8155587;47.1306424;7.240619799999999;39.12900161743164;1673373272.8184862;-18.082141876220703;19.644174575805664;86.82244873046875
188;1673373273.02754;47.1306424;7.240619799999999;39.5260009765625;1673373273.0324202;-17.559064865112305;22.10348892211914;86.3141860961914
189;1673373273.2346497;47.1306424;7.240619799999999;39.92100143432617;1673373273.2375772;-17.6054630279541;20.87310791015625;86.5074234008789
190;1673373273.4210303;47.1306424;7.240619799999999;40.31700134277344;1673373273.4239566;-17.986186981201172;19.125185012817383;86.98179626464844
191;1673373273.6246963;47.1306423;7.240619799999999;40.71800231933594;1673373273.6285982;-17.63509750366211;21.847309112548828;86.3792953491211
192;1673373273.825072;47.1306423;7.240619799999999;41.121002197265625;1673373273.8279972;-17.32299041748047;21.179996490478516;86.33051300048828
193;1673373274.0253649;47.1306423;7.240619799999999;41.525001525878906;1673373274.0312219;-17.72429656982422;19.07996940612793;86.84883880615234
194;1673373274.2328966;47.1306423;7.240619799999999;41.92500305175781;1673373274.2358272;-17.662031173706055;21.429866790771484;86.31774139404297
195;1673373274.4261796;47.1306423;7.240619799999999;42.31700134277344;1673373274.4291048;-17.12017822265625;21.79766082763672;86.29800415039062
196;1673373274.6198559;47.1306424;7.240619799999999;42.7140007019043;1673373274.6218293;-17.75655174255371;19.335988998413086;86.81275177001953
197;1673373274.8226;47.1306424;7.240619799999999;43.1150016784668;1673373274.8255284;-17.865278244018555;21.248315811157227;86.58150482177734
198;1673373275.0200384;47.1306424;7.2406197;43.5160026550293;1673373275.0229743;-17.183923721313477;22.201953887939453;86.20372772216797
199;1673373275.220512;47.1306424;7.2406197;43.9170036315918;1673373275.2244165;-17.818803787231445;19.71922492980957;86.80021667480469
200;1673373275.4237323;47.1306424;7.2406196;44.31800079345703;1673373275.4276366;-18.013700485229492;20.444110870361328;86.75997161865234
201;1673373275.6298923;47.1306424;7.2406196;44.71800231933594;1673373275.6318412;-17.493967056274414;22.723613739013672;86.2238540649414
202;1673373275.830257;47.1306424;7.2406196;45.10900115966797;1673373275.8331988;-17.795854568481445;20.178190231323242;86.67447662353516
203;1673373276.0210607;47.1306424;7.240619499999999;45.50200271606445;1673373276.0230076;-17.9915771484375;20.051389694213867;86.76586151123047
204;1673373276.2311847;47.1306424;7.240619499999999;45.89500045776367;1673373276.2350867;-17.65901756286621;22.300256729125977;86.2871322631836
205;1673373276.4232287;47.1306423;7.240619499999999;46.288002014160156;1673373276.4251828;-17.34191131591797;20.59099006652832;86.54527282714844
206;1673373276.6157696;47.1306423;7.240619499999999;46.68600082397461;1673373276.6206508;-18.151065826416016;19.300724029541016;86.87020874023438
207;1673373276.8163888;47.1306423;7.240619499999999;47.08500289916992;1673373276.818341;-17.901792526245117;21.84626007080078;86.39136505126953
208;1673373277.0344617;47.1306423;7.240619499999999;47.47900390625;1673373277.0393443;-17.38660430908203;21.677539825439453;86.416015625
209;1673373277.226828;47.1306423;7.240619499999999;47.875003814697266;1673373277.2307322;-18.14984703063965;19.418865203857422;86.9560546875
210;1673373277.4241188;47.1306423;7.240619499999999;48.24800109863281;1673373277.4260714;-17.977819442749023;22.514232635498047;86.2884521484375
211;1673373277.6633666;47.1306423;7.2406194;48.56300354003906;1673373277.6653404;-17.880046844482422;21.307188034057617;86.45735931396484
212;1673373277.8647802;47.1306425;7.2406191;48.829002380371094;1673373277.8686836;-18.35561752319336;20.647356033325195;86.7564926147461
213;1673373278.0517538;47.130642599999995;7.2406188;49.04900360107422;1673373278.0537062;-18.686790466308594;22.480409622192383;86.38597106933594
214;1673373278.2213738;47.1306428;7.2406185;49.233001708984375;1673373278.2252767;-19.008197784423828;22.781444549560547;86.3860092163086
215;1673373278.4313476;47.1306429;7.2406182;49.38500213623047;1673373278.4352498;-10.100204467773438;22.743534088134766;86.83792877197266
216;1673373278.6259081;47.130643;7.240616999999999;49.50800323486328;1673373278.629803;14.027968406677246;3.40276837348938;77.58684539794922
217;1673373278.8134801;47.130643899999995;7.2406133;49.608001708984375;1673373278.816407;22.70183753967285;-10.79727554321289;64.230224609375
218;1673373279.0000002;47.1306459;7.240606499999999;49.689002990722656;1673373279.0029306;10.999305725097656;-14.064539909362793;55.48492431640625
219;1673373279.206342;47.1306492;7.2405972;49.75700378417969;1673373279.20927;3.9207088947296143;-8.204872131347656;44.92849349975586
220;1673373279.4162614;47.1306535;7.2405861;49.81900405883789;1673373279.4201655;-4.6583638191223145;-27.86848258972168;37.21632766723633
221;1673373279.6205285;47.130659699999995;7.2405729999999995;49.85600280761719;1673373279.6234562;-17.214296340942383;-41.99632263183594;28.389198303222656
222;1673373279.8177912;47.1306678;7.2405573;49.85000228881836;1673373279.8207185;-24.88057518005371;-34.807743072509766;16.570829391479492
223;1673373280.038107;47.130677999999996;7.240539;49.82500076293945;1673373280.0390763;-27.622299194335938;-27.872220993041992;6.926495552062988
224;1673373280.247771;47.1306899;7.2405183;49.797000885009766;1673373280.2516623;-34.821781158447266;-23.04434585571289;-2.2648069858551025
225;1673373280.4391978;47.130703499999996;7.2404953999999995;49.768001556396484;1673373280.4411693;-39.57257843017578;-18.611404418945312;-12.33914566040039
226;1673373280.62976;47.130718699999996;7.2404705;49.74500274658203;1673373280.6326885;-42.64012908935547;-16.663368225097656;-20.920764923095703
227;1673373280.848057;47.1307353;7.2404435;49.737003326416016;1673373280.8509858;-44.59189224243164;-12.556599617004395;-29.155593872070312
228;1673373281.0356019;47.130753399999996;7.240414599999999;49.743003845214844;1673373281.0410385;-50.642032623291016;-3.7254834175109863;-38.676151275634766
229;1673373281.2431955;47.130772;7.240385;49.5160026550293;1673373281.2471383;-40.430015563964844;12.665271759033203;-48.8032112121582
230;1673373281.4351063;47.1307908;7.240355399999999;48.92500305175781;1673373281.4391968;-16.995458602905273;22.18183708190918;-49.01911544799805
231;1673373281.6193292;47.1308096;7.2403258;47.958003997802734;1673373281.625177;18.87706756591797;29.182964324951172;-39.402732849121094
232;1673373281.8320944;47.1308283;7.2402963;46.60100173950195;1673373281.8350644;59.17179870605469;49.58810043334961;-8.888676643371582
233;1673373282.023032;47.130846999999996;7.2402665;44.87000274658203;1673373282.0269687;68.51288604736328;125.80441284179688;81.87979888916016
234;1673373282.2271402;47.1308655;7.240236899999999;42.7760009765625;1673373282.232515;56.936805725097656;142.64694213867188;116.1368179321289
235;1673373282.46603;47.130883999999995;7.2402074;40.34000015258789;1673373282.468064;59.986454010009766;120.67388916015625;111.56211853027344
236;1673373282.6548927;47.1309025;7.2401782;37.56800079345703;1673373282.6590679;60.12370681762695;45.88417053222656;52.38630676269531
237;1673373282.844095;47.1309213;7.240149199999999;34.439002990722656;1673373282.8480809;16.149303436279297;3.005449056625366;21.458303451538086
238;1673373283.0401418;47.1309401;7.2401203999999995;30.908000946044922;1673373283.0430772;-34.811073303222656;-7.409643173217773;17.41533660888672
239;1673373283.2423058;47.1309584;7.2400918999999995;27.007001876831055;1673373283.2452323;-62.45124435424805;3.143364191055298;9.459736824035645
240;1673373283.4492922;47.130976399999994;7.2400635;22.77400016784668;1673373283.4512446;-53.43349075317383;23.908767700195312;2.83711838722229
241;1673373283.6463184;47.1309939;7.2400351;18.189001083374023;1673373283.649362;-13.055364608764648;31.711862564086914;20.416961669921875
242;1673373283.8279655;47.1310113;7.240006299999999;13.226000785827637;1673373283.8322246;35.54161071777344;44.467529296875;49.03535461425781
243;1673373284.0311637;47.1310291;7.2399776;7.9150004386901855;1673373284.0350823;60.7586555480957;54.29529571533203;75.94190216064453
244;1673373284.2419827;47.131047099999996;7.239949299999999;2.2980000972747803;1673373284.2458847;52.16286849975586;15.563234329223633;52.95587921142578
245;1673373284.4380322;47.1310521;7.2399322999999995;0.16500000655651093;1673373284.4399865;-3.0668342113494873;-8.604826927185059;33.9275016784668
246;1673373284.6641588;47.1310442;7.239918599999999;0.35500001907348633;1673373284.6651187;-2.894498586654663;-5.399102687835693;19.52425765991211
247;1673373284.8543086;47.1310333;7.2399024;0.4690000116825104;1673373284.8572724;-1.2398083209991455;-5.028841972351074;16.44428825378418
248;1673373285.0443625;47.1310238;7.2398891;0.5360000133514404;1673373285.0483727;6.89121675491333;-7.160647392272949;14.696752548217773
249;1673373285.233179;47.1310163;7.239878999999999;0.6150000095367432;1673373285.237195;6.708267688751221;-6.810781478881836;13.880144119262695
250;1673373285.4492888;47.1310113;7.2398736999999995;0.6880000233650208;1673373285.451348;6.0599517822265625;-6.970331192016602;12.473670959472656
251;1673373285.6472259;47.1310088;7.2398734;0.7660000324249268;1673373285.6512804;5.222765922546387;-6.197131156921387;10.9440336227417
252;1673373285.8684306;47.1310084;7.2398769;0.8510000109672546;1673373285.8713608;4.438755989074707;-6.19670295715332;9.46493911743164
253;1673373286.0570655;47.1310097;7.2398827;0.9380000233650208;1673373286.0611753;3.710191011428833;-6.123265743255615;8.172576904296875
254;1673373286.2582667;47.1310091;7.2398853;1.0410000085830688;1673373286.2612164;3.4923925399780273;-6.210822582244873;7.6543707847595215
255;1673373286.4549308;47.1310053;7.2398823;1.0890001058578491;1673373286.4596045;3.527547597885132;-6.355081081390381;7.62347936630249
256;1673373286.6501076;47.1309993;7.2398755999999995;1.100000023841858;1673373286.65215;3.5995965003967285;-6.47323751449585;7.5323381423950195
257;1673373286.8442242;47.130992;7.2398668;1.0910000801086426;1673373286.8482232;3.605587959289551;-6.535085678100586;7.414924621582031
258;1673373287.0260096;47.130984;7.2398564;1.069000005722046;1673373287.028017;3.592911958694458;-6.612767696380615;7.334613800048828
259;1673373287.224263;47.1309755;7.239845099999999;1.0380001068115234;1673373287.227219;3.566526412963867;-6.537354469299316;7.244647026062012
260;1673373287.4360847;47.1309669;7.2398332;1.0230000019073486;1673373287.4394798;3.550915002822876;-6.598097324371338;7.143984317779541
261;1673373287.6404238;47.130958;7.2398206;0.9950000643730164;1673373287.643361;3.5800578594207764;-6.61555814743042;7.065613746643066
262;1673373287.841985;47.1309488;7.2398073;0.9590000510215759;1673373287.843937;3.603280544281006;-6.5911712646484375;7.012149333953857
263;1673373288.0842035;47.1309395;7.2397936;0.921000063419342;1673373288.0882964;3.622481107711792;-6.575881004333496;6.916438579559326
264;1673373288.267209;47.13093;7.2397794;0.8830000162124634;1673373288.2720325;3.557332754135132;-6.551267147064209;6.835743427276611
265;1673373288.4521525;47.130920499999995;7.239764699999999;0.8450000286102295;1673373288.4550862;3.517442464828491;-6.473056316375732;6.735751152038574
266;1673373288.648014;47.130910899999996;7.2397496;0.8100000619888306;1673373288.6499624;3.3723196983337402;-6.432826995849609;6.687276840209961
267;1673373288.8521423;47.1309012;7.2397342;0.7770000100135803;1673373288.855083;3.3816933631896973;-6.39478874206543;6.5938801765441895
268;1673373289.051377;47.130891399999996;7.2397181999999995;0.7380000352859497;1673373289.053329;3.4136228561401367;-6.32607889175415;6.511391639709473
269;1673373289.236149;47.130881599999995;7.2397018;0.6980000138282776;1673373289.2392926;3.351846933364868;-6.277214050292969;6.4124064445495605
270;1673373289.4393232;47.1308716;7.239684899999999;0.6570000052452087;1673373289.443228;3.252779245376587;-6.259171485900879;6.378466606140137
271;1673373289.6322286;47.130861599999996;7.2396676;0.6160000562667847;1673373289.6351407;3.3207547664642334;-6.160476207733154;6.279696464538574
272;1673373289.8610058;47.1308515;7.2396499;0.5740000009536743;1673373289.8639338;3.256847381591797;-6.13667106628418;6.2024664878845215
273;1673373290.058089;47.1308412;7.2396316999999994;0.5270000100135803;1673373290.0629778;3.2102131843566895;-6.129127502441406;6.105748176574707
274;1673373290.281099;47.1308309;7.2396131;0.4830000102519989;1673373290.2850032;3.252967357635498;-6.074039936065674;6.007067680358887
275;1673373290.4735851;47.1308206;7.2395942;0.4410000145435333;1673373290.4770298;3.218801736831665;-6.0592474937438965;5.936953544616699
276;1673373290.6619682;47.1308102;7.239574999999999;0.398000031709671;1673373290.6658661;3.1740314960479736;-5.98178243637085;5.901598930358887
277;1673373290.8641155;47.1307998;7.2395553999999995;0.3580000102519989;1673373290.868078;3.0844147205352783;-5.93673849105835;5.798481464385986
278;1673373291.056061;47.130795199999994;7.2395466;0.32200002670288086;1673373291.0592139;3.035778045654297;-5.941380023956299;5.745180606842041
279;;;;;1673373291.2540839;3.0602879524230957;-5.21458625793457;5.623373985290527
280;;;;;1673373291.4530456;3.0532844066619873;-5.0175395011901855;5.533117771148682
281;;;;;1673373291.6561725;3.013916254043579;-4.8766255378723145;5.4458794593811035
282;;;;;1673373291.85939;2.8848276138305664;-4.716200828552246;5.347464561462402
283;;;;;1673373292.0522418;2.906614065170288;-4.57037878036499;5.288331031799316
