;pos_time;latitude;longitude;altitude;alt_time;pitch;roll;yaw
0;1673374052.1463795;47.1306425;7.2406201999999995;-0.04400000348687172;1673374052.2220664;0.06575324386358261;-0.18219859898090363;90.1389389038086
1;1673374052.3477662;47.1306425;7.2406201999999995;-0.046000003814697266;1673374052.425468;0.1573149561882019;-0.3164195120334625;89.95870971679688
2;1673374052.5512922;47.1306425;7.2406201999999995;-0.04800000041723251;1673374052.6265202;0.037698883563280106;-0.3507711589336395;90.09471130371094
3;1673374052.7529984;47.1306424;7.2406201999999995;-0.05100000277161598;1673374052.81418;0.10169985890388489;-0.2115033119916916;90.06671905517578
4;1673374052.935984;47.1306423;7.2406201999999995;-0.05000000074505806;1673374053.0034378;0.17828857898712158;-0.26206305623054504;90.17122650146484
5;1673374053.1206837;47.1306423;7.2406201999999995;-0.046000003814697266;1673374053.2073054;0.05310428515076637;-0.20930233597755432;90.12747955322266
6;1673374053.3354726;47.1306422;7.2406201;-0.04500000178813934;1673374053.410247;-0.06482061743736267;-0.2703864574432373;90.21536254882812
7;1673374053.5281873;47.1306422;7.2406201;-0.04500000178813934;1673374053.597746;0.014170046895742416;-0.1284564882516861;90.12630462646484
8;1673374053.7319295;47.1306422;7.24062;-0.049000002443790436;1673374053.7983954;0.18729765713214874;-0.3514863848686218;90.12222290039062
9;1673374053.9159217;47.1306422;7.24062;-0.049000002443790436;1673374053.988162;0.21633599698543549;-0.3803572952747345;90.25546264648438
10;1673374054.1145546;47.1306423;7.2406201;-0.04800000041723251;1673374054.1926355;0.08227326720952988;-0.2960793077945709;90.13326263427734
11;1673374054.3306706;47.1306423;7.2406201;-0.04700000211596489;1673374054.4153528;0.1619248390197754;-0.4131556749343872;90.06172180175781
12;1673374054.5992615;47.1306423;7.2406201;-0.04500000178813934;1673374054.65784;0.04984639212489128;-0.35203033685684204;90.0346908569336
13;1673374054.7755165;47.1306423;7.2406201999999995;-0.039000000804662704;1673374054.8463268;0.0038867108523845673;-0.29057732224464417;90.02241516113281
14;1673374054.960127;47.1306424;7.2406201999999995;0.005000000353902578;1673374055.0280747;0.1076292172074318;-0.32577088475227356;90.06990814208984
15;1673374055.1584384;47.1306424;7.2406201999999995;0.007000000216066837;1673374055.225568;-0.09334052354097366;-0.2530956566333771;89.9119873046875
16;1673374055.3391168;47.1306424;7.2406201999999995;0.010000000707805157;1673374055.4148724;0.0483366921544075;-0.4072493612766266;90.08190155029297
17;1673374055.5413442;47.1306424;7.2406201;0.01100000087171793;1673374055.6109076;0.15885387361049652;-0.14822864532470703;90.02450561523438
18;1673374055.728389;47.1306424;7.2406201;0.012000000104308128;1673374055.7995207;-0.0402681902050972;-0.2268684357404709;90.08304595947266
19;1673374055.9202464;47.1306424;7.24062;0.014000000432133675;1673374055.9978838;0.21491752564907074;-0.2636115252971649;90.05950927734375
20;1673374056.1082478;47.1306424;7.2406198999999996;0.01100000087171793;1673374056.1823337;0.30528125166893005;0.04951370507478714;90.09550476074219
21;1673374056.311237;47.1306424;7.240619799999999;0.006000000052154064;1673374056.3902218;0.6098073124885559;-0.19643491506576538;90.11997985839844
22;1673374056.5203366;47.1306424;7.240619799999999;-0.0020000000949949026;1673374056.607179;0.6010262370109558;0.20829766988754272;90.12421417236328
23;1673374056.7266681;47.1306424;7.2406198999999996;-0.003000000026077032;1673374056.799193;0.6292242407798767;-0.2566671371459961;90.36448669433594
24;1673374056.915568;47.1306424;7.2406198999999996;-0.005000000353902578;1673374056.9912941;0.9743219614028931;-0.19865696132183075;90.17840576171875
25;1673374057.1112459;47.1306423;7.2406198999999996;-0.0020000000949949026;1673374057.187836;1.5154006481170654;-0.13408809900283813;90.2894058227539
26;1673374057.3073297;47.1306423;7.240619799999999;0.003000000026077032;1673374057.379209;2.015490770339966;-0.22936448454856873;89.81842803955078
27;1673374057.5114205;47.1306423;7.240619799999999;0.007000000216066837;1673374057.5865765;2.0079526901245117;-0.10333062708377838;90.27208709716797
28;1673374057.72644;47.1306423;7.240619799999999;0.012000000104308128;1673374057.7943392;2.6550426483154297;-0.2061462700366974;90.2517318725586
29;1673374057.9072347;47.1306422;7.2406197;0.018000001087784767;1673374057.9764826;3.6200990676879883;-0.2383919209241867;90.43328857421875
30;1673374058.112388;47.1306422;7.2406191;0.010000000707805157;1673374058.202358;-0.42351651191711426;-0.2917598485946655;91.01276397705078
31;1673374058.3284519;47.1306422;7.2406172;0.014000000432133675;1673374058.4033988;-5.134831428527832;-0.49689340591430664;89.87374877929688
32;1673374058.5403688;47.1306422;7.2406146;0.02200000174343586;1673374058.6234422;-12.232510566711426;0.39450007677078247;89.61387634277344
33;1673374058.7457595;47.1306422;7.2406111;0.02500000037252903;1673374058.8273768;-16.360427856445312;-0.38020220398902893;90.30226135253906
34;1673374058.9594846;47.130642099999996;7.2406068999999995;0.03200000151991844;1673374059.036124;-16.61086654663086;-1.6158106327056885;90.52803802490234
35;1673374059.166176;47.130642099999996;7.240602099999999;0.052000001072883606;1673374059.23547;-17.530128479003906;-0.23607446253299713;90.09349822998047
36;1673374059.3492875;47.130641999999995;7.2405968;0.08400000631809235;1673374059.420328;-18.978078842163086;-0.08633323013782501;89.97179412841797
37;1673374059.5453284;47.1306419;7.240591299999999;0.1210000067949295;1673374059.619199;-20.716236114501953;-1.366797924041748;90.24102783203125
38;1673374059.7481942;47.1306418;7.240585599999999;0.16200000047683716;1673374059.826105;-22.637195587158203;-0.9926784038543701;90.1026840209961
39;1673374059.9502215;47.1306416;7.24058;0.2070000171661377;1673374060.019084;-24.638275146484375;0.037873994559049606;89.74598693847656
40;1673374060.1349359;47.130641499999996;7.2405745999999995;0.25200000405311584;1673374060.204771;-26.72962760925293;-1.2143256664276123;90.04083251953125
41;1673374060.3216162;47.130641399999995;7.2405697;0.30300000309944153;1673374060.3920515;-28.826631546020508;-1.5774097442626953;90.10808563232422
42;1673374060.512377;47.1306413;7.2405653999999995;0.36000001430511475;1673374060.5867498;-30.991403579711914;-0.4584949314594269;89.68665313720703
43;1673374060.7178922;47.1306413;7.2405617;0.42000001668930054;1673374060.8014042;-33.165496826171875;-0.7910734415054321;89.70027160644531
44;1673374060.9346163;47.1306413;7.240558999999999;0.48600003123283386;1673374061.0035968;-35.25831604003906;-1.4633868932724;89.923095703125
45;1673374061.1241856;47.1306412;7.2405572;0.5550000071525574;1673374061.2049756;-37.42755126953125;-0.6810502409934998;89.72459411621094
46;1673374061.3567622;47.1306412;7.240556499999999;0.6260000467300415;1673374061.4386294;-39.6778678894043;-0.7840535044670105;89.8477783203125
47;1673374061.579462;47.1306412;7.240557099999999;0.6960000395774841;1673374061.6451056;-41.8428840637207;-1.2586002349853516;90.02861022949219
48;1673374061.7830753;47.1306413;7.240558999999999;0.7700000405311584;1673374061.8451135;-44.05562973022461;-1.3661457300186157;89.98238372802734
49;1673374061.9862556;47.1306413;7.2405624;0.8510000109672546;1673374062.050327;-46.14921951293945;-1.0178861618041992;89.82526397705078
50;1673374062.1757822;47.130641499999996;7.2405674;0.9340000152587891;1673374062.2417212;-45.62055969238281;-1.0732263326644897;89.63899230957031
51;1673374062.3527093;47.1306416;7.2405737;1.0150001049041748;1673374062.4287462;-40.9385986328125;-0.7598729729652405;89.46587371826172
52;1673374062.5421572;47.1306418;7.240580899999999;1.093000054359436;1673374062.6062274;-35.860015869140625;-0.5409552454948425;89.439697265625
53;1673374062.751448;47.1306419;7.2405881999999995;1.162000060081482;1673374062.8583655;-30.75733757019043;-0.5190127491950989;89.4348373413086
54;1673374062.9742382;47.130641999999995;7.2405952;1.2290000915527344;1673374063.0401652;-26.11920928955078;-0.5250303745269775;89.41358947753906
55;1673374063.1480596;47.1306422;7.2406014;1.2950000762939453;1673374063.2198646;-22.41749382019043;-0.6172406673431396;89.45381164550781
56;1673374063.340449;47.1306423;7.2406066;1.3580000400543213;1673374063.415161;-20.564783096313477;-0.2774961292743683;89.4408950805664
57;1673374063.526976;47.1306424;7.2406105;1.4190000295639038;1673374063.6259131;-20.393569946289062;-0.21200811862945557;89.43247985839844
58;1673374063.7447064;47.1306424;7.2406131;1.4840000867843628;1673374063.821429;-21.233322143554688;-0.9020777344703674;89.7401351928711
59;1673374063.9586034;47.1306424;7.2406147999999995;1.558000087738037;1673374064.0241563;-22.662870407104492;0.20804987847805023;82.62008666992188
60;1673374064.1439257;47.1306424;7.2406156;1.6450001001358032;1673374064.2313802;-24.204547882080078;1.4499132633209229;82.24412536621094
61;1673374064.3529463;47.1306422;7.240615999999999;1.7430000305175781;1673374064.4326415;-25.591102600097656;-2.0994739532470703;83.12937927246094
62;1673374064.560969;47.130642099999996;7.240615999999999;1.8570001125335693;1673374064.6299582;-27.2556095123291;-1.8158432245254517;83.07811737060547
63;1673374064.7391508;47.130641999999995;7.2406159;1.9840000867843628;1673374064.8124044;-28.674795150756836;1.24164879322052;82.1007308959961
64;1673374064.9389186;47.130641999999995;7.2406159;2.123000144958496;1673374065.0277417;-29.30241584777832;-1.9563809633255005;83.35240936279297
65;1673374065.1463873;47.130642099999996;7.240615999999999;2.2730000019073486;1673374065.220208;-29.626190185546875;-1.4165267944335938;83.42691802978516
66;1673374065.341835;47.130642099999996;7.2406163;2.433000087738037;1673374065.4235394;-29.410755157470703;1.3850700855255127;82.5152816772461
67;1673374065.5565393;47.1306422;7.2406168;2.6020002365112305;1673374065.6307497;-28.956844329833984;-1.4676182270050049;83.28685760498047
68;1673374065.7543387;47.130642099999996;7.2406174;2.7810001373291016;1673374065.8251846;-28.048126220703125;-2.0781643390655518;83.45037841796875
69;1673374065.9430878;47.130642099999996;7.2406181;2.9690001010894775;1673374066.0138328;-27.902568817138672;0.8984256386756897;82.26739501953125
70;1673374066.1397247;47.130642099999996;7.2406187;3.1580002307891846;1673374066.2222307;-27.168376922607422;-1.4668151140213013;83.16166687011719
71;1673374066.3400164;47.130642099999996;7.2406193;3.3480000495910645;1673374066.4127748;-26.61408233642578;-2.360546588897705;83.6224365234375
72;1673374066.5392365;47.130642099999996;7.240619799999999;3.5360002517700195;1673374066.6218758;-26.400897979736328;0.7786027789115906;82.4489517211914
73;1673374066.7376778;47.130642099999996;7.2406201;3.7240002155303955;1673374066.8182504;-26.1458683013916;-0.962377667427063;82.88452911376953
74;1673374066.9469693;47.130642099999996;7.2406201999999995;3.9120001792907715;1673374067.0648077;-26.632375717163086;-3.148040771484375;83.7251205444336
75;1673374067.2151084;47.130642099999996;7.2406203;4.0980000495910645;1673374067.2844043;-26.472583770751953;0.8692803382873535;82.4590072631836
76;1673374067.410185;47.1306422;7.2406203;4.2870001792907715;1673374067.4845638;-26.971818923950195;-0.2663958966732025;82.91374969482422
77;1673374067.6182604;47.1306424;7.2406201999999995;4.4770002365112305;1673374067.6804755;-26.97407341003418;-2.0727837085723877;83.64151763916016
78;1673374067.8119092;47.1306425;7.2406201999999995;4.671000003814697;1673374067.8841739;-27.359542846679688;1.268638014793396;82.58650970458984
79;1673374067.9813788;47.1306425;7.2406201;4.865000247955322;1673374068.0590649;-27.31566047668457;0.762470006942749;82.6651382446289
80;1673374068.1952963;47.1306425;7.2406201;5.061000347137451;1673374068.2801077;-27.45121192932129;-2.3682467937469482;83.67316436767578
81;1673374068.4119773;47.1306425;7.2406201;5.260000228881836;1673374068.4862068;-27.381528854370117;0.43426674604415894;82.85775756835938
82;1673374068.6220124;47.1306425;7.2406201;5.457000255584717;1673374068.7032757;-27.831960678100586;1.0484974384307861;82.53636932373047
83;1673374068.8043828;47.1306425;7.24062;5.646000385284424;1673374068.8693433;-27.377344131469727;-2.109130382537842;83.61502838134766
84;1673374069.0046742;47.1306425;7.2406201;5.834000110626221;1673374069.070648;-27.619218826293945;-0.17864610254764557;82.89253234863281
85;1673374069.1689084;47.1306424;7.2406201;6.023000240325928;1673374069.2350411;-27.483379364013672;0.972131073474884;82.38053131103516
86;1673374069.360628;47.1306424;7.2406201;6.212000370025635;1673374069.43358;-27.650527954101562;-2.1121280193328857;83.49932098388672
87;1673374069.5640852;47.1306424;7.2406201999999995;6.403000354766846;1673374069.6634402;-27.205917358398438;-1.0120235681533813;83.1840591430664
88;1673374069.7977915;47.1306424;7.2406201999999995;6.594000339508057;1673374069.8629134;-27.382593154907227;1.364935040473938;82.39061737060547
89;1673374069.990931;47.1306425;7.2406203;6.785000324249268;1673374070.061343;-27.226863861083984;-1.517441749572754;83.41018676757812
90;1673374070.2546217;47.130642599999995;7.2406203;6.9770002365112305;1673374070.3147259;-27.353178024291992;-1.0071889162063599;83.35366821289062
91;1673374070.4292312;47.130642599999995;7.2406203;7.169000148773193;1673374070.4868531;-27.125503540039062;1.7636754512786865;82.28580474853516
92;1673374070.5953057;47.130642599999995;7.2406204;7.362000465393066;1673374070.6578116;-27.34549331665039;-1.3149399757385254;83.34281158447266
93;1673374070.7649915;47.1306425;7.2406203;7.557000160217285;1673374070.8348956;-27.33638572692871;-1.6726568937301636;83.4571304321289
94;1673374070.957453;47.1306425;7.2406204;7.752000331878662;1673374071.0369284;-27.54224395751953;1.5389232635498047;82.36811828613281
95;1673374071.1614213;47.1306425;7.2406204;7.942000389099121;1673374071.2273676;-27.114994049072266;-0.7958574891090393;83.14729309082031
96;1673374071.3635414;47.130642599999995;7.2406204999999995;8.135000228881836;1673374071.4384286;-27.392778396606445;-1.5469096899032593;83.52214813232422
97;1673374071.5654428;47.1306425;7.2406204999999995;8.329000473022461;1673374071.6428156;-27.214702606201172;1.5889962911605835;82.38245391845703
98;1673374071.773224;47.1306425;7.2406206;8.52500057220459;1673374071.8480854;-27.315671920776367;-0.6776242852210999;83.07855224609375
99;1673374071.9765997;47.1306425;7.2406206;8.722000122070312;1673374072.056194;-27.19400405883789;-2.1619362831115723;83.74787139892578
100;1673374072.176824;47.1306425;7.2406206;8.921000480651855;1673374072.2469876;-27.37711524963379;1.477996587753296;82.42365264892578
101;1673374072.3658302;47.1306425;7.2406206;9.121000289916992;1673374072.4472196;-27.2637939453125;0.27213552594184875;82.75812530517578
102;1673374072.57525;47.1306425;7.2406207;9.320000648498535;1673374072.651104;-27.24811363220215;-2.1621387004852295;83.61112213134766
103;1673374072.7650259;47.1306424;7.2406207;9.518000602722168;1673374072.8309646;-27.210819244384766;1.1209079027175903;82.47895050048828
104;1673374072.9793017;47.1306423;7.240620799999999;9.7160005569458;1673374073.0510895;-27.200918197631836;-0.2077348679304123;82.79788208007812
105;1673374073.1768246;47.1306423;7.240620799999999;9.91200065612793;1673374073.2473552;-27.421833038330078;-2.601679563522339;83.65702819824219
106;1673374073.3736105;47.1306422;7.2406207;10.113000869750977;1673374073.4639258;-27.10551643371582;0.9300545454025269;82.73660278320312
107;1673374073.5874808;47.1306422;7.240620799999999;10.351000785827637;1673374073.6593077;-29.88185691833496;-0.11613355576992035;82.85501098632812
108;1673374073.7734058;47.1306423;7.240621399999999;10.672000885009766;1673374073.845707;-33.56128692626953;-2.1865792274475098;83.65319061279297
109;1673374073.9673977;47.1306424;7.240622699999999;11.054000854492188;1673374074.043395;-28.57175636291504;0.07421024143695831;82.65579986572266
110;1673374074.170971;47.1306425;7.2406242999999995;11.451000213623047;1673374074.2397404;-25.876136779785156;-0.26933443546295166;82.7497329711914
111;1673374074.3723123;47.1306425;7.2406258;11.855000495910645;1673374074.440351;-22.78968048095703;-2.1190402507781982;83.46414184570312
112;1673374074.562658;47.130642599999995;7.2406269;12.260000228881836;1673374074.6335714;-21.580718994140625;0.1858702450990677;82.7366714477539
113;1673374074.7593567;47.130642699999996;7.2406273;12.664000511169434;1673374074.8311365;-21.38653564453125;0.409714937210083;82.68295288085938
114;1673374074.9547045;47.1306428;7.2406273;13.071001052856445;1673374075.030406;-21.891324996948242;-2.2672841548919678;83.64080047607422
115;1673374075.1625779;47.1306428;7.240626799999999;13.482000350952148;1673374075.2573195;-23.156917572021484;-0.01841670274734497;82.85306549072266
116;1673374075.3874645;47.1306428;7.240626;13.896000862121582;1673374075.4514465;-24.47444725036621;1.202508568763733;82.56121063232422
117;1673374075.5811174;47.1306428;7.240625;14.3100004196167;1673374075.6515052;-25.72794532775879;-1.8934217691421509;83.65653228759766
118;1673374075.7605453;47.1306429;7.2406239999999995;14.724000930786133;1673374075.8303795;-26.756362915039062;0.34542354941368103;83.04013061523438
119;1673374075.956026;47.1306429;7.2406231;15.140000343322754;1673374076.0307465;-27.46487045288086;2.059566020965576;82.47195434570312
120;1673374076.1590064;47.130643;7.2406225;15.56100082397461;1673374076.2404666;-27.751571655273438;-0.977453887462616;83.35052490234375
121;1673374076.3688762;47.130643;7.240622;15.982000350952148;1673374076.4435802;-27.941051483154297;0.04040258750319481;83.09651947021484
122;1673374076.5661983;47.1306429;7.240621699999999;16.4010009765625;1673374076.6438901;-27.8425235748291;1.6643805503845215;82.59368133544922
123;1673374076.7842264;47.1306429;7.2406216;16.81800079345703;1673374076.852614;-27.537309646606445;-0.9605560302734375;83.3682632446289
124;1673374076.9703104;47.1306429;7.2406216;17.235000610351562;1673374077.037227;-27.137962341308594;-0.6159955263137817;83.2518081665039
125;1673374077.1685574;47.1306428;7.2406216;17.644001007080078;1673374077.244247;-26.911479949951172;1.4382578134536743;82.51321411132812
126;1673374077.3667903;47.130642699999996;7.240621699999999;18.051000595092773;1673374077.4424808;-26.462570190429688;-0.9806949496269226;83.18518829345703
127;1673374077.5669737;47.130642599999995;7.2406217999999996;18.459001541137695;1673374077.6418204;-26.235679626464844;-1.6186338663101196;83.44009399414062
128;1673374077.771183;47.1306425;7.2406219;18.86600112915039;1673374077.849815;-26.304275512695312;0.7465837597846985;82.6242446899414
129;1673374077.9713826;47.1306424;7.2406219;19.272001266479492;1673374078.0509813;-26.29134178161621;-0.43637606501579285;82.99121856689453
130;1673374078.178436;47.1306425;7.2406219;19.678001403808594;1673374078.255147;-26.20189094543457;-1.7872196435928345;83.55024719238281
131;1673374078.3680398;47.1306425;7.2406217999999996;20.078001022338867;1673374078.4388597;-26.40213966369629;0.9068214297294617;82.72856140136719
132;1673374078.5613906;47.1306425;7.240621699999999;20.476001739501953;1673374078.6352234;-26.230234146118164;0.7562879920005798;82.778076171875
133;1673374078.763741;47.1306425;7.2406216;20.87700080871582;1673374078.8404315;-26.689678192138672;-1.7623895406723022;83.55115509033203
134;1673374078.962968;47.1306425;7.2406216;21.280000686645508;1673374079.0347672;-26.528148651123047;0.6307067275047302;82.82460021972656
135;1673374079.1690693;47.1306424;7.2406215;21.687000274658203;1673374079.2429068;-26.583045959472656;1.0683668851852417;82.6097640991211
136;1673374079.3693829;47.1306425;7.2406215;22.091001510620117;1673374079.4382677;-26.55704689025879;-1.6378790140151978;83.51227569580078
137;1673374079.567509;47.1306425;7.2406215;22.49100112915039;1673374079.6479478;-26.351764678955078;0.33761897683143616;82.94482421875
138;1673374079.7764542;47.1306425;7.240621399999999;22.887001037597656;1673374079.8463957;-26.421419143676758;1.3429285287857056;82.5107650756836
139;1673374079.967116;47.1306424;7.2406213;23.284000396728516;1673374080.0428264;-26.796613693237305;-1.6649279594421387;83.5823745727539
140;1673374080.1605713;47.1306424;7.2406212;23.68600082397461;1673374080.235294;-26.59354591369629;-0.5405263900756836;83.15705871582031
141;1673374080.3711138;47.1306423;7.2406212;24.091001510620117;1673374080.455136;-26.8524112701416;1.4856349229812622;82.44683074951172
142;1673374080.5800202;47.1306424;7.240621099999999;24.4950008392334;1673374080.6705768;-26.631582260131836;-1.044541358947754;83.24939727783203
143;1673374080.7913625;47.1306424;7.240621099999999;24.899002075195312;1673374080.8904746;-26.7675838470459;-0.930037796497345;83.34967803955078
144;1673374081.0112598;47.1306424;7.240621;25.29800033569336;1673374081.0781794;-26.85110855102539;1.6752079725265503;82.44428253173828
145;1673374081.1969018;47.1306424;7.240621;25.69900131225586;1673374081.2619014;-26.755813598632812;-0.6117760539054871;83.20207214355469
146;1673374081.3943677;47.1306424;7.240621;26.10300064086914;1673374081.476086;-26.53375816345215;-1.189892053604126;83.40296173095703
147;1673374081.6035798;47.1306424;7.240621099999999;26.507001876831055;1673374081.6881456;-26.635313034057617;1.49455726146698;82.53380584716797
148;1673374081.8137665;47.1306424;7.240621099999999;26.911001205444336;1673374081.8904548;-26.611114501953125;-0.20610247552394867;82.98672485351562
149;1673374082.012455;47.1306425;7.240621099999999;27.316001892089844;1673374082.0822997;-26.60855484008789;-1.3724161386489868;83.52963256835938
150;1673374082.1960971;47.1306425;7.240621099999999;27.72100067138672;1673374082.2671316;-26.715587615966797;1.3233519792556763;82.61433410644531
151;1673374082.4099796;47.1306425;7.240621;28.1200008392334;1673374082.482817;-26.454790115356445;0.2907903790473938;82.819580078125
152;1673374082.6259482;47.1306424;7.240621;28.520000457763672;1673374082.7013764;-26.803421020507812;-1.8738287687301636;83.56961059570312
153;1673374082.8060827;47.1306424;7.240621;28.924001693725586;1673374082.8736646;-26.595703125;0.8622945547103882;82.709716796875
154;1673374083.0069578;47.1306424;7.240621;29.32900047302246;1673374083.071961;-26.92156219482422;1.0641422271728516;82.6484603881836
155;1673374083.1915693;47.1306425;7.240621;29.73000144958496;1673374083.2682412;-26.681344985961914;-1.5872752666473389;83.61314392089844
156;1673374083.4036179;47.130642599999995;7.240621;30.131000518798828;1673374083.4783933;-26.837778091430664;0.578494668006897;82.93799591064453
157;1673374083.6065674;47.130642599999995;7.240621;30.5260009765625;1673374083.6720016;-26.636333465576172;1.5429034233093262;82.57735443115234
158;1673374083.788282;47.130642599999995;7.240621;30.924001693725586;1673374083.8605363;-26.776662826538086;-1.4310758113861084;83.50337982177734
159;1673374083.9957745;47.130642599999995;7.240621;31.327001571655273;1673374084.0773313;-26.57530975341797;0.05912713706493378;83.07157897949219
160;1673374084.2125888;47.130642599999995;7.240621;31.73200225830078;1673374084.2785187;-26.6512393951416;1.7368543148040771;82.42181396484375
161;1673374084.403174;47.130642699999996;7.240621;32.138999938964844;1673374084.4751377;-26.55323600769043;-1.069022536277771;83.3756332397461
162;1673374084.586945;47.130642699999996;7.240621;32.54199981689453;1673374084.6627152;-26.653833389282227;-0.24320589005947113;83.26520538330078
163;1673374084.7745328;47.130642699999996;7.240621;32.94200134277344;1673374084.8443606;-26.541967391967773;1.8807103633880615;82.47903442382812
164;1673374084.9714522;47.130642699999996;7.2406209;33.336002349853516;1673374085.0407863;-26.719213485717773;-0.513215959072113;83.19212341308594
165;1673374085.1611326;47.130642599999995;7.2406209;33.73100280761719;1673374085.2388575;-26.614097595214844;-1.297502040863037;83.46757507324219
166;1673374085.361436;47.130642599999995;7.240620799999999;34.130001068115234;1673374085.4342053;-26.760894775390625;1.6195356845855713;82.53913879394531
167;1673374085.5558555;47.130642599999995;7.2406207;34.531002044677734;1673374085.6286623;-26.838438034057617;-0.13423064351081848;83.06161499023438
168;1673374085.7581248;47.130642699999996;7.2406207;34.93600082397461;1673374085.8348405;-26.858028411865234;-1.0250352621078491;83.49385070800781
169;1673374085.9690945;47.130642699999996;7.2406206;35.34100341796875;1673374086.0428426;-26.962303161621094;1.8050304651260376;82.5186996459961
170;1673374086.1674724;47.130642699999996;7.2406206;35.7390022277832;1673374086.2414646;-26.57752799987793;0.2314368635416031;82.9400634765625
171;1673374086.3885112;47.130642599999995;7.2406206;36.138999938964844;1673374086.4550805;-26.979787826538086;-1.471578598022461;83.56658172607422
172;1673374086.574756;47.130642599999995;7.2406206;36.54100036621094;1673374086.6524298;-26.69641876220703;1.3453234434127808;82.6469955444336
173;1673374086.7857692;47.130642599999995;7.2406206;36.945003509521484;1673374086.8623636;-26.894315719604492;0.6963245868682861;82.85137939453125
174;1673374086.9924493;47.130642699999996;7.2406206;37.34800338745117;1673374087.0634086;-26.53462791442871;-1.1805260181427002;83.4940414428711
175;1673374087.2365654;47.130642699999996;7.2406204999999995;37.75100326538086;1673374087.309501;-26.842479705810547;1.2547461986541748;82.75924682617188
176;1673374087.4239702;47.130642699999996;7.2406204999999995;38.15500259399414;1673374087.492025;-26.66595458984375;1.300545573234558;82.56021118164062
177;1673374087.5967083;47.130642699999996;7.2406204999999995;38.552001953125;1673374087.6784558;-27.042287826538086;-1.52290940284729;83.48402404785156
178;1673374087.8037527;47.130642599999995;7.2406204;38.945003509521484;1673374087.9147224;-26.778100967407227;0.7620693445205688;82.8269271850586
179;1673374088.0436158;47.130642699999996;7.2406204;39.342002868652344;1673374088.1238208;-26.953153610229492;1.7185094356536865;82.48052978515625
180;1673374088.2429292;47.130642699999996;7.2406204;39.74300003051758;1673374088.3093004;-26.7571964263916;-1.1285710334777832;83.50538635253906
181;1673374088.4104137;47.130642699999996;7.2406204;40.143001556396484;1673374088.4763749;-26.96818733215332;0.4644927978515625;83.06687927246094
182;1673374088.583332;47.130642699999996;7.2406204;40.54300308227539;1673374088.6631742;-26.655733108520508;1.9085547924041748;82.5442886352539
183;1673374088.783862;47.130642599999995;7.2406204;40.93600082397461;1673374088.8596132;-26.858488082885742;-1.0767850875854492;83.45397186279297
184;1673374088.9841425;47.130642599999995;7.2406204;41.32500076293945;1673374089.0549576;-26.67722511291504;-0.2741125226020813;83.2094497680664
185;1673374089.179612;47.1306425;7.2406203;41.71900177001953;1673374089.258236;-27.096385955810547;1.8313827514648438;82.47259521484375
186;1673374089.4052558;47.1306425;7.2406201999999995;42.1140022277832;1673374089.4664042;-26.963212966918945;-0.807424783706665;83.3623275756836
187;1673374089.589148;47.1306425;7.2406201999999995;42.51100158691406;1673374089.6756222;-27.091121673583984;-0.4383676052093506;83.31134796142578
188;1673374089.8041368;47.1306425;7.2406201999999995;42.90800094604492;1673374089.886812;-26.819093704223633;2.0645315647125244;82.39696502685547
189;1673374090.0211997;47.1306425;7.2406201999999995;43.30600357055664;1673374090.0950341;-26.87397003173828;-0.5456758737564087;83.27725982666016
190;1673374090.1990833;47.1306425;7.2406201999999995;43.69900131225586;1673374090.271184;-26.821828842163086;-0.5888992547988892;83.47521209716797
191;1673374090.39431;47.1306425;7.2406201999999995;44.0890007019043;1673374090.4837742;-26.90618896484375;2.0372486114501953;82.57794189453125
192;1673374090.589926;47.1306425;7.2406201999999995;44.483001708984375;1673374090.6568947;-26.83223533630371;0.07487929612398148;83.1785888671875
193;1673374090.774796;47.1306425;7.2406201999999995;44.88200378417969;1673374090.8553653;-26.967435836791992;-0.821755588054657;83.44467163085938
194;1673374090.980059;47.1306425;7.2406201999999995;45.281002044677734;1673374091.0528324;-26.7607421875;1.8590741157531738;82.51718139648438
195;1673374091.1766286;47.1306424;7.2406201999999995;45.67900085449219;1673374091.2504587;-27.02124786376953;0.4476127028465271;82.81755828857422
196;1673374091.376998;47.1306424;7.2406201;46.07400131225586;1673374091.4655476;-26.918668746948242;-1.451170802116394;83.53414154052734
197;1673374091.5970528;47.1306424;7.2406201;46.46900177001953;1673374091.682745;-27.020048141479492;1.5848047733306885;82.6639175415039
198;1673374091.8043017;47.1306424;7.2406201;46.868003845214844;1673374091.8751194;-26.888835906982422;1.0683519840240479;82.7599868774414
199;1673374091.9967597;47.1306425;7.2406201;47.26700210571289;1673374092.0773387;-26.934946060180664;-1.0928702354431152;83.52129364013672
200;1673374092.2238812;47.1306424;7.2406201999999995;47.6670036315918;1673374092.2917767;-26.834875106811523;1.2829177379608154;82.75865173339844
201;1673374092.41252;47.1306424;7.2406201999999995;48.066001892089844;1673374092.4881868;-27.178951263427734;1.0785911083221436;82.94756317138672
202;1673374092.6124613;47.1306424;7.2406201;48.423004150390625;1673374092.687684;-27.18808937072754;-1.084783911705017;83.51153564453125
203;1673374092.806471;47.1306424;7.2406198999999996;48.717002868652344;1673374092.8837879;-27.088640213012695;1.554896354675293;82.74090576171875
204;1673374093.0183191;47.1306424;7.2406196;48.9630012512207;1673374093.0814347;-27.66069793701172;1.4482892751693726;82.775390625
205;1673374093.204201;47.1306424;7.240619199999999;49.173004150390625;1673374093.2789311;-28.031991958618164;-0.9299286007881165;83.5540771484375
206;1673374093.401642;47.1306423;7.2406187;49.349002838134766;1673374093.4822607;-21.17673683166504;1.5147161483764648;82.55428314208984
207;1673374093.6476185;47.1306422;7.2406178;49.49700164794922;1673374093.7121449;-1.1495168209075928;-17.933801651000977;73.87747955322266
208;1673374093.827476;47.130642699999996;7.240615;49.62000274658203;1673374093.8935294;4.396043300628662;-29.087932586669922;59.62611389160156
209;1673374094.017117;47.1306442;7.2406087999999995;49.70500183105469;1673374094.0929346;-16.42241859436035;-27.36758804321289;53.40447235107422
210;1673374094.2153063;47.1306472;7.2406;49.78300094604492;1673374094.2932777;-24.919523239135742;-12.211357116699219;41.64543914794922
211;1673374094.4234793;47.1306517;7.24059;49.85900115966797;1673374094.4929116;-28.462482452392578;-21.643779754638672;33.87792205810547
212;1673374094.6385565;47.1306577;7.2405786999999995;49.927001953125;1673374094.7205787;-38.891944885253906;-34.99285888671875;24.854198455810547
213;1673374094.851464;47.130665699999994;7.240564999999999;49.965003967285156;1673374094.9505577;-48.061065673828125;-38.8189811706543;13.90118408203125
214;1673374095.0861728;47.130676099999995;7.2405478;49.96000289916992;1673374095.1511362;-44.668800354003906;-32.69957733154297;0.5452015995979309
215;1673374095.2581198;47.130688299999996;7.2405268;49.93100357055664;1673374095.3226504;-45.47914505004883;-27.821521759033203;-6.2356743812561035
216;1673374095.4443402;47.130701699999996;7.240502299999999;49.90500259399414;1673374095.5073435;-50.831146240234375;-20.76331901550293;-13.995162010192871
217;1673374095.6792278;47.1307164;7.2404746;49.88600158691406;1673374095.7676375;-55.02262496948242;-12.109755516052246;-22.406808853149414
218;1673374095.8560905;47.130732699999996;7.2404440999999995;49.8650016784668;1673374095.9195623;-52.49351501464844;-3.540715217590332;-30.995891571044922
219;1673374096.0393746;47.1307502;7.240411399999999;49.836002349853516;1673374096.1148045;-51.32780075073242;4.797878265380859;-38.69639205932617
220;1673374096.238153;47.1307684;7.240377499999999;49.698001861572266;1673374096.3062487;-40.55255126953125;9.970033645629883;-43.93478775024414
221;1673374096.4248905;47.1307864;7.2403433999999995;49.21800231933594;1673374096.5027661;-11.93990707397461;7.621029853820801;-43.96721267700195
222;1673374096.623978;47.130804;7.2403096;48.367000579833984;1673374096.7201002;35.70967483520508;-1.1657520532608032;-44.716243743896484
223;1673374096.8350053;47.130821399999995;7.2402757;47.11000061035156;1673374096.9221847;81.67450714111328;-99.2684097290039;-133.58139038085938
224;1673374097.0529158;47.130838999999995;7.2402415;45.47500228881836;1673374097.1270623;48.22078323364258;-173.13058471679688;161.02565002441406
225;1673374097.2381368;47.1308565;7.2402073;43.499000549316406;1673374097.307866;34.26830291748047;178.17813110351562;157.71484375
226;1673374097.429032;47.1308736;7.2401732999999995;41.169002532958984;1673374097.4999723;48.13996124267578;176.47677612304688;158.8461456298828
227;1673374097.6199813;47.1308904;7.2401396;38.486000061035156;1673374097.6911032;88.72328186035156;13.943297386169434;-4.848999977111816
228;1673374097.8251154;47.130907099999995;7.240106;35.4630012512207;1673374097.913981;23.209144592285156;3.0827853679656982;-22.509742736816406
229;1673374098.026593;47.1309239;7.2400724;32.03499984741211;1673374098.0939963;-36.75271224975586;11.767660140991211;-29.57318115234375
230;1673374098.220071;47.1309402;7.2400391;28.216001510620117;1673374098.292929;-63.046424865722656;25.81546401977539;-41.18696212768555
231;1673374098.4270718;47.1309562;7.2400060999999996;24.07900047302246;1673374098.4959548;-50.65871047973633;18.22884178161621;-30.384918212890625
232;1673374098.6090724;47.1309718;7.2399733;19.62700080871582;1673374098.6871774;1.640278935432434;9.248919486999512;-15.922747611999512
233;1673374098.8120136;47.130987;7.2399406;14.795001029968262;1673374098.8899074;66.7046890258789;16.699413299560547;3.2188377380371094
234;1673374099.0061495;47.1310024;7.2399078;9.582000732421875;1673374099.102001;77.72895812988281;140.7457733154297;133.52987670898438
235;1673374099.2240686;47.131017799999995;7.2398753;4.060000419616699;1673374099.3178828;76.83246612548828;44.765357971191406;39.503963470458984
236;1673374099.4488938;47.131031199999995;7.2398489999999995;0.006000000052154064;1673374099.5349874;21.030309677124023;-179.99063110351562;170.90354919433594
237;1673374099.6561747;47.131028699999995;7.239843;0.6270000338554382;1673374099.7443871;-27.144771575927734;-177.4130096435547;160.33139038085938
238;1673374099.8530786;47.131024;7.2398396;0.7570000290870667;1673374099.9389782;-71.16619873046875;-94.13812255859375;73.09925842285156
239;1673374100.0510757;47.1310217;7.2398368;0.578000009059906;1673374100.1361034;-6.359312534332275;-25.2205810546875;20.864965438842773
240;1673374100.2380073;47.1310218;7.2398345;0.12200000882148743;1673374100.2950134;32.58601379394531;55.524742126464844;88.98292541503906
241;1673374100.4161284;47.1310219;7.239833;-0.5990000367164612;1673374100.498087;-26.703166961669922;-164.90814208984375;47.070098876953125
242;1673374100.61943;47.131017199999995;7.2398324;-0.527999997138977;1673374100.6940722;14.963289260864258;22.412975311279297;38.43083572387695
243;1673374100.8081298;47.1310125;7.2398295;-0.5720000267028809;1673374100.8829532;8.952070236206055;-134.63577270507812;49.91410827636719
244;1673374101.0020196;47.1310042;7.239827;-0.5509999990463257;1673374101.076751;-12.598451614379883;95.56716918945312;87.7266616821289
245;1673374101.2028449;47.130995899999995;7.239826;-0.6030000448226929;1673374101.2829514;8.991640090942383;0.5004443526268005;60.30098342895508
246;1673374101.4076066;47.1309877;7.239827699999999;-0.7860000133514404;1673374101.4752514;-13.798788070678711;-38.899322509765625;26.591814041137695
247;1673374101.6071007;47.1309791;7.2398333;-0.7290000319480896;1673374101.680936;-9.669775009155273;-56.39674377441406;34.45197296142578
248;1673374101.8029394;47.130967299999995;7.239839399999999;-0.5560000538825989;1673374101.8689532;-10.180715560913086;-40.744972229003906;32.59418869018555
249;1673374102.0099835;47.1309543;7.2398459;-0.4650000333786011;1673374102.0839334;-10.534920692443848;-10.99153995513916;29.633853912353516
250;1673374102.2072272;47.1309416;7.239851799999999;-0.47200003266334534;1673374102.2910004;-10.054146766662598;-14.138256072998047;29.88866424560547
251;1673374102.4213445;47.1309299;7.239856499999999;-0.49900001287460327;1673374102.4960272;-10.088443756103516;-15.887273788452148;29.548065185546875
252;1673374102.616198;47.130919;7.2398608;-0.5330000519752502;1673374102.6827886;-10.009979248046875;-15.136707305908203;29.17546844482422
253;1673374102.8002176;47.130908999999996;7.239864799999999;-0.5670000314712524;1673374102.8781033;-9.971691131591797;-15.064932823181152;28.77077293395996
254;1673374103.0112793;47.130920599999996;7.2398772;-0.562000036239624;1673374103.085105;-12.813075065612793;-16.18787956237793;25.1270809173584
255;1673374103.2078764;47.1309496;7.2398948;-0.550000011920929;1673374103.296252;-13.443968772888184;-16.320486068725586;23.970808029174805
256;1673374103.448143;47.130964;7.239899299999999;-0.581000030040741;1673374103.5748892;-12.85372257232666;-16.39678955078125;23.971864700317383
257;1673374103.6911802;47.130969099999994;7.239897699999999;-0.6220000386238098;1673374103.7463408;-12.52872085571289;-16.179527282714844;23.642536163330078
258;1673374103.859819;47.1309694;7.239896399999999;-0.6660000085830688;1673374103.9310365;-12.313926696777344;-15.853445053100586;23.218704223632812
259;1673374104.047059;47.1309672;7.2398962;-0.7090000510215759;1673374104.1429913;-12.121174812316895;-15.531159400939941;22.85886573791504
260;1673374104.2750268;47.1309641;7.2398967;-0.7480000257492065;1673374104.3550231;-11.827790260314941;-15.22001838684082;22.468570709228516
261;1673374104.4859924;47.1309623;7.2398967;-0.8080000281333923;1673374104.5510027;-11.844949722290039;-15.068366050720215;22.09020233154297
262;1673374104.65509;47.1309639;7.239895199999999;-0.8660000562667847;1673374104.7180521;-11.84148120880127;-14.984110832214355;21.696521759033203
263;1673374104.8542905;47.1309676;7.2398926999999995;-0.9030000567436218;1673374104.9310808;-11.929500579833984;-14.91928768157959;21.30022430419922
264;1673374105.051144;47.130973;7.239889;-0.9320000410079956;1673374105.1241095;-11.967818260192871;-14.829854011535645;20.86769676208496
265;1673374105.2449777;47.1309798;7.239884399999999;-0.9570000171661377;1673374105.3229017;-11.921876907348633;-14.776922225952148;20.50871467590332
266;1673374105.4361172;47.1309871;7.2398795;-0.9780000448226929;1673374105.497139;-12.012275695800781;-14.656085968017578;20.131107330322266
267;1673374105.6029248;47.1309955;7.2398736999999995;-0.9960000514984131;1673374105.6741235;-12.019640922546387;-14.720755577087402;19.788394927978516
268;1673374105.801994;47.1310048;7.239867299999999;-1.0520000457763672;1673374105.877157;-12.001242637634277;-14.804266929626465;19.5797176361084
269;1673374105.9949832;47.1310149;7.239860299999999;-1.1170001029968262;1673374106.0650697;-11.961503028869629;-14.814940452575684;19.31194305419922
270;1673374106.188042;47.1310256;7.2398527999999995;-1.1540000438690186;1673374106.259029;-12.097823143005371;-14.118012428283691;19.167375564575195
271;1673374106.3882303;47.131037;7.2398449;-1.1730000972747803;1673374106.4671228;-12.030216217041016;-14.06335163116455;19.006193161010742
272;1673374106.594945;47.1310492;7.239836599999999;29.28400230407715;1673374106.668046;-12.02437686920166;-13.98591423034668;18.624107360839844
273;1673374106.8099756;47.131062;7.239827699999999;-1.1470000743865967;;;;
