;pos_time;latitude;longitude;altitude;alt_time;pitch;roll;yaw
0;1673374128.2042975;47.1306425;7.2406196;0.020000001415610313;1673374128.2868268;0.06795506179332733;-0.19214701652526855;90.31956481933594
1;1673374128.4019022;47.1306425;7.240619499999999;0.024000000208616257;1673374128.4821918;0.10248841345310211;-0.2403169423341751;90.37016296386719
2;1673374128.6097455;47.1306425;7.240619499999999;0.027000000700354576;1673374128.6943517;0.09307614713907242;-0.12154973298311234;90.11046600341797
3;1673374128.8163357;47.1306425;7.240619499999999;0.02800000086426735;1673374128.9155772;-0.00916360504925251;-0.37622570991516113;90.250732421875
4;1673374129.0234962;47.1306425;7.2406196;0.030000001192092896;1673374129.1050975;-0.0634675845503807;-0.47155430912971497;90.24557495117188
5;1673374129.217945;47.1306425;7.2406196;0.02800000086426735;1673374129.2943125;0.04553684592247009;-0.4701288938522339;90.37442779541016
6;1673374129.3954191;47.1306425;7.2406196;0.027000000700354576;1673374129.4828258;0.005536441691219807;-0.22314584255218506;90.21392059326172
7;1673374129.6012828;47.1306425;7.2406196;0.02200000174343586;1673374129.6907954;0.14905418455600739;-0.39809662103652954;90.16630554199219
8;1673374129.8086064;47.1306425;7.2406196;0.020000001415610313;1673374129.8901951;0.17344464361667633;-0.37142595648765564;90.26949310302734
9;1673374130.013795;47.1306425;7.2406196;0.014000000432133675;1673374130.094802;-0.11767317354679108;-0.4728829562664032;90.28480529785156
10;1673374130.1978352;47.1306425;7.2406196;0.010000000707805157;1673374130.2746623;-0.1827058047056198;-0.3256574869155884;90.26890563964844
11;1673374130.3996928;47.1306424;7.2406196;0.006000000052154064;1673374130.4858296;-0.1730264574289322;-0.2464299499988556;90.17912292480469
12;1673374130.640623;47.1306424;7.2406197;0.005000000353902578;1673374130.717966;0.01788773015141487;-0.5492342710494995;90.36027526855469
13;1673374130.8250332;47.1306424;7.240619799999999;0.006000000052154064;1673374130.8939073;-0.022824963554739952;-0.13078686594963074;90.12799835205078
14;1673374130.9959404;47.1306424;7.2406198999999996;0.0;1673374131.0735874;-0.19757145643234253;-0.5039141774177551;90.27389526367188
15;1673374131.1776526;47.1306424;7.2406198999999996;0.0020000000949949026;1673374131.2621882;-0.2057100385427475;-0.2812574505805969;90.29622650146484
16;1673374131.3926654;47.1306424;7.2406198999999996;0.005000000353902578;1673374131.4733481;0.009906401857733727;-0.306005597114563;90.24732971191406
17;1673374131.5820289;47.1306424;7.2406198999999996;0.012000000104308128;1673374131.6637278;-0.16400127112865448;-0.3592817187309265;90.19303131103516
18;1673374131.7818167;47.1306424;7.2406198999999996;0.01600000075995922;1673374131.8655057;-0.1719662845134735;-0.42712637782096863;90.28496551513672
19;1673374131.9900808;47.1306424;7.2406198999999996;0.018000001087784767;1673374132.070017;-0.1711631715297699;-0.2767554819583893;90.29829406738281
20;1673374132.1816704;47.1306424;7.24062;0.015000000596046448;1673374132.2676547;-0.07412448525428772;-0.48983579874038696;90.41241455078125
21;1673374132.3804219;47.1306423;7.24062;0.015000000596046448;1673374132.4666176;-0.021821752190589905;-0.15547093749046326;90.33543395996094
22;1673374132.5986614;47.1306423;7.2406201;0.0;1673374132.6913877;-0.1488713175058365;-0.4262095093727112;90.43510437011719
23;1673374132.804687;47.1306423;7.2406201;0.003000000026077032;1673374132.8885865;0.07022931426763535;0.16919031739234924;90.34286499023438
24;1673374133.0138643;47.1306423;7.2406201;0.006000000052154064;1673374133.100743;-0.09818650782108307;-0.35944387316703796;90.27972412109375
25;1673374133.2153962;47.1306424;7.24062;0.00800000037997961;1673374133.2899795;-0.12934450805187225;-0.78205806016922;90.43836212158203
26;1673374133.404361;47.1306424;7.24062;0.01100000087171793;1673374133.4833775;-0.15342357754707336;-0.18644610047340393;90.25354766845703
27;1673374133.5952604;47.1306424;7.24062;0.014000000432133675;1673374133.6776164;-0.2091151624917984;-0.1954718381166458;90.33462524414062
28;1673374133.7944138;47.1306424;7.24062;0.014000000432133675;1673374133.8735561;-0.3094809353351593;-0.23568956553936005;90.34991455078125
29;1673374133.982569;47.1306424;7.2406201;0.012000000104308128;1673374134.067518;-0.14331775903701782;-0.402992844581604;90.62075805664062
30;1673374134.1874053;47.1306424;7.2406201;0.012000000104308128;1673374134.2717164;-0.2950713336467743;-0.14983896911144257;90.3976821899414
31;1673374134.377405;47.1306424;7.24062;0.01100000087171793;1673374134.460701;-0.47336411476135254;-0.24027492105960846;90.39501953125
32;1673374134.571677;47.1306424;7.2406201;0.009000000543892384;1673374134.6626852;1.3068692684173584;-0.3091788589954376;90.3785400390625
33;1673374134.7906482;47.1306424;7.2406204;0.018000001087784767;1673374134.8724828;6.128633975982666;1.9645464420318604;89.77162170410156
34;1673374134.9955788;47.1306425;7.2406207;0.04400000348687172;1673374135.0794246;11.552017211914062;-2.2434170246124268;90.20441436767578
35;1673374135.2005322;47.130642599999995;7.240621099999999;0.0820000022649765;1673374135.2745624;10.66423511505127;-0.28773248195648193;90.39965057373047
36;1673374135.3843987;47.130642599999995;7.240621399999999;0.13600000739097595;1673374135.4733913;11.002964973449707;3.179321527481079;90.49720764160156
37;1673374135.5995855;47.1306425;7.2406215;0.203000009059906;1673374135.6744945;11.678544998168945;-1.0421569347381592;89.9322509765625
38;1673374135.8142643;47.1306425;7.2406215;0.27900001406669617;1673374135.9035103;12.394523620605469;-2.6894123554229736;89.26476287841797
39;1673374136.0281246;47.1306425;7.2406212;0.3680000305175781;1673374136.1135888;11.63808822631836;1.7778903245925903;89.61279296875
40;1673374136.2314136;47.130642599999995;7.240620799999999;0.4700000286102295;1673374136.3396564;10.96765422821045;-0.046746738255023956;90.00757598876953
41;1673374136.4660783;47.130642699999996;7.2406204;0.5860000252723694;1673374136.5418668;10.090412139892578;-2.090970039367676;90.00528717041016
42;1673374136.643116;47.130642699999996;7.2406201;0.7150000333786011;1673374136.7297013;8.94229793548584;1.951547622680664;90.23403930664062
43;1673374136.8348155;47.130642599999995;7.2406197;0.8560000658035278;1673374136.910921;8.854948997497559;1.4784388542175293;89.855712890625
44;1673374137.0272992;47.130642599999995;7.240619499999999;1.0120000839233398;1673374137.1256135;9.230770111083984;-3.14194393157959;89.41778564453125
45;1673374137.2326627;47.130642599999995;7.2406193;1.183000087738037;1673374137.3074276;9.643695831298828;0.489001989364624;89.45943450927734
46;1673374137.417298;47.130642699999996;7.2406191;1.3660000562667847;1673374137.4979134;9.329534530639648;1.8509619235992432;90.06182861328125
47;1673374137.6270893;47.1306428;7.240618899999999;1.5480000972747803;1673374137.702293;9.520232200622559;-2.298398971557617;89.24465942382812
48;1673374137.8129134;47.1306428;7.240619;1.7330000400543213;1673374137.891021;8.992915153503418;0.6607768535614014;89.45381164550781
49;1673374138.0083039;47.1306428;7.2406191;1.9210001230239868;1673374138.086545;9.302374839782715;2.7728958129882812;89.71649932861328
50;1673374138.2036939;47.130642699999996;7.240619199999999;2.1080000400543213;1673374138.309782;9.603981018066406;-1.918269395828247;89.5771713256836
51;1673374138.4375982;47.130642599999995;7.2406194;2.2910001277923584;1673374138.5221055;10.289196014404297;-1.782889485359192;89.71253967285156
52;1673374138.6578918;47.130642599999995;7.240619499999999;2.4780001640319824;1673374138.7331157;10.53204345703125;2.6121597290039062;90.13606262207031
53;1673374138.8244212;47.130642699999996;7.240619499999999;2.6680002212524414;1673374138.8917792;10.528556823730469;0.5531147122383118;90.54793548583984
54;1673374139.0051177;47.130642699999996;7.2406194;2.866000175476074;1673374139.0852418;9.794427871704102;-1.493578314781189;90.08514404296875
55;1673374139.1947243;47.130642699999996;7.2406194;3.058000087738037;1673374139.2796495;9.34926986694336;2.2326714992523193;90.04373931884766
56;1673374139.3904843;47.1306425;7.2406194;3.251000165939331;1673374139.4710577;9.612783432006836;-0.6021708846092224;89.98021697998047
57;1673374139.5976;47.1306423;7.2406194;3.444000244140625;1673374139.6874733;9.75714111328125;-3.3751308917999268;89.80361938476562
58;1673374139.8213563;47.1306423;7.240619499999999;3.639000177383423;1673374139.8971608;9.968795776367188;1.4759912490844727;90.1064453125
59;1673374139.999279;47.1306424;7.240619499999999;3.8330001831054688;1673374140.0786295;10.138677597045898;1.7262755632400513;90.20389556884766
60;1673374140.2004905;47.1306424;7.240619499999999;4.028000354766846;1673374140.2772312;10.227839469909668;-2.4704108238220215;90.02494049072266
61;1673374140.3946774;47.1306425;7.240619499999999;4.2210001945495605;1673374140.4679308;9.639433860778809;0.7330219745635986;89.7373046875
62;1673374140.5885382;47.1306425;7.2406196;4.4160003662109375;1673374140.6752243;9.729767799377441;1.9316881895065308;89.95096588134766
63;1673374140.791096;47.1306424;7.2406197;4.61400032043457;1673374140.8876185;9.55210018157959;-2.2642204761505127;90.05656433105469
64;1673374141.0170195;47.1306423;7.240619799999999;4.814000129699707;1673374141.0961094;9.889382362365723;-0.4724523723125458;90.20503234863281
65;1673374141.2221665;47.1306423;7.240619799999999;5.013000011444092;1673374141.3056822;10.48149299621582;2.8268816471099854;90.34403991699219
66;1673374141.4284236;47.1306424;7.240619799999999;5.211000442504883;1673374141.5100875;10.817915916442871;-0.9938461780548096;90.1697006225586
67;1673374141.6275399;47.1306423;7.240619799999999;5.413000106811523;1673374141.7107491;9.918915748596191;-1.4108493328094482;89.98745727539062
68;1673374141.8243551;47.1306423;7.240619799999999;5.613000392913818;1673374141.906966;9.725380897521973;2.171607732772827;89.92395782470703
69;1673374142.008051;47.130642099999996;7.240619799999999;5.816000461578369;1673374142.0822608;9.805270195007324;-1.1262625455856323;89.84534454345703
70;1673374142.195363;47.130641999999995;7.2406198999999996;6.016000270843506;1673374142.2843628;9.630733489990234;-3.090391159057617;89.84765625
71;1673374142.410576;47.130641999999995;7.24062;6.212000370025635;1673374142.5057738;10.340441703796387;1.7137938737869263;90.18929290771484
72;1673374142.6229477;47.130642099999996;7.24062;6.408000469207764;1673374142.710382;10.592897415161133;0.9768067598342896;90.26093292236328
73;1673374142.8234506;47.1306422;7.24062;6.604000091552734;1673374142.8947513;10.309666633605957;-2.5276384353637695;90.06377410888672
74;1673374142.994926;47.1306423;7.24062;6.800000190734863;1673374143.075644;10.110526084899902;1.1311877965927124;89.91539764404297
75;1673374143.195424;47.1306423;7.2406198999999996;7.000000476837158;1673374143.2789187;9.7441987991333;1.9145861864089966;90.18529510498047
76;1673374143.4011295;47.1306422;7.2406198999999996;7.199000358581543;1673374143.4873743;9.496037483215332;-2.7885220050811768;90.0866470336914
77;1673374143.6030734;47.1306422;7.2406198999999996;7.396000385284424;1673374143.6832247;9.596558570861816;-0.42736783623695374;90.17657470703125
78;1673374143.7935379;47.1306423;7.2406198999999996;7.592000484466553;1673374143.8745782;9.92784309387207;2.5437064170837402;90.38056182861328
79;1673374143.9954538;47.1306424;7.24062;7.7870001792907715;1673374144.0791209;10.484783172607422;-1.0426263809204102;90.07669067382812
80;1673374144.1969981;47.1306423;7.24062;7.984000205993652;1673374144.283788;10.313692092895508;-1.7087684869766235;90.03498840332031
81;1673374144.4134686;47.1306422;7.24062;8.177000045776367;1673374144.4986734;10.304618835449219;2.262385368347168;89.9124984741211
82;1673374144.606384;47.130642099999996;7.24062;8.371000289916992;1673374144.6969566;9.665708541870117;-0.6830139756202698;90.12911987304688
83;1673374144.8249083;47.130641999999995;7.24062;8.565000534057617;1673374144.8951867;9.362956047058105;-3.130955934524536;90.228271484375
84;1673374145.0026357;47.130642099999996;7.24062;8.759000778198242;1673374145.083737;9.700501441955566;1.7469980716705322;90.2336196899414
85;1673374145.2138636;47.130642099999996;7.24062;8.951000213623047;1673374145.2958329;9.75860595703125;1.0187320709228516;90.3330078125
86;1673374145.4018974;47.1306422;7.2406201;9.145000457763672;1673374145.4902837;10.32020378112793;-2.8248836994171143;89.9078598022461
87;1673374145.6036432;47.1306423;7.2406201;9.34000015258789;1673374145.6972306;10.482603073120117;0.6487209796905518;90.18022918701172
88;1673374145.8200066;47.1306424;7.24062;9.538000106811523;1673374145.8991013;10.04588508605957;2.302145481109619;90.19712829589844
89;1673374146.05229;47.1306423;7.24062;9.736000061035156;1673374146.129452;9.602556228637695;-2.4288039207458496;90.22437286376953
90;1673374146.2470863;47.1306423;7.2406201;9.93600082397461;1673374146.3716326;9.486225128173828;-0.56025630235672;90.2553482055664
91;1673374146.483606;47.1306423;7.2406201;10.13800048828125;1673374146.589672;9.380844116210938;2.670431613922119;89.71922302246094
92;1673374146.7042706;47.1306424;7.2406201;10.396000862121582;1673374146.782751;11.722688674926758;-0.11095400154590607;89.36874389648438
93;1673374146.880463;47.1306424;7.2406198999999996;10.744000434875488;1673374146.9522712;11.929319381713867;-2.535571336746216;89.8059310913086
94;1673374147.0544224;47.1306424;7.2406196;11.125000953674316;1673374147.1347654;10.413064956665039;1.8472435474395752;90.22996520996094
95;1673374147.231136;47.1306423;7.240619199999999;11.519001007080078;1673374147.3079762;8.934666633605957;0.8758951425552368;90.42729949951172
96;1673374147.4149623;47.1306423;7.2406188;11.920001029968262;1673374147.4990706;8.05528736114502;-2.5197696685791016;90.30216979980469
97;1673374147.6110933;47.1306423;7.2406185999999995;12.322000503540039;1673374147.7054834;8.143689155578613;1.0374797582626343;90.23281860351562
98;1673374147.8434873;47.1306423;7.2406185999999995;12.724000930786133;1673374147.943903;8.119569778442383;2.3345820903778076;90.13758850097656
99;1673374148.0587687;47.1306423;7.2406185999999995;13.12600040435791;1673374148.1435144;8.559821128845215;-1.9242976903915405;90.04772186279297
100;1673374148.257063;47.1306424;7.2406187;13.527000427246094;1673374148.3298702;9.237619400024414;-0.6772847175598145;90.02407836914062
101;1673374148.4398715;47.1306424;7.240618899999999;13.933000564575195;1673374148.5184865;9.535191535949707;2.633469343185425;90.18557739257812
102;1673374148.6538012;47.1306423;7.240619;14.340001106262207;1673374148.7291086;9.541467666625977;-1.0865274667739868;90.11237335205078
103;1673374148.828321;47.1306423;7.240619199999999;14.750000953674316;1673374148.9140093;9.458563804626465;-1.869504451751709;90.03488159179688
104;1673374149.0258057;47.1306423;7.2406194;15.160000801086426;1673374149.1113446;9.492853164672852;2.4682157039642334;90.0618896484375
105;1673374149.2214057;47.1306423;7.2406196;15.57300090789795;1673374149.29691;9.929073333740234;0.05028355121612549;90.08197021484375
106;1673374149.4165275;47.1306423;7.2406197;15.983000755310059;1673374149.5034938;9.702108383178711;-2.5910675525665283;90.0261001586914
107;1673374149.627718;47.1306423;7.2406197;16.387001037597656;1673374149.7089517;10.048439979553223;1.5425679683685303;90.19996643066406
108;1673374149.8376448;47.1306423;7.2406196;16.790000915527344;1673374149.91531;9.927045822143555;1.692872166633606;90.27288818359375
109;1673374150.0203345;47.1306422;7.2406196;17.19700050354004;1673374150.0985122;9.894205093383789;-2.6748085021972656;89.95957946777344
110;1673374150.2035544;47.130642099999996;7.240619499999999;17.608001708984375;1673374150.3019426;9.39726448059082;-0.6506730318069458;90.07283782958984
111;1673374150.4154105;47.1306422;7.240619499999999;18.020000457763672;1673374150.5081332;9.224374771118164;2.4202401638031006;90.03539276123047
112;1673374150.6357582;47.1306423;7.240619499999999;18.433000564575195;1673374150.720781;9.154302597045898;-0.6847692728042603;90.03794860839844
113;1673374150.851137;47.1306424;7.240619499999999;18.84200096130371;1673374150.969339;9.047811508178711;-1.4932914972305298;89.99091339111328
114;1673374151.1244206;47.1306424;7.240619499999999;19.255001068115234;1673374151.1879056;9.414690017700195;2.7391867637634277;90.1576919555664
115;1673374151.28338;47.1306424;7.240619499999999;19.672000885009766;1673374151.3512838;9.728893280029297;0.16695983707904816;90.13262176513672
116;1673374151.4698687;47.1306424;7.2406196;20.089000701904297;1673374151.5704842;9.7422456741333;-2.428335666656494;89.93982696533203
117;1673374151.685232;47.1306423;7.2406196;20.500001907348633;1673374151.7590163;9.81124210357666;1.6969175338745117;90.02017974853516
118;1673374151.8633866;47.1306424;7.2406196;20.905000686645508;1673374151.949649;9.654502868652344;1.439395785331726;90.14053344726562
119;1673374152.0471368;47.1306424;7.2406197;21.31100082397461;1673374152.1209579;9.735384941101074;-2.4512200355529785;90.02687072753906
120;1673374152.2414725;47.1306425;7.2406197;21.711000442504883;1673374152.3257947;9.6249361038208;1.208635687828064;90.13113403320312
121;1673374152.4259834;47.1306424;7.2406197;22.113000869750977;1673374152.5024629;9.76805305480957;1.7370855808258057;90.26649475097656
122;1673374152.6169882;47.1306423;7.2406197;22.51500129699707;1673374152.696288;9.774109840393066;-2.618316888809204;90.03948211669922
123;1673374152.8128974;47.1306423;7.2406197;22.91900062561035;1673374152.9022992;9.943502426147461;-0.07963023334741592;90.101318359375
124;1673374153.0328863;47.1306423;7.2406197;23.323001861572266;1673374153.1236818;9.995485305786133;2.394801139831543;90.26871490478516
125;1673374153.2353597;47.1306424;7.2406197;23.731000900268555;1673374153.3217893;9.8401517868042;-1.4039855003356934;90.07848358154297
126;1673374153.4310427;47.1306425;7.2406196;24.132001876831055;1673374153.527444;9.593457221984863;-0.8514358401298523;89.94474792480469
127;1673374153.6470063;47.1306425;7.2406197;24.535001754760742;1673374153.7591717;9.659119606018066;2.5874228477478027;90.1045913696289
128;1673374153.85877;47.1306425;7.2406197;24.940000534057617;1673374153.9307604;9.805498123168945;-0.5634412169456482;89.91585540771484
129;1673374154.0310395;47.1306424;7.2406197;25.34400177001953;1673374154.1105723;9.716837882995605;-2.0281717777252197;90.01922607421875
130;1673374154.236192;47.1306424;7.2406197;25.751001358032227;1673374154.3124113;9.776952743530273;1.6879585981369019;90.14803314208984
131;1673374154.4327161;47.1306425;7.2406196;26.156002044677734;1673374154.512654;9.754851341247559;1.3090087175369263;90.09113311767578
132;1673374154.6287644;47.1306425;7.2406196;26.558000564575195;1673374154.706989;9.611205101013184;-2.2429122924804688;90.01097869873047
133;1673374154.8213637;47.1306425;7.2406196;26.95400047302246;1673374154.9023716;9.697772979736328;1.0756402015686035;90.19066619873047
134;1673374155.0093005;47.1306425;7.2406196;27.356000900268555;1673374155.0870008;9.706646919250488;2.1466453075408936;90.24590301513672
135;1673374155.2008698;47.1306424;7.2406196;27.757001876831055;1673374155.2843485;9.579859733581543;-2.1000421047210693;90.08301544189453
136;1673374155.4161313;47.1306424;7.2406196;28.160001754760742;1673374155.503187;9.62350082397461;-0.5721305012702942;90.0428466796875
137;1673374155.6350615;47.1306424;7.2406196;28.565000534057617;1673374155.7151406;9.502022743225098;2.412444829940796;90.18630981445312
138;1673374155.8382719;47.1306424;7.2406196;28.965002059936523;1673374155.9228652;9.730034828186035;-1.2211637496948242;90.0168228149414
139;1673374156.0422902;47.1306425;7.2406196;29.35700225830078;1673374156.122998;9.563094139099121;-0.8180628418922424;90.07273864746094
140;1673374156.2262332;47.1306425;7.2406196;29.750001907348633;1673374156.2994359;9.570711135864258;2.7692527770996094;90.20121002197266
141;1673374156.4237666;47.1306425;7.2406196;30.149002075195312;1673374156.5068552;9.713398933410645;-0.12599195539951324;90.03856658935547
142;1673374156.6196456;47.1306424;7.2406196;30.547000885009766;1673374156.7076879;9.663118362426758;-2.1992485523223877;89.97722625732422
143;1673374156.8236165;47.1306423;7.2406196;30.94500160217285;1673374156.903834;9.829675674438477;1.9005999565124512;90.02484893798828
144;1673374157.0281432;47.1306423;7.2406196;31.34600067138672;1673374157.1151216;9.612552642822266;1.4517461061477661;90.09510803222656
145;1673374157.240131;47.1306424;7.2406196;31.74700164794922;1673374157.3237615;9.645757675170898;-2.4140784740448;90.04296112060547
146;1673374157.4408412;47.1306424;7.2406196;32.14400100708008;1673374157.5243816;9.56525707244873;0.9597084522247314;90.03528594970703
147;1673374157.6406357;47.1306424;7.2406196;32.54300308227539;1673374157.7218235;9.65418529510498;1.774401307106018;90.23493194580078
148;1673374157.8257437;47.1306423;7.2406196;32.94200134277344;1673374157.9099603;9.508515357971191;-1.77847158908844;90.01160430908203
149;1673374158.0257564;47.1306423;7.2406196;33.34300231933594;1673374158.113721;9.562332153320312;-0.8878170847892761;90.14488220214844
150;1673374158.2497272;47.1306423;7.2406196;33.74700164794922;1673374158.3351943;9.626148223876953;2.668888568878174;90.1664047241211
151;1673374158.4616783;47.1306424;7.2406197;34.14800262451172;1673374158.5466688;9.843489646911621;-0.11447696387767792;89.95588684082031
152;1673374158.6588876;47.1306425;7.2406197;34.54300308227539;1673374158.7472847;9.902586936950684;-1.3872629404067993;89.9269790649414
153;1673374158.8574166;47.130642599999995;7.2406197;34.941001892089844;1673374158.9351237;9.74062728881836;2.61814022064209;90.1657943725586
154;1673374159.0460684;47.130642599999995;7.2406197;35.34400177001953;1673374159.1232164;9.667622566223145;0.9597002267837524;90.21400451660156
155;1673374159.236312;47.1306425;7.240619799999999;35.74800109863281;1673374159.3107893;9.197525978088379;-2.3602585792541504;90.05521392822266
156;1673374159.4364054;47.1306425;7.240619799999999;36.156002044677734;1673374159.5216353;9.479426383972168;1.24232816696167;90.14093780517578
157;1673374159.6792035;47.1306425;7.240619799999999;36.56300354003906;1673374159.752455;9.381274223327637;2.0882620811462402;90.17581176757812
158;1673374159.8877766;47.1306425;7.2406198999999996;36.96500015258789;1673374159.96654;9.52751636505127;-1.9427392482757568;90.0761489868164
159;1673374160.0804815;47.130642599999995;7.2406198999999996;37.36000061035156;1673374160.1667087;9.815210342407227;0.09349673241376877;90.18985748291016
160;1673374160.2875748;47.130642599999995;7.2406198999999996;37.75699996948242;1673374160.4029636;9.72933292388916;2.831465482711792;90.35942077636719
161;1673374160.4865818;47.1306425;7.2406198999999996;38.15700149536133;1673374160.5524065;9.789931297302246;-1.0470072031021118;90.12602233886719
162;1673374160.6525908;47.1306425;7.2406198999999996;38.560001373291016;1673374160.7228813;9.57348346710205;-1.5774099826812744;90.00011444091797
163;1673374160.827556;47.1306425;7.2406198999999996;38.95800018310547;1673374160.911504;9.639463424682617;2.361842393875122;89.99891662597656
164;1673374161.0243247;47.130642599999995;7.2406198999999996;39.35700225830078;1673374161.1048775;9.663905143737793;0.40320876240730286;90.06529998779297
165;1673374161.2235622;47.130642599999995;7.2406198999999996;39.75;1673374161.3051367;9.550856590270996;-1.913383960723877;89.79601287841797
166;1673374161.4151058;47.130642699999996;7.2406198999999996;40.147003173828125;1673374161.490866;9.779229164123535;2.214665651321411;90.06238555908203
167;1673374161.618714;47.130642699999996;7.240619799999999;40.54600143432617;1673374161.7068982;9.659666061401367;1.5541517734527588;90.24864959716797
168;1673374161.8339672;47.130642599999995;7.240619799999999;40.945003509521484;1673374161.9210544;9.813279151916504;-2.301151752471924;89.99475860595703
169;1673374162.0438097;47.1306425;7.240619799999999;41.34700012207031;1673374162.1539207;9.661252975463867;0.8183345198631287;90.30145263671875
170;1673374162.3089397;47.1306425;7.240619799999999;41.74700164794922;1673374162.391159;9.722766876220703;2.160869836807251;90.24700164794922
171;1673374162.5197785;47.1306425;7.2406197;42.14600372314453;1673374162.5917387;9.690727233886719;-1.8161659240722656;89.98866271972656
172;1673374162.7032318;47.130642599999995;7.2406197;42.53900146484375;1673374162.7770178;9.52603816986084;0.09287052601575851;90.13589477539062
173;1673374162.8956842;47.130642599999995;7.2406196;42.939002990722656;1673374163.0170457;9.454639434814453;2.6222805976867676;90.0715103149414
174;1673374163.1081567;47.1306425;7.2406196;43.34300231933594;1673374163.194143;9.543756484985352;-1.6546785831451416;89.89454650878906
175;1673374163.3031616;47.1306424;7.2406196;43.746002197265625;1673374163.4141827;9.579292297363281;-1.4784575700759888;89.80036163330078
176;1673374163.5237362;47.1306424;7.2406196;44.14500045776367;1673374163.592602;9.553483009338379;2.555055618286133;90.15835571289062
177;1673374163.6997023;47.1306424;7.2406196;44.540000915527344;1673374163.7659671;9.679729461669922;-0.1039130836725235;90.20486450195312
178;1673374163.8832626;47.1306424;7.2406196;44.93100357055664;1673374163.9545622;9.742538452148438;-1.836397647857666;90.06599426269531
179;1673374164.0634744;47.1306425;7.2406197;45.32600402832031;1673374164.147995;9.642812728881836;2.3472788333892822;90.18247985839844
180;1673374164.256139;47.1306425;7.2406196;45.724002838134766;1673374164.390725;9.538346290588379;0.8065611124038696;90.1082763671875
181;1673374164.5092294;47.1306424;7.2406196;46.12200164794922;1673374164.625061;9.321243286132812;-2.3590598106384277;90.0127944946289
182;1673374164.70862;47.1306424;7.2406196;46.52100372314453;1673374164.7755275;9.35068130493164;1.2512180805206299;90.11038208007812
183;1673374164.8756816;47.1306424;7.2406196;46.922000885009766;1673374164.95339;9.391199111938477;1.875785231590271;90.1701889038086
184;1673374165.0682275;47.1306424;7.240619499999999;47.32100296020508;1673374165.1421847;9.530440330505371;-2.2409985065460205;90.09851837158203
185;1673374165.2442882;47.1306425;7.240619499999999;47.7130012512207;1673374165.3347397;9.618605613708496;0.2587684392929077;90.08666229248047
186;1673374165.4476538;47.1306425;7.240619499999999;48.10200119018555;1673374165.5297945;9.517964363098145;2.5928609371185303;90.19107055664062
187;1673374165.645003;47.1306425;7.2406196;48.448001861572266;1673374165.7270696;9.267486572265625;-1.5299516916275024;89.74042510986328
188;1673374165.8492827;47.1306424;7.2406197;48.742000579833984;1673374165.9313736;9.470056533813477;-1.0312159061431885;89.9529800415039
189;1673374166.052544;47.1306424;7.240619799999999;48.98500061035156;1673374166.1438541;9.701437950134277;2.963829278945923;90.11150360107422
190;1673374166.3362932;47.1306425;7.2406201;49.189002990722656;1673374166.4036534;10.031682968139648;-1.0312528610229492;90.08950805664062
191;1673374166.5235903;47.1306425;7.2406203;49.355003356933594;1673374166.6095536;20.03349494934082;-2.9070048332214355;88.13443756103516
192;1673374166.700001;47.130642599999995;7.24062;49.50800323486328;1673374166.7865884;35.178001403808594;-18.64011573791504;75.91980743408203
193;1673374166.9385116;47.1306431;7.240617899999999;49.64600372314453;1673374167.0078795;37.41123962402344;-26.548768997192383;65.96343231201172
194;1673374167.1111193;47.1306443;7.2406131;49.76300048828125;1673374167.179332;25.041101455688477;-33.97054672241211;57.3183708190918
195;1673374167.278992;47.130646299999995;7.2406061;49.8640022277832;1673374167.3507812;10.97148609161377;-34.092708587646484;48.21185302734375
196;1673374167.4695716;47.1306492;7.2405979;49.93700408935547;1673374167.5430512;1.0367792844772339;-36.67805862426758;37.02579879760742
197;1673374167.6403875;47.130653099999996;7.2405887;50.000003814697266;1673374167.718453;-14.024117469787598;-43.238616943359375;26.861658096313477
198;1673374167.839827;47.1306583;7.2405785;50.044002532958984;1673374167.9198596;-30.46719741821289;-46.33350372314453;15.918217658996582
199;1673374168.0319242;47.130665199999996;7.2405667;50.079002380371094;1673374168.1117601;-44.014225006103516;-44.4157829284668;4.334952354431152
200;1673374168.2354834;47.130674;7.2405525;50.10900115966797;1673374168.3269553;-52.57402801513672;-39.326114654541016;-7.622933864593506
201;1673374168.4530632;47.130684699999996;7.2405357;50.1150016784668;1673374168.5360737;-56.073631286621094;-30.27928924560547;-20.105985641479492
202;1673374168.6414986;47.130696699999994;7.2405165;50.08000183105469;1673374168.719643;-49.106624603271484;-21.6594295501709;-26.67544937133789
203;1673374168.8427558;47.130709599999996;7.240495699999999;50.02700424194336;1673374168.9313207;-49.82368850708008;-15.590249061584473;-32.29642105102539
204;1673374169.0401912;47.1307231;7.2404741999999995;49.96900177001953;1673374169.1271136;-50.784278869628906;-11.510812759399414;-38.51298904418945
205;1673374169.2383966;47.1307373;7.2404518;49.915000915527344;1673374169.3146412;-49.299232482910156;-7.82681941986084;-45.45330810546875
206;1673374169.4524095;47.1307518;7.2404287;49.87000274658203;1673374169.521041;-47.29621505737305;-3.1193604469299316;-51.875125885009766
207;1673374169.6271071;47.1307664;7.2404053;49.83500289916992;1673374169.7113698;-47.18234634399414;2.222296953201294;-53.0431022644043
208;1673374169.8284914;47.130781299999995;7.2403818;49.810001373291016;1673374169.9154096;-47.087528228759766;0.6694362163543701;-49.679195404052734
209;1673374170.0362084;47.1307964;7.240358499999999;49.768001556396484;1673374170.1200364;-34.01462173461914;0.03550974652171135;-47.59192657470703
210;1673374170.2600448;47.1308113;7.240335699999999;49.43600082397461;1673374170.3365;2.6262173652648926;2.8755688667297363;-45.217288970947266
211;1673374170.440081;47.130826;7.2403134;48.720001220703125;1673374170.5180986;59.68098831176758;16.124452590942383;-33.423622131347656
212;1673374170.637103;47.130840799999994;7.240291099999999;47.61900329589844;1673374170.7190526;59.752479553222656;163.33035278320312;112.25765228271484
213;1673374170.8366003;47.1308556;7.2402688;46.1670036315918;1673374170.9139607;24.705074310302734;172.32557678222656;119.6988296508789
214;1673374171.0271575;47.1308703;7.2402469;44.3650016784668;1673374171.108099;16.584583282470703;171.6926727294922;116.38726043701172
215;1673374171.2280645;47.130884599999995;7.2402256;42.1870002746582;1673374171.3171463;36.517059326171875;163.79331970214844;111.460693359375
216;1673374171.4430864;47.130898599999995;7.2402048;39.64900207519531;1673374171.5321426;75.85124969482422;83.72129821777344;36.8770637512207
217;1673374171.6602643;47.130912599999995;7.2401842;36.759002685546875;1673374171.7462318;15.636857986450195;5.242443561553955;-37.52018356323242
218;1673374171.8646045;47.130926599999995;7.240163399999999;33.474002838134766;1673374171.943234;-43.97464370727539;-4.067068576812744;-39.68598937988281
219;1673374172.0595608;47.1309404;7.2401431;29.806001663208008;1673374172.1389086;-66.4238510131836;-8.456720352172852;-39.28697204589844
220;1673374172.2562404;47.130953899999994;7.240123199999999;25.803001403808594;1673374172.3310528;-46.52865219116211;-0.07105021923780441;-48.26689147949219
221;1673374172.4500728;47.1309672;7.240103899999999;21.474000930786133;1673374172.5311873;12.74098014831543;1.553644061088562;-49.5290641784668
222;1673374172.6399455;47.130980199999996;7.240085;16.756000518798828;1673374172.721038;80.3316650390625;7.778382778167725;-42.765254974365234
223;1673374172.842166;47.1309933;7.2400658;11.672000885009766;1673374172.9272215;70.54130554199219;178.81497192382812;128.26535034179688
224;1673374173.0411234;47.1310065;7.240046899999999;6.284000396728516;1673374173.1182356;86.28073120117188;-13.393858909606934;-64.70118713378906
225;1673374173.225048;47.1310195;7.2400281;0.6110000014305115;1673374173.3032236;-28.191909790039062;-0.7091904878616333;-48.260128021240234
226;1673374173.421536;47.1310241;7.2400182;1.00600004196167;1673374173.5052812;-26.68344497680664;1.2181437015533447;-41.299991607666016
227;1673374173.644033;47.1310241;7.2400158;1.7920000553131104;1673374173.736018;-17.01668930053711;-6.829128265380859;-37.16349792480469
228;1673374173.8551364;47.1310241;7.2400154;2.5400002002716064;1673374173.955254;-16.53004264831543;-0.9720958471298218;-37.01901626586914
229;1673374174.0710673;47.1310243;7.2400155999999996;3.183000087738037;1673374174.1501696;-16.37636375427246;-3.7289090156555176;-37.028926849365234
230;1673374174.2692485;47.131025199999996;7.240014599999999;3.750000238418579;1673374174.3440626;-15.89114761352539;-2.514646530151367;-36.98915100097656
231;1673374174.443225;47.1310254;7.2400147;4.200000286102295;1673374174.5221207;-15.28061294555664;-2.8755364418029785;-36.99730682373047
232;1673374174.635211;47.131025799999996;7.2400142999999995;4.576000213623047;1673374174.730244;-15.043673515319824;-2.8240575790405273;-36.92138671875
233;1673374174.8532853;47.1310278;7.240011399999999;4.935000419616699;1673374174.9341285;-15.063926696777344;-2.878784656524658;-36.87641906738281
234;1673374175.0620549;47.1310309;7.2400066;5.266000270843506;1673374175.1430802;-14.929235458374023;-2.9757814407348633;-36.790653228759766
235;1673374175.2581146;47.1310347;7.240000599999999;5.554000377655029;1673374175.3352978;-14.830122947692871;-2.990845203399658;-36.76447296142578
236;1673374175.4584844;47.131039099999995;7.239993699999999;5.797000408172607;1673374175.541988;-14.7553129196167;-3.0687053203582764;-36.65102005004883
237;1673374175.6591122;47.131043999999996;7.2399857999999995;5.997000217437744;1673374175.749045;-14.576671600341797;-3.088369607925415;-36.593624114990234
238;1673374175.8672228;47.131048799999995;7.2399781;6.144000053405762;1673374175.9421725;-14.38016128540039;-3.109525680541992;-36.558284759521484
239;1673374176.059266;47.1310532;7.239970899999999;6.189000129699707;1673374176.1472564;-14.157214164733887;-3.1321213245391846;-36.53324508666992
240;1673374176.2681136;47.131057399999996;7.239964;5.992000102996826;1673374176.3510323;-13.869246482849121;-3.1573562622070312;-36.51364517211914
241;1673374176.4653275;47.1310612;7.2399575;5.689000129699707;1673374176.5462346;-13.591760635375977;-3.1728644371032715;-36.50326919555664
242;1673374176.6651595;47.1310648;7.2399511;5.360000133514404;1673374176.7432654;-13.436675071716309;-3.1943271160125732;-36.489383697509766
243;1673374176.8681564;47.131069499999995;7.2399431;5.129000186920166;1673374176.9461782;-13.114124298095703;-3.198876142501831;-36.427940368652344
244;1673374177.0620892;47.131073699999995;7.2399356;4.866000175476074;1673374177.144102;-12.98040771484375;-3.2220122814178467;-36.36680221557617
245;1673374177.2592716;47.1310802;7.2399244;4.607000350952148;1673374177.3369102;-12.945656776428223;-3.2731332778930664;-36.30084228515625
246;1673374177.4565973;47.1310881;7.2399105;4.3560004234313965;1673374177.5392392;-12.873030662536621;-3.321925401687622;-36.207069396972656
247;1673374177.658432;47.131097;7.2398948999999995;4.123000144958496;1673374177.7356203;-12.817214965820312;-3.3761165142059326;-36.14196014404297
248;1673374177.8523214;47.1311068;7.2398777999999995;3.8980002403259277;1673374177.9315903;-12.771318435668945;-3.4062626361846924;-36.06322479248047
249;1673374178.0566535;47.1311171;7.2398596;3.686000108718872;1673374178.1448824;-12.69519329071045;-3.449711561203003;-35.96698760986328
250;1673374178.2760863;47.131128;7.239840399999999;3.51200008392334;1673374178.3585784;-12.64176082611084;-3.487929582595825;-35.89496994018555
251;1673374178.4598715;47.131139399999995;7.2398202;3.329000234603882;1673374178.537675;-12.600662231445312;-3.538038969039917;-35.80348205566406
252;1673374178.6514423;47.1311513;7.239799;3.1470000743865967;1673374178.7386293;-12.559198379516602;-3.560974597930908;-35.73858642578125
253;1673374178.85461;47.131163699999995;7.2397769;2.9660000801086426;1673374178.9396164;-12.462674140930176;-3.589264154434204;-35.67965316772461
254;1673374179.054709;47.131176499999995;7.239754;2.7890000343322754;1673374179.1276019;-12.414613723754883;-3.627079963684082;-35.58037185668945
255;1673374179.2395453;47.1311897;7.2397303;2.615000009536743;1673374179.3185706;-12.354941368103027;-3.6988980770111084;-35.46998977661133
256;1673374179.4367223;47.131203299999996;7.239705799999999;2.443000078201294;1673374179.5158894;-12.312356948852539;-3.71181583404541;-35.449405670166016
257;1673374179.6305356;47.131217299999996;7.2396807;2.2810001373291016;1673374179.7116883;-12.266002655029297;-3.7245545387268066;-35.4459114074707
258;1673374179.8438148;47.1312316;7.239655;2.127000093460083;1673374179.9196622;-12.181084632873535;-3.6848654747009277;-35.430381774902344
259;1673374180.039489;47.1312461;7.2396287;1.9830000400543213;1673374180.122721;-12.142440795898438;-3.6365103721618652;-35.435550689697266
260;1673374180.2451818;47.1312609;7.2396018;1.843000054359436;1673374180.3186555;-12.015942573547363;-3.4526877403259277;-35.460960388183594
261;1673374180.4376786;47.1312761;7.2395741;-0.08700000494718552;1673374180.5346565;-11.933764457702637;-3.31946063041687;-35.5208740234375
262;1673374180.6586754;47.131291399999995;7.239545199999999;-0.22200001776218414;1673374180.7387643;-11.93946361541748;-3.265014171600342;-35.604000091552734
263;1673374180.8457322;47.1313074;7.239514799999999;1.4880000352859497;;;;
