;pos_time;latitude;longitude;altitude;alt_time;pitch;roll;yaw
0;1673373974.7733243;47.1306424;7.2406201999999995;-0.046000003814697266;1673373974.907744;0.007391985040158033;-0.28965508937835693;90.18313598632812
1;1673373974.987392;47.1306424;7.2406201999999995;-0.04700000211596489;1673373975.1309814;-0.08724978566169739;-0.15471003949642181;90.34075164794922
2;1673373975.2314737;47.1306424;7.2406203;-0.04800000041723251;1673373975.383406;-0.17230528593063354;-0.13514862954616547;90.25245666503906
3;1673373975.4490325;47.1306424;7.2406204;-0.049000002443790436;1673373975.5805707;-0.24100686609745026;-0.3076448440551758;90.39167785644531
4;1673373975.6410913;47.1306424;7.2406204;-0.04800000041723251;1673373975.757963;-0.031717102974653244;-0.03311479836702347;90.19495391845703
5;1673373975.8318417;47.1306424;7.2406204;-0.04800000041723251;1673373975.938781;0.3178096413612366;-0.2976941764354706;90.30957794189453
6;1673373976.014486;47.1306423;7.2406204;-0.05100000277161598;1673373976.1321814;0.22522959113121033;-0.11456766724586487;90.39852142333984
7;1673373976.207956;47.1306423;7.2406203;-0.052000001072883606;1673373976.324779;-0.08225041627883911;-0.265187531709671;90.26189422607422
8;1673373976.3936393;47.1306424;7.2406201999999995;-0.05300000309944153;1673373976.5171533;-0.16215863823890686;-0.14531585574150085;90.2317123413086
9;1673373976.5970604;47.1306424;7.2406201;-0.055000003427267075;1673373976.7221055;-0.1703331619501114;-0.22005218267440796;90.27513885498047
10;1673373976.820964;47.1306424;7.2406201;-0.05100000277161598;1673373977.0049832;0.03681828826665878;-0.15977008640766144;90.4184799194336
11;1673373977.0635433;47.1306424;7.2406201;-0.04700000211596489;1673373977.2071903;0.10204172879457474;-0.27543601393699646;90.272705078125
12;1673373977.2989488;47.1306424;7.2406201999999995;-0.046000003814697266;1673373977.412622;-0.037185586988925934;-0.1737833172082901;90.4393539428711
13;1673373977.4780955;47.1306423;7.2406201;-0.04800000041723251;1673373977.6074076;0.22888045012950897;-0.08123818039894104;90.48159790039062
14;1673373977.667168;47.1306423;7.2406201;-0.046000003814697266;1673373977.7731605;0.14901256561279297;-0.06560409069061279;90.15432739257812
15;1673373977.8660934;47.1306423;7.2406201;-0.0010000000474974513;1673373977.9767373;0.15750721096992493;-0.1837395578622818;90.06574249267578
16;1673373978.0471551;47.1306423;7.24062;-0.0020000000949949026;1673373978.1648157;0.06893697381019592;-0.10049647092819214;90.196044921875
17;1673373978.2424898;47.1306423;7.24062;-0.0020000000949949026;1673373978.3620698;0.22843357920646667;-0.11862128973007202;90.1187973022461
18;1673373978.4328883;47.1306424;7.2406198999999996;-0.0010000000474974513;1673373978.5609753;-0.19224749505519867;-0.06069798767566681;90.24919891357422
19;1673373978.6361287;47.1306424;7.2406198999999996;-0.0020000000949949026;1673373978.7530224;-0.20758859813213348;-0.22587820887565613;90.29529571533203
20;1673373978.8214154;47.1306424;7.24062;-0.004000000189989805;1673373978.9309485;0.09427058696746826;-0.17028887569904327;90.31098937988281
21;1673373979.0090508;47.1306424;7.2406201;-0.006000000052154064;1673373979.1298583;0.4777490198612213;0.32000839710235596;90.35667419433594
22;1673373979.2121825;47.1306424;7.2406201;-0.004000000189989805;1673373979.339235;0.19764475524425507;-0.050567351281642914;90.3039321899414
23;1673373979.424108;47.1306424;7.2406201;0.0010000000474974513;1673373979.5420997;0.23543301224708557;-0.08616326749324799;90.2037124633789
24;1673373979.6169357;47.1306424;7.2406201;0.0;1673373979.7431092;0.46897339820861816;0.281150221824646;89.86367797851562
25;1673373979.8192647;47.1306424;7.2406201;-0.0020000000949949026;1673373979.9291084;1.5119850635528564;-0.2554887533187866;90.2012939453125
26;1673373980.0040376;47.1306424;7.2406201;-0.0010000000474974513;1673373980.12972;2.211686134338379;0.16796638071537018;90.27593994140625
27;1673373980.211024;47.1306424;7.24062;-0.003000000026077032;1673373980.346083;3.1884536743164062;-0.2801847457885742;90.30968475341797
28;1673373980.4241626;47.1306424;7.24062;-0.0020000000949949026;1673373980.548147;4.737943649291992;0.04351784661412239;90.33879852294922
29;1673373980.6284337;47.1306424;7.2406198999999996;0.0;1673373980.7482014;6.783052444458008;-0.14257103204727173;90.38507080078125
30;1673373980.8184278;47.1306424;7.2406197;0.0010000000474974513;1673373980.9280524;-0.45394960045814514;0.7519945502281189;90.55489349365234
31;1673373981.0103605;47.1306423;7.2406181;-0.004000000189989805;1673373981.1348279;-2.490421772003174;-0.04336922988295555;87.24421691894531
32;1673373981.2110894;47.1306423;7.240615399999999;0.010000000707805157;1673373981.3328748;-8.992500305175781;-0.3238086998462677;87.36715698242188
33;1673373981.4079587;47.1306422;7.2406121;0.018000001087784767;1673373981.5701158;-16.037378311157227;-0.9530434608459473;88.55469512939453
34;1673373981.6549401;47.1306422;7.2406079;0.024000000208616257;1673373981.760351;-16.653263092041016;-0.4301290214061737;88.66539001464844
35;1673373981.8364356;47.130642099999996;7.240602999999999;0.03200000151991844;1673373981.942455;-16.524734497070312;0.5054907202720642;88.66918182373047
36;1673373982.007568;47.130642099999996;7.2405976999999995;0.05100000277161598;1673373982.1300902;-17.636995315551758;-0.388854444026947;89.13213348388672
37;1673373982.2099328;47.130641999999995;7.2405919;0.07700000703334808;1673373982.3352878;-19.236209869384766;-0.5885443687438965;89.32173156738281
38;1673373982.410192;47.130641999999995;7.2405858;0.10600000619888306;1673373982.5454538;-21.0577392578125;0.05712629854679108;89.23274230957031
39;1673373982.6301684;47.1306419;7.2405797;0.13300000131130219;1673373982.7586544;-23.00436782836914;-0.1480710506439209;89.39904022216797
40;1673373982.835438;47.1306418;7.2405737;0.1680000126361847;1673373982.9611666;-25.072473526000977;-0.72457355260849;89.67382049560547
41;1673373983.037073;47.1306417;7.2405678;0.20500001311302185;1673373983.1626492;-27.07457733154297;-0.5812442898750305;89.73242950439453
42;1673373983.2404351;47.1306416;7.2405624;0.23600001633167267;1673373983.361529;-29.227521896362305;-0.07765176892280579;89.61161804199219
43;1673373983.4318419;47.1306416;7.2405574999999995;0.2630000114440918;1673373983.5622866;-31.346284866333008;-0.6459629535675049;89.77021026611328
44;1673373983.6445274;47.1306416;7.240553299999999;0.2850000262260437;1673373983.7631977;-33.52952194213867;-0.797358512878418;89.77995300292969
45;1673373983.8360448;47.130641499999996;7.24055;0.3020000159740448;1673373983.9498785;-35.68221664428711;-0.29059121012687683;89.57158660888672
46;1673373984.0284956;47.130641499999996;7.2405477;0.32100000977516174;1673373984.1423712;-37.85816192626953;-0.5142505764961243;89.62460327148438
47;1673373984.2249236;47.130641499999996;7.2405463999999995;0.3440000116825104;1673373984.34865;-40.083412170410156;-0.7727816104888916;89.70790100097656
48;1673373984.4231565;47.130641499999996;7.2405463999999995;0.3680000305175781;1673373984.5438256;-42.255069732666016;-0.527032732963562;89.59284210205078
49;1673373984.6206338;47.1306416;7.240547599999999;0.39400002360343933;1673373984.7393034;-44.461647033691406;-0.3443540632724762;89.39868927001953
50;1673373984.8076305;47.1306417;7.2405503;0.42000001668930054;1673373984.91967;-46.67789840698242;-0.6230725049972534;89.48269653320312
51;1673373984.9916103;47.1306418;7.240554599999999;0.445000022649765;1673373985.1163466;-48.6805534362793;-0.3309277296066284;89.49932098388672
52;1673373985.2108002;47.1306419;7.2405605;0.4620000123977661;1673373985.3388379;-45.28014373779297;-0.35970696806907654;89.40621185302734
53;1673373985.413045;47.130641999999995;7.2405678;0.47200003266334534;1673373985.5255609;-40.52186965942383;-0.20114362239837646;89.21270751953125
54;1673373985.595413;47.130642099999996;7.2405759;0.47600001096725464;1673373985.7195597;-35.11808776855469;0.03023812361061573;89.1663818359375
55;1673373985.7974002;47.1306423;7.2405840999999995;0.4780000150203705;1673373985.9245272;-28.75160789489746;0.005709591321647167;89.1053237915039
56;1673373986.0032532;47.1306424;7.2405919;0.5240000486373901;1673373986.1299834;-25.905120849609375;0.07642041891813278;89.05278015136719
57;1673373986.2083766;47.1306425;7.240598899999999;0.5760000348091125;1673373986.3397496;-20.90241241455078;-0.1527334451675415;89.19918060302734
58;1673373986.4156601;47.1306425;7.2406045;0.6210000514984131;1673373986.5644648;-19.977678298950195;0.12755481898784637;89.12884521484375
59;1673373986.6353433;47.1306425;7.2406089;0.6690000295639038;1673373986.7844496;-19.52753448486328;0.012219400145113468;89.10015106201172
60;1673373986.8972478;47.1306425;7.240612;0.7220000624656677;1673373986.9984775;-20.779417037963867;-0.6680127382278442;89.3210220336914
61;1673373987.0675223;47.1306424;7.240613799999999;0.784000039100647;1673373987.1780846;-22.86937713623047;-1.2152864933013916;89.4607925415039
62;1673373987.2617774;47.1306423;7.2406147999999995;0.8580000400543213;1673373987.3818727;-24.593185424804688;0.9140905737876892;88.75289916992188
63;1673373987.451334;47.1306423;7.2406152;0.9450000524520874;1673373987.5727136;-25.64714813232422;-0.3784818947315216;89.114501953125
64;1673373987.6526234;47.1306422;7.2406152;1.0440000295639038;1673373987.774229;-27.350738525390625;-2.7204842567443848;90.005615234375
65;1673373987.849028;47.1306422;7.240615099999999;1.15500009059906;1673373987.9716501;-28.49039077758789;1.039036512374878;88.9033203125
66;1673373988.0503242;47.1306422;7.240615;1.2790000438690186;1673373988.168792;-29.35710334777832;0.346760630607605;89.09160614013672
67;1673373988.240635;47.1306423;7.240615;1.415000081062317;1673373988.3456562;-29.324405670166016;-2.221909761428833;90.06568908691406
68;1673373988.4169376;47.1306422;7.2406153;1.5600000619888306;1673373988.5398128;-29.131437301635742;0.4431508183479309;92.86554718017578
69;1673373988.6169794;47.130642099999996;7.240615699999999;1.7160000801086426;1673373988.7429347;-28.544994354248047;-1.03014075756073;92.74321746826172
70;1673373988.8477774;47.130642099999996;7.2406162;1.88100004196167;1673373988.9850643;-28.213449478149414;-2.6956543922424316;93.78477478027344
71;1673373989.0550804;47.1306422;7.2406166999999995;2.058000087738037;1673373989.1592138;-27.55240249633789;0.6515687704086304;92.90348815917969
72;1673373989.227535;47.1306423;7.240617299999999;2.242000102996826;1673373989.3556128;-27.50104522705078;0.5122291445732117;92.9173355102539
73;1673373989.4323678;47.1306423;7.2406178;2.430000066757202;1673373989.555675;-26.90532875061035;-1.8334299325942993;93.78538513183594
74;1673373989.6314304;47.1306423;7.2406182;2.619000196456909;1673373989.7384722;-27.39113426208496;0.4336601793766022;92.48937225341797
75;1673373989.8107562;47.1306422;7.2406185999999995;2.807000160217285;1673373989.9397173;-26.851795196533203;0.46470412611961365;92.04110717773438
76;1673373990.021845;47.130642099999996;7.240618899999999;2.996000051498413;1673373990.150021;-27.250333786010742;-2.2718794345855713;93.13941955566406
77;1673373990.235699;47.130642099999996;7.240619199999999;3.188000202178955;1673373990.370955;-26.99390411376953;-0.4485636353492737;92.68162536621094
78;1673373990.4517133;47.1306422;7.2406194;3.380000114440918;1673373990.5695305;-27.421419143676758;1.2862480878829956;91.8999252319336
79;1673373990.636164;47.1306422;7.240619499999999;3.574000120162964;1673373990.7591493;-27.262983322143555;-1.8134173154830933;93.05638885498047
80;1673373990.841159;47.1306423;7.2406197;3.764000177383423;1673373990.9568822;-27.272716522216797;-0.8717806339263916;92.80796813964844
81;1673373991.0327215;47.1306422;7.240619799999999;3.9560000896453857;1673373991.1467352;-27.21883773803711;1.2539509534835815;92.00196075439453
82;1673373991.263463;47.1306422;7.240619799999999;4.14900016784668;1673373991.3802118;-27.610254287719727;-1.639729619026184;92.9254150390625
83;1673373991.4542437;47.1306423;7.2406198999999996;4.3420000076293945;1673373991.5736513;-27.242536544799805;-1.3853451013565063;92.98107147216797
84;1673373991.6465974;47.1306423;7.2406198999999996;4.535000324249268;1673373991.76246;-27.640043258666992;1.5542689561843872;91.91744995117188
85;1673373991.8420699;47.1306424;7.24062;4.729000091552734;1673373991.9675548;-27.293004989624023;-0.8417494297027588;92.73223876953125
86;1673373992.0443432;47.1306424;7.2406201;4.923000335693359;1673373992.155351;-27.472816467285156;-1.6289303302764893;93.08589935302734
87;1673373992.2236798;47.1306424;7.2406201999999995;5.11400032043457;1673373992.3409472;-27.232341766357422;1.2679064273834229;91.94702911376953
88;1673373992.4144077;47.1306423;7.2406203;5.307000160217285;1673373992.533603;-27.161083221435547;-0.8791713714599609;92.4879379272461
89;1673373992.613229;47.1306423;7.2406203;5.496000289916992;1673373992.7458472;-27.074058532714844;-2.202789783477783;93.08861541748047
90;1673373992.8240635;47.1306423;7.2406204;5.686000347137451;1673373992.9560835;-27.276927947998047;1.158202886581421;92.06542205810547
91;1673373993.0325308;47.1306423;7.2406204;5.879000186920166;1673373993.1551664;-27.33522605895996;-0.3571169972419739;92.54513549804688
92;1673373993.2306967;47.1306424;7.2406204;6.071000099182129;1673373993.365853;-27.22582244873047;-2.391775608062744;93.27226257324219
93;1673373993.4376338;47.1306423;7.2406204;6.264000415802002;1673373993.5631711;-27.29094123840332;0.829108715057373;92.12254333496094
94;1673373993.636021;47.1306423;7.2406204;6.458000183105469;1673373993.7619114;-27.373987197875977;-0.020586149767041206;92.29913330078125
95;1673373993.836253;47.1306423;7.2406204;6.652000427246094;1673373993.9531474;-27.326448440551758;-2.3306896686553955;93.23661804199219
96;1673373994.0254893;47.1306423;7.2406204999999995;6.845000267028809;1673373994.1573808;-27.296783447265625;0.3072499930858612;92.33240509033203
97;1673373994.2695146;47.1306424;7.2406204999999995;7.0370001792907715;1673373994.4387288;-27.369171142578125;1.0786476135253906;92.06353759765625
98;1673373994.5080338;47.1306424;7.2406204999999995;7.229000568389893;1673373994.617579;-27.421470642089844;-2.180979013442993;93.19982147216797
99;1673373994.7064478;47.1306424;7.2406204999999995;7.426000118255615;1673373994.8075943;-27.33936309814453;0.13429784774780273;92.40982055664062
100;1673373994.8784156;47.1306423;7.2406204999999995;7.621000289916992;1673373994.9982436;-27.36014175415039;0.6570344567298889;92.12667083740234
101;1673373995.0760884;47.1306423;7.2406206;7.819000244140625;1673373995.1948023;-27.284582138061523;-2.449108839035034;93.18800354003906
102;1673373995.2726595;47.1306423;7.2406207;8.020000457763672;1673373995.376776;-27.12078857421875;-0.19527579843997955;92.57823944091797
103;1673373995.4444065;47.1306422;7.240620799999999;8.221000671386719;1673373995.5681617;-27.125661849975586;0.9751112461090088;92.01242065429688
104;1673373995.634606;47.1306422;7.240620799999999;8.417000770568848;1673373995.7635376;-27.160451889038086;-2.388695240020752;93.06377410888672
105;1673373995.8471947;47.1306422;7.240620799999999;8.618000030517578;1673373995.9766839;-27.258544921875;-0.7889350652694702;92.64690399169922
106;1673373996.086816;47.1306422;7.2406209;8.822999954223633;1673373996.2491307;-27.06600570678711;1.1251076459884644;91.99864196777344
107;1673373996.3678389;47.1306422;7.240621;9.02500057220459;1673373996.4469652;-27.186784744262695;-2.245361566543579;93.06062316894531
108;1673373996.5046434;47.1306422;7.240621;9.229000091552734;1673373996.6155283;-27.124589920043945;-0.912341296672821;92.77699279785156
109;1673373996.683412;47.1306422;7.240621;9.434000015258789;1673373996.8140144;-27.233064651489258;1.4419631958007812;91.8489761352539
110;1673373996.9072807;47.1306422;7.240621;9.636000633239746;1673373997.009404;-27.085895538330078;-1.751029133796692;92.906005859375
111;1673373997.0676396;47.1306422;7.240621;9.843000411987305;1673373997.1736207;-27.27640151977539;-1.4846413135528564;92.90876770019531
112;1673373997.2552485;47.1306422;7.240621;10.050000190734863;1673373997.375996;-26.820545196533203;1.339930772781372;92.00617218017578
113;1673373997.4483228;47.1306422;7.240621099999999;10.27500057220459;1673373997.5678093;-29.611146926879883;-1.260254979133606;92.67963409423828
114;1673373997.644607;47.1306423;7.2406215;10.57800006866455;1673373997.7713375;-32.39558029174805;-0.9700632095336914;92.8949966430664
115;1673373997.8527226;47.1306424;7.2406225;10.951000213623047;1673373997.9735277;-28.63637924194336;0.7851572632789612;92.264892578125
116;1673373998.0502162;47.1306424;7.2406239;11.344000816345215;1673373998.1669328;-25.759737014770508;-0.7613192796707153;92.6489486694336
117;1673373998.2446413;47.1306424;7.2406251;11.741000175476074;1673373998.3706853;-23.556655883789062;-1.299072504043579;93.08224487304688
118;1673373998.4625106;47.1306424;7.2406261;12.148000717163086;1673373998.5635998;-21.94766616821289;1.1895015239715576;92.06317901611328
119;1673373998.6295745;47.1306424;7.2406267;12.558000564575195;1673373998.7492318;-21.97713851928711;-0.5800496935844421;92.70305633544922
120;1673373998.8312387;47.1306424;7.240626799999999;12.971000671386719;1673373998.9603212;-22.329586029052734;-1.549720048904419;93.08804321289062
121;1673373999.0423145;47.1306424;7.2406264;13.38800048828125;1673373999.1676939;-23.757736206054688;1.245827555656433;92.13278198242188
122;1673373999.246979;47.1306423;7.2406258;13.809000968933105;1673373999.3608322;-24.572399139404297;0.10625933855772018;92.18692016601562
123;1673373999.434053;47.1306423;7.2406248;14.224000930786133;1673373999.5752923;-25.903093338012695;-2.4866650104522705;93.11036682128906
124;1673373999.6477854;47.1306422;7.2406239;14.643000602722168;1673373999.7772954;-26.707027435302734;0.34925925731658936;92.20025634765625
125;1673373999.8491223;47.130642099999996;7.2406231;15.064001083374023;1673373999.9708993;-27.478979110717773;-0.0664653480052948;92.27700805664062
126;1673374000.0437915;47.1306422;7.2406223999999995;15.483000755310059;1673374000.1595962;-27.533430099487305;-2.253087282180786;93.04973602294922
127;1673374000.2308753;47.1306422;7.240622;15.90000057220459;1673374000.3617754;-27.645612716674805;0.29669684171676636;92.38442993164062
128;1673374000.4427862;47.1306422;7.2406217999999996;16.31100082397461;1673374000.5541923;-27.566072463989258;0.46997103095054626;92.18307495117188
129;1673374000.627428;47.1306423;7.2406217999999996;16.72300148010254;1673374000.759345;-27.110078811645508;-2.000089168548584;93.1611557006836
130;1673374000.8375714;47.1306423;7.2406217999999996;17.128000259399414;1673374000.9627993;-26.767026901245117;0.004661666229367256;92.59284973144531
131;1673374001.0521944;47.1306423;7.2406217999999996;17.535001754760742;1673374001.1718764;-26.64950180053711;1.1022111177444458;92.16121673583984
132;1673374001.2441766;47.1306424;7.2406219;17.942001342773438;1673374001.3585393;-26.396263122558594;-1.5039364099502563;92.9450912475586
133;1673374001.4309773;47.1306425;7.2406219;18.352001190185547;1673374001.5671327;-26.29609489440918;-0.06431611627340317;92.58458709716797
134;1673374001.6390994;47.1306424;7.2406219;18.76500129699707;1673374001.7666295;-26.21141815185547;1.3459855318069458;92.10282135009766
135;1673374001.8486242;47.1306424;7.2406219;19.17300033569336;1673374001.97457;-26.135147094726562;-1.3882806301116943;93.01586151123047
136;1673374002.048777;47.1306424;7.2406217999999996;19.57000160217285;1673374002.1734822;-26.315967559814453;-0.7548292875289917;92.82229614257812
137;1673374002.2516305;47.1306424;7.2406217999999996;19.96900177001953;1673374002.4064388;-26.11680030822754;1.3558374643325806;92.07943725585938
138;1673374002.482406;47.1306424;7.240621699999999;20.3700008392334;1673374002.609557;-26.39615821838379;-1.3713362216949463;92.99502563476562
139;1673374002.6839337;47.1306424;7.240621699999999;20.772001266479492;1673374002.8951583;-26.49860954284668;-1.3081377744674683;92.98114776611328
140;1673374002.9745808;47.1306423;7.2406216;21.176000595092773;1673374003.0561347;-26.47442626953125;1.2043795585632324;92.04722595214844
141;1673374003.1226106;47.1306422;7.2406215;21.577001571655273;1673374003.228576;-26.574914932250977;-0.523868203163147;92.55517578125
142;1673374003.2935882;47.1306422;7.2406215;21.979000091552734;1673374003.4073753;-26.652801513671875;-2.0848467350006104;93.04981231689453
143;1673374003.4775584;47.1306422;7.240621399999999;22.374000549316406;1673374003.5910766;-26.785051345825195;1.0587201118469238;92.10919952392578
144;1673374003.660915;47.1306422;7.2406213;22.773000717163086;1673374003.766073;-26.799409866333008;0.21848799288272858;92.33061218261719
145;1673374003.8470862;47.1306423;7.2406213;23.177001953125;1673374003.9819083;-26.734912872314453;-1.767333745956421;93.0788345336914
146;1673374004.0567439;47.1306423;7.2406213;23.58300018310547;1673374004.1707256;-26.725677490234375;0.6573284864425659;92.32886505126953
147;1673374004.2471826;47.1306423;7.2406213;23.985000610351562;1673374004.3669448;-26.548524856567383;0.7160458564758301;92.24520111083984
148;1673374004.4392023;47.1306423;7.2406213;24.387001037597656;1673374004.5925853;-26.672508239746094;-1.9808908700942993;93.0678482055664
149;1673374004.6792357;47.1306422;7.2406213;24.782001495361328;1673374004.8176038;-26.630966186523438;-0.05159057676792145;92.5409164428711
150;1673374004.8913753;47.1306423;7.2406213;25.18000030517578;1673374005.0081525;-26.73179054260254;1.0223042964935303;92.08844757080078
151;1673374005.1016495;47.1306423;7.2406213;25.578001022338867;1673374005.2358446;-26.43411636352539;-1.6015424728393555;93.05976867675781
152;1673374005.3081048;47.1306424;7.2406213;25.981000900268555;1673374005.4465346;-26.665374755859375;-0.2724187672138214;92.71633911132812
153;1673374005.5111964;47.1306423;7.2406213;26.387001037597656;1673374005.654652;-26.38234519958496;1.1398829221725464;92.06454467773438
154;1673374005.731315;47.1306423;7.240621399999999;26.795001983642578;1673374005.85289;-26.614850997924805;-1.494350790977478;92.98259735107422
155;1673374005.9149098;47.1306424;7.240621399999999;27.19700050354004;1673374006.0091887;-26.43526840209961;-0.6417267322540283;92.8384017944336
156;1673374006.080067;47.1306424;7.2406213;27.59200096130371;1673374006.1938689;-26.78891372680664;1.4134495258331299;92.0381851196289
157;1673374006.2742953;47.1306424;7.2406213;27.992000579833984;1673374006.372697;-26.520687103271484;-0.9164848923683167;92.78913116455078
158;1673374006.4441314;47.1306424;7.2406213;28.393001556396484;1673374006.5617864;-26.680070877075195;-0.939234733581543;92.88568115234375
159;1673374006.636977;47.1306424;7.2406213;28.798002243041992;1673374006.7591083;-26.628036499023438;1.4356552362442017;91.9934310913086
160;1673374006.8391705;47.1306424;7.2406213;29.20400047302246;1673374006.9721742;-26.56540870666504;-0.79623943567276;92.59556579589844
161;1673374007.0588672;47.1306424;7.2406213;29.606000900268555;1673374007.1844873;-26.527002334594727;-1.6123664379119873;93.04525756835938
162;1673374007.2609553;47.1306424;7.2406212;29.999000549316406;1673374007.3788302;-26.648637771606445;1.5396353006362915;92.04961395263672
163;1673374007.4473855;47.1306424;7.2406212;30.395002365112305;1673374007.56628;-26.527210235595703;-0.28487980365753174;92.61767578125
164;1673374007.641077;47.1306425;7.2406212;30.796001434326172;1673374007.7617707;-26.76374053955078;-1.4355577230453491;93.1224594116211
165;1673374007.8469903;47.1306424;7.2406212;31.196001052856445;1673374007.961373;-26.477277755737305;1.1048372983932495;92.16070556640625
166;1673374008.043554;47.1306424;7.2406212;31.59800148010254;1673374008.170666;-26.501832962036133;-0.22527478635311127;92.50225830078125
167;1673374008.2478185;47.1306424;7.2406212;32.00100326538086;1673374008.3749657;-26.450613021850586;-1.8956226110458374;93.2048568725586
168;1673374008.4511936;47.1306424;7.2406212;32.406002044677734;1673374008.588514;-26.6168212890625;1.1878010034561157;92.25782775878906
169;1673374008.6744764;47.1306424;7.240621099999999;32.803001403808594;1673374008.7970576;-26.56138801574707;0.21048398315906525;92.39279174804688
170;1673374008.8727903;47.1306424;7.240621;33.2030029296875;1673374008.9925606;-26.711830139160156;-1.8105703592300415;93.1434555053711
171;1673374009.0703456;47.1306423;7.2406209;33.604000091552734;1673374009.1940377;-26.7333984375;0.7567943930625916;92.20327758789062
172;1673374009.2689579;47.1306423;7.2406209;34.00800323486328;1673374009.3809838;-26.76136589050293;0.5789819955825806;92.2188491821289
173;1673374009.456188;47.1306423;7.240620799999999;34.41400146484375;1673374009.5899112;-26.69453239440918;-2.0403871536254883;93.16421508789062
174;1673374009.659261;47.1306423;7.240620799999999;34.819000244140625;1673374009.7843108;-26.745237350463867;0.30928942561149597;92.48002624511719
175;1673374009.8628542;47.1306423;7.2406207;35.21500015258789;1673374009.9846117;-26.832210540771484;1.0152922868728638;92.22088623046875
176;1673374010.066001;47.1306423;7.2406207;35.61300277709961;1673374010.184818;-26.73599624633789;-1.7519080638885498;93.12086486816406
177;1673374010.2907567;47.1306423;7.2406206;36.01300048828125;1673374010.4001408;-26.952726364135742;-0.37648341059684753;92.58731079101562
178;1673374010.471562;47.1306422;7.2406206;36.41200256347656;1673374010.5874023;-26.630205154418945;1.3226805925369263;91.9359359741211
179;1673374010.6874676;47.1306422;7.2406206;36.81300354003906;1673374010.8481624;-26.776315689086914;-1.5372142791748047;92.95753479003906
180;1673374010.9507453;47.1306423;7.2406206;37.21600341796875;1673374011.0425272;-26.678268432617188;-0.42066851258277893;92.68030548095703
181;1673374011.1055923;47.1306423;7.2406206;37.62000274658203;1673374011.218605;-26.962520599365234;1.6023756265640259;92.02434539794922
182;1673374011.2962985;47.1306423;7.2406206;38.0160026550293;1673374011.4197104;-26.696271896362305;-1.0535612106323242;92.94171142578125
183;1673374011.5013945;47.1306423;7.2406204999999995;38.41400146484375;1673374011.6139822;-27.079946517944336;-0.8886505365371704;92.90029907226562
184;1673374011.6883907;47.1306423;7.2406204999999995;38.814002990722656;1673374011.801943;-26.712820053100586;1.4744771718978882;92.03260040283203
185;1673374011.8713875;47.1306424;7.2406204999999995;39.2140007019043;1673374011.9900908;-26.930654525756836;-0.8549647331237793;92.86219787597656
186;1673374012.0643244;47.1306424;7.2406204999999995;39.61600112915039;1673374012.1777308;-26.959672927856445;-0.841435968875885;92.90467834472656
187;1673374012.2540858;47.1306425;7.2406204999999995;40.01900100708008;1673374012.3729913;-26.83246421813965;1.749098300933838;91.91011810302734
188;1673374012.4532409;47.1306425;7.2406204999999995;40.413002014160156;1673374012.5662348;-26.698366165161133;0.009714307263493538;92.49130249023438
189;1673374012.6456604;47.1306425;7.2406204999999995;40.8120002746582;1673374012.7699156;-26.93408203125;-1.5413780212402344;93.13790893554688
190;1673374012.850048;47.1306424;7.2406206;41.21500015258789;1673374012.9770393;-26.579757690429688;1.2524011135101318;92.20391845703125
191;1673374013.061364;47.1306424;7.2406206;41.62000274658203;1673374013.196662;-26.58626365661621;0.057808589190244675;92.51415252685547
192;1673374013.2724247;47.1306424;7.2406206;42.02000045776367;1673374013.391248;-26.58860969543457;-1.645452857017517;93.14833068847656
193;1673374013.4627056;47.1306424;7.2406206;42.42000198364258;1673374013.5845606;-26.659019470214844;1.132899522781372;92.2940902709961
194;1673374013.6616664;47.1306424;7.2406206;42.819000244140625;1673374013.7775605;-26.7122745513916;0.4748699367046356;92.3282241821289
195;1673374013.8497841;47.1306423;7.2406204999999995;43.211002349853516;1673374013.9798489;-26.925012588500977;-1.8138623237609863;93.09747314453125
196;1673374014.0562322;47.1306423;7.2406204999999995;43.605003356933594;1673374014.1716075;-26.72898292541504;0.5869408845901489;92.38031005859375
197;1673374014.2495902;47.1306423;7.2406204;44.005001068115234;1673374014.380488;-26.92320442199707;1.058560848236084;92.21570587158203
198;1673374014.4569206;47.1306424;7.2406204;44.406002044677734;1673374014.5839534;-26.827682495117188;-1.6054339408874512;93.19901275634766
199;1673374014.6591969;47.1306424;7.2406204;44.80800247192383;1673374014.7866573;-26.86817169189453;0.6103785037994385;92.55181121826172
200;1673374014.8687787;47.1306424;7.2406204;45.211002349853516;1673374014.990971;-26.697412490844727;1.3863214254379272;92.05986785888672
201;1673374015.0649846;47.1306424;7.2406204;45.60700225830078;1673374015.197381;-26.690542221069336;-1.2929459810256958;92.97767639160156
202;1673374015.30318;47.1306423;7.2406204;46.00600051879883;1673374015.4189217;-26.799274444580078;-0.37715786695480347;92.6937484741211
203;1673374015.493799;47.1306423;7.2406203;46.40500259399414;1673374015.6054907;-26.756723403930664;1.5791691541671753;92.04495239257812
204;1673374015.6920264;47.1306423;7.2406203;46.802001953125;1673374015.7999616;-26.750782012939453;-1.2710667848587036;93.01023864746094
205;1673374015.8727536;47.1306423;7.2406203;47.202003479003906;1673374015.9974213;-26.778568267822266;-0.4412359893321991;92.77545928955078
206;1673374016.0772371;47.1306423;7.2406201999999995;47.605003356933594;1673374016.2147975;-26.914079666137695;1.79060959815979;92.03836822509766
207;1673374016.28528;47.1306423;7.2406201999999995;48.01000213623047;1673374016.4051976;-27.584802627563477;-0.7380756735801697;92.74183654785156
208;1673374016.4811091;47.1306423;7.2406201;48.367000579833984;1673374016.5960171;-27.260257720947266;-0.05358037352561951;92.76639556884766
209;1673374016.6682525;47.1306423;7.2406198999999996;48.67400360107422;1673374016.788377;-27.46741485595703;1.052230954170227;92.20722198486328
210;1673374016.8596873;47.1306423;7.2406196;48.93400192260742;1673374016.9858325;-27.958086013793945;-0.5372171998023987;92.85321807861328
211;1673374017.0709488;47.1306423;7.2406191;49.152000427246094;1673374017.1911244;-28.437833786010742;-0.5721863508224487;92.87541198730469
212;1673374017.2701747;47.1306422;7.2406187;49.33000183105469;1673374017.388412;-19.37502670288086;1.8728621006011963;91.32395935058594
213;1673374017.4637878;47.1306422;7.240617899999999;49.46900177001953;1673374017.5860033;3.43277907371521;-16.358356475830078;80.47151947021484
214;1673374017.6594572;47.130642599999995;7.240615399999999;49.57400131225586;1673374017.7675834;8.343173027038574;-29.934364318847656;70.17780303955078
215;1673374017.840675;47.1306438;7.240609699999999;49.64500045776367;1673374017.9696622;-12.3680419921875;-28.95836067199707;62.42394256591797
216;1673374018.0542562;47.130646399999996;7.2406013;49.72500228881836;1673374018.1851916;-21.115156173706055;-18.709888458251953;49.945980072021484
217;1673374018.2741618;47.1306501;7.2405911;49.80600357055664;1673374018.393493;-25.78285789489746;-29.564281463623047;41.54281997680664
218;1673374018.4686854;47.130655;7.2405794;49.88500213623047;1673374018.5956945;-35.74805450439453;-37.94967269897461;32.50410842895508
219;1673374018.6739402;47.1306618;7.2405653999999995;49.94400405883789;1673374018.7861571;-45.66159439086914;-39.459228515625;22.519512176513672
220;1673374018.865376;47.1306709;7.2405481;49.9640007019043;1673374018.9876747;-45.24095916748047;-34.70797348022461;9.901865005493164
221;1673374019.0649438;47.1306823;7.2405273;49.95000076293945;1673374019.2096643;-45.17787170410156;-29.793991088867188;1.5761562585830688
222;1673374019.3055978;47.1306951;7.2405025;49.923004150390625;1673374019.4227076;-50.63683319091797;-21.338481903076172;-7.636168003082275
223;1673374019.4971917;47.1307092;7.2404741999999995;49.88500213623047;1673374019.6235068;-54.02113342285156;-13.97565746307373;-15.419000625610352
224;1673374019.70005;47.130724799999996;7.240443099999999;49.84800338745117;1673374019.7999012;-53.788978576660156;-6.176666736602783;-22.69472885131836
225;1673374019.876256;47.130741799999996;7.240409799999999;49.816001892089844;1673374020.0041099;-46.56178283691406;3.529534339904785;-30.601150512695312
226;1673374020.0790076;47.1307597;7.2403752;49.72100067138672;1673374020.190783;-14.793876647949219;6.739382266998291;-32.85430908203125
227;1673374020.265996;47.1307772;7.240341;49.29300308227539;1673374020.3888338;34.775108337402344;6.3992414474487305;-31.20401382446289
228;1673374020.4550767;47.1307948;7.240306599999999;48.46800231933594;1673374020.5719652;85.46875;172.44007873535156;139.75868225097656
229;1673374020.658218;47.1308125;7.2402719;47.24800109863281;1673374020.7841675;39.385494232177734;177.46514892578125;151.48440551757812
230;1673374020.8678963;47.1308302;7.240237199999999;45.67900085449219;1673374020.9970326;17.409528732299805;173.2576446533203;154.8321075439453
231;1673374021.0723472;47.1308477;7.2402028;43.746002197265625;1673374021.1962862;20.05072784423828;168.01031494140625;156.36962890625
232;1673374021.2669642;47.1308648;7.2401686;41.44700241088867;1673374021.3941355;47.064151763916016;155.53448486328125;148.1889190673828
233;1673374021.4699354;47.1308815;7.2401347;38.79300308227539;1673374021.5872905;65.42259216308594;40.81354904174805;35.833648681640625
234;1673374021.6634197;47.130897999999995;7.2401010999999995;35.78600311279297;1673374021.7799516;-2.9812793731689453;5.598170280456543;-0.9119038581848145
235;1673374021.8561115;47.1309148;7.240067499999999;32.37700271606445;1673374021.990075;-59.626407623291016;7.982545852661133;-13.932969093322754
236;1673374022.0770092;47.130931;7.240034;28.593000411987305;1673374022.1952174;-74.89386749267578;33.13924026489258;-41.54775619506836
237;1673374022.2700214;47.130947;7.2400009;24.49100112915039;1673374022.4056196;-52.71015930175781;20.547693252563477;-28.104310989379883
238;1673374022.4755938;47.1309628;7.2399679;20.071001052856445;1673374022.6064131;8.36683464050293;10.36720085144043;-14.850240707397461
239;1673374022.6755648;47.1309781;7.239935099999999;15.284000396728516;1673374022.8062162;78.08037567138672;15.330517768859863;2.1875717639923096
240;1673374022.8746076;47.130993499999995;7.239902099999999;10.095000267028809;1673374022.9838314;70.21984100341797;176.2268829345703;169.65684509277344
241;1673374023.0641162;47.1310089;7.239869199999999;4.603000164031982;1673374023.1811805;88.64274597167969;-48.93754577636719;-55.32175827026367
242;1673374023.2559972;47.131025799999996;7.2398397;0.41100001335144043;1673374023.376395;53.24893569946289;139.28384399414062;143.77230834960938
243;1673374023.4587104;47.131045;7.2398218;0.734000027179718;1673374023.5974073;-8.467438697814941;138.34506225585938;117.06829071044922
244;1673374023.6854038;47.1310617;7.2398036999999995;0.7100000381469727;1673374023.805885;-33.04352569580078;-147.42477416992188;32.261138916015625
245;1673374023.881109;47.1310767;7.2397844;0.4820000231266022;1673374023.994241;55.38260269165039;-90.9302749633789;-28.73110008239746
246;1673374024.0704224;47.1310887;7.2397646;0.6930000185966492;1673374024.1943603;-12.885966300964355;86.55830383300781;112.63311004638672
247;1673374024.2721083;47.1311009;7.239745999999999;0.5080000162124634;1673374024.3901584;-0.40278294682502747;-127.35536193847656;-40.05031967163086
248;1673374024.4715679;47.1311094;7.2397276999999995;0.7740000486373901;1673374024.5940976;-6.212153434753418;47.65914535522461;138.5888214111328
249;1673374024.6784358;47.1311168;7.239712399999999;0.9780000448226929;1673374024.8041024;30.912799835205078;-105.47456359863281;-57.71247100830078
250;1673374024.8718326;47.131123599999995;7.239699399999999;0.7520000338554382;1673374025.0112298;-64.09603881835938;28.9739990234375;158.8561553955078
251;1673374025.0902615;47.1311317;7.2396867;0.76500004529953;1673374025.2123466;45.51092529296875;116.65227508544922;156.49781799316406
252;1673374025.2862494;47.1311374;7.2396749;0.8860000371932983;1673374025.4068165;31.977506637573242;-102.20573425292969;-72.50130462646484
253;1673374025.4692073;47.1311426;7.2396632;0.9930000305175781;1673374025.582264;-42.16632843017578;-54.2526969909668;-80.0918197631836
254;1673374025.6522808;47.1311493;7.2396519999999995;1.0350000858306885;1673374025.7710235;-69.90682983398438;79.0152587890625;165.6488800048828
255;1673374025.8550496;47.1311561;7.239641199999999;1.0440000295639038;1673374025.9841657;-47.950660705566406;125.85748291015625;129.4998779296875
256;1673374026.0611055;47.1311611;7.2396297;1.2670000791549683;1673374026.183115;-40.09989547729492;145.5465545654297;108.79149627685547
257;1673374026.2672095;47.1311672;7.239617;1.3240001201629639;1673374026.391266;-14.881186485290527;153.05625915527344;92.50289154052734
258;1673374026.4794106;47.131173399999994;7.2396033;1.1430000066757202;1673374026.63324;18.580493927001953;152.65220642089844;74.15564727783203
259;1673374026.7002;47.1311804;7.2395903;0.9690000414848328;1673374026.8151217;18.501081466674805;152.624267578125;74.35499572753906
260;1673374026.8901632;47.1311896;7.2395746999999995;0.8940000534057617;1673374027.008047;18.37604522705078;152.67645263671875;74.39917755126953
261;1673374027.0861413;47.1311979;7.2395608;0.7690000534057617;1673374027.2008786;18.19662094116211;152.86061096191406;73.90223693847656
262;1673374027.274179;47.131208199999996;7.2395438;0.6320000290870667;1673374027.4021313;18.21430206298828;152.86244201660156;73.21017456054688
263;1673374027.4770856;47.1312204;7.2395230999999995;0.49500003457069397;1673374027.6021712;18.2044620513916;152.80712890625;72.62086486816406
264;1673374027.6830602;47.1312341;7.2394995;0.359000027179718;1673374027.813166;18.214309692382812;152.74069213867188;72.0651626586914
265;1673374027.891032;47.131248899999996;7.239473299999999;0.2240000069141388;1673374028.043175;18.22984504699707;152.61607360839844;71.5468521118164
266;1673374028.1164148;47.1312649;7.2394446;0.02800000086426735;1673374028.287153;18.210487365722656;152.5255126953125;71.06327056884766
267;1673374028.3972871;47.1312816;7.2394137999999995;-0.13300000131130219;1673374028.481115;18.187000274658203;152.5191192626953;70.54125213623047
268;1673374028.5441437;47.1312989;7.2393809;-0.26600000262260437;1673374028.6490412;18.140474319458008;152.48379516601562;70.05225372314453
269;1673374028.7119253;47.1313167;7.2393459;-0.37800002098083496;1673374028.8622074;18.1081485748291;152.48687744140625;69.59162902832031
270;1673374028.958974;47.1313349;7.2393089999999995;-0.4750000238418579;1673374029.0561755;18.050878524780273;152.4756622314453;69.12252044677734
271;1673374029.1214783;47.1313533;7.239269999999999;-0.5540000200271606;1673374029.2431424;18.0148983001709;152.4517059326172;68.6752700805664
272;1673374029.3202999;47.1313718;7.239229;-0.6300000548362732;1673374029.4369361;17.977506637573242;152.46206665039062;68.2876205444336
273;1673374029.5109987;47.1313915;7.2391855;-0.815000057220459;1673374029.631485;17.937641143798828;152.3892822265625;67.97541809082031
274;1673374029.7060275;47.131410699999996;7.2391402;-0.9440000653266907;1673374029.8641107;17.85452651977539;152.41110229492188;67.5296401977539
275;1673374029.931063;47.1314293;7.239093199999999;-1.0099999904632568;1673374030.0290825;17.78190803527832;152.43263244628906;67.08052825927734
276;1673374030.0921679;47.1314474;7.2390443;-1.0360000133514404;1673374030.2039988;17.689605712890625;152.45150756835938;66.65763092041016
277;1673374030.2690697;47.1314652;7.238993;29.32600212097168;1673374030.4020898;17.666118621826172;152.43984985351562;66.03380584716797
278;1673374030.5090237;47.1314826;7.238936499999999;29.269001007080078;1673374030.6750362;17.56368637084961;152.1785125732422;64.92992401123047
279;1673374030.7437253;47.131501799999995;7.2388743;29.274002075195312;;;;
