;pos_time;latitude;longitude;altitude;alt_time;pitch;roll;yaw
0;1673373754.262941;47.1306425;7.2406203;0.01600000075995922;1673373754.275182;0.030124466866254807;-0.32075077295303345;90.49702453613281
1;1673373754.4602404;47.1306425;7.2406203;0.017000000923871994;1673373754.4744835;-0.05007103085517883;-0.07250498235225677;90.66605377197266
2;1673373754.6673896;47.1306425;7.2406204;0.01900000125169754;1673373754.6830282;-0.14523029327392578;0.11763379722833633;90.614501953125
3;1673373754.860333;47.1306425;7.2406204999999995;0.024000000208616257;1673373754.8755178;-0.2591739594936371;0.13104459643363953;90.50977325439453
4;1673373755.0662136;47.1306425;7.2406204;0.026000000536441803;1673373755.079531;-0.2427135556936264;-0.048539821058511734;90.62191009521484
5;1673373755.2638404;47.1306425;7.2406204;0.026000000536441803;1673373755.2761106;-0.2113053798675537;0.15192259848117828;90.63481903076172
6;1673373755.4637334;47.1306425;7.2406203;0.02500000037252903;1673373755.4750488;-0.18637996912002563;0.034687966108322144;90.56619262695312
7;1673373755.6647432;47.1306425;7.2406201999999995;0.02500000037252903;1673373755.6789622;-0.13104048371315002;-0.07798070460557938;90.68612670898438
8;1673373755.8641274;47.1306425;7.2406201;0.02500000037252903;1673373755.8817492;0.13612057268619537;0.05428539589047432;90.56952667236328
9;1673373756.0562148;47.1306424;7.2406198999999996;-0.0010000000474974513;1673373756.0698717;0.3574862778186798;0.05812015011906624;90.66742706298828
10;1673373756.2469916;47.1306424;7.2406198999999996;-0.007000000216066837;1673373756.2636971;0.07955194264650345;0.03300601243972778;90.40206146240234
11;1673373756.4601839;47.1306424;7.2406198999999996;-0.013000000268220901;1673373756.4768457;0.11790026724338531;0.036066193133592606;90.43138885498047
12;1673373756.6592796;47.1306424;7.2406198999999996;-0.014000000432133675;1673373756.6739388;0.17149710655212402;0.22979967296123505;90.37602996826172
13;1673373756.8632243;47.1306424;7.24062;-0.012000000104308128;1673373756.8759708;0.08933946490287781;0.030136916786432266;90.30522155761719
14;1673373757.0670555;47.1306424;7.2406201;-0.007000000216066837;1673373757.080004;0.09352817386388779;0.004875760525465012;90.35888671875
15;1673373757.2594883;47.1306425;7.2406201999999995;-0.00800000037997961;1673373757.2743242;0.2665444016456604;0.06992963701486588;90.2238540649414
16;1673373757.4538612;47.1306425;7.2406201999999995;-0.007000000216066837;1673373757.4671144;0.17745928466320038;0.4012390971183777;90.35623168945312
17;1673373757.655236;47.1306425;7.2406203;0.0;1673373757.6721482;0.07273030281066895;0.2169887125492096;90.30326080322266
18;1673373757.8613737;47.1306425;7.2406203;0.0;1673373757.8780806;0.015980714932084084;-0.10409899055957794;90.46846008300781
19;1673373758.0833883;47.1306425;7.2406203;0.0;1673373758.0990994;0.0033829978201538324;0.363405704498291;90.60291290283203
20;1673373758.2860386;47.1306425;7.2406203;0.0;1673373758.2999861;0.07558510452508926;0.2350340038537979;90.57676696777344
21;1673373758.4922595;47.130642599999995;7.2406201;0.0010000000474974513;1673373758.506125;0.47930237650871277;0.6967615485191345;90.13140869140625
22;1673373758.6770372;47.130642599999995;7.24062;0.010000000707805157;1673373758.6901965;1.0400136709213257;0.11113674193620682;90.23541259765625
23;1673373758.8780777;47.1306425;7.2406198999999996;0.015000000596046448;1673373758.8932283;1.5064058303833008;-0.133660227060318;90.290771484375
24;1673373759.0710518;47.1306425;7.240619799999999;0.01600000075995922;1673373759.0861962;2.0532126426696777;-0.043524619191884995;90.4653549194336
25;1673373759.2721567;47.1306425;7.240619799999999;0.017000000923871994;1673373759.2843294;2.9872756004333496;-0.06258758902549744;90.27665710449219
26;1673373759.4787123;47.1306425;7.2406196;0.013000000268220901;1673373759.4941669;-1.2637388706207275;0.48670271039009094;87.02286529541016
27;1673373759.6924767;47.1306425;7.2406185999999995;0.018000001087784767;1673373759.7071986;-5.0505781173706055;0.19767968356609344;84.7610855102539
28;1673373759.8801064;47.1306425;7.2406171;0.04000000283122063;1673373759.8944747;-13.37753677368164;0.273221492767334;85.62948608398438
29;1673373760.1061578;47.1306424;7.2406152;0.058000002056360245;1673373760.119435;-14.810993194580078;-1.3158812522888184;87.13943481445312
30;1673373760.3355813;47.1306424;7.240613199999999;0.09400000423192978;1673373760.377098;-15.335691452026367;1.461679458618164;87.30850219726562
31;1673373760.5390732;47.1306423;7.2406111;0.14600001275539398;1673373760.5521686;-16.908987045288086;2.808483362197876;87.57469177246094
32;1673373760.7211363;47.1306422;7.2406090999999995;0.20800000429153442;1673373760.7371223;-18.856746673583984;-2.1183793544769287;89.07493591308594
33;1673373760.9146018;47.1306422;7.2406071999999995;0.28300002217292786;1673373760.9391656;-20.853994369506836;-1.2650480270385742;89.46257019042969
34;1673373761.1259265;47.1306423;7.2406058;0.3680000305175781;1673373761.1397512;-22.871639251708984;2.3225927352905273;88.99990844726562
35;1673373761.313779;47.1306423;7.240604899999999;0.4610000252723694;1673373761.3254921;-24.986961364746094;-0.2505611479282379;89.80236053466797
36;1673373761.54545;47.1306422;7.2406048;0.5610000491142273;1673373761.566719;-26.881006240844727;-3.6507768630981445;90.80419158935547
37;1673373761.723343;47.130642099999996;7.2406055;0.6650000214576721;1673373761.7360287;-27.476543426513672;0.4872555434703827;90.07491302490234
38;1673373761.8929982;47.130641999999995;7.2406068999999995;0.7750000357627869;1673373761.9066625;-25.39881706237793;-0.8330705761909485;90.46881866455078
39;1673373762.1000824;47.130642099999996;7.2406089;0.8920000195503235;1673373762.111804;-23.157962799072266;-4.215787410736084;91.61869049072266
40;1673373762.2874923;47.1306423;7.2406111;1.0200001001358032;1673373762.3231714;-20.424654006958008;0.20619556307792664;90.82159423828125
41;1673373762.5554626;47.1306425;7.2406133;1.1610000133514404;1673373762.5711086;-17.850170135498047;1.077459454536438;90.8162612915039
42;1673373762.7473793;47.130642599999995;7.2406153;1.309000015258789;1673373762.7596297;-15.982003211975098;-3.367626190185547;91.9973373413086
43;1673373762.9241738;47.130642699999996;7.240616999999999;1.468000054359436;1673373762.9368634;-14.895583152770996;0.11327309161424637;91.3793716430664
44;1673373763.119549;47.130642699999996;7.2406181;1.6360000371932983;1673373763.1351652;-14.677367210388184;1.663946509361267;84.06124114990234
45;1673373763.3111389;47.130642699999996;7.2406188;1.821000099182129;1673373763.3267562;-15.214247703552246;-1.814420461654663;86.15013122558594
46;1673373763.544108;47.130642699999996;7.2406191;2.0199999809265137;1673373763.5598521;-15.628185272216797;-2.0542469024658203;87.19930267333984
47;1673373763.727325;47.1306428;7.240619199999999;2.2230000495910645;1673373763.742954;-16.464990615844727;2.589052438735962;87.04784393310547
48;1673373763.9278939;47.1306428;7.2406191;2.4250001907348633;1673373763.9396193;-17.29827308654785;-0.9172086715698242;88.31133270263672
49;1673373764.0872061;47.1306428;7.240618899999999;2.627000093460083;1673373764.0979624;-17.849769592285156;-3.1039934158325195;88.95333862304688
50;1673373764.2739472;47.130642699999996;7.2406187;2.824000120162964;1673373764.2876015;-18.75439453125;1.4193459749221802;87.8422622680664
51;1673373764.4624305;47.130642599999995;7.2406185;3.0270001888275146;1673373764.47805;-19.34857177734375;-1.5287758111953735;88.5046615600586
52;1673373764.6539025;47.130642599999995;7.2406184;3.2340002059936523;1673373764.6690714;-19.782936096191406;-3.484541416168213;89.07624053955078
53;1673373764.8813686;47.1306428;7.2406184;3.442000150680542;1673373764.8960617;-19.718488693237305;2.5641093254089355;87.96947479248047
54;1673373765.0914757;47.1306429;7.2406185;3.6430001258850098;1673373765.1070902;-19.525171279907227;1.3290231227874756;88.03682708740234
55;1673373765.2973197;47.130642699999996;7.240618899999999;3.8400001525878906;1673373765.311018;-18.89426040649414;-2.718545436859131;88.77297973632812
56;1673373765.5061688;47.130642599999995;7.240619199999999;4.0420002937316895;1673373765.521806;-18.61539077758789;0.8050333857536316;87.82762908935547
57;1673373765.6880367;47.1306425;7.2406196;4.238000392913818;1673373765.7026813;-18.3795223236084;1.2787610292434692;87.63982391357422
58;1673373765.9034305;47.1306424;7.240619799999999;4.438000202178955;1673373765.9180713;-18.052114486694336;-3.256441593170166;88.74812316894531
59;1673373766.1034381;47.1306424;7.2406201;4.636000156402588;1673373766.118447;-17.947290420532227;0.2223474085330963;88.00851440429688
60;1673373766.2972918;47.1306424;7.2406203;4.833000183105469;1673373766.311939;-17.521873474121094;2.2803497314453125;87.52433776855469
61;1673373766.4954622;47.1306423;7.2406204;5.033000469207764;1673373766.5120902;-17.973201751708984;-2.9991295337677;88.72234344482422
62;1673373766.7021358;47.130642099999996;7.2406204;5.234000205993652;1673373766.7197044;-17.91517448425293;-0.9928873777389526;88.16130065917969
63;1673373766.9072425;47.130642099999996;7.2406203;5.432000160217285;1673373766.9209063;-18.308345794677734;2.215545654296875;87.4371109008789
64;1673373767.1010444;47.130641999999995;7.2406203;5.63800048828125;1673373767.1166615;-18.26511573791504;-2.7164289951324463;88.54778289794922
65;1673373767.3079917;47.130642099999996;7.2406201999999995;5.838000297546387;1673373767.321657;-18.550994873046875;-1.2228339910507202;88.23477172851562
66;1673373767.504771;47.1306422;7.2406201999999995;6.0420002937316895;1673373767.521369;-18.478248596191406;2.7840025424957275;87.45337677001953
67;1673373767.7009666;47.1306422;7.2406201999999995;6.244000434875488;1673373767.7155657;-18.76277732849121;-0.7008521556854248;88.12669372558594
68;1673373767.9050694;47.130642099999996;7.2406203;6.444000244140625;1673373767.9187331;-18.427019119262695;-2.2958364486694336;88.50178527832031
69;1673373768.091708;47.130642099999996;7.2406203;6.645000457763672;1673373768.1083088;-18.528549194335938;2.4961819648742676;87.30750274658203
70;1673373768.2843635;47.1306422;7.2406203;6.841000556945801;1673373768.3029633;-18.522216796875;0.4374202489852905;87.90193939208984
71;1673373768.483516;47.1306422;7.2406203;7.0360002517700195;1673373768.4991114;-18.556428909301758;-2.7109527587890625;88.69512939453125
72;1673373768.6732364;47.1306423;7.2406203;7.2300004959106445;1673373768.6878767;-18.528356552124023;2.3110291957855225;87.6479263305664
73;1673373768.8664372;47.1306423;7.2406204;7.428000450134277;1673373768.8869784;-18.346372604370117;1.1519192457199097;87.79328155517578
74;1673373769.0872333;47.130642099999996;7.2406204;7.623000144958496;1673373769.1008956;-18.523889541625977;-3.325403928756714;88.72599792480469
75;1673373769.2719648;47.130641999999995;7.2406204;7.820000171661377;1673373769.2875814;-18.403656005859375;0.5395461916923523;87.78144836425781
76;1673373769.48285;47.130641999999995;7.2406204;8.017000198364258;1673373769.4984663;-18.363840103149414;1.4080190658569336;87.56041717529297
77;1673373769.67814;47.130641999999995;7.2406204;8.218000411987305;1673373769.6947334;-18.432771682739258;-3.0380725860595703;88.6551513671875
78;1673373769.8725405;47.130642099999996;7.2406204;8.414000511169434;1673373769.8871815;-18.477073669433594;0.6994910836219788;87.82990264892578
79;1673373770.0866358;47.130642099999996;7.2406204;8.61400032043457;1673373770.0993366;-18.4891357421875;2.197786808013916;87.50334930419922
80;1673373770.2844214;47.130641999999995;7.2406204999999995;8.807000160217285;1673373770.2991068;-18.33237648010254;-2.8202905654907227;88.63204956054688
81;1673373770.4862561;47.1306419;7.2406204999999995;9.005000114440918;1673373770.5008955;-18.43712043762207;0.05028300732374191;87.96725463867188
82;1673373770.6994758;47.130641999999995;7.2406204999999995;9.200000762939453;1673373770.7181313;-18.544004440307617;2.484083414077759;87.24415588378906
83;1673373770.9193704;47.130642099999996;7.2406204999999995;9.393000602722168;1673373770.9330738;-18.627382278442383;-1.9764050245285034;88.37298583984375
84;1673373771.105949;47.1306422;7.2406204999999995;9.589000701904297;1673373771.1186454;-18.598051071166992;-0.191646009683609;88.01874542236328
85;1673373771.295877;47.1306422;7.2406204999999995;9.78700065612793;1673373771.3115017;-18.730541229248047;3.280916690826416;87.07809448242188
86;1673373771.5041633;47.130642099999996;7.2406204999999995;9.984000205993652;1673373771.5199587;-18.565031051635742;-1.758679986000061;88.08348846435547
87;1673373771.70338;47.1306419;7.2406206;10.184000015258789;1673373771.7200212;-18.354515075683594;-2.2028045654296875;88.26335906982422
88;1673373771.9118645;47.1306419;7.240620799999999;10.44800090789795;1673373771.9274664;-20.67047882080078;1.3781377077102661;87.59834289550781
89;1673373772.1172009;47.130641999999995;7.2406213;10.795000076293945;1673373772.1279373;-22.470304489135742;0.10155083239078522;87.50405883789062
90;1673373772.2869453;47.1306422;7.2406222;11.163000106811523;1673373772.3007724;-19.09638786315918;-3.1502952575683594;88.61241912841797
91;1673373772.495845;47.1306424;7.2406232;11.546000480651855;1673373772.510485;-17.329559326171875;1.5002061128616333;87.8709487915039
92;1673373772.6792095;47.1306425;7.2406241;11.938000679016113;1673373772.695801;-15.336478233337402;1.8599122762680054;87.73445129394531
93;1673373772.8880994;47.1306424;7.2406247;12.334000587463379;1673373772.902739;-14.531970977783203;-2.143780469894409;88.39593505859375
94;1673373773.0933652;47.1306424;7.240624899999999;12.72700023651123;1673373773.107029;-14.444421768188477;1.026529312133789;87.89383697509766
95;1673373773.2860556;47.1306425;7.2406248;13.112000465393066;1673373773.2997067;-14.528692245483398;2.5728538036346436;87.49853515625
96;1673373773.4818401;47.1306425;7.2406242999999995;13.485000610351562;1673373773.4989657;-15.805753707885742;-1.915136456489563;88.53791046142578
97;1673373773.678679;47.1306425;7.240623599999999;13.851000785827637;1673373773.6952715;-16.726560592651367;0.4183664321899414;88.0438461303711
98;1673373773.8966994;47.1306425;7.2406229;14.208001136779785;1673373773.9113362;-17.704654693603516;2.9100840091705322;87.27499389648438
99;1673373774.0863621;47.1306423;7.2406223999999995;14.568000793457031;1673373774.1000192;-18.49428939819336;-2.210601329803467;88.35735321044922
100;1673373774.2703867;47.130642099999996;7.2406217999999996;14.927000999450684;1673373774.284613;-18.950984954833984;-1.7511265277862549;88.37069702148438
101;1673373774.5021665;47.130642099999996;7.2406215;15.290000915527344;1673373774.5148938;-19.470842361450195;2.187316417694092;87.56475830078125
102;1673373774.703094;47.130642099999996;7.2406213;15.654000282287598;1673373774.7157826;-19.34793472290039;-1.1135642528533936;88.2134017944336
103;1673373774.884087;47.1306422;7.2406212;16.02400016784668;1673373774.8979123;-19.081045150756836;-1.834743618965149;88.45719909667969
104;1673373775.0910172;47.1306422;7.240621399999999;16.397001266479492;1673373775.1077673;-18.51144027709961;2.801750659942627;87.51628875732422
105;1673373775.2940938;47.1306422;7.2406215;16.768001556396484;1673373775.3077626;-18.2939453125;-0.514579176902771;88.28351593017578
106;1673373775.4838772;47.130642099999996;7.240621699999999;17.145999908447266;1673373775.4985192;-17.984352111816406;-2.40110182762146;88.73522186279297
107;1673373775.6859632;47.130642099999996;7.2406219;17.5260009765625;1673373775.70158;-17.564960479736328;1.9869085550308228;87.783203125
108;1673373775.8819668;47.1306422;7.2406220999999995;17.902000427246094;1673373775.896607;-17.24504852294922;0.901922345161438;87.99421691894531
109;1673373776.0931742;47.1306423;7.240622;18.27400016784668;1673373776.1078143;-17.64057159423828;-2.5505926609039307;88.84384155273438
110;1673373776.2908566;47.1306423;7.240622;18.65300178527832;1673373776.3045213;-17.446104049682617;2.313344955444336;87.60853576660156
111;1673373776.4861026;47.1306423;7.240622;19.033000946044922;1673373776.499754;-17.536413192749023;1.376394510269165;87.69727325439453
112;1673373776.6860495;47.1306422;7.2406219;19.41200065612793;1673373776.7035973;-17.504796981811523;-2.8567070960998535;88.71910095214844
113;1673373776.8810534;47.1306422;7.2406219;19.788000106811523;1673373776.8950021;-17.810001373291016;0.9321296215057373;87.81749725341797
114;1673373777.0969455;47.1306423;7.2406217999999996;20.166000366210938;1673373777.1154983;-17.755319595336914;1.872329831123352;87.76341247558594
115;1673373777.29618;47.1306424;7.2406216;20.536001205444336;1673373777.3120477;-18.09815788269043;-2.6116714477539062;88.75960540771484
116;1673373777.5334284;47.1306425;7.240621399999999;20.910001754760742;1673373777.5451407;-18.115501403808594;0.789251446723938;88.03465270996094
117;1673373777.7260265;47.1306425;7.2406213;21.282001495361328;1673373777.738816;-18.18865203857422;3.2725472450256348;87.52359008789062
118;1673373777.9200928;47.1306424;7.2406213;21.6560001373291;1673373777.934733;-18.157516479492188;-2.0566673278808594;88.47261047363281
119;1673373778.111817;47.1306424;7.2406212;22.035001754760742;1673373778.1274242;-18.339658737182617;-0.6154891848564148;88.21067810058594
120;1673373778.3079522;47.1306424;7.2406212;22.41200065612793;1673373778.322593;-18.13831329345703;2.9315221309661865;87.3029556274414
121;1673373778.5159943;47.1306425;7.2406212;22.793001174926758;1673373778.5277307;-18.19008445739746;-1.0888917446136475;88.2068099975586
122;1673373778.6942365;47.1306425;7.240621099999999;23.170001983642578;1673373778.7108262;-18.128896713256836;-1.1250746250152588;88.40214538574219
123;1673373778.899853;47.1306425;7.240621099999999;23.556001663208008;1673373778.9144974;-18.087631225585938;3.083606719970703;87.53284454345703
124;1673373779.0804822;47.1306424;7.240621;23.942001342773438;1673373779.0961614;-18.088754653930664;-0.8877438306808472;88.19091033935547
125;1673373779.2963572;47.1306423;7.240621;24.32900047302246;1673373779.3110294;-17.9459171295166;-2.5818793773651123;88.64759826660156
126;1673373779.4796324;47.1306424;7.240621;24.711000442504883;1673373779.495346;-18.057071685791016;2.627636432647705;87.50699615478516
127;1673373779.6887617;47.1306424;7.240621;25.09400177001953;1673373779.7034175;-17.89862823486328;0.5813995003700256;88.0624008178711
128;1673373779.881841;47.1306425;7.240621;25.474000930786133;1673373779.8980079;-18.072134017944336;-2.15281343460083;88.70658874511719
129;1673373780.0793612;47.130642599999995;7.240621;25.86100196838379;1673373780.094555;-17.91963768005371;2.587916374206543;87.62971496582031
130;1673373780.2760897;47.130642599999995;7.2406209;26.25200080871582;1673373780.2907724;-18.114463806152344;1.3650020360946655;87.76854705810547
131;1673373780.4890695;47.1306425;7.2406209;26.641000747680664;1673373780.5046792;-18.021987915039062;-1.9991132020950317;88.5654525756836
132;1673373780.692939;47.130642599999995;7.2406209;27.029001235961914;1673373780.7124724;-18.036205291748047;2.281057119369507;87.70732879638672
133;1673373780.9041;47.130642599999995;7.2406209;27.421001434326172;1673373780.917782;-17.89129638671875;2.191455364227295;87.73369598388672
134;1673373781.0996585;47.1306425;7.240620799999999;27.817001342773438;1673373781.1143;-18.29615020751953;-2.2803587913513184;88.6990966796875
135;1673373781.302691;47.1306425;7.240620799999999;28.202001571655273;1673373781.3223712;-17.924530029296875;0.8000507950782776;88.07855987548828
136;1673373781.5219924;47.1306424;7.2406207;28.590002059936523;1673373781.5356567;-18.109413146972656;2.218656301498413;87.74472045898438
137;1673373781.7163749;47.1306423;7.2406207;28.977001190185547;1673373781.7310307;-17.962705612182617;-1.9563720226287842;88.43704986572266
138;1673373781.9139686;47.1306423;7.2406207;29.365001678466797;1673373781.926687;-18.216442108154297;-0.22128652036190033;88.21282196044922
139;1673373782.0966513;47.1306424;7.2406206;29.75400161743164;1673373782.1112914;-18.026004791259766;2.9366700649261475;87.52671813964844
140;1673373782.2997246;47.1306424;7.2406206;30.145002365112305;1673373782.3174558;-18.199642181396484;-1.2762705087661743;88.39014434814453
141;1673373782.5048745;47.1306424;7.2406204999999995;30.527002334594727;1673373782.519514;-18.345922470092773;-0.7750130295753479;88.38931274414062
142;1673373782.6984525;47.1306424;7.2406204999999995;30.91400146484375;1673373782.7121227;-18.240060806274414;3.4731409549713135;87.30453491210938
143;1673373782.8920572;47.1306423;7.2406206;31.306001663208008;1673373782.9076734;-18.152854919433594;-0.46221664547920227;88.15199279785156
144;1673373783.0863128;47.1306423;7.2406206;31.700000762939453;1673373783.101057;-18.218103408813477;-1.427910566329956;88.44178771972656
145;1673373783.2833815;47.1306424;7.2406206;32.09600067138672;1673373783.299659;-18.19734764099121;3.306696891784668;87.39551544189453
146;1673373783.472829;47.1306424;7.2406206;32.492000579833984;1673373783.487755;-18.118444442749023;0.2673856317996979;88.02741241455078
147;1673373783.6916301;47.1306424;7.2406206;32.88600158691406;1673373783.7072413;-18.05876350402832;-1.8447637557983398;88.63114929199219
148;1673373783.8886795;47.1306424;7.2406206;33.26900100708008;1673373783.9038537;-18.21671485900879;2.3894245624542236;87.76144409179688
149;1673373784.127781;47.1306424;7.2406206;33.65400314331055;1673373784.1414447;-18.169559478759766;0.9683724045753479;88.04357147216797
150;1673373784.3232443;47.1306423;7.2406206;34.044002532958984;1673373784.3378985;-18.278766632080078;-2.5525546073913574;88.78653717041016
151;1673373784.5042307;47.1306425;7.2406206;34.43800354003906;1673373784.5188708;-18.06345558166504;2.5597410202026367;87.72515869140625
152;1673373784.7014964;47.130642599999995;7.2406207;34.83700180053711;1673373784.7151616;-18.054561614990234;1.8775640726089478;87.83380889892578
153;1673373784.9007483;47.130642599999995;7.2406207;35.23500061035156;1673373784.9144132;-18.113378524780273;-2.018702745437622;88.7137680053711
154;1673373785.0922604;47.130642599999995;7.2406206;35.62300109863281;1673373785.1079662;-18.11623764038086;1.7519482374191284;87.81980895996094
155;1673373785.2882204;47.1306425;7.2406206;36.01900100708008;1673373785.300474;-18.13664436340332;1.8474085330963135;87.69699096679688
156;1673373785.47573;47.1306425;7.2406206;36.4170036315918;1673373785.4904695;-18.19906997680664;-2.3195960521698;88.71519470214844
157;1673373785.7106695;47.130642599999995;7.2406204999999995;36.81500244140625;1673373785.7272625;-18.246623992919922;1.7050541639328003;87.9775390625
158;1673373785.9088187;47.130642699999996;7.2406204999999995;37.21000289916992;1673373785.924431;-18.089271545410156;3.091723918914795;87.53294372558594
159;1673373786.1039994;47.1306428;7.2406204999999995;37.60600280761719;1673373786.119735;-18.17570686340332;-1.484043836593628;88.3875503540039
160;1673373786.304783;47.130642699999996;7.2406204999999995;37.999000549316406;1673373786.3213813;-18.096778869628906;0.9216366410255432;87.87488555908203
161;1673373786.511626;47.130642699999996;7.2406204999999995;38.38100051879883;1673373786.527242;-18.464067459106445;3.1262595653533936;87.34715270996094
162;1673373786.7034035;47.130642699999996;7.2406204999999995;38.7660026550293;1673373786.7190194;-18.113168716430664;-1.3126362562179565;88.50135040283203
163;1673373786.901879;47.130642699999996;7.2406204;39.15500259399414;1673373786.9184706;-18.30573081970215;0.1833658367395401;88.20783233642578
164;1673373787.1108723;47.1306428;7.2406204;39.54900360107422;1673373787.1264794;-18.285837173461914;3.7632462978363037;87.36418914794922
165;1673373787.311856;47.1306429;7.2406204;39.94200134277344;1673373787.3255394;-18.340774536132812;-0.8474625945091248;88.4610366821289
166;1673373787.5045667;47.1306428;7.2406204;40.33700180053711;1673373787.5207243;-18.2028751373291;-0.605121910572052;88.43203735351562
167;1673373787.7161357;47.130642699999996;7.2406204;40.72500228881836;1673373787.7297785;-18.349367141723633;3.5666518211364746;87.38212585449219
168;1673373787.9268363;47.130642699999996;7.2406204;41.12000274658203;1673373787.9385562;-18.19892120361328;-0.17308126389980316;88.05257415771484
169;1673373788.1299984;47.130642699999996;7.2406204;41.5160026550293;1673373788.1465895;-18.310407638549805;-1.1480646133422852;88.41691589355469
170;1673373788.3328264;47.1306428;7.2406204;41.915000915527344;1673373788.3464913;-18.151857376098633;3.366766929626465;87.50210571289062
171;1673373788.5162435;47.1306428;7.2406204;42.31500244140625;1673373788.527956;-18.20977783203125;1.2578017711639404;87.82935333251953
172;1673373788.6922383;47.130642699999996;7.2406203;42.71600341796875;1673373788.7069314;-18.21158218383789;-1.5605707168579102;88.74859619140625
173;1673373788.888473;47.130642699999996;7.2406203;43.1140022277832;1673373788.9032218;-18.42041015625;2.9394373893737793;87.73320770263672
174;1673373789.1008248;47.1306428;7.2406201999999995;43.50100326538086;1673373789.115451;-18.13654327392578;1.1240904331207275;87.87564086914062
175;1673373789.2901416;47.1306428;7.2406201999999995;43.89200210571289;1673373789.307583;-18.59502601623535;-1.6503123044967651;88.62794494628906
176;1673373789.4949598;47.1306428;7.2406201999999995;44.28600311279297;1673373789.5106142;-18.29673194885254;2.601102352142334;87.76274871826172
177;1673373789.6899967;47.1306429;7.2406201999999995;44.682003021240234;1673373789.704194;-18.56242561340332;2.357606887817383;87.79155731201172
178;1673373789.8972878;47.1306428;7.2406201999999995;45.079002380371094;1673373789.9105258;-18.375028610229492;-1.4884724617004395;88.61458587646484
179;1673373790.1043274;47.130642699999996;7.2406201999999995;45.47900390625;1673373790.119944;-18.42348289489746;1.677515983581543;87.81218719482422
180;1673373790.301821;47.130642699999996;7.2406201999999995;45.86900329589844;1673373790.318663;-18.253137588500977;2.563112497329712;87.53119659423828
181;1673373790.5039198;47.130642599999995;7.2406203;46.268001556396484;1673373790.5195289;-18.307146072387695;-1.8036359548568726;88.70378112792969
182;1673373790.7083704;47.130642599999995;7.2406203;46.672000885009766;1673373790.7230027;-18.26865577697754;1.197949767112732;87.95962524414062
183;1673373790.900421;47.130642699999996;7.2406203;47.07500076293945;1673373790.9160585;-18.232412338256836;3.2022461891174316;87.40731811523438
184;1673373791.126856;47.130642599999995;7.2406203;47.47700119018555;1673373791.1415126;-18.138242721557617;-1.7321875095367432;88.60818481445312
185;1673373791.3391602;47.130642599999995;7.2406203;47.87600326538086;1673373791.3547816;-18.354717254638672;-0.0536888986825943;88.31968688964844
186;1673373791.5243545;47.130642699999996;7.2406201999999995;48.25700378417969;1673373791.5381258;-18.984699249267578;3.981506586074829;87.61589050292969
187;1673373791.7033916;47.130642699999996;7.2406201;48.58000183105469;1673373791.7222245;-18.45372772216797;-0.9721444845199585;88.38526916503906
188;1673373791.9076195;47.130642699999996;7.240619799999999;48.85900115966797;1673373791.9232411;-18.459901809692383;0.7473518252372742;88.25443267822266
189;1673373792.1252086;47.1306428;7.2406196;49.09800338745117;1673373792.1378965;-18.489959716796875;3.9004416465759277;87.45262145996094
190;1673373792.311089;47.130642699999996;7.2406193;49.301002502441406;1673373792.3266997;-18.485570907592773;0.5058871507644653;88.14695739746094
191;1673373792.5116923;47.1306425;7.2406185999999995;49.467002868652344;1673373792.526281;-0.8837818503379822;-6.033552169799805;85.33424377441406
192;1673373792.7117288;47.130642699999996;7.2406165;49.60400390625;1673373792.72736;18.636802673339844;-26.437768936157227;70.5033187866211
193;1673373792.9060938;47.1306438;7.240611299999999;49.689002990722656;1673373792.92171;9.136096000671387;-30.99272918701172;63.68265151977539
194;1673373793.108326;47.130646;7.2406033;49.7660026550293;1673373793.1219711;-7.244340896606445;-29.412029266357422;53.90726089477539
195;1673373793.3085208;47.130649399999996;7.2405935999999995;49.840003967285156;1673373793.3233204;-18.14031982421875;-20.96205711364746;43.49267578125
196;1673373793.5081854;47.1306541;7.2405824999999995;49.913002014160156;1673373793.522826;-27.256006240844727;-30.49615478515625;32.93607711791992
197;1673373793.7112653;47.1306606;7.240569499999999;49.98100280761719;1673373793.725906;-39.52927017211914;-36.75821304321289;23.580846786499023
198;1673373793.8997025;47.130669499999996;7.240553599999999;50.01900100708008;1673373793.9173129;-48.22804260253906;-36.088035583496094;11.323888778686523
199;1673373794.107825;47.1306807;7.240534299999999;50.0410041809082;1673373794.1224794;-49.848690032958984;-33.41188430786133;-0.47161248326301575
200;1673373794.3075166;47.130693799999996;7.240511199999999;50.0420036315918;1673373794.3221397;-51.79924774169922;-28.677759170532227;-8.289814949035645
201;1673373794.5007226;47.130708299999995;7.2404847;50.02000427246094;1673373794.5140672;-53.23012924194336;-20.079544067382812;-15.811639785766602
202;1673373794.6948702;47.130724099999995;7.2404556;49.983001708984375;1673373794.7110302;-52.19071960449219;-9.905196189880371;-24.632457733154297
203;1673373794.91168;47.1307409;7.240424399999999;49.93300247192383;1673373794.9292428;-52.84959030151367;-2.567972183227539;-32.30232620239258
204;1673373795.1220036;47.1307584;7.2403922;49.7910041809082;1673373795.141876;-44.212528228759766;3.2808752059936523;-37.91298294067383
205;1673373795.3520582;47.130775799999995;7.2403599;49.310001373291016;1673373795.364078;-17.254539489746094;4.970973014831543;-39.435489654541016
206;1673373795.5282655;47.130792799999995;7.2403281999999995;48.44400405883789;1673373795.5429976;30.81601905822754;4.0136823654174805;-38.41035842895508
207;1673373795.7240474;47.130809899999996;7.2402961999999995;47.163002014160156;1673373795.7401392;88.85550689697266;-16.054170608520508;-54.2454719543457
208;1673373795.9200096;47.1308272;7.240264;45.51100158691406;1673373795.9319534;45.93963623046875;179.0060577392578;145.84066772460938
209;1673373796.1239638;47.1308443;7.2402318999999995;43.51300048828125;1673373796.139232;27.76069450378418;174.61865234375;145.09034729003906
210;1673373796.3169532;47.1308611;7.2402001;41.15700149536133;1673373796.3309982;36.83639144897461;170.72744750976562;144.93072509765625
211;1673373796.5141141;47.1308776;7.2401687;38.45000076293945;1673373796.5271218;74.32096099853516;149.11288452148438;125.50653839111328
212;1673373796.7046459;47.1308941;7.2401374999999994;35.406002044677734;1673373796.719112;38.095550537109375;5.696169853210449;-19.437528610229492
213;1673373796.9178483;47.1309105;7.2401063;31.947002410888672;1673373796.9369652;-28.057735443115234;5.011436939239502;-26.858211517333984
214;1673373797.1834216;47.1309265;7.2400755;28.113000869750977;1673373797.1978838;-63.23366165161133;13.5458984375;-36.1810417175293
215;1673373797.370853;47.1309421;7.240044999999999;23.96700096130371;1673373797.386811;-58.03377914428711;15.986751556396484;-36.87557601928711
216;1673373797.5520384;47.1309575;7.240014899999999;19.496000289916992;1673373797.567073;-11.94852352142334;9.207093238830566;-26.576210021972656
217;1673373797.7680717;47.1309724;7.2399849;14.635000228881836;1673373797.7828019;56.73804473876953;10.286701202392578;-15.008563041687012
218;1673373797.9454029;47.1309876;7.2399549;9.410000801086426;1673373797.9580646;78.46385192871094;154.32305908203125;135.55526733398438
219;1673373798.1240778;47.131002599999995;7.2399249;3.873000144958496;1673373798.137922;83.84979248046875;126.57247161865234;110.34957122802734
220;1673373798.3201823;47.131017199999995;7.2399017;-0.07600000500679016;1673373798.338184;-34.667724609375;-0.20157285034656525;-19.226478576660156
221;1673373798.5538204;47.1310192;7.2399019;0.32500001788139343;1673373798.5669668;-20.63481903076172;-158.3405303955078;148.38104248046875
222;1673373798.793882;47.131017899999996;7.239903399999999;0.37700000405311584;1673373798.8059034;77.10884094238281;-41.641082763671875;-73.825927734375
223;1673373798.9712603;47.1310176;7.2399043999999995;0.04000000283122063;1673373798.9841516;-36.1646614074707;0.7467818260192871;-22.864389419555664
224;1673373799.188134;47.1310131;7.239908;0.281000018119812;1673373799.200936;-85.77501678466797;102.28926849365234;-135.8664093017578
225;1673373799.3882422;47.1310103;7.2399108;0.35100001096725464;1673373799.4014547;-53.73128128051758;172.97792053222656;148.03639221191406
226;1673373799.5650592;47.1310073;7.2399141;0.31200000643730164;1673373799.5790725;-8.338560104370117;175.52886962890625;142.99359130859375
227;1673373799.785855;47.1310092;7.2399176999999995;0.29600000381469727;1673373799.7999175;8.657965660095215;173.24642944335938;141.22647094726562
228;1673373799.9762115;47.131021999999994;7.2399192;0.4350000321865082;1673373799.9921024;10.322721481323242;172.469482421875;139.85789489746094
229;1673373800.1480086;47.1310315;7.2399119999999995;0.5430000424385071;1673373800.163024;10.849453926086426;172.7891387939453;140.61666870117188
230;1673373800.3370013;47.131038;7.2399040999999995;0.6030000448226929;1673373800.3522382;10.984856605529785;172.89437866210938;140.99197387695312
231;1673373800.5240178;47.131042099999995;7.239897699999999;0.628000020980835;1673373800.5369062;10.951167106628418;172.84625244140625;141.1424102783203
232;1673373800.7069602;47.1310454;7.239894;0.6780000329017639;1673373800.7213674;10.898235321044922;172.7898406982422;141.2011260986328
233;1673373800.9048638;47.131047099999996;7.2398906;0.6820000410079956;1673373800.9192004;10.716141700744629;172.8790740966797;141.3336639404297
234;1673373801.1169052;47.1310481;7.239887899999999;0.6600000262260437;1673373801.1315968;10.503988265991211;172.91964721679688;141.4206085205078
235;1673373801.308182;47.131051299999996;7.2398853999999995;0.6330000162124634;1673373801.3248918;10.544488906860352;172.8376922607422;141.40614318847656
236;1673373801.5472744;47.1310559;7.239883099999999;0.6110000014305115;1673373801.5600798;10.571657180786133;172.7352294921875;141.4119110107422
237;1673373801.736118;47.1310615;7.2398808;0.593000054359436;1673373801.7480304;10.545805931091309;172.62318420410156;141.3983612060547
238;1673373801.9197812;47.131067599999994;7.2398785;0.5770000219345093;1673373801.93218;10.578343391418457;172.4397430419922;141.41038513183594
239;1673373802.1270583;47.131074399999996;7.239876499999999;0.5750000476837158;1673373802.1414597;10.562804222106934;172.3501739501953;141.40777587890625
240;1673373802.327968;47.131081099999996;7.239874299999999;0.5740000009536743;1673373802.344412;10.579919815063477;172.2137908935547;141.403076171875
241;1673373802.531033;47.131087699999995;7.239872;0.5680000185966492;1673373802.544137;10.543505668640137;172.112548828125;141.41162109375
242;1673373802.7182548;47.131093799999995;7.239869499999999;0.562000036239624;1673373802.732112;10.466621398925781;171.97958374023438;141.3976593017578
243;1673373802.9260979;47.1310995;7.2398669;0.5570000410079956;1673373802.9391265;10.338205337524414;171.89015197753906;141.39756774902344
244;1673373803.1791599;47.1310965;7.2398663;0.6780000329017639;1673373803.1901474;10.008854866027832;171.91639709472656;141.69850158691406
245;1673373803.3407652;47.1311038;7.2398639;0.6720000505447388;1673373803.3541386;9.953598976135254;171.74607849121094;141.68194580078125
246;1673373803.5492804;47.131108999999995;7.2398615;0.6640000343322754;1673373803.5640013;9.792619705200195;171.72857666015625;141.68344116210938
247;1673373803.7518668;47.1311128;7.239859;0.6650000214576721;1673373803.7679398;9.654895782470703;171.6153564453125;141.65968322753906
248;1673373803.9510508;47.1311153;7.2398565999999995;0.6710000038146973;1673373803.9639106;9.536275863647461;171.5196075439453;141.63558959960938
249;1673373804.1530192;47.1311219;7.239853999999999;0.675000011920929;1673373804.1650438;9.484282493591309;171.3857879638672;141.64625549316406
250;1673373804.3453934;47.131130899999995;7.2398511999999995;0.6780000329017639;1673373804.358245;9.454566955566406;171.23484802246094;141.63473510742188
251;1673373804.569952;47.1311416;7.2398482;0.6770000457763672;1673373804.5857515;9.450029373168945;171.052978515625;141.6419677734375
252;1673373804.755983;47.131153499999996;7.2398451999999995;0.6700000166893005;1673373804.7670097;9.452162742614746;170.88259887695312;141.63571166992188
253;1673373804.9270399;47.1311663;7.2398422;0.6640000343322754;1673373804.942951;9.452373504638672;170.7202606201172;141.62318420410156
254;1673373805.1279762;47.1311799;7.239839099999999;0.656000018119812;1673373805.1430883;9.447413444519043;170.56298828125;141.6276397705078
255;1673373805.3190582;47.1311943;7.2398359999999995;0.6850000619888306;1673373805.332063;9.434002876281738;170.42259216308594;141.63162231445312
256;1673373805.5112388;47.131209299999995;7.2398329;0.6570000052452087;1673373805.5260184;9.445754051208496;170.3565216064453;141.6505584716797
257;1673373805.7550693;47.131225;7.239829899999999;0.6170000433921814;1673373805.770144;9.442580223083496;170.17124938964844;141.6814422607422
258;1673373805.9429622;47.131241499999994;7.239827;0.5570000410079956;1673373805.954898;9.41209888458252;169.9625244140625;141.70291137695312
