;pos_time;latitude;longitude;altitude;alt_time;pitch;roll;yaw
0;1673373898.488405;47.1306425;7.2406197;-0.017000000923871994;1673373898.6507003;-0.0626753494143486;-0.6191855669021606;90.45647430419922
1;1673373898.6888373;47.1306425;7.2406196;-0.018000001087784767;1673373898.8547702;0.18283651769161224;-0.4745798110961914;90.3465576171875
2;1673373898.8908815;47.1306425;7.2406196;-0.017000000923871994;1673373899.0511758;0.2632628381252289;-0.5033242106437683;90.56968688964844
3;1673373899.0902166;47.1306425;7.2406196;-0.020000001415610313;1673373899.2564833;-0.0860014483332634;-0.5963581204414368;90.32759857177734
4;1673373899.2958117;47.1306425;7.2406196;-0.02200000174343586;1673373899.4723315;-0.04595739394426346;-0.33002373576164246;90.57672882080078
5;1673373899.512348;47.1306425;7.2406197;-0.02500000037252903;1673373899.6810443;-0.09810961037874222;0.013246633112430573;90.3570327758789
6;1673373899.719443;47.1306425;7.2406197;-0.02800000086426735;1673373899.8721788;0.08869722485542297;0.23899367451667786;90.2528305053711
7;1673373899.9083114;47.1306425;7.2406197;-0.032999999821186066;1673373900.0648859;-0.11807560920715332;-0.014562367461621761;90.42943572998047
8;1673373900.1021645;47.1306425;7.2406197;-0.03400000184774399;1673373900.256335;0.14938893914222717;0.14621129631996155;90.38784790039062
9;1673373900.289924;47.1306424;7.2406197;-0.03400000184774399;1673373900.4554641;0.17021428048610687;0.10711780935525894;90.24693298339844
10;1673373900.4954746;47.1306424;7.2406197;0.0;1673373900.6598337;0.09699379652738571;-0.011428802274167538;90.55657196044922
11;1673373900.6998494;47.1306424;7.240619799999999;-0.004000000189989805;1673373900.858904;0.05910276249051094;0.19292744994163513;90.2515869140625
12;1673373900.8959785;47.1306424;7.2406198999999996;-0.007000000216066837;1673373901.0582223;-0.04453190788626671;0.01709870435297489;90.3620376586914
13;1673373901.0982673;47.1306424;7.24062;-0.009000000543892384;1673373901.267285;-0.08709634840488434;0.13624651730060577;90.39240264892578
14;1673373901.2996533;47.1306424;7.2406201;-0.01100000087171793;1673373901.457629;-0.05538526549935341;0.0019106377149000764;90.43923950195312
15;1673373901.4937093;47.1306424;7.2406201;-0.01100000087171793;1673373901.6546285;0.17478510737419128;0.38044261932373047;90.42445373535156
16;1673373901.691992;47.1306425;7.2406201;-0.012000000104308128;1673373901.8545725;0.2909950911998749;0.4357045888900757;90.53627014160156
17;1673373901.89962;47.1306425;7.2406201;-0.012000000104308128;1673373902.0636816;0.0851210430264473;0.23863345384597778;90.46859741210938
18;1673373902.1006262;47.130642599999995;7.2406201;0.0010000000474974513;1673373902.2585974;0.3072960376739502;0.13940079510211945;90.33564758300781
19;1673373902.2924576;47.130642599999995;7.2406201;0.0010000000474974513;1673373902.466889;0.22514298558235168;0.8140493631362915;90.6376953125
20;1673373902.505646;47.130642599999995;7.2406201;0.003000000026077032;1673373902.6705093;0.6572021245956421;-0.013462867587804794;90.81819152832031
21;1673373902.704552;47.130642599999995;7.2406201;0.004000000189989805;1673373902.8694854;2.209120988845825;0.7859755754470825;90.57502746582031
22;1673373902.906505;47.130642599999995;7.2406201;0.007000000216066837;1673373903.0670538;3.48506498336792;0.26223257184028625;90.58934020996094
23;1673373903.1046789;47.130642599999995;7.24062;0.009000000543892384;1673373903.2726083;5.053610801696777;0.7623462080955505;90.59521484375
24;1673373903.3071785;47.130642599999995;7.2406198999999996;0.014000000432133675;1673373903.4945903;7.283417224884033;-0.09872748702764511;90.29063415527344
25;1673373903.528068;47.1306425;7.240619799999999;0.018000001087784767;1673373903.6997347;-0.7857924699783325;-0.8644658923149109;89.189208984375
26;1673373903.7351804;47.1306425;7.2406187;0.003000000026077032;1673373903.8948488;-3.274451494216919;-0.4988399147987366;89.8906478881836
27;1673373903.9306693;47.1306425;7.2406163999999995;0.00800000037997961;1673373904.0791168;-9.137965202331543;0.148000106215477;90.76815032958984
28;1673373904.1175947;47.1306424;7.2406131;0.017000000923871994;1673373904.2656903;-14.173906326293945;1.6325678825378418;90.66007232666016
29;1673373904.298736;47.1306423;7.2406089;0.03200000151991844;1673373904.4659138;-15.952811241149902;-0.5058116316795349;91.25822448730469
30;1673373904.5056748;47.1306422;7.240603999999999;0.052000001072883606;1673373904.6566713;-16.521039962768555;-1.5202994346618652;91.38134765625
31;1673373904.6935496;47.130641999999995;7.2405985;0.07600000500679016;1673373904.8525062;-17.818750381469727;0.017407657578587532;90.83909606933594
32;1673373904.8934581;47.1306419;7.240592599999999;0.10300000756978989;1673373905.070577;-19.488494873046875;-0.07440272718667984;90.74748992919922
33;1673373905.1096122;47.1306417;7.2405864;0.13500000536441803;1673373905.2863731;-21.27142333984375;-1.7875298261642456;91.095458984375
34;1673373905.317638;47.130641499999996;7.2405801;0.1680000126361847;1673373905.4752855;-23.260862350463867;-0.8357231616973877;90.73849487304688
35;1673373905.512918;47.1306413;7.240573899999999;0.20600001513957977;1673373905.671896;-25.276586532592773;-0.670478880405426;90.58781433105469
36;1673373905.7070682;47.1306411;7.240567899999999;0.24400001764297485;1673373905.879247;-27.385149002075195;-1.5783683061599731;90.8263168334961
37;1673373905.9256608;47.130641;7.2405623;0.28300002217292786;1673373906.0962675;-29.521202087402344;-1.275427222251892;90.6639404296875
38;1673373906.133997;47.130640799999995;7.2405574999999995;0.3230000138282776;1673373906.29548;-31.659807205200195;-0.9777821898460388;90.49159240722656
39;1673373906.3282619;47.130640799999995;7.240553299999999;0.3660000264644623;1673373906.472365;-33.83964538574219;-1.2945042848587036;90.53988647460938
40;1673373906.50462;47.1306407;7.24055;0.4140000343322754;1673373906.662943;-36.01232147216797;-1.7077735662460327;90.5852279663086
41;1673373906.7050345;47.1306407;7.2405477;0.46800002455711365;1673373906.935704;-38.186973571777344;-1.3132535219192505;90.36534881591797
42;1673373906.9778485;47.1306407;7.2405465;0.5250000357627869;1673373907.110917;-40.39839553833008;-1.2891072034835815;90.23545837402344
43;1673373907.149531;47.130640799999995;7.2405465;0.5840000510215759;1673373907.2742274;-42.63175964355469;-1.3856537342071533;90.29051971435547
44;1673373907.3035586;47.130640899999996;7.2405479999999995;0.6520000100135803;1673373907.450857;-44.81109619140625;-1.4022612571716309;90.28722381591797
45;1673373907.490856;47.130641;7.240551099999999;0.7200000286102295;1673373907.6433828;-46.96585464477539;-1.0659414529800415;89.99231719970703
46;1673373907.677693;47.1306412;7.2405555999999995;0.7920000553131104;1673373907.844101;-47.96122360229492;-0.9168895483016968;89.85464477539062
47;1673373907.8811886;47.130641399999995;7.2405617;0.8610000610351562;1673373908.062951;-43.43903350830078;-0.8230206370353699;89.75719451904297
48;1673373908.1079175;47.1306416;7.2405693;0.9290000200271606;1673373908.2653692;-38.43440628051758;-0.4743154048919678;89.72570037841797
49;1673373908.2995296;47.1306418;7.2405776;0.9950000643730164;1673373908.4674017;-32.55717849731445;-0.4871458113193512;89.7184066772461
50;1673373908.4996076;47.130641999999995;7.240585899999999;1.058000087738037;1673373908.661064;-27.062944412231445;-0.23975718021392822;89.66219329833984
51;1673373908.6952257;47.1306422;7.2405935999999995;1.1130000352859497;1673373908.8616133;-22.781644821166992;-0.35826900601387024;89.66798400878906
52;1673373908.9026508;47.1306423;7.2406003;1.1680001020431519;1673373909.0678313;-19.973451614379883;0.02406751550734043;89.5991439819336
53;1673373909.1079962;47.1306424;7.2406058;1.224000096321106;1673373909.271211;-19.16183090209961;-0.18077054619789124;89.75325012207031
54;1673373909.3093865;47.1306425;7.2406099;1.284000039100647;1673373909.467424;-19.926971435546875;-0.5647108554840088;89.91570281982422
55;1673373909.5037587;47.1306425;7.2406127;1.340000033378601;1673373909.6647444;-21.52239418029785;-0.4301249384880066;89.79116821289062
56;1673373909.7029681;47.1306424;7.240614399999999;1.4010000228881836;1673373909.8602395;-23.687084197998047;-0.17443332076072693;89.61800384521484
57;1673373909.9002368;47.1306424;7.2406153;1.475000023841858;1673373910.0665786;-25.83167839050293;-1.6078051328659058;90.0990219116211
58;1673373910.0997708;47.1306423;7.2406155;1.562000036239624;1673373910.2782805;-27.018280029296875;-2.7318127155303955;93.65306091308594
59;1673373910.3164237;47.1306423;7.2406155;1.6640000343322754;1673373910.486336;-27.856428146362305;0.5183185338973999;92.43733978271484
60;1673373910.5287411;47.1306423;7.2406155;1.7820000648498535;1673373910.6748042;-28.892715454101562;-1.4317439794540405;93.1598129272461
61;1673373910.7121637;47.1306423;7.2406155;1.9130001068115234;1673373910.875536;-29.393529891967773;-2.534113645553589;93.7666015625
62;1673373910.9117177;47.1306424;7.240615699999999;2.059000015258789;1673373911.0720813;-29.474632263183594;0.599916398525238;92.54132843017578
63;1673373911.1130798;47.1306423;7.2406160999999996;2.2210001945495605;1673373911.2735033;-29.107009887695312;-1.3929805755615234;93.2061996459961
64;1673373911.308719;47.1306423;7.2406166;2.3960001468658447;1673373911.4779031;-28.574230194091797;-2.5872702598571777;93.48571014404297
65;1673373911.5130887;47.1306422;7.2406172;2.5870001316070557;1673373911.6813796;-28.261018753051758;0.8329154253005981;92.30636596679688
66;1673373911.7156851;47.1306423;7.2406178;2.7790000438690186;1673373911.8886435;-27.553537368774414;-0.32670071721076965;92.93669128417969
67;1673373911.9274602;47.1306424;7.2406185;2.9720001220703125;1673373912.090763;-26.85557746887207;-1.9024797677993774;93.49043273925781
68;1673373912.1313894;47.1306425;7.2406191;3.1650002002716064;1673373912.28808;-26.39463996887207;1.0060176849365234;92.51090240478516
69;1673373912.3237526;47.1306425;7.2406197;3.3560001850128174;1673373912.4822958;-25.999998092651367;0.0592164546251297;92.7618408203125
70;1673373912.5185997;47.1306425;7.24062;3.5480000972747803;1673373912.6800506;-26.404932022094727;-2.4695253372192383;93.66999816894531
71;1673373912.7181842;47.1306425;7.2406201999999995;3.739000082015991;1673373912.8752453;-26.234079360961914;0.45366817712783813;92.63565063476562
72;1673373912.914294;47.1306425;7.2406201999999995;3.92900013923645;1673373913.085222;-26.759946823120117;0.8003799915313721;92.49272155761719
73;1673373913.1209292;47.1306425;7.2406201999999995;4.118000030517578;1673373913.2846942;-26.734619140625;-2.4112401008605957;93.41607666015625
74;1673373913.3234005;47.1306425;7.2406201999999995;4.310000419616699;1673373913.4891486;-27.153226852416992;-0.36550605297088623;92.76988983154297
75;1673373913.5292943;47.1306423;7.2406201;4.50100040435791;1673373913.6861243;-27.082157135009766;0.2815747559070587;92.31689453125
76;1673373913.7247314;47.1306422;7.2406201;4.694000244140625;1673373913.8939986;-27.41297149658203;-3.4464190006256104;93.6051254272461
77;1673373913.9247987;47.1306422;7.24062;4.889000415802002;1673373914.0904088;-27.314550399780273;-0.9668790698051453;92.92875671386719
78;1673373914.1330793;47.130642099999996;7.24062;5.087000370025635;1673373914.2820733;-27.792705535888672;0.44422826170921326;92.40526580810547
79;1673373914.3192756;47.1306422;7.2406198999999996;5.281000137329102;1673373914.4680483;-27.4377384185791;-2.7510297298431396;93.536376953125
80;1673373914.4995618;47.1306422;7.2406198999999996;5.475000381469727;1673373914.6522467;-27.625032424926758;-1.1419626474380493;92.968017578125
81;1673373914.6903162;47.1306422;7.2406198999999996;5.674000263214111;1673373914.86739;-27.426551818847656;0.7185115218162537;92.3034896850586
82;1673373914.9036198;47.1306422;7.2406198999999996;5.874000072479248;1673373915.0781424;-27.573131561279297;-2.3453423976898193;93.39518737792969
83;1673373915.1172652;47.1306423;7.2406198999999996;6.068000316619873;1673373915.3110871;-27.27049446105957;-1.3875535726547241;93.24816131591797
84;1673373915.3482292;47.1306424;7.24062;6.260000228881836;1673373915.514961;-27.614459991455078;1.259943962097168;92.3743667602539
85;1673373915.5537586;47.1306424;7.24062;6.449000358581543;1673373915.7116091;-27.236526489257812;-1.7422022819519043;93.25679016113281
86;1673373915.7463143;47.1306425;7.2406201;6.641000270843506;1673373915.9111953;-27.61660385131836;-1.9972238540649414;93.4052734375
87;1673373915.9449925;47.1306424;7.2406201;6.830000400543213;1673373916.1164923;-27.2617130279541;0.7048699855804443;92.4054183959961
88;1673373916.1561077;47.1306423;7.2406201999999995;7.017000198364258;1673373916.3198104;-27.312349319458008;-1.439910888671875;93.09754943847656
89;1673373916.354502;47.1306423;7.2406203;7.211000442504883;1673373916.5102458;-27.214414596557617;-2.748398542404175;93.54991149902344
90;1673373916.5455172;47.1306424;7.2406203;7.404000282287598;1673373916.7038567;-27.36475944519043;0.747043251991272;92.38312530517578
91;1673373916.7322743;47.1306424;7.2406203;7.591000556945801;1673373916.880385;-27.257625579833984;-0.41351160407066345;92.80644226074219
92;1673373916.9194334;47.1306425;7.2406204;7.78000020980835;1673373917.0653899;-27.191139221191406;-2.7157185077667236;93.64470672607422
93;1673373917.1025262;47.1306425;7.2406204999999995;7.9710001945495605;1673373917.2705233;-27.047836303710938;0.7365591526031494;92.49687194824219
94;1673373917.306789;47.1306424;7.2406204999999995;8.166000366210938;1673373917.4803767;-27.234451293945312;-0.3176490366458893;92.69415283203125
95;1673373917.5165582;47.1306424;7.2406206;8.361000061035156;1673373917.6892905;-27.1346435546875;-2.6884138584136963;93.62138366699219
96;1673373917.7244303;47.1306425;7.2406206;8.559000015258789;1673373917.887666;-27.392147064208984;0.48891404271125793;92.61945343017578
97;1673373917.9179323;47.1306425;7.2406206;8.755000114440918;1673373918.0752811;-27.274354934692383;0.3149340748786926;92.60536193847656
98;1673373918.1074889;47.1306425;7.2406206;8.949000358581543;1673373918.26298;-27.408937454223633;-2.706373929977417;93.59474182128906
99;1673373918.3010683;47.1306424;7.2406206;9.141000747680664;1673373918.4674623;-27.382463455200195;-0.3369360566139221;92.72525787353516
100;1673373918.5035696;47.1306424;7.2406207;9.338000297546387;1673373918.6675205;-27.27349281311035;0.2200465202331543;92.4970932006836
101;1673373918.7052581;47.1306423;7.2406207;9.534000396728516;1673373918.8728635;-27.197044372558594;-2.7321810722351074;93.44963836669922
102;1673373918.9119203;47.1306423;7.240620799999999;9.735000610351562;1673373919.0663185;-27.22340965270996;-1.1261473894119263;93.00273895263672
103;1673373919.1043808;47.1306423;7.2406207;9.932000160217285;1673373919.2615094;-27.314830780029297;0.8545706272125244;92.40232849121094
104;1673373919.2956712;47.1306423;7.240620799999999;10.130000114440918;1673373919.459868;-27.686948776245117;-2.3960154056549072;93.26889038085938
105;1673373919.4940813;47.1306423;7.240621;10.381000518798828;1673373919.6593175;-32.72439193725586;-1.3142766952514648;93.07624816894531
106;1673373919.7003217;47.1306422;7.240621699999999;10.719000816345215;1673373919.8819635;-30.446386337280273;-0.020902063697576523;92.37149047851562
107;1673373919.9249084;47.1306422;7.240622999999999;11.098000526428223;1673373920.099186;-26.552282333374023;-1.8820743560791016;93.34049987792969
108;1673373920.130435;47.1306422;7.240624599999999;11.495000839233398;1673373920.299577;-24.09223175048828;-1.1418203115463257;93.270263671875
109;1673373920.3360476;47.1306422;7.2406258999999995;11.896000862121582;1673373920.4968414;-22.377408981323242;0.5713633894920349;92.57563781738281
110;1673373920.5319815;47.1306422;7.2406267;12.28700065612793;1673373920.6939538;-21.584678649902344;-1.7236144542694092;93.36947631835938
111;1673373920.7261665;47.1306422;7.240627099999999;12.672000885009766;1673373920.8971064;-21.702880859375;-1.5394502878189087;93.2459945678711
112;1673373920.9357045;47.1306422;7.2406269;13.044000625610352;1673373921.0933943;-22.726097106933594;0.8096215128898621;92.34497833251953
113;1673373921.1295047;47.1306422;7.2406264;13.402000427246094;1673373921.286975;-24.052818298339844;-1.6238884925842285;93.18978118896484
114;1673373921.3241165;47.1306422;7.240625499999999;13.747000694274902;1673373921.4924347;-25.34311294555664;-2.1501095294952393;93.38311767578125
115;1673373921.5325127;47.1306422;7.2406244;14.084000587463379;1673373921.68908;-26.6845703125;1.0923725366592407;92.33706665039062
116;1673373921.7252107;47.1306422;7.240623299999999;14.41300106048584;1673373921.886579;-27.539533615112305;-1.6335365772247314;93.04535675048828
117;1673373921.9226995;47.1306422;7.2406223999999995;14.747000694274902;1673373922.083158;-28.380300521850586;-2.622314929962158;93.49235534667969
118;1673373922.1231716;47.1306422;7.240621699999999;15.083001136779785;1673373922.307561;-28.41840171813965;0.6222370862960815;92.42208862304688
119;1673373922.3461893;47.1306422;7.2406213;15.428000450134277;1673373922.4991663;-28.484092712402344;-1.0582183599472046;92.93711853027344
120;1673373922.5343986;47.1306423;7.240621099999999;15.780000686645508;1673373922.6914442;-28.0587100982666;-2.2710793018341064;93.4941177368164
121;1673373922.7277849;47.1306424;7.2406212;16.135000228881836;1673373922.903064;-27.53125;0.3862985074520111;92.59003448486328
122;1673373922.94167;47.1306424;7.240621399999999;16.49700164794922;1673373923.0894213;-26.99721336364746;0.017285726964473724;92.70954132080078
123;1673373923.121648;47.1306424;7.2406216;16.860000610351562;1673373923.2795353;-26.688268661499023;-2.464975118637085;93.50972747802734
124;1673373923.3156517;47.1306424;7.2406217999999996;17.23200035095215;1673373923.5065327;-26.13749885559082;-0.009754674509167671;92.716064453125
125;1673373923.5424056;47.1306424;7.2406219;17.60500144958496;1673373923.711802;-26.1446590423584;0.25573602318763733;92.63836669921875
126;1673373923.7475765;47.1306425;7.2406220999999995;17.98000144958496;1673373923.911537;-25.82123565673828;-2.2992889881134033;93.53013610839844
127;1673373923.9523652;47.1306425;7.2406220999999995;18.350000381469727;1673373924.1197343;-26.07263946533203;-0.08990105241537094;92.87387084960938
128;1673373924.1545947;47.1306425;7.2406220999999995;18.718000411987305;1673373924.3153152;-25.979557037353516;0.7962984442710876;92.45514678955078
129;1673373924.35881;47.1306425;7.240622;19.08300018310547;1673373924.5099137;-26.422679901123047;-2.437946319580078;93.42239379882812
130;1673373924.544871;47.1306425;7.2406217999999996;19.45600128173828;1673373924.6947474;-26.238195419311523;-0.714911937713623;92.87909698486328
131;1673373924.7358937;47.1306425;7.240621699999999;19.832000732421875;1673373924.8754227;-26.636035919189453;1.0205230712890625;92.39888000488281
132;1673373924.9088757;47.1306425;7.2406216;20.207000732421875;1673373925.0749886;-26.570024490356445;-1.943270206451416;93.42162322998047
133;1673373925.1130502;47.130642599999995;7.2406215;20.58100128173828;1673373925.2940154;-26.728378295898438;-1.0155839920043945;93.19400787353516
134;1673373925.3351998;47.130642599999995;7.240621399999999;20.95800018310547;1673373925.4973059;-26.693462371826172;1.045135736465454;92.34339904785156
135;1673373925.533592;47.1306425;7.2406213;21.341001510620117;1673373925.6929035;-26.817317962646484;-1.6756210327148438;93.19927215576172
136;1673373925.7280488;47.1306425;7.2406212;21.71500015258789;1673373925.88363;-26.836257934570312;-1.8702467679977417;93.41846466064453
137;1673373925.924672;47.1306424;7.240621099999999;22.091001510620117;1673373926.092512;-26.847179412841797;0.8313619494438171;92.49160766601562
138;1673373926.130698;47.1306424;7.240621099999999;22.468000411987305;1673373926.2926335;-26.5543212890625;-1.3171274662017822;93.1208724975586
139;1673373926.3307676;47.1306424;7.240621099999999;22.84600067138672;1673373926.4976628;-26.77313995361328;-2.027376651763916;93.44832611083984
140;1673373926.5347936;47.1306424;7.240621;23.225000381469727;1673373926.6892073;-26.63086700439453;0.8752038478851318;92.45013427734375
141;1673373926.7233665;47.1306424;7.240621;23.606000900268555;1673373926.8902538;-26.804983139038086;-0.8919738531112671;92.85255432128906
142;1673373926.928319;47.1306423;7.240621;23.98200035095215;1673373927.0955334;-26.55971336364746;-2.3094193935394287;93.45896911621094
143;1673373927.13376;47.1306423;7.240621;24.36100196838379;1673373927.3158402;-26.61674690246582;0.6348916888237;92.53034973144531
144;1673373927.3476262;47.1306423;7.240621;24.7450008392334;1673373927.504451;-26.653688430786133;-0.5250909328460693;92.829833984375
145;1673373927.5417235;47.1306424;7.240621;25.12900161743164;1673373927.7074342;-26.732107162475586;-2.108591079711914;93.53804016113281
146;1673373927.7577682;47.1306424;7.240621;25.51500129699707;1673373927.909945;-26.58038902282715;0.552429735660553;92.6476058959961
147;1673373927.9431212;47.1306424;7.240621;25.9010009765625;1673373928.117226;-26.53362274169922;-0.0052800667472183704;92.73625183105469
148;1673373928.1542044;47.1306424;7.240621;26.286001205444336;1673373928.2943645;-26.75579071044922;-2.3651764392852783;93.64864349365234
149;1673373928.3296595;47.1306424;7.2406209;26.66200065612793;1673373928.4950125;-26.64411735534668;-0.2839634418487549;92.84420776367188
150;1673373928.5350394;47.1306425;7.2406209;27.040000915527344;1673373928.7023335;-26.91928482055664;0.4946986138820648;92.54792785644531
151;1673373928.7336054;47.1306425;7.2406209;27.420001983642578;1673373928.8997622;-26.508665084838867;-2.1924023628234863;93.3927001953125
152;1673373928.938803;47.1306425;7.2406209;27.8070011138916;1673373929.0993857;-26.761009216308594;-0.23513031005859375;92.90850067138672
153;1673373929.132586;47.1306425;7.2406209;28.196001052856445;1673373929.2871907;-26.60139274597168;0.5944129824638367;92.52617645263672
154;1673373929.3213499;47.1306425;7.2406209;28.586000442504883;1673373929.4683006;-26.817188262939453;-2.433366060256958;93.53479766845703
155;1673373929.5034342;47.1306424;7.240620799999999;28.968002319335938;1673373929.6713045;-26.751310348510742;-0.7168914675712585;93.00212860107422
156;1673373929.7122939;47.1306425;7.240620799999999;29.356000900268555;1673373929.8949065;-26.816333770751953;0.9574388861656189;92.42173767089844
157;1673373929.9330683;47.1306425;7.240620799999999;29.74700164794922;1673373930.1141038;-26.608959197998047;-1.7867246866226196;93.3829345703125
158;1673373930.1547937;47.130642599999995;7.240620799999999;30.13800048828125;1673373930.3399258;-26.750274658203125;-1.1834930181503296;93.23529052734375
159;1673373930.3765707;47.1306425;7.240620799999999;30.525001525878906;1673373930.5346437;-26.573415756225586;1.0497219562530518;92.5090103149414
160;1673373930.5855157;47.1306425;7.240620799999999;30.915000915527344;1673373930.7393448;-26.802000045776367;-1.3792563676834106;93.25206756591797
161;1673373930.7750056;47.130642599999995;7.2406207;31.303001403808594;1673373930.935039;-26.61571502685547;-1.596043348312378;93.37126922607422
162;1673373930.9717975;47.130642599999995;7.2406207;31.6820011138916;1673373931.14487;-26.923566818237305;1.3077714443206787;92.36990356445312
163;1673373931.1810644;47.130642599999995;7.2406207;32.06500244140625;1673373931.3540587;-26.628976821899414;-0.7794907093048096;93.01311492919922
164;1673373931.3882048;47.130642599999995;7.2406206;32.45100021362305;1673373931.5346947;-26.96427345275879;-1.928181529045105;93.52264404296875
165;1673373931.568037;47.130642599999995;7.2406204999999995;32.8380012512207;1673373931.723787;-26.761449813842773;1.006378173828125;92.5335464477539
166;1673373931.7680821;47.130642599999995;7.2406204999999995;33.224002838134766;1673373931.9006765;-26.75625991821289;-0.7709095478057861;93.03543090820312
167;1673373931.9280145;47.130642599999995;7.2406204999999995;33.612003326416016;1673373932.0726087;-26.7774658203125;-1.9733314514160156;93.49866485595703
168;1673373932.1068287;47.130642599999995;7.2406204999999995;33.99400329589844;1673373932.261403;-26.86298179626465;1.177559494972229;92.44621276855469
169;1673373932.2957883;47.130642599999995;7.2406204999999995;34.38300323486328;1673373932.4682982;-26.626544952392578;-0.1546226590871811;92.83967590332031
170;1673373932.5074053;47.130642599999995;7.2406204999999995;34.775001525878906;1673373932.7067788;-26.83565902709961;-1.9401558637619019;93.45578002929688
171;1673373932.7469645;47.130642599999995;7.2406204999999995;35.169002532958984;1673373932.911602;-26.675403594970703;0.6740775108337402;92.5433349609375
172;1673373932.9409585;47.130642599999995;7.2406204;35.56300354003906;1673373933.0961792;-26.70935821533203;-0.07355106621980667;92.72352600097656
173;1673373933.1284578;47.1306425;7.2406204;35.95900344848633;1673373933.2955809;-26.853816986083984;-2.1498894691467285;93.46803283691406
174;1673373933.3365688;47.130642599999995;7.2406204;36.35200119018555;1673373933.5263538;-26.819807052612305;0.28786173462867737;92.70614624023438
175;1673373933.5635638;47.1306425;7.2406203;36.73500061035156;1673373933.7511752;-26.990041732788086;0.5079072713851929;92.66393280029297
176;1673373933.7805345;47.1306425;7.2406203;37.12300109863281;1673373933.9390922;-26.941497802734375;-2.0917210578918457;93.40904998779297
177;1673373933.9728634;47.1306425;7.2406203;37.51300048828125;1673373934.1209974;-27.02916145324707;-0.3972220718860626;92.90377807617188
178;1673373934.1634958;47.1306424;7.2406201999999995;37.90300369262695;1673373934.3354375;-26.84079360961914;0.7656278014183044;92.41259765625
179;1673373934.3726747;47.1306424;7.2406203;38.29500198364258;1673373934.5454495;-26.869630813598633;-1.987448811531067;93.41450500488281
180;1673373934.5924094;47.1306424;7.2406203;38.691001892089844;1673373934.7356377;-26.689876556396484;-0.6153102517127991;93.1402816772461
181;1673373934.7762024;47.1306425;7.2406203;39.0780029296875;1673373934.9252279;-27.095897674560547;1.2676959037780762;92.53755950927734
182;1673373934.9609184;47.1306425;7.2406203;39.47100067138672;1673373935.1104424;-26.865497589111328;-1.4213322401046753;93.27269744873047
183;1673373935.1554291;47.1306425;7.2406201999999995;39.86800003051758;1673373935.3058722;-26.916927337646484;-1.176526427268982;93.21537780761719
184;1673373935.3367748;47.1306424;7.2406203;40.26400375366211;1673373935.4874454;-26.775312423706055;1.114616870880127;92.33385467529297
185;1673373935.5294566;47.1306424;7.2406203;40.66200256347656;1673373935.7090697;-26.82338523864746;-1.3099184036254883;93.18678283691406
186;1673373935.746329;47.1306424;7.2406203;41.05500030517578;1673373935.9154606;-26.720537185668945;-1.5335932970046997;93.37027740478516
187;1673373935.9544687;47.1306424;7.2406203;41.45000076293945;1673373936.1157005;-26.9388427734375;1.197292447090149;92.5186767578125
188;1673373936.144984;47.1306424;7.2406201999999995;41.83500289916992;1673373936.2993436;-26.679372787475586;-0.7751134037971497;93.0509033203125
189;1673373936.336447;47.1306424;7.2406201999999995;42.22500228881836;1673373936.4987974;-26.97701072692871;-1.836736798286438;93.42852783203125
190;1673373936.5388484;47.1306424;7.2406201999999995;42.61900329589844;1673373936.7041242;-26.756309509277344;1.0697940587997437;92.49761962890625
191;1673373936.736418;47.1306424;7.2406201999999995;43.0160026550293;1673373936.9076571;-26.937753677368164;-0.3938990533351898;92.94454956054688
192;1673373936.9497921;47.1306424;7.2406201999999995;43.41400146484375;1673373937.1303933;-26.730731964111328;-1.806362509727478;93.50513458251953
193;1673373937.1670837;47.1306424;7.2406201;43.810001373291016;1673373937.327767;-26.895322799682617;0.7130995392799377;92.64944458007812
194;1673373937.3615282;47.1306425;7.2406201;44.19700241088867;1673373937.5223129;-26.622087478637695;0.5460134744644165;92.66629028320312
195;1673373937.5576587;47.1306425;7.2406201;44.590003967285156;1673373937.7209146;-26.9243106842041;-2.0119869709014893;93.47837829589844
196;1673373937.7616796;47.1306425;7.2406201;44.983001708984375;1673373937.927509;-26.757471084594727;0.09812584519386292;92.8526840209961
197;1673373937.964282;47.1306425;7.2406201;45.374000549316406;1673373938.1624658;-26.8669490814209;1.1424907445907593;92.47066497802734
198;1673373938.1991127;47.1306425;7.24062;45.77100372314453;1673373938.3557017;-26.836294174194336;-1.8747978210449219;93.49420166015625
199;1673373938.3845577;47.1306425;7.24062;46.165000915527344;1673373938.517841;-26.83249855041504;-0.2583221197128296;92.97978210449219
200;1673373938.5530188;47.1306425;7.24062;46.56100082397461;1673373938.7278326;-26.88534164428711;1.208095669746399;92.45288848876953
201;1673373938.7645507;47.1306425;7.24062;46.95000076293945;1673373938.9232583;-26.943138122558594;-1.4026073217391968;93.31841278076172
202;1673373938.9613883;47.1306425;7.2406198999999996;47.34300231933594;1673373939.1205993;-26.87123680114746;-1.0120699405670166;93.29713439941406
203;1673373939.153791;47.1306424;7.2406198999999996;47.7400016784668;1673373939.3102512;-27.01561164855957;1.3951698541641235;92.36518859863281
204;1673373939.3444412;47.1306424;7.2406198999999996;48.130001068115234;1673373939.5104659;-27.494653701782227;-1.075049877166748;93.35111236572266
205;1673373939.5515385;47.1306425;7.2406197;48.47300338745117;1673373939.7091389;-27.236572265625;-1.0524131059646606;93.20445251464844
206;1673373939.7463768;47.1306425;7.240619499999999;48.77000045776367;1673373939.9207237;-27.67362403869629;0.946819543838501;92.55691528320312
207;1673373939.9550514;47.1306425;7.2406191;49.00800323486328;1673373940.105551;-28.339008331298828;-0.5282115340232849;93.07003021240234
208;1673373940.1406868;47.1306424;7.2406185999999995;49.21200180053711;1673373940.330969;-27.68064308166504;0.6410281658172607;92.83558654785156
209;1673373940.370588;47.1306424;7.2406181;49.38300323486328;1673373940.5914814;-7.843090534210205;-6.125637054443359;88.53021240234375
210;1673373940.6220033;47.1306424;7.240616999999999;49.52100372314453;1673373940.7700016;12.354013442993164;-22.23844337463379;73.41004180908203
211;1673373940.805362;47.130643;7.240613799999999;49.630001068115234;1673373940.9683642;-3.4973838329315186;-26.812530517578125;66.82884979248047
212;1673373941.0006146;47.1306446;7.2406073;49.71000289916992;1673373941.1476257;-16.770885467529297;-21.5247859954834;56.2548828125
213;1673373941.1843078;47.130647499999995;7.2405984;49.78700256347656;1673373941.3419993;-21.23827362060547;-24.66071128845215;47.389225006103516
214;1673373941.3797824;47.1306519;7.240587799999999;49.85300064086914;1673373941.535353;-29.49273109436035;-38.861549377441406;38.41386413574219
215;1673373941.5712378;47.1306575;7.240575;49.919002532958984;1673373941.7633438;-41.03395462036133;-43.58800506591797;27.915584564208984
216;1673373941.8051305;47.130665199999996;7.2405592;49.96000289916992;1673373941.9906552;-42.09891891479492;-37.677146911621094;14.661184310913086
217;1673373942.0191185;47.1306752;7.2405396;49.96800231933594;1673373942.1561267;-42.59744644165039;-32.8456916809082;7.053992748260498
218;1673373942.1888738;47.1306868;7.2405164;49.96800231933594;1673373942.3399959;-49.915443420410156;-28.2708683013916;-0.43615809082984924
219;1673373942.3919003;47.1307;7.2404896999999995;49.970001220703125;1673373942.5389957;-54.53778839111328;-17.768890380859375;-11.01422119140625
220;1673373942.5727632;47.1307147;7.2404604;49.97300338745117;1673373942.7326689;-54.745235443115234;-9.7604341506958;-19.652109146118164
221;1673373942.7688694;47.130731;7.240428199999999;49.94700241088867;1673373942.9260457;-23.225296020507812;-3.1214842796325684;-28.916505813598633
222;1673373942.963849;47.1307475;7.2403951;49.66400146484375;1673373943.1277027;26.892183303833008;-4.162215232849121;-34.99896240234375
223;1673373943.162876;47.130764;7.2403619;48.987003326416016;1673373943.3217916;82.54145812988281;-77.28752899169922;-109.4173355102539
224;1673373943.3581684;47.1307806;7.2403284999999995;47.9010009765625;1673373943.5090013;41.28281784057617;-169.93106079101562;157.9450225830078
225;1673373943.5411184;47.1307973;7.2402951;46.445003509521484;1673373943.706024;14.720634460449219;-173.6114959716797;153.39688110351562
226;1673373943.7432876;47.1308139;7.2402618;44.63500213623047;1673373943.901958;10.506399154663086;-172.3935546875;155.09014892578125
227;1673373943.9434705;47.130829999999996;7.2402291;42.441001892089844;1673373944.1147885;28.060943603515625;-166.30987548828125;161.14984130859375
228;1673373944.1546414;47.1308459;7.2401966;39.874000549316406;1673373944.327876;64.49716186523438;-123.17237091064453;-157.3255157470703
229;1673373944.3650625;47.130861499999995;7.2401643;36.95800018310547;1673373944.5348206;28.35337257385254;-16.241392135620117;-57.591251373291016
230;1673373944.5707963;47.1308772;7.2401317999999995;33.69200134277344;1673373944.735842;-39.157554626464844;7.059030532836914;-48.688194274902344
231;1673373944.7738736;47.1308928;7.2400996;30.01000213623047;1673373944.9387705;-75.93180847167969;28.189579010009766;-58.480316162109375
232;1673373944.9768107;47.130908;7.2400677;25.98200035095215;1673373945.1496286;-74.45747375488281;13.655526161193848;-37.50391387939453
233;1673373945.188669;47.130922899999995;7.240036;21.63300132751465;1673373945.3468947;-29.39329719543457;2.7208642959594727;-21.357032775878906
234;1673373945.3848493;47.130937599999996;7.2400044999999995;16.974000930786133;1673373945.5388315;46.262855529785156;6.506106376647949;-12.038741111755371
235;1673373945.571949;47.1309518;7.239973099999999;11.918000221252441;1673373945.7219465;75.0003890991211;146.34104919433594;131.48974609375
236;1673373945.759951;47.1309665;7.2399416;6.504000186920166;1673373945.9478629;68.49465942382812;144.7196807861328;134.38412475585938
237;1673373945.9790444;47.130981;7.2399102;0.800000011920929;1673373946.132901;-10.088953018188477;145.4173126220703;120.93994140625
238;1673373946.1768913;47.130995;7.2399052;0.45500001311302185;1673373946.3488827;-31.879770278930664;141.53440856933594;97.95445251464844
239;1673373946.3830342;47.1310071;7.2399056999999996;0.3680000305175781;1673373946.5318143;-51.05852127075195;-159.5630340576172;23.584447860717773
240;1673373946.571014;47.1310183;7.2399068;-0.1420000046491623;1673373946.731289;25.37103843688965;-104.15597534179688;-0.4528528153896332
241;1673373946.7679;47.131026299999995;7.2399108;-0.27900001406669617;1673373946.9248123;-48.43532943725586;46.88288497924805;121.74203491210938
242;1673373946.9646738;47.1310295;7.2399226;-0.2240000069141388;1673373947.1307607;64.01094055175781;-114.891357421875;-0.9969045519828796
243;1673373947.1691072;47.1310345;7.2399346;-0.5440000295639038;1673373947.3188627;-72.2947006225586;-73.57415771484375;-110.68888854980469
244;1673373947.3568127;47.1310394;7.2399393;-0.48000001907348633;1673373947.5278869;16.407001495361328;5.650733947753906;123.01366424560547
245;1673373947.5626009;47.131046399999995;7.239946799999999;-0.6510000228881836;1673373947.7080035;66.9312744140625;-77.54052734375;36.6209602355957
246;1673373947.742681;47.1310542;7.2399572;-0.4360000193119049;1673373947.9127488;39.30924987792969;-122.89915466308594;-30.154590606689453
247;1673373947.9461064;47.1310605;7.2399662;-0.23800000548362732;1673373948.1247437;22.089439392089844;-127.54566192626953;-64.84501647949219
248;1673373948.1649544;47.1310663;7.239973999999999;-0.1680000126361847;1673373948.343682;-1.814218521118164;-145.04994201660156;-97.23136138916016
249;1673373948.377961;47.131071899999995;7.2399809;-0.3710000216960907;1673373948.53787;-11.398802757263184;-146.82369995117188;-105.65457916259766
250;1673373948.573926;47.1310815;7.239987299999999;-0.4240000247955322;1673373948.7314072;-11.442111015319824;-146.95669555664062;-105.69219207763672
251;1673373948.7681878;47.131093199999995;7.239992;-0.5170000195503235;1673373948.9187977;-11.492534637451172;-147.17198181152344;-105.7220230102539
252;1673373948.9578943;47.1311064;7.2399947;-0.625;1673373949.1012182;-11.5411958694458;-147.3636474609375;-105.73725128173828
253;1673373949.1357453;47.131121199999995;7.2399958;-0.8010000586509705;1673373949.309891;-11.660414695739746;-147.70179748535156;-105.69156646728516
254;1673373949.3498724;47.1311362;7.2399944;-0.9540000557899475;1673373949.5300503;-11.841668128967285;-148.08558654785156;-105.60074615478516
255;1673373949.5669546;47.1311507;7.2399907;-1.0920000076293945;1673373949.7417498;-12.033845901489258;-148.6515350341797;-105.42656707763672
256;1673373949.7768502;47.1311642;7.239984799999999;-1.2140001058578491;1673373949.943221;-12.209939002990723;-149.2593536376953;-105.17858123779297
257;1673373949.9803321;47.1311764;7.239977;-1.3300000429153442;1673373950.1427584;-12.430074691772461;-149.9298553466797;-104.8281021118164
258;1673373950.1840246;47.131186199999995;7.2399675;-1.4260001182556152;1673373950.3437924;-12.489991188049316;-150.18943786621094;-104.78934478759766
259;1673373950.3749435;47.131200299999996;7.2399572;-1.6510000228881836;1673373950.583852;-12.71384048461914;-151.11717224121094;-104.29179382324219
260;1673373950.634881;47.131208099999995;7.239945199999999;-1.7820000648498535;1673373950.7737346;-12.923772811889648;-152.08041381835938;-103.74967193603516
261;1673373950.8468027;47.131211799999996;7.2399321;-1.8500001430511475;1673373951.034611;-13.080574035644531;-153.00572204589844;-103.1943588256836
262;1673373951.0878441;47.131209;7.2399135;-1.8680000305175781;1673373951.2545419;-16.470149993896484;-156.7581329345703;-97.47817993164062
263;1673373951.280933;47.1311362;7.2398161;-1.749000072479248;1673373951.411011;-16.712799072265625;-157.59422302246094;-96.87538146972656
264;1673373951.4376993;47.1311069;7.239763699999999;-1.6660001277923584;1673373951.571131;-16.04674530029297;-158.31007385253906;-99.7738037109375
265;1673373951.6020179;47.131150999999996;7.2398234;-1.970000147819519;1673373951.7368343;-16.63286781311035;-159.32994079589844;-99.48851013183594
266;1673373951.7718277;47.1311129;7.2397604;-1.9660000801086426;1673373951.9289043;-16.03874969482422;-159.7302703857422;-100.40790557861328
267;1673373951.9631066;47.1310967;7.2397301;-1.9040000438690186;1673373952.1139162;-15.756075859069824;-160.33901977539062;-100.92355346679688
268;1673373952.1527672;47.1310923;7.2397111;-1.811000108718872;1673373952.3147607;-15.520028114318848;-160.86705017089844;-101.33171844482422
269;1673373952.3530352;47.131093899999996;7.2396967;-1.7100000381469727;1673373952.524887;-15.280351638793945;-161.37342834472656;-101.62800598144531
270;1673373952.558053;47.1310984;7.2396844;-1.6100001335144043;1673373952.7010286;-15.026325225830078;-161.80960083007812;-101.7782211303711
271;1673373952.7349837;47.1311038;7.2396736;-1.5090000629425049;1673373952.9206755;-15.00183391571045;-162.07821655273438;-102.16082000732422
272;1673373952.9550068;47.1311154;7.239653199999999;-1.5210000276565552;1673373953.1280003;-14.983465194702148;-162.3216552734375;-102.61955261230469
273;1673373953.1800275;47.13113;7.239626899999999;29.239002227783203;1673373953.3327017;-14.953372955322266;-162.56442260742188;-103.17201232910156
274;1673373953.37405;47.131146;7.2395963;29.23400115966797;;;;
