;pos_time;latitude;longitude;altitude;alt_time;pitch;roll;yaw
0;1673373313.5080442;47.1306425;7.240619799999999;0.017000000923871994;1673373313.5880785;-0.09184688329696655;-0.2299738973379135;90.26188659667969
1;1673373313.7009292;47.1306425;7.2406197;0.01900000125169754;1673373313.7836442;0.06613661348819733;-0.06720132380723953;90.2705078125
2;1673373313.91243;47.1306424;7.2406196;0.017000000923871994;1673373314.0045755;-0.07147989422082901;-0.15087464451789856;90.2874526977539
3;1673373314.1233268;47.1306424;7.2406196;0.015000000596046448;1673373314.204753;0.015024787746369839;-0.13224026560783386;90.22266387939453
4;1673373314.3272152;47.1306424;7.2406196;0.015000000596046448;1673373314.4063215;-0.06546811014413834;-0.07321115583181381;90.240478515625
5;1673373314.5182061;47.1306423;7.240619499999999;0.018000001087784767;1673373314.6002777;0.09408488869667053;-0.120588518679142;90.23764038085938
6;1673373314.7116578;47.1306423;7.240619499999999;0.017000000923871994;1673373314.7909966;0.24760664999485016;-0.24125128984451294;90.35904693603516
7;1673373314.8988574;47.1306423;7.2406196;0.013000000268220901;1673373314.986961;0.1715792864561081;-0.07065560668706894;90.24967193603516
8;1673373315.10346;47.1306423;7.240619499999999;0.012000000104308128;1673373315.1876097;0.07906833291053772;-0.34276238083839417;90.33417510986328
9;1673373315.3256812;47.1306423;7.2406196;0.010000000707805157;1673373315.4127073;0.2183699607849121;0.04253677651286125;90.210205078125
10;1673373315.5285957;47.1306423;7.2406197;0.007000000216066837;1673373315.616964;0.1235223114490509;-0.17789176106452942;90.25386810302734
11;1673373315.7330892;47.1306423;7.2406197;0.004000000189989805;1673373315.79873;0.053979016840457916;-0.22026483714580536;90.27874755859375
12;1673373315.9300213;47.1306423;7.240619799999999;0.005000000353902578;1673373316.012576;-0.08859734982252121;-0.042535897344350815;90.11500549316406
13;1673373316.164468;47.1306423;7.2406198999999996;0.006000000052154064;1673373316.2401695;-0.2518584728240967;-0.2082078903913498;90.12026977539062
14;1673373316.3512635;47.1306423;7.24062;0.0010000000474974513;1673373316.4287906;-0.18728619813919067;-1.5013906955718994;90.18995666503906
15;1673373316.5270605;47.1306424;7.2406201;-0.0010000000474974513;1673373316.6041727;0.14865608513355255;-1.0711406469345093;90.06111907958984
16;1673373316.7768366;47.1306424;7.2406201;-0.0020000000949949026;1673373316.8494627;-0.02092849835753441;-1.0763051509857178;90.07173919677734
17;1673373317.0427396;47.1306424;7.2406201;-0.0010000000474974513;1673373317.0983949;-0.23276717960834503;-1.037847876548767;90.02565002441406
18;1673373317.1826503;47.1306424;7.2406201;0.0020000000949949026;1673373317.2544892;0.029003143310546875;-0.8970939517021179;89.97770690917969
19;1673373317.3634734;47.1306424;7.2406201;0.004000000189989805;1673373317.4396074;0.09377970546483994;-1.521925449371338;90.1004867553711
20;1673373317.5506265;47.1306424;7.24062;0.0020000000949949026;1673373317.6244729;0.468977689743042;-1.456386923789978;90.02058410644531
21;1673373317.7455409;47.1306424;7.24062;0.0010000000474974513;1673373317.8265717;0.3451184034347534;-1.4795153141021729;89.79327392578125
22;1673373317.9386425;47.1306424;7.24062;0.003000000026077032;1673373318.0056803;0.08437885344028473;-1.4075465202331543;89.6641845703125
23;1673373318.1089478;47.1306424;7.24062;0.006000000052154064;1673373318.1915965;0.17521525919437408;-0.026635941118001938;89.41841888427734
24;1673373318.3166318;47.1306424;7.24062;0.00800000037997961;1673373318.3957107;0.5735875964164734;-0.6061708331108093;89.58696746826172
25;1673373318.5065892;47.1306424;7.24062;0.00800000037997961;1673373318.5910394;0.8808059096336365;-1.1229116916656494;89.12109375
26;1673373318.716353;47.1306424;7.24062;0.007000000216066837;1673373318.808761;1.1973514556884766;-1.054978847503662;88.92292785644531
27;1673373318.9255795;47.130642599999995;7.24062;0.00800000037997961;1673373319.0176494;1.4738107919692993;-0.9912126660346985;87.45555114746094
28;1673373319.1417172;47.130642699999996;7.2406198999999996;0.01600000075995922;1673373319.2214386;1.9273501634597778;-0.7697831392288208;85.18834686279297
29;1673373319.3225422;47.1306431;7.240619799999999;0.017000000923871994;1673373319.4074907;0.534553587436676;-1.018804907798767;74.99657440185547
30;1673373319.535512;47.1306437;7.240619199999999;0.02200000174343586;1673373319.6137211;-0.27894672751426697;1.0886322259902954;65.35535430908203
31;1673373319.7220466;47.1306449;7.240617899999999;0.027000000700354576;1673373319.8103433;-0.49380072951316833;2.4047677516937256;71.55962371826172
32;1673373319.9308114;47.1306465;7.2406156;0.036000002175569534;1673373320.0156531;-2.9510602951049805;5.320525169372559;78.101318359375
33;1673373320.1315727;47.1306486;7.2406125999999995;0.05000000074505806;1673373320.2078645;-6.449672698974609;8.989806175231934;80.49745178222656
34;1673373320.325451;47.130651;7.2406089;0.07000000029802322;1673373320.3965669;-9.088862419128418;13.077095031738281;79.72537231445312
35;1673373320.5100617;47.130653599999995;7.2406045;0.10200000554323196;1673373320.603741;-9.847338676452637;14.940025329589844;79.0283203125
36;1673373320.719715;47.1306564;7.240599899999999;0.14800000190734863;1673373320.807822;-10.921564102172852;15.80964469909668;78.57237243652344
37;1673373320.9294548;47.1306593;7.240595099999999;0.2070000171661377;1673373321.005535;-12.01339340209961;17.4269962310791;78.20055389404297
38;1673373321.1256163;47.130662099999995;7.2405903;0.281000018119812;1673373321.2101848;-13.13215160369873;19.25833511352539;77.86489868164062
39;1673373321.3344004;47.1306648;7.2405857;0.3710000216960907;1673373321.4145198;-14.395719528198242;20.63902473449707;77.73304748535156
40;1673373321.5274658;47.1306674;7.2405814;0.48000001907348633;1673373321.6130548;-15.744461059570312;22.043903350830078;77.62413787841797
41;1673373321.7389693;47.1306697;7.2405775;0.6060000061988831;1673373321.8229847;-17.14350700378418;23.70334243774414;77.52510070800781
42;1673373321.9301236;47.1306716;7.240574;0.7480000257492065;1673373322.008768;-18.549386978149414;25.210535049438477;77.50619506835938
43;1673373322.1313686;47.1306732;7.2405712;0.9040000438690186;1673373322.2080734;-20.234375;26.597562789916992;77.68587493896484
44;1673373322.3267438;47.130674299999995;7.2405691;1.0750000476837158;1673373322.4112926;-21.965810775756836;28.052669525146484;77.92887878417969
45;1673373322.5387383;47.130675;7.2405678;1.2610000371932983;1673373322.6174047;-23.65753746032715;29.75326156616211;78.11241912841797
46;1673373322.743321;47.1306751;7.2405675;1.4540001153945923;1673373322.8236368;-25.422496795654297;30.984010696411133;86.25826263427734
47;1673373322.9459023;47.1306747;7.240568199999999;1.65500009059906;1673373323.0263314;-30.85572624206543;29.363128662109375;86.10759735107422
48;1673373323.1369793;47.130673699999996;7.2405699;1.8630000352859497;1673373323.2239344;-32.080535888671875;31.1927490234375;86.8327865600586
49;1673373323.3426657;47.1306722;7.2405729999999995;2.077000141143799;1673373323.4261665;-33.70217514038086;32.78943634033203;87.56623077392578
50;1673373323.5753257;47.130669999999995;7.240577399999999;2.2930002212524414;1673373323.6528583;-34.17890167236328;33.88777542114258;88.38078308105469
51;1673373323.7920363;47.1306673;7.240583;2.50600004196167;1673373323.8669457;-29.41650390625;31.606168746948242;89.70684814453125
52;1673373323.9927528;47.130663999999996;7.2405892;2.7090001106262207;1673373324.0660298;-28.868854522705078;20.646875381469727;102.6175537109375
53;1673373324.1712842;47.1306605;7.2405956;2.9030001163482666;1673373324.2358727;-31.386579513549805;11.241881370544434;130.8629608154297
54;1673373324.3365536;47.1306569;7.2406016;3.0890002250671387;1673373324.4146874;-26.463407516479492;5.812201023101807;138.99508666992188
55;1673373324.524724;47.1306534;7.2406067;3.266000270843506;1673373324.603371;-21.6475830078125;3.6082563400268555;137.5172119140625
56;1673373324.7300284;47.1306501;7.2406106999999995;3.444000244140625;1673373324.822064;-18.71652603149414;2.177527666091919;136.611572265625
57;1673373324.9541252;47.1306473;7.240613499999999;3.6180002689361572;1673373325.0264952;-17.64340591430664;-0.1163899153470993;136.36154174804688
58;1673373325.1679091;47.1306453;7.2406152;3.7960002422332764;1673373325.2432156;-18.269302368164062;-2.4318830966949463;136.3782501220703
59;1673373325.3517425;47.130644;7.240615999999999;3.9750001430511475;1673373325.4389114;-20.22301483154297;-2.6512258052825928;136.66366577148438
60;1673373325.545545;47.130643299999996;7.2406160999999996;4.160000324249268;1673373325.619397;-23.157215118408203;-3.0124049186706543;136.15673828125
61;1673373325.7348278;47.130643;7.2406158;4.353000164031982;1673373325.818353;-25.938823699951172;-3.7213149070739746;136.32586669921875
62;1673373325.9361663;47.1306431;7.2406153;4.553000450134277;1673373326.0208342;-27.530664443969727;-4.349733829498291;136.88665771484375
63;1673373326.151587;47.1306434;7.240615099999999;4.75700044631958;1673373326.2355971;-29.250574111938477;-2.1997084617614746;136.67733764648438
64;1673373326.3591723;47.1306438;7.240615;4.962000370025635;1673373326.4382818;-30.38004493713379;-1.2447476387023926;136.6033935546875
65;1673373326.6360433;47.1306442;7.2406153;5.1650004386901855;1673373326.7029784;-30.082521438598633;-2.4619297981262207;137.3428955078125
66;1673373326.8155394;47.130644499999995;7.2406158;5.372000217437744;1673373326.9111059;-30.010204315185547;-0.5327246785163879;136.97842407226562
67;1673373327.0396197;47.1306446;7.2406163999999995;5.583000183105469;1673373327.1115794;-29.797046661376953;0.9606161117553711;136.54359436035156
68;1673373327.2040303;47.130644499999995;7.2406169;5.7910003662109375;1673373327.271536;-29.2666072845459;-0.9282870888710022;137.18479919433594
69;1673373327.3860378;47.1306443;7.2406174;5.99500036239624;1673373327.4593823;-28.261241912841797;-0.6832703948020935;137.02749633789062
70;1673373327.5647366;47.1306441;7.2406178;6.194000244140625;1673373327.6428406;-28.288578033447266;0.7839622497558594;136.41171264648438
71;1673373327.756619;47.1306438;7.2406182999999995;6.39400053024292;1673373327.842149;-27.564876556396484;-1.0607023239135742;136.96658325195312
72;1673373327.9520986;47.1306436;7.2406187;6.591000080108643;1673373328.034693;-27.045255661010742;-1.9598814249038696;137.34336853027344
73;1673373328.1513803;47.130643299999996;7.240618899999999;6.789000511169434;1673373328.2545245;-26.95220947265625;0.17533810436725616;136.48095703125
74;1673373328.374372;47.1306431;7.2406191;6.988000392913818;1673373328.4481227;-27.212173461914062;-1.4159069061279297;136.850341796875
75;1673373328.5563154;47.1306429;7.240619199999999;7.182000160217285;1673373328.6310594;-26.496532440185547;-3.0158567428588867;137.41700744628906
76;1673373328.748832;47.1306428;7.2406193;7.374000549316406;1673373328.8628745;-26.982454299926758;-0.5986930131912231;136.70712280273438
77;1673373328.989173;47.1306428;7.2406194;7.569000244140625;1673373329.0709064;-27.197412490844727;-0.5425896644592285;136.68687438964844
78;1673373329.1876183;47.1306428;7.240619499999999;7.767000198364258;1673373329.269166;-27.277297973632812;-2.8558945655822754;137.46389770507812
79;1673373329.3818843;47.1306429;7.2406196;7.967000484466553;1673373329.449961;-27.402755737304688;-0.8342893719673157;136.9146270751953
80;1673373329.5531387;47.1306429;7.2406196;8.164999961853027;1673373329.6259027;-27.684377670288086;0.26941800117492676;136.36036682128906
81;1673373329.732101;47.1306429;7.2406196;8.363000869750977;1673373329.8117492;-27.72288703918457;-2.3233351707458496;137.19891357421875
82;1673373329.938334;47.1306429;7.2406197;8.563000679016113;1673373330.0307045;-27.70981788635254;-1.7295353412628174;137.03370666503906
83;1673373330.139718;47.1306429;7.2406197;8.76200008392334;1673373330.2225215;-27.919553756713867;0.44414830207824707;136.28872680664062
84;1673373330.3411043;47.1306429;7.240619799999999;8.961000442504883;1673373330.4386475;-27.63899803161621;-1.5457873344421387;136.8931884765625
85;1673373330.559346;47.1306429;7.2406198999999996;9.159000396728516;1673373330.640061;-27.770864486694336;-2.1159098148345947;137.18829345703125
86;1673373330.7646365;47.1306429;7.2406198999999996;9.356000900268555;1673373330.8471804;-27.836898803710938;0.20895224809646606;136.33534240722656
87;1673373330.9631193;47.1306428;7.24062;9.550000190734863;1673373331.059461;-27.869401931762695;-1.1146494150161743;136.8041534423828
88;1673373331.1684499;47.1306428;7.2406201;9.743000030517578;1673373331.2463453;-27.412429809570312;-2.615886688232422;137.29615783691406
89;1673373331.3669932;47.1306428;7.2406201;9.933000564575195;1673373331.4389732;-27.742626190185547;-0.329495370388031;136.5890655517578
90;1673373331.5538802;47.1306428;7.2406201999999995;10.123000144958496;1673373331.6330101;-26.919574737548828;-0.3253345787525177;136.4947052001953
91;1673373331.74108;47.130642699999996;7.2406204;10.379000663757324;1673373331.8264785;-28.798770904541016;-1.7875347137451172;136.87261962890625
92;1673373331.9384687;47.1306424;7.240620799999999;10.73900032043457;1673373332.035444;-30.91634750366211;-0.3407408595085144;136.80145263671875
93;1673373332.154703;47.130641999999995;7.2406215;11.12700080871582;1673373332.237725;-27.250457763671875;-1.0695717334747314;136.668212890625
94;1673373332.3525972;47.130641499999996;7.2406222;11.516000747680664;1673373332.435167;-25.567310333251953;-1.383933186531067;136.9071044921875
95;1673373332.5529993;47.130641;7.2406228;11.906000137329102;1673373332.65939;-24.459136962890625;-0.4634263813495636;136.59178161621094
96;1673373332.7680614;47.130640799999995;7.2406232;12.296000480651855;1673373332.8389437;-24.31092643737793;-0.4523303210735321;136.55572509765625
97;1673373332.9509273;47.1306406;7.2406234;12.684000968933105;1673373333.031699;-23.933422088623047;-1.9110116958618164;137.09303283691406
98;1673373333.1438744;47.1306406;7.240623299999999;13.064001083374023;1673373333.2223172;-24.475296020507812;-1.1030752658843994;136.7314910888672
99;1673373333.3413966;47.1306407;7.240622999999999;13.437000274658203;1673373333.4252703;-25.624399185180664;-0.6957294344902039;136.58074951171875
100;1673373333.5401914;47.130640799999995;7.240622699999999;13.805000305175781;1673373333.6256611;-26.09914779663086;-1.6688826084136963;136.97665405273438
101;1673373333.7443912;47.1306411;7.2406223;14.170001029968262;1673373333.8272333;-26.384559631347656;-2.01518177986145;137.17526245117188
102;1673373333.9504092;47.1306413;7.240622;14.533000946044922;1673373334.0310068;-27.065078735351562;-0.11619605123996735;136.57754516601562
103;1673373334.1517482;47.130641499999996;7.2406217999999996;14.898000717163086;1673373334.2281332;-27.488752365112305;-0.7131178975105286;136.7657928466797
104;1673373334.3515055;47.1306417;7.2406216;15.260001182556152;1673373334.4439304;-27.322368621826172;-2.4270830154418945;137.42274475097656
105;1673373334.5635915;47.1306419;7.2406215;15.629000663757324;1673373334.6492105;-27.351125717163086;-0.021221119910478592;136.7070770263672
106;1673373334.7653508;47.1306419;7.240621399999999;16.003000259399414;1673373334.8395462;-27.505739212036133;-0.13443295657634735;136.61024475097656
107;1673373334.953551;47.1306419;7.240621399999999;16.376001358032227;1673373335.0384107;-27.029884338378906;-2.1341474056243896;137.28526306152344
108;1673373335.1593716;47.1306419;7.240621399999999;16.751001358032227;1673373335.2469375;-26.68800163269043;-0.9984959363937378;136.9129638671875
109;1673373335.3603532;47.1306418;7.240621399999999;17.12700080871582;1673373335.4415498;-27.012775421142578;-0.11106280982494354;136.47189331054688
110;1673373335.5543826;47.1306417;7.240621399999999;17.50400161743164;1673373335.6261737;-26.50458526611328;-1.792122483253479;136.98895263671875
111;1673373335.738127;47.1306417;7.240621399999999;17.87900161743164;1673373335.8138103;-26.414752960205078;-1.701493501663208;136.9031982421875
112;1673373335.9324799;47.1306417;7.2406213;18.255001068115234;1673373336.0218437;-26.625755310058594;-0.07247145473957062;136.41961669921875
113;1673373336.1326954;47.1306417;7.2406213;18.634000778198242;1673373336.2189548;-26.760950088500977;-1.7230629920959473;136.96238708496094
114;1673373336.341022;47.1306417;7.2406213;19.016000747680664;1673373336.4229512;-26.190073013305664;-2.327328681945801;137.2902069091797
115;1673373336.5281136;47.1306417;7.2406213;19.395000457763672;1673373336.6023347;-26.594379425048828;-0.022788031026721;136.56385803222656
116;1673373336.7225273;47.1306418;7.240621399999999;19.772001266479492;1673373336.8046017;-26.581113815307617;-0.7688751220703125;136.80995178222656
117;1673373336.9396236;47.1306419;7.2406213;20.145000457763672;1673373337.0241432;-26.6640625;-2.093928337097168;137.31846618652344
118;1673373337.14188;47.1306419;7.2406213;20.522001266479492;1673373337.226393;-26.69698143005371;-0.1990194469690323;136.68507385253906
119;1673373337.3362236;47.130641999999995;7.2406212;20.9010009765625;1673373337.4229426;-27.116613388061523;-0.24514777958393097;136.62313842773438
120;1673373337.5593753;47.130641999999995;7.2406212;21.280000686645508;1673373337.6382182;-26.76337432861328;-2.2048535346984863;137.2150115966797
121;1673373337.7541494;47.130641999999995;7.240621099999999;21.663000106811523;1673373337.8553457;-26.7632999420166;-1.0922046899795532;136.84548950195312
122;1673373337.965369;47.130641999999995;7.240621;22.047000885009766;1673373338.0820239;-27.14276123046875;0.1796705275774002;136.38050842285156
123;1673373338.2036695;47.130641999999995;7.240621;22.431001663208008;1673373338.2745373;-26.849956512451172;-1.7297749519348145;137.03216552734375
124;1673373338.3845193;47.130641999999995;7.2406209;22.808000564575195;1673373338.459348;-26.90958023071289;-2.0627079010009766;137.12403869628906
125;1673373338.5604277;47.130641999999995;7.2406209;23.18600082397461;1673373338.6371245;-27.080562591552734;-0.21131911873817444;136.52476501464844
126;1673373338.7530153;47.130641999999995;7.2406209;23.569000244140625;1673373338.8297615;-27.14670753479004;-0.893501877784729;136.71865844726562
127;1673373338.9486868;47.130641999999995;7.2406209;23.95400047302246;1673373339.0308237;-26.57676124572754;-2.085268497467041;137.18869018554688
128;1673373339.1526482;47.130641999999995;7.240621;24.338001251220703;1673373339.2294302;-26.854331970214844;-0.4697923958301544;136.74542236328125
129;1673373339.3485572;47.130641999999995;7.240621099999999;24.725000381469727;1673373339.4384837;-26.90747833251953;0.2118750363588333;136.433837890625
130;1673373339.5572383;47.130641999999995;7.240621099999999;25.10700035095215;1673373339.6439013;-26.719316482543945;-1.5847264528274536;137.04190063476562
131;1673373339.7596624;47.130642099999996;7.240621099999999;25.492000579833984;1673373339.8343956;-26.55152130126953;-1.169355034828186;137.0395965576172
132;1673373339.9667125;47.130642099999996;7.240621099999999;25.87900161743164;1673373340.0482998;-26.96352767944336;0.36519303917884827;136.45762634277344
133;1673373340.16505;47.130642099999996;7.240621099999999;26.270000457763672;1673373340.2448118;-26.93770408630371;-1.0586730241775513;136.94009399414062
134;1673373340.3488557;47.130641999999995;7.240621;26.661001205444336;1673373340.4237585;-26.641502380371094;-1.7880642414093018;137.09991455078125
135;1673373340.5384903;47.130641999999995;7.2406209;27.04800033569336;1673373340.6195016;-26.698110580444336;0.03475067391991615;136.49896240234375
136;1673373340.7484438;47.130641999999995;7.2406209;27.435001373291016;1673373340.8261466;-27.14928436279297;-0.687476396560669;136.71205139160156
137;1673373340.9407198;47.130642099999996;7.240620799999999;27.815000534057617;1673373341.0198233;-26.63660430908203;-2.0545828342437744;137.224609375
138;1673373341.1484294;47.130642099999996;7.2406207;28.19700050354004;1673373341.226241;-26.988513946533203;-0.6563009023666382;136.78062438964844
139;1673373341.3432076;47.130642099999996;7.2406206;28.584001541137695;1673373341.4307451;-27.132431030273438;-0.1727859526872635;136.59307861328125
140;1673373341.5574718;47.130642099999996;7.2406204999999995;28.972002029418945;1673373341.6400998;-27.038076400756836;-2.0453884601593018;137.0885009765625
141;1673373341.7594883;47.130641999999995;7.2406204999999995;29.36100196838379;1673373341.8391771;-26.733827590942383;-1.3863654136657715;136.89654541015625
142;1673373341.956984;47.130641999999995;7.2406204;29.751001358032227;1673373342.0336592;-27.109375;-0.10405410081148148;136.4324493408203
143;1673373342.1493888;47.130641999999995;7.2406204;30.13800048828125;1673373342.2340705;-27.084423065185547;-1.5090937614440918;136.99783325195312
144;1673373342.3633678;47.130641999999995;7.2406204;30.530000686645508;1673373342.4441898;-26.834611892700195;-1.6105566024780273;137.12155151367188
145;1673373342.5608494;47.130641999999995;7.2406204;30.92500114440918;1673373342.6401792;-27.237077713012695;-0.11458998173475266;136.49905395507812
146;1673373342.7471519;47.130641999999995;7.2406204;31.32600212097168;1673373342.8174362;-27.251144409179688;-0.9877667427062988;136.73265075683594
147;1673373342.9438944;47.130641999999995;7.2406204;31.726001739501953;1673373343.038815;-26.90786361694336;-1.9557174444198608;137.1188507080078
148;1673373343.156525;47.130641999999995;7.2406204999999995;32.125;1673373343.271725;-26.944406509399414;-0.7836794257164001;136.7138214111328
149;1673373343.396119;47.130641999999995;7.2406204999999995;32.5260009765625;1673373343.4674938;-27.30332374572754;-0.31587332487106323;136.547607421875
150;1673373343.5780506;47.130641999999995;7.2406204999999995;32.92100143432617;1673373343.6556952;-26.915742874145508;-1.7161930799484253;136.9840087890625
151;1673373343.7845275;47.130641999999995;7.2406206;33.31700134277344;1673373343.8788486;-26.829612731933594;-1.2105937004089355;136.8919219970703
152;1673373343.9957523;47.130641999999995;7.2406206;33.71600341796875;1673373344.0676255;-27.2573299407959;-0.2994651198387146;136.56588745117188
153;1673373344.1736507;47.130641999999995;7.2406207;34.117000579833984;1673373344.2570963;-27.254526138305664;-1.0106827020645142;136.80450439453125
154;1673373344.3705206;47.130641999999995;7.2406207;34.51700210571289;1673373344.4464998;-26.820877075195312;-1.9357184171676636;137.11741638183594
155;1673373344.557053;47.130641999999995;7.240620799999999;34.91400146484375;1673373344.634711;-27.051347732543945;-0.45669642090797424;136.70960998535156
156;1673373344.7605517;47.130641999999995;7.240620799999999;35.302001953125;1673373344.8462102;-27.220447540283203;-0.47963404655456543;136.68759155273438
157;1673373344.9493623;47.130641999999995;7.240620799999999;35.691001892089844;1673373345.0208154;-26.877628326416016;-1.6226999759674072;137.07762145996094
158;1673373345.1480305;47.130642099999996;7.2406209;36.08000183105469;1673373345.2305582;-26.816978454589844;-0.9594115614891052;136.9630584716797
159;1673373345.3533754;47.130642099999996;7.2406209;36.474002838134766;1673373345.4311645;-27.19764518737793;0.07195260375738144;136.53656005859375
160;1673373345.5432231;47.130642099999996;7.2406209;36.86900329589844;1673373345.6264267;-27.08749771118164;-1.1817169189453125;136.95855712890625
161;1673373345.744062;47.130642099999996;7.2406209;37.262001037597656;1673373345.8441541;-26.8319091796875;-1.7187083959579468;137.12803649902344
162;1673373345.9600456;47.130642099999996;7.240620799999999;37.652000427246094;1673373346.068713;-26.959142684936523;-0.28409329056739807;136.65618896484375
163;1673373346.187507;47.130642099999996;7.240620799999999;38.034000396728516;1673373346.2799592;-27.16697120666504;-0.6094586849212646;136.76829528808594
164;1673373346.3949006;47.130642099999996;7.240620799999999;38.42000198364258;1673373346.4954007;-26.787534713745117;-1.88802170753479;137.19920349121094
165;1673373346.6249728;47.1306422;7.240620799999999;38.80800247192383;1673373346.7012715;-26.816274642944336;-0.938302755355835;136.8883056640625
166;1673373346.799268;47.1306422;7.240620799999999;39.20000076293945;1673373346.866657;-27.051462173461914;0.3309628963470459;136.4584197998047
167;1673373346.984583;47.1306422;7.240620799999999;39.592002868652344;1673373347.0706859;-26.87452507019043;-1.7482836246490479;137.14390563964844
168;1673373347.178168;47.1306422;7.2406207;39.98400115966797;1673373347.258241;-26.789411544799805;-1.4691901206970215;137.1146240234375
169;1673373347.387509;47.1306422;7.2406206;40.36900329589844;1673373347.4667032;-27.014869689941406;0.129312664270401;136.45936584472656
170;1673373347.5860374;47.1306422;7.2406204999999995;40.75600051879883;1673373347.6629117;-27.19626808166504;-1.4833019971847534;136.93638610839844
171;1673373347.7718272;47.1306422;7.2406204;41.14600372314453;1673373347.8475852;-26.72435760498047;-2.1467607021331787;137.30174255371094
172;1673373347.9575713;47.1306422;7.2406204;41.538002014160156;1673373348.0392933;-27.160219192504883;0.02368060313165188;136.56605529785156
173;1673373348.159117;47.1306423;7.2406204;41.935001373291016;1673373348.254589;-27.317276000976562;-0.47613897919654846;136.6754150390625
174;1673373348.3877409;47.1306423;7.2406203;42.332000732421875;1673373348.4833202;-27.0528564453125;-1.9039829969406128;137.192138671875
175;1673373348.5888665;47.1306424;7.2406203;42.72800064086914;1673373348.6618035;-27.08769416809082;-0.5290033221244812;136.71881103515625
176;1673373348.79103;47.1306423;7.2406201999999995;43.1150016784668;1673373348.8666103;-27.52334976196289;-0.34720513224601746;136.5020751953125
177;1673373348.9965458;47.1306423;7.2406201999999995;43.50300216674805;1673373349.0786765;-27.17706298828125;-1.681827425956726;137.0131378173828
178;1673373349.233781;47.1306424;7.2406201999999995;43.893001556396484;1673373349.3041406;-27.089567184448242;-1.1343690156936646;136.86959838867188
179;1673373349.4356928;47.1306424;7.2406203;44.28700256347656;1673373349.5001757;-27.433706283569336;0.10327791422605515;136.45449829101562
180;1673373349.6043396;47.1306424;7.2406203;44.68300247192383;1673373349.6702805;-27.394487380981445;-1.060163974761963;136.84317016601562
181;1673373349.7704165;47.1306424;7.2406203;45.08000183105469;1673373349.8471963;-27.146581649780273;-1.7920312881469727;137.05816650390625
182;1673373349.9568772;47.1306424;7.2406203;45.47300338745117;1673373350.0394201;-27.212261199951172;-0.4551258385181427;136.64532470703125
183;1673373350.1555345;47.1306423;7.2406201999999995;45.867000579833984;1673373350.240027;-27.502870559692383;-0.42902782559394836;136.64356994628906
184;1673373350.3594816;47.1306423;7.2406203;46.26300048828125;1673373350.4433384;-27.049991607666016;-1.7923243045806885;137.1463623046875
185;1673373350.5604188;47.1306423;7.2406203;46.659000396728516;1673373350.6469605;-27.176740646362305;-1.0794748067855835;136.9117431640625
186;1673373350.7665887;47.1306424;7.2406204;47.05500411987305;1673373350.8422818;-27.41745376586914;0.1251188963651657;136.49668884277344
187;1673373350.9549718;47.1306424;7.2406204;47.44900131225586;1673373351.0444837;-27.320829391479492;-0.9541981816291809;136.8771209716797
188;1673373351.161306;47.1306424;7.2406204;47.84300231933594;1673373351.2400675;-27.005592346191406;-1.6043429374694824;137.07960510253906
189;1673373351.358979;47.1306424;7.2406204;48.215003967285156;1673373351.4737182;-27.707063674926758;-0.09244932979345322;136.45082092285156
190;1673373351.5884783;47.1306425;7.2406203;48.54300308227539;1673373351.6681676;-27.612628936767578;-0.7032548785209656;136.7654266357422
191;1673373351.7858918;47.130642599999995;7.2406201;48.82500076293945;1673373351.8594742;-27.86932945251465;-1.4089298248291016;136.9259033203125
192;1673373351.9725032;47.1306428;7.240619799999999;49.05900192260742;1673373352.0521977;-28.67694664001465;-0.6150749325752258;136.69708251953125
193;1673373352.1584702;47.130643;7.240619499999999;49.25400161743164;1673373352.236159;-29.278993606567383;0.6110109686851501;136.484375
194;1673373352.3539405;47.1306431;7.2406191;49.415000915527344;1673373352.4339926;-13.083626747131348;8.607760429382324;142.97222900390625
195;1673373352.5532234;47.1306434;7.240617599999999;49.52900314331055;1673373352.6477597;10.124395370483398;21.846094131469727;154.05606079101562
196;1673373352.7742376;47.130644499999995;7.2406134;49.621002197265625;1673373352.8598306;6.506122589111328;20.472320556640625;163.2649688720703
197;1673373352.9745398;47.1306468;7.2406061;49.704002380371094;1673373353.063797;6.034103870391846;10.51351261138916;174.79867553710938
198;1673373353.1825476;47.1306501;7.2405968;49.78300094604492;1673373353.2561219;6.550184726715088;6.011826515197754;-176.58843994140625
199;1673373353.3749757;47.1306544;7.2405861;49.86100387573242;1673373353.4565568;24.62932586669922;21.148639678955078;-167.19021606445312
200;1673373353.6008809;47.1306605;7.2405738;49.91400146484375;1673373353.687387;33.22938919067383;32.26438522338867;-160.372802734375
201;1673373353.8042684;47.130668799999995;7.2405592;49.90800094604492;1673373353.8838727;20.468944549560547;30.2434024810791;-155.5578155517578
202;1673373354.0017242;47.1306795;7.2405427;49.87000274658203;1673373354.0823395;9.730114936828613;39.177589416503906;-142.91049194335938
203;1673373354.182486;47.1306921;7.2405237;49.858001708984375;1673373354.2577205;-1.2627924680709839;48.4261589050293;-132.64585876464844
204;1673373354.381678;47.1307064;7.240501999999999;49.85300064086914;1673373354.4730315;-12.652122497558594;46.48474884033203;-122.39407348632812
205;1673373354.5918288;47.130722399999996;7.240477599999999;49.862003326416016;1673373354.6839867;-25.34002113342285;43.46247482299805;-112.51321411132812
206;1673373354.7879841;47.130739999999996;7.2404506;49.88500213623047;1673373354.868711;-37.56612777709961;38.48760986328125;-100.6954345703125
207;1673373354.9794648;47.1307593;7.2404211;49.913002014160156;1673373355.0569985;-48.70399856567383;28.5776424407959;-84.97692108154297
208;1673373355.1602159;47.130779;7.2403908999999995;49.69900131225586;1673373355.2433505;-44.31523513793945;2.2851502895355225;-60.190425872802734
209;1673373355.37847;47.1307987;7.2403606;49.121002197265625;1673373355.4691234;-20.6453857421875;-17.5701904296875;-46.82168960571289
210;1673373355.5922813;47.130818399999995;7.2403300999999995;48.1670036315918;1673373355.6805258;19.006183624267578;-30.30312728881836;-49.35969543457031
211;1673373355.7993748;47.130838;7.240299899999999;46.823001861572266;1673373355.876017;62.00664138793945;-54.53248977661133;-76.4367446899414
212;1673373355.9922616;47.1308578;7.2402698;45.09100341796875;1673373356.0740342;68.95338439941406;-147.9493408203125;178.841064453125
213;1673373356.1771433;47.1308776;7.2402397;43.00100326538086;1673373356.251255;57.574283599853516;-167.64407348632812;142.85194396972656
214;1673373356.3713357;47.130897399999995;7.2402098;40.5620002746582;1673373356.446517;68.60700988769531;-166.14662170410156;128.79745483398438
215;1673373356.5634513;47.130916899999995;7.2401803;37.763999938964844;1673373356.6488295;74.96170043945312;4.252788543701172;-72.58818817138672
216;1673373356.8723814;47.130936299999995;7.2401507;34.62600326538086;1673373356.940128;19.935930252075195;11.821348190307617;-72.07109832763672
217;1673373357.0237188;47.1309557;7.2401208;31.10900115966797;1673373357.09135;-33.31000518798828;3.8828330039978027;-67.87940216064453
218;1673373357.2113736;47.130974699999996;7.2400913;27.209001541137695;1673373357.291428;-54.81462478637695;-24.556367874145508;-50.26396560668945
219;1673373357.4049559;47.130993499999995;7.2400623;22.968000411987305;1673373357.4832485;-37.96158218383789;-36.41257858276367;-51.055442810058594
220;1673373357.5991788;47.1310121;7.2400338;18.394001007080078;1673373357.6822345;6.826748847961426;-28.80514907836914;-71.18997955322266
221;1673373357.785951;47.1310308;7.2400062;13.431000709533691;1673373357.8662338;56.23933792114258;-23.100406646728516;-92.05997467041016
222;1673373357.9804347;47.1310497;7.2399781;8.100000381469727;1673373358.0683286;76.5304183959961;-9.450178146362305;-99.50738525390625
223;1673373358.1735587;47.1310686;7.2399495;2.4580001831054688;1673373358.258258;54.13750076293945;11.170370101928711;-90.86184692382812
224;1673373358.3823977;47.1310831;7.2399375;-0.24500000476837158;1673373358.4651654;-37.4843635559082;12.560946464538574;-106.53109741210938
225;1673373358.5774457;47.1310955;7.239951;-0.18400001525878906;1673373358.66131;-76.48444366455078;50.522361755371094;-145.62472534179688
226;1673373358.7710133;47.1311075;7.2399667;-0.19200000166893005;1673373358.854368;-62.566890716552734;157.42449951171875;104.49594116210938
227;1673373358.963593;47.1311184;7.239980999999999;-0.2580000162124634;1673373359.0572085;-17.030752182006836;169.58946228027344;88.92516326904297
228;1673373359.169726;47.1311292;7.239995599999999;-0.4480000138282776;1673373359.316353;-3.021366834640503;169.63656616210938;86.99322509765625
229;1673373359.4083025;47.131141199999995;7.2400131;-0.45000001788139343;1673373359.487308;-2.8544223308563232;169.51441955566406;87.19519805908203
230;1673373359.5904596;47.1311531;7.2400296;-0.41600000858306885;1673373359.667474;-2.7507004737854004;169.35714721679688;87.31028747558594
231;1673373359.7672281;47.1311669;7.240048;-0.41700002551078796;1673373359.8403063;-2.6808958053588867;169.18423461914062;87.40034484863281
232;1673373359.9561105;47.13118;7.2400651;-0.4150000214576721;1673373360.040355;-2.571040630340576;169.05764770507812;87.48790740966797
233;1673373360.1634014;47.1311943;7.2400831;-0.4140000343322754;1673373360.2396278;-2.5197060108184814;168.9121856689453;87.5552749633789
234;1673373360.3446207;47.131209299999995;7.2401012;-0.4270000159740448;1673373360.4323344;-2.5011215209960938;168.75485229492188;87.61066436767578
235;1673373360.5673637;47.1312248;7.240119399999999;-0.43700000643730164;1673373360.6471784;-2.4546401500701904;168.601806640625;87.66917419433594
236;1673373360.772212;47.1312408;7.240137799999999;-0.44200003147125244;1673373360.8505075;-2.432257890701294;168.46153259277344;87.73516082763672
237;1673373360.9832504;47.131257299999994;7.2401561999999995;-0.44300001859664917;1673373361.067313;-2.405256509780884;168.27969360351562;87.77777862548828
238;1673373361.18037;47.131274399999995;7.2401747;-0.4440000355243683;1673373361.263407;-2.3640401363372803;168.15113830566406;87.82622528076172
239;1673373361.3786;47.131292099999996;7.2401934;-0.44300001859664917;1673373361.4593723;-2.3385238647460938;167.99649047851562;87.87986755371094
240;1673373361.571136;47.1313104;7.2402123;-0.4440000355243683;1673373361.6540835;-2.2846665382385254;167.88719177246094;87.89868927001953
241;1673373361.7683623;47.1313294;7.240231199999999;-0.45600003004074097;1673373361.8462915;-2.254157781600952;167.73289489746094;87.93219757080078
242;1673373361.95823;47.131349;7.2402504;-0.4620000123977661;1673373362.043361;-2.2464945316314697;167.55874633789062;87.9419174194336
243;1673373362.175696;47.1313691;7.2402697;-0.45900002121925354;1673373362.2551987;-2.23953914642334;167.4055938720703;87.97734069824219
244;1673373362.3736012;47.1313897;7.2402891;-0.4490000307559967;1673373362.456007;-2.17535400390625;167.27841186523438;87.99103546142578
245;1673373362.584327;47.131411899999996;7.2403094999999995;-0.4410000145435333;1673373362.6613667;-2.1585493087768555;167.12948608398438;87.99436950683594
246;1673373362.7825263;47.1314329;7.2403284999999995;-0.4350000321865082;1673373362.866221;-2.13391375541687;167.00059509277344;88.01789093017578
247;1673373362.978458;47.1314558;7.240348399999999;-0.4440000355243683;1673373363.065517;-2.1124117374420166;166.83502197265625;88.02247619628906
248;1673373363.177372;47.1314791;7.2403683999999995;-0.44700002670288086;1673373363.2554991;-2.0636518001556396;166.69049072265625;88.02660369873047
249;1673373363.3541296;47.1315029;7.2403887;-0.44300001859664917;1673373363.4295955;-2.0663113594055176;166.5473175048828;88.04926300048828
250;1673373363.5565186;47.131527399999996;7.240409199999999;-0.4360000193119049;1673373363.6422458;-2.1140029430389404;166.44769287109375;88.04927825927734
251;1673373363.7593842;47.1315525;7.240429799999999;-0.4300000071525574;1673373363.851478;-2.05763840675354;166.30380249023438;88.06460571289062
252;1673373363.984336;47.1315649;7.2404398;-0.4230000078678131;1673373364.0683181;-2.053440570831299;166.14559936523438;88.0633544921875
253;1673373366.066264;47.1310972;7.239916399999999;-0.41700002551078796;1673373364.2918677;-2.030606746673584;166.02264404296875;88.0577163696289
254;;;;;1673373364.5344667;-2.0680603981018066;165.89671325683594;88.07515716552734
255;;;;;1673373364.7308905;-2.0553410053253174;165.7811737060547;88.07479095458984
256;;;;;1673373364.9152687;-2.0424997806549072;165.64520263671875;88.07927703857422
257;;;;;1673373365.0832517;-2.0255026817321777;165.56011962890625;88.08493041992188
258;;;;;1673373365.2598302;-2.0433847904205322;165.49420166015625;88.08458709716797
259;;;;;1673373365.465327;-2.0624756813049316;165.39669799804688;88.06227111816406
260;;;;;1673373365.6673665;-2.0547780990600586;165.30465698242188;88.0311050415039
261;;;;;1673373365.8701172;-2.0598506927490234;165.2125701904297;87.99679565429688
262;;;;;1673373366.0714025;-2.073169231414795;165.1055450439453;87.98831939697266
