;pos_time;latitude;longitude;altitude;alt_time;pitch;roll;yaw
0;1673372144.2191818;47.1306424;7.24062;0.027000000700354576;1673372144.3013132;0.15158440172672272;0.10841523110866547;90.49698638916016
1;1673372144.4161289;47.1306424;7.2406198999999996;0.02800000086426735;1673372144.4946866;0.17459408938884735;0.1219317689538002;90.28720092773438
2;1673372144.6092613;47.1306424;7.2406198999999996;0.02800000086426735;1673372144.6914308;-0.05136053264141083;-0.3332318067550659;90.45378875732422
3;1673372144.809282;47.1306425;7.2406198999999996;0.030000001192092896;1673372144.89092;0.0033823575358837843;-0.28088080883026123;90.34829711914062
4;1673372145.0082767;47.1306425;7.2406198999999996;0.029000001028180122;1673372145.0989394;0.09519397467374802;-0.330217182636261;90.296142578125
5;1673372145.2244763;47.1306424;7.2406198999999996;0.02800000086426735;1673372145.31136;0.4370782971382141;-0.39111191034317017;90.20851135253906
6;1673372145.4300504;47.1306424;7.240619799999999;0.027000000700354576;1673372145.51309;0.010851822793483734;-0.3382260501384735;90.3630599975586
7;1673372145.6333902;47.1306423;7.240619799999999;0.027000000700354576;1673372145.715901;0.17129258811473846;-0.3360539972782135;90.47673797607422
8;1673372145.8358116;47.1306423;7.240619799999999;0.027000000700354576;1673372145.9179153;0.02522910386323929;-0.28990304470062256;90.36549377441406
9;1673372146.0498147;47.1306423;7.240619799999999;-0.0020000000949949026;1673372146.1382115;-0.005108794663101435;-0.8484097123146057;90.53638458251953
10;1673372146.2559175;47.1306423;7.2406198999999996;-0.004000000189989805;1673372146.3375065;-0.014675167389214039;-0.5404544472694397;90.39300537109375
11;1673372146.4503813;47.1306422;7.24062;-0.003000000026077032;1673372146.5312686;-0.02215118333697319;-0.6925894021987915;90.41124725341797
12;1673372146.6485715;47.1306422;7.24062;-0.004000000189989805;1673372146.7320845;-0.12602782249450684;-0.5406043529510498;90.33001708984375
13;1673372146.8470812;47.1306422;7.24062;-0.0020000000949949026;1673372146.9270191;-0.16278868913650513;-0.7456583380699158;90.49054718017578
14;1673372147.0419247;47.1306422;7.24062;0.0010000000474974513;1673372147.128254;-0.02437342144548893;-0.8871214389801025;90.34554290771484
15;1673372147.245909;47.1306422;7.24062;0.004000000189989805;1673372147.328064;-0.022863630205392838;-0.8890151381492615;90.55687713623047
16;1673372147.4460688;47.1306422;7.24062;0.01100000087171793;1673372147.5280814;0.00754514429718256;-0.5498130321502686;90.237060546875
17;1673372147.648809;47.1306422;7.2406198999999996;0.0020000000949949026;1673372147.7292333;0.10492797195911407;-0.5231752395629883;90.44921875
18;1673372147.8500938;47.1306422;7.2406198999999996;0.004000000189989805;1673372147.9359922;-0.18767708539962769;-0.977222740650177;90.4542236328125
19;1673372148.043079;47.1306422;7.2406198999999996;0.004000000189989805;1673372148.118825;-0.006220994517207146;-0.7825440168380737;90.36801147460938
20;1673372148.2241762;47.1306422;7.2406198999999996;0.0020000000949949026;1673372148.3072586;0.025902986526489258;-0.4743421971797943;90.36792755126953
21;1673372148.5051458;47.1306422;7.2406198999999996;0.0010000000474974513;1673372148.594025;-0.0686497613787651;-0.6844814419746399;90.44824981689453
22;1673372148.751026;47.1306422;7.2406198999999996;0.003000000026077032;1673372148.8241074;0.04241631552577019;-0.31024280190467834;90.45459747314453
23;1673372148.9850147;47.1306422;7.24062;0.006000000052154064;1673372149.0667498;-0.22098368406295776;-0.5014207363128662;90.43655395507812
24;1673372149.1514673;47.1306422;7.2406198999999996;0.005000000353902578;1673372149.2180622;-0.18762055039405823;-0.3110025227069855;90.45062255859375
25;1673372149.3174796;47.1306423;7.240619799999999;0.007000000216066837;1673372149.3892515;-0.25564879179000854;-0.3482816219329834;90.65800476074219
26;1673372149.5020645;47.1306423;7.240619799999999;0.010000000707805157;1673372149.5873835;-0.4027020335197449;-0.19164273142814636;91.35636138916016
27;1673372149.698864;47.1306424;7.2406198999999996;0.009000000543892384;1673372149.7891805;0.6427923440933228;0.829362690448761;95.81587219238281
28;1673372149.9041924;47.130642599999995;7.2406201999999995;0.014000000432133675;1673372149.9821265;2.4513399600982666;4.104000091552734;94.76991271972656
29;1673372150.0910397;47.1306428;7.2406206;0.03200000151991844;1673372150.1671069;7.355227947235107;9.395625114440918;93.70301055908203
30;1673372150.275054;47.1306429;7.2406209;0.0650000050663948;1673372150.358029;8.69244384765625;8.175271034240723;92.75505828857422
31;1673372150.4750612;47.1306429;7.240621;0.11800000816583633;1673372150.5531404;9.1227388381958;4.562662124633789;90.99030303955078
32;1673372150.663149;47.1306428;7.240621;0.18700000643730164;1673372150.7499623;9.5825777053833;7.057565689086914;90.24581909179688
33;1673372150.8648386;47.130642699999996;7.240621;0.27000001072883606;1673372150.9434512;7.807799816131592;7.832154273986816;90.29200744628906
34;1673372151.0573044;47.130642599999995;7.240620799999999;0.36500000953674316;1673372151.1402676;7.568374156951904;4.206589698791504;89.9616928100586
35;1673372151.2751195;47.130642599999995;7.2406207;0.4690000116825104;1673372151.352907;7.861285209655762;5.773427486419678;89.32192993164062
36;1673372151.4774735;47.1306425;7.2406204999999995;0.5890000462532043;1673372151.5507195;7.71536922454834;8.488247871398926;88.57799530029297
37;1673372151.6907866;47.1306424;7.2406203;0.7270000576972961;1673372151.7791748;8.104415893554688;5.949044704437256;87.41458129882812
38;1673372151.8783932;47.1306425;7.24062;0.8740000128746033;1673372152.0097933;8.562349319458008;3.7237472534179688;86.11335754394531
39;1673372152.1101406;47.1306425;7.240619799999999;1.0380001068115234;1673372152.2103856;8.467958450317383;6.928145885467529;85.59912109375
40;1673372152.4041421;47.1306424;7.2406197;1.2170000076293945;1673372152.4554286;7.342580795288086;6.7191009521484375;85.9885025024414
41;1673372152.5405853;47.1306423;7.2406197;1.3980001211166382;1673372152.6116164;7.645498275756836;4.033672332763672;86.07408905029297
42;1673372152.715383;47.1306422;7.2406196;1.5850000381469727;1673372152.8155928;7.4891357421875;5.01053524017334;87.1508560180664
43;1673372152.922924;47.130641999999995;7.2406196;1.7780001163482666;1673372153.0239203;6.856518745422363;7.683897495269775;86.33686828613281
44;1673372153.1407907;47.130641999999995;7.2406196;1.970000147819519;1673372153.213106;7.427002906799316;4.625971794128418;85.56500244140625
45;1673372153.3222249;47.130641999999995;7.240619499999999;2.1660001277923584;1673372153.3805182;7.192104339599609;2.8450753688812256;84.95431518554688
46;1673372153.4718764;47.130642099999996;7.240619499999999;2.3590002059936523;1673372153.5383132;7.501398086547852;7.061694622039795;84.68521881103516
47;1673372153.6413507;47.1306422;7.240619499999999;2.5500001907348633;1673372153.718998;8.089935302734375;7.609952926635742;84.19429779052734
48;1673372153.831918;47.1306423;7.2406196;2.748000144958496;1673372153.9133425;8.73836898803711;3.915292263031006;83.50373840332031
49;1673372154.025721;47.1306423;7.240619799999999;2.942000150680542;1673372154.1085145;8.950871467590332;4.578771114349365;83.46161651611328
50;1673372154.2478325;47.1306422;7.2406198999999996;3.13100004196167;1673372154.3336103;8.63115119934082;6.846839427947998;83.80364227294922
51;1673372154.4769154;47.130641999999995;7.24062;3.32200026512146;1673372154.553357;8.172286033630371;4.902035236358643;83.88867950439453
52;1673372154.663336;47.130642099999996;7.2406201;3.5210001468658447;1673372154.7562826;7.600179672241211;2.949564218521118;84.22745513916016
53;1673372154.862921;47.1306422;7.2406201;3.7230002880096436;1673372154.9352207;7.8371171951293945;7.268995761871338;84.57072448730469
54;1673372155.0409164;47.1306424;7.2406201;3.9210002422332764;1673372155.1202903;8.167243957519531;8.417859077453613;84.18138122558594
55;1673372155.2359722;47.1306424;7.24062;4.12000036239624;1673372155.327951;8.75947380065918;4.2364115715026855;83.44231414794922
56;1673372155.4623702;47.1306424;7.2406198999999996;4.320000171661377;1673372155.5822098;8.860684394836426;4.490200042724609;83.45028686523438
57;1673372155.705798;47.1306423;7.240619799999999;4.51800012588501;1673372155.784444;8.409185409545898;7.49705171585083;83.99605560302734
58;1673372155.9152374;47.130642099999996;7.2406197;4.716000080108643;1673372156.0101407;7.897372722625732;4.858951091766357;84.345703125
59;1673372156.1220546;47.130642099999996;7.2406196;4.914000034332275;1673372156.2027678;7.6109442710876465;3.2530517578125;84.48007202148438
60;1673372156.3285844;47.1306422;7.2406196;5.1080002784729;1673372156.4159923;7.357147216796875;6.292139053344727;84.39994812011719
61;1673372156.517307;47.1306422;7.240619499999999;5.310000419616699;1673372156.5992072;7.258631229400635;8.072346687316895;84.14813232421875
62;1673372156.7029395;47.1306423;7.2406194;5.51300048828125;1673372156.7816448;7.641232013702393;4.894718647003174;83.79116821289062
63;1673372156.8922532;47.1306424;7.2406194;5.718000411987305;1673372156.9793596;8.250097274780273;4.355439186096191;83.64480590820312
64;1673372157.1022797;47.1306424;7.2406194;5.922000408172607;1673372157.1913924;8.03986644744873;7.7312331199646;84.41729736328125
65;1673372157.2934794;47.1306422;7.2406194;6.12000036239624;1673372157.3866003;8.322043418884277;6.731395244598389;84.74664306640625
66;1673372157.490593;47.130642099999996;7.240619499999999;6.322000503540039;1673372157.5672622;8.387510299682617;3.6272873878479004;84.18768310546875
67;1673372157.7064304;47.130641999999995;7.2406196;6.521000385284424;1673372157.784192;8.003931045532227;5.1085100173950195;83.59249114990234
68;1673372157.8926892;47.1306419;7.2406197;6.7270002365112305;1673372157.9660742;7.732396125793457;7.516679286956787;83.56684112548828
69;1673372158.0925844;47.1306419;7.2406197;6.930000305175781;1673372158.1619458;7.909404754638672;3.5359385013580322;83.65511322021484
70;1673372158.2881935;47.130641999999995;7.2406197;7.130000114440918;1673372158.368533;8.065228462219238;3.6673762798309326;83.82476043701172
71;1673372158.5068226;47.130641999999995;7.2406197;7.328000545501709;1673372158.5893118;8.445476531982422;7.7522196769714355;84.22728729248047
72;1673372158.6974924;47.1306419;7.240619799999999;7.523000240325928;1673372158.7796788;8.744842529296875;5.458064556121826;84.40023803710938
73;1673372158.9204803;47.1306419;7.2406198999999996;7.718000411987305;1673372158.994293;8.664823532104492;3.5858495235443115;84.16020202636719
74;1673372159.119921;47.1306419;7.2406198999999996;7.918000221252441;1673372159.195311;7.729251861572266;6.372463703155518;83.65528106689453
75;1673372159.3043594;47.1306418;7.24062;8.117000579833984;1673372159.3822277;7.899136543273926;6.8867950439453125;83.5387191772461
76;1673372159.5156662;47.1306419;7.2406201;8.315999984741211;1673372159.643032;7.798916339874268;3.2008824348449707;83.91610717773438
77;1673372159.7426746;47.130642099999996;7.2406201;8.516000747680664;1673372159.810684;7.641049385070801;4.683006286621094;84.32550048828125
78;1673372159.9275591;47.1306422;7.2406201;8.712000846862793;1673372160.0032635;8.31541633605957;8.518774032592773;84.45866394042969
79;1673372160.121281;47.1306422;7.2406201999999995;8.909000396728516;1673372160.2055078;8.739884376525879;6.385824680328369;84.41799926757812
80;1673372160.3262131;47.1306422;7.2406201999999995;9.10300064086914;1673372160.4039168;8.825020790100098;3.5893023014068604;84.08657836914062
81;1673372160.51616;47.1306422;7.2406203;9.295000076293945;1673372160.5915282;8.265829086303711;6.120541095733643;83.81288146972656
82;1673372160.7140107;47.130642099999996;7.2406204;9.484000205993652;1673372160.7878153;8.077219009399414;7.586208820343018;83.72510528564453
83;1673372160.9104729;47.1306422;7.2406204;9.681000709533691;1673372160.9910622;7.477219581604004;3.0614819526672363;84.05433654785156
84;1673372161.1028824;47.1306423;7.2406204;9.873000144958496;1673372161.195246;7.545184135437012;4.6967034339904785;84.33084869384766
85;1673372161.3084264;47.1306424;7.2406204;10.070000648498535;1673372161.3930593;7.390786647796631;8.414740562438965;84.18054962158203
86;1673372161.5048373;47.1306424;7.2406204;10.297000885009766;1673372161.5828803;8.7022705078125;7.957858085632324;83.51782989501953
87;1673372161.6958003;47.1306423;7.2406204;10.61500072479248;1673372161.7754335;10.376399993896484;6.607799530029297;83.5344009399414
88;1673372161.8875563;47.130641999999995;7.2406203;10.981000900268555;1673372161.9657803;9.363932609558105;4.839980125427246;83.84150695800781
89;1673372162.0818598;47.1306416;7.2406201;11.368000984191895;1673372162.16309;8.070792198181152;6.872594356536865;84.26294708251953
90;1673372162.278251;47.1306413;7.24062;11.76200008392334;1673372162.3623855;6.971257209777832;4.512431621551514;84.40922546386719
91;1673372162.481632;47.1306411;7.2406197;12.168000221252441;1673372162.5686882;6.126605033874512;1.3326635360717773;84.52133178710938
92;1673372162.683776;47.1306411;7.2406196;12.574000358581543;1673372162.7630067;6.609064102172852;5.001575946807861;84.49453735351562
93;1673372162.8847609;47.1306412;7.240619499999999;12.97800064086914;1673372162.9724736;7.008198261260986;6.855141639709473;84.1772232055664
94;1673372163.0960975;47.130641499999996;7.240619499999999;13.385000228881836;1673372163.1803563;7.329709529876709;3.769779682159424;83.74297332763672
95;1673372163.294116;47.1306416;7.240619499999999;13.78700065612793;1673372163.3705628;7.771044731140137;3.756208658218384;83.87224578857422
96;1673372163.4792373;47.1306417;7.2406196;14.18600082397461;1673372163.5622067;7.798341751098633;7.521269798278809;84.25527954101562
97;1673372163.709635;47.1306418;7.2406197;14.584000587463379;1673372163.7912574;8.35851764678955;6.370238304138184;84.21295928955078
98;1673372163.9242263;47.1306419;7.240619799999999;14.986001014709473;1673372164.0179722;8.480307579040527;3.7599434852600098;84.025634765625
99;1673372164.1574984;47.130641999999995;7.240619799999999;15.382000923156738;1673372164.2632437;8.159195899963379;5.451315879821777;83.76548767089844
100;1673372164.3633769;47.130642099999996;7.240619799999999;15.783000946044922;1673372164.4322832;8.002557754516602;8.089251518249512;84.01642608642578
101;1673372164.536303;47.1306422;7.2406197;16.18400001525879;1673372164.6092064;7.624841213226318;5.412952423095703;84.2792739868164
102;1673372164.7197437;47.1306423;7.2406197;16.586999893188477;1673372164.8033168;7.344143390655518;4.058389186859131;84.1116714477539
103;1673372164.9246917;47.1306423;7.2406197;16.987001419067383;1673372165.035727;7.572397232055664;7.694530487060547;84.102294921875
104;1673372165.16037;47.1306422;7.2406197;17.384000778198242;1673372165.240954;7.668182849884033;6.900704860687256;84.08417510986328
105;1673372165.345223;47.130642099999996;7.240619799999999;17.785001754760742;1673372165.4440799;7.607773303985596;4.017995357513428;84.06741333007812
106;1673372165.5444195;47.130641999999995;7.2406197;18.181001663208008;1673372165.624301;7.673065662384033;4.418602466583252;84.179443359375
107;1673372165.7309213;47.1306419;7.240619799999999;18.57200050354004;1673372165.8066936;7.819240093231201;7.560825347900391;84.37152099609375
108;1673372165.9166782;47.1306419;7.240619799999999;18.968000411987305;1673372165.9914536;8.167283058166504;5.744558334350586;84.10731506347656
109;1673372166.095641;47.130641999999995;7.240619799999999;19.3700008392334;1673372166.174744;8.180207252502441;3.071535110473633;83.94554138183594
110;1673372166.2934887;47.130642099999996;7.240619799999999;19.770000457763672;1673372166.375816;8.15052604675293;5.994873523712158;84.09032440185547
111;1673372166.4898539;47.130641999999995;7.2406198999999996;20.16900062561035;1673372166.5720448;8.3069429397583;7.877897262573242;84.37915802001953
112;1673372166.6956348;47.130641999999995;7.2406198999999996;20.562000274658203;1673372166.771809;8.22939682006836;4.275025367736816;84.20362091064453
113;1673372166.885225;47.130641999999995;7.2406198999999996;20.96000099182129;1673372166.9731355;7.892946720123291;3.637272834777832;83.95816040039062
114;1673372167.0942879;47.1306419;7.2406198999999996;21.36400032043457;1673372167.1773126;7.521954536437988;6.873217582702637;83.90178680419922
115;1673372167.2927806;47.1306419;7.2406198999999996;21.767000198364258;1673372167.3671062;7.511948585510254;6.2071638107299805;84.02061462402344
116;1673372167.482244;47.130641999999995;7.2406198999999996;22.170001983642578;1673372167.5593498;7.420101165771484;3.335129976272583;84.19391632080078
117;1673372167.6817648;47.1306422;7.240619799999999;22.56800079345703;1673372167.7658489;7.518139839172363;5.79019021987915;84.17718505859375
118;1673372167.8852355;47.1306423;7.240619799999999;22.966001510620117;1673372167.9673915;8.055103302001953;8.493239402770996;84.09912109375
119;1673372168.0877638;47.1306423;7.240619799999999;23.35900115966797;1673372168.1679742;8.22138500213623;4.539379596710205;83.98336029052734
120;1673372168.2826352;47.1306424;7.240619799999999;23.756000518798828;1673372168.3657029;8.229167938232422;3.9137139320373535;84.11148834228516
121;1673372168.495534;47.1306423;7.2406198999999996;24.154001235961914;1673372168.5796938;8.069561958312988;7.426504611968994;84.04444885253906
122;1673372168.695616;47.1306422;7.2406198999999996;24.556001663208008;1673372168.7766335;7.835776329040527;6.2010087966918945;84.1015396118164
123;1673372168.88789;47.1306423;7.240619799999999;24.959001541137695;1673372168.9721391;7.568005561828613;3.4197380542755127;84.16275787353516
124;1673372169.1132452;47.1306424;7.240619799999999;25.36100196838379;1673372169.185071;7.214287757873535;5.448369026184082;84.31903076171875
125;1673372169.2969856;47.1306424;7.240619799999999;25.755001068115234;1673372169.38;7.604114055633545;8.403621673583984;84.18120574951172
126;1673372169.5091867;47.1306425;7.2406197;26.160001754760742;1673372169.6004646;8.08898639678955;4.799345016479492;83.67671203613281
127;1673372169.715221;47.130642599999995;7.2406197;26.56300163269043;1673372169.8065386;8.348045349121094;4.126318454742432;83.7276611328125
128;1673372169.91727;47.1306425;7.2406197;26.96200180053711;1673372169.9979095;8.023627281188965;7.491879463195801;84.09436798095703
129;1673372170.1486018;47.1306425;7.2406197;27.364002227783203;1673372170.2355888;7.986001968383789;6.8360276222229;84.31956481933594
130;1673372170.3297234;47.1306425;7.2406196;27.773000717163086;1673372170.40122;7.87099027633667;3.7370998859405518;84.20455169677734
131;1673372170.5689552;47.1306425;7.2406196;28.180002212524414;1673372170.6357076;7.686588764190674;5.833948135375977;83.91381072998047
132;1673372170.7375286;47.1306425;7.2406196;28.573001861572266;1673372170.8153186;7.674806594848633;8.356743812561035;84.00059509277344
133;1673372170.9320705;47.1306425;7.2406196;28.977001190185547;1673372171.0000207;7.845606327056885;5.317023277282715;84.06893157958984
134;1673372171.1479626;47.1306425;7.2406196;29.37700080871582;1673372171.21985;7.796590328216553;3.897028684616089;84.0796890258789
135;1673372171.328565;47.1306424;7.2406196;29.774002075195312;1673372171.407844;8.024285316467285;7.560470104217529;84.24588775634766
136;1673372171.5351393;47.1306422;7.2406196;30.177001953125;1673372171.619618;8.332962036132812;6.262961387634277;84.20004272460938
137;1673372171.7390637;47.1306422;7.2406196;30.58100128173828;1673372171.8197746;8.506052017211914;3.2461748123168945;84.00956726074219
138;1673372171.9366128;47.130642099999996;7.2406196;30.977001190185547;1673372172.0135968;7.848170280456543;5.225337505340576;83.79175567626953
139;1673372172.1380212;47.130642099999996;7.2406196;31.373001098632812;1673372172.248033;7.713270664215088;7.739782333374023;84.07243347167969
140;1673372172.360014;47.1306422;7.240619499999999;31.775001525878906;1673372172.4485526;7.4829020500183105;4.4330549240112305;84.25569915771484
141;1673372172.5554688;47.1306423;7.240619499999999;32.17500305175781;1673372172.6265922;7.032037258148193;4.149476051330566;84.13839721679688
142;1673372172.7204487;47.1306423;7.240619499999999;32.573001861572266;1673372172.7972612;7.48704195022583;8.108680725097656;84.13920593261719
143;1673372172.913054;47.1306422;7.240619499999999;32.97600173950195;1673372172.99263;7.498072624206543;6.165002822875977;84.17542266845703
144;1673372173.1024761;47.1306422;7.240619499999999;33.37800216674805;1673372173.1834898;7.798553466796875;3.7071917057037354;84.15907287597656
145;1673372173.2889967;47.1306422;7.240619499999999;33.77400207519531;1673372173.362189;7.934716701507568;5.96621561050415;84.0525894165039
146;1673372173.4769397;47.1306422;7.2406196;34.17000198364258;1673372173.5584598;8.267243385314941;7.678360939025879;84.17351531982422
147;1673372173.6732626;47.1306423;7.2406197;34.57100296020508;1673372173.7528703;8.157926559448242;5.226588726043701;84.2192153930664
148;1673372173.8823304;47.1306424;7.2406197;34.97300338745117;1673372173.9697294;7.750770092010498;4.016263961791992;84.15577697753906
149;1673372174.1006107;47.1306424;7.240619799999999;35.375;1673372174.203627;7.400567531585693;7.530955791473389;84.00824737548828
150;1673372174.3154263;47.1306423;7.240619799999999;35.77300262451172;1673372174.3989244;7.568615913391113;6.3848466873168945;83.8202896118164
151;1673372174.5107276;47.1306422;7.2406198999999996;36.16400146484375;1673372174.5942242;8.037679672241211;3.1724853515625;83.9057388305664
152;1673372174.7383301;47.130642099999996;7.2406198999999996;36.560001373291016;1673372174.8110878;7.843038558959961;4.718842029571533;84.15679168701172
153;1673372174.9229453;47.130641999999995;7.2406198999999996;36.95900344848633;1673372174.9996078;8.088434219360352;7.254167556762695;84.4107894897461
154;1673372175.114335;47.130642099999996;7.2406198999999996;37.362003326416016;1673372175.1929543;8.353462219238281;5.177795886993408;84.28667449951172
155;1673372175.3037963;47.1306422;7.2406198999999996;37.76700210571289;1673372175.391184;8.24802017211914;3.5109426975250244;83.83787536621094
156;1673372175.540106;47.1306424;7.2406198999999996;38.17100143432617;1673372175.6089828;8.095829010009766;6.853256702423096;83.88143920898438
157;1673372175.7237103;47.1306425;7.2406198999999996;38.57400131225586;1673372175.8072383;7.924596786499023;7.276764392852783;84.08446502685547
158;1673372175.9249587;47.1306425;7.2406198999999996;38.967002868652344;1673372176.0338414;7.7560882568359375;3.84985089302063;84.22945404052734
159;1673372176.1563709;47.1306425;7.2406198999999996;39.36600112915039;1673372176.2281559;7.640230178833008;5.453857898712158;84.11995697021484
160;1673372176.3448377;47.1306424;7.2406198999999996;39.7650032043457;1673372176.4205241;7.943329334259033;7.778509140014648;84.13522338867188
161;1673372176.531349;47.1306425;7.2406198999999996;40.169002532958984;1673372176.6138709;8.259313583374023;5.273716449737549;84.10237121582031
162;1673372176.729575;47.130642599999995;7.240619799999999;40.570003509521484;1673372176.805266;8.263935089111328;4.205888748168945;84.01696014404297
163;1673372176.9202402;47.130642699999996;7.240619799999999;40.96800231933594;1673372176.9905221;8.138350486755371;7.159532070159912;84.15714263916016
164;1673372177.1087646;47.130642699999996;7.240619799999999;41.361000061035156;1673372177.1932464;8.137625694274902;7.834262371063232;84.24054718017578
165;1673372177.3237226;47.1306428;7.2406197;41.76000213623047;1673372177.4020996;8.010570526123047;3.7916312217712402;84.08453369140625
166;1673372177.5140002;47.1306428;7.2406197;42.163002014160156;1673372177.5893676;7.6178436279296875;5.243984699249268;83.96176147460938
167;1673372177.6964908;47.130642699999996;7.2406197;42.564002990722656;1673372177.7794733;7.372814655303955;7.785953998565674;83.93930053710938
168;1673372177.8965762;47.130642599999995;7.2406196;42.96800231933594;1673372177.9806244;7.304659843444824;5.758528232574463;84.05854034423828
169;1673372178.09302;47.130642699999996;7.2406196;43.37600326538086;1673372178.167247;7.1867547035217285;3.554403066635132;84.21272277832031
170;1673372178.283993;47.130642699999996;7.240619499999999;43.781002044677734;1673372178.3667305;7.327136993408203;6.986563205718994;84.25662231445312
171;1673372178.491398;47.130642699999996;7.240619499999999;44.178001403808594;1673372178.5739572;7.830962657928467;7.775900363922119;84.10604095458984
172;1673372178.6851282;47.1306428;7.240619499999999;44.579002380371094;1673372178.7701256;7.98176908493042;4.303364276885986;83.9144058227539
173;1673372178.8928745;47.1306428;7.240619499999999;44.983001708984375;1673372178.9706652;7.909818172454834;4.614905834197998;84.01016235351562
174;1673372179.0947526;47.130642699999996;7.240619499999999;45.38500213623047;1673372179.1787434;8.10695743560791;7.869286060333252;84.20157623291016
175;1673372179.3036916;47.130642599999995;7.2406196;45.784000396728516;1673372179.3838856;8.170999526977539;6.143589496612549;84.18982696533203
176;1673372179.5085428;47.1306425;7.2406196;46.182003021240234;1673372179.5864284;8.316817283630371;3.3609821796417236;84.05496215820312
177;1673372179.7066789;47.1306425;7.2406197;46.573001861572266;1673372179.7925951;7.826602458953857;5.763522148132324;84.00700378417969
178;1673372179.9009042;47.1306425;7.2406196;46.970001220703125;1673372179.9791796;7.71988582611084;7.980445384979248;84.11270904541016
179;1673372180.0895252;47.1306425;7.2406196;47.37000274658203;1673372180.1702003;7.4973554611206055;5.044469833374023;84.1956787109375
180;1673372180.29121;47.130642599999995;7.240619499999999;47.77000045776367;1673372180.3808627;7.246611595153809;4.099973678588867;84.1152572631836
181;1673372180.5033119;47.130642599999995;7.240619499999999;48.152000427246094;1673372180.5804238;7.51188325881958;8.097046852111816;84.07369232177734
182;1673372180.7055302;47.1306425;7.240619499999999;48.49100112915039;1673372180.789468;7.786432266235352;6.598390102386475;83.62157440185547
183;1673372180.8999417;47.1306425;7.240619499999999;48.77900314331055;1673372180.9780755;7.594580173492432;3.1435458660125732;83.60206604003906
184;1673372181.0930061;47.130642599999995;7.2406197;49.00800323486328;1673372181.1825194;7.6283063888549805;5.297171592712402;83.83635711669922
185;1673372181.295494;47.130642599999995;7.240619799999999;49.202003479003906;1673372181.376203;8.178431510925293;8.152165412902832;84.06617736816406
186;1673372181.487152;47.1306428;7.2406198999999996;49.367000579833984;1673372181.5756257;20.243885040283203;1.6183786392211914;81.19363403320312
187;1673372181.688445;47.1306431;7.240619499999999;49.51000213623047;1673372181.7739298;34.183692932128906;-19.39557647705078;68.57962036132812
188;1673372181.8804233;47.130643899999995;7.2406171;49.63300323486328;1673372181.9605114;34.59264373779297;-28.034799575805664;59.57374572753906
189;1673372182.0803382;47.1306454;7.240611899999999;49.730003356933594;1673372182.16287;22.606584548950195;-33.502227783203125;51.17951202392578
190;1673372182.2897105;47.1306479;7.240604299999999;49.810001373291016;1673372182.3670654;11.061854362487793;-31.279422760009766;41.15884017944336
191;1673372182.489583;47.130651199999996;7.2405954999999995;49.880001068115234;1673372182.5713797;0.4499014914035797;-37.872657775878906;30.600631713867188
192;1673372182.69084;47.130655399999995;7.2405855;49.954002380371094;1673372182.7971063;-18.04732894897461;-44.336551666259766;19.40382957458496
193;1673372182.9001985;47.1306612;7.2405741;50.01900100708008;1673372182.9969785;-37.59732437133789;-44.09471130371094;8.525164604187012
194;1673372183.1206405;47.130669;7.2405607;50.06300354003906;1673372183.1951067;-48.20268630981445;-40.68731689453125;-3.302098035812378
195;1673372183.3065965;47.130679;7.2405446;50.09700393676758;1673372183.3864157;-55.59489059448242;-34.36048889160156;-14.738245964050293
196;1673372183.5007114;47.1306911;7.2405256;50.10200119018555;1673372183.5828896;-58.05103302001953;-25.237844467163086;-26.66010284423828
197;1673372183.7127826;47.1307048;7.240504;50.06500244140625;1673372183.7997446;-51.50838851928711;-16.332353591918945;-32.976375579833984
198;1673372183.9161117;47.1307196;7.240481;50.00700378417969;1673372184.0026083;-50.444393157958984;-11.717493057250977;-38.64836120605469
199;1673372184.1625683;47.1307353;7.240456999999999;49.95100402832031;1673372184.2378225;-50.8952751159668;-8.598939895629883;-44.757080078125
200;1673372184.343832;47.130751499999995;7.2404322;49.900001525878906;1673372184.4224932;-49.52251434326172;-4.911100387573242;-51.26174545288086
201;1673372184.5328584;47.1307682;7.2404066;49.85300064086914;1673372184.6115487;-47.91117858886719;0.5873251557350159;-53.892818450927734
202;1673372184.7301886;47.1307851;7.2403808;49.7660026550293;1673372184.80531;-30.61547088623047;3.543581962585449;-50.87113571166992
203;1673372184.9223907;47.1308018;7.2403555;49.358001708984375;1673372185.0113394;9.664421081542969;10.13757610321045;-44.51336669921875
204;1673372185.1398277;47.130818399999995;7.2403305;48.582000732421875;1673372185.215178;64.2646484375;43.20573425292969;-11.240945816040039
205;1673372185.3358097;47.130835;7.2403054;47.419002532958984;1673372185.4181852;48.94384765625;154.8533935546875;102.2461929321289
206;1673372185.5322862;47.1308516;7.2402805;45.91200256347656;1673372185.6112669;18.646547317504883;163.1531219482422;113.12605285644531
207;1673372185.7223566;47.1308679;7.2402561;44.05000305175781;1673372185.8002155;12.597737312316895;157.93919372558594;110.2607192993164
208;1673372185.9293478;47.1308839;7.2402321999999995;41.816001892089844;1673372186.0064645;32.68224334716797;137.80618286132812;99.528076171875
209;1673372186.1254349;47.1308997;7.2402088;39.22300338745117;1673372186.2063437;46.16696548461914;63.97986602783203;35.843292236328125
210;1673372186.3222766;47.1309155;7.240185599999999;36.263999938964844;1673372186.4081728;-5.588207244873047;9.453794479370117;-9.242010116577148
211;1673372186.5562837;47.130931399999994;7.2401624;32.9010009765625;1673372186.6784048;-54.51140213012695;-10.447983741760254;-16.309978485107422
212;1673372186.7844436;47.130947;7.2401396;29.167001724243164;1673372186.8512273;-68.07740020751953;-6.019866943359375;-28.99748420715332
213;1673372186.978282;47.1309623;7.240117199999999;25.11400032043457;1673372187.0432987;-39.2307243347168;8.378778457641602;-41.88749313354492
214;1673372187.1627588;47.1309773;7.2400953999999995;20.72300148010254;1673372187.2312267;26.664230346679688;13.677865028381348;-36.28981018066406
215;1673372187.3708;47.1309921;7.240073799999999;15.934000968933105;1673372187.4531696;81.5876693725586;99.40071868896484;53.22303771972656
216;1673372187.5639136;47.1310071;7.2400519999999995;10.785000801086426;1673372187.6623144;69.66847229003906;172.09567260742188;128.9543914794922
217;1673372187.7900531;47.131021999999994;7.2400305;5.355000019073486;1673372187.8533585;76.4228286743164;-16.961620330810547;-61.08315658569336
218;1673372187.9556823;47.1310368;7.2400091;0.027000000700354576;1673372188.0799515;-20.217247009277344;1.2417482137680054;-53.44844055175781
219;1673372188.174724;47.1310296;7.2400117999999996;0.11300000548362732;1673372188.2594395;-67.116455078125;-3.8508450984954834;-63.33699035644531
220;1673372188.3621795;47.131020899999996;7.2400177;0.07500000298023224;1673372188.4343507;-64.5684585571289;-174.7600860595703;108.81857299804688
221;1673372188.5452683;47.1310134;7.2400248;0.006000000052154064;1673372188.6256595;-11.645058631896973;-179.06961059570312;110.72869873046875
222;1673372188.7345693;47.131006799999994;7.2400315;-0.1380000114440918;1673372188.8156152;1.1861450672149658;-177.61570739746094;110.14846801757812
223;1673372188.9242098;47.1309993;7.2400401;-0.10900000482797623;1673372189.0042634;1.4873377084732056;-177.75132751464844;110.00608825683594
224;1673372189.12327;47.130994799999996;7.240046899999999;-0.055000003427267075;1673372189.2072277;2.002978563308716;-178.0511932373047;109.70079803466797
225;1673372189.3564377;47.1309928;7.2400516999999995;0.023000001907348633;1673372189.4296775;2.535411834716797;-178.33636474609375;109.47554016113281
226;1673372189.5535533;47.1309926;7.2400546;0.11900000274181366;1673372189.6272993;3.1035985946655273;-178.62911987304688;109.3005599975586
227;1673372189.76461;47.1309937;7.2400553;0.2240000069141388;1673372189.8343124;3.713350772857666;-178.87799072265625;109.18304443359375
228;1673372189.941146;47.1309958;7.2400538999999995;0.3370000123977661;1673372190.0113115;4.258694171905518;-179.08140563964844;109.11624145507812
229;1673372190.1315122;47.130995299999995;7.240054799999999;0.4270000159740448;1673372190.2144096;4.599825859069824;-179.21128845214844;109.07364654541016
230;1673372190.3175318;47.130997699999995;7.2400516999999995;0.5380000472068787;1673372190.3932183;5.2069878578186035;-179.45010375976562;108.98920440673828
231;1673372190.5003924;47.1310017;7.2400462;0.6480000019073486;1673372190.5781593;5.890823841094971;-179.8209686279297;108.83621215820312
232;1673372190.6905756;47.131012299999995;7.2400369;0.8420000672340393;1673372190.7676606;6.708380222320557;179.63011169433594;108.60989379882812
233;1673372190.884415;47.1310218;7.240027899999999;0.9950000643730164;1673372190.9611835;7.073208808898926;179.46331787109375;108.6058120727539
234;1673372191.0814703;47.1310285;7.240020599999999;1.0780000686645508;1673372191.1641905;7.266971588134766;179.37017822265625;108.6407699584961
235;1673372191.2853577;47.131033099999996;7.240015199999999;1.1080000400543213;1673372191.375423;7.400216579437256;179.33494567871094;108.66781616210938
236;1673372191.4994178;47.1310356;7.240011399999999;1.1350001096725464;1673372191.5852752;7.51917028427124;179.3204803466797;108.72029876708984
237;1673372191.6963696;47.131037299999996;7.2400085999999995;1.1230000257492065;1673372191.7802212;7.590228080749512;179.2873077392578;108.78666687011719
238;1673372191.8982525;47.1310386;7.240006299999999;1.0920000076293945;1673372191.9794385;7.666584491729736;179.26719665527344;108.87840270996094
239;1673372192.1003706;47.1310395;7.240004399999999;1.0520000457763672;1673372192.195602;7.727410793304443;179.24774169921875;108.9678955078125
240;1673372192.3184083;47.1310401;7.2400028999999995;1.0070000886917114;1673372192.4012148;7.830699443817139;179.23841857910156;109.05371856689453
241;1673372192.5165787;47.1310406;7.2400014;0.9640000462532043;1673372192.5962002;7.9543304443359375;179.2187042236328;109.13552856445312
242;1673372192.7124567;47.1310411;7.2399996;0.9460000395774841;1673372192.7968063;8.102866172790527;179.1772003173828;109.16431427001953
243;1673372192.905386;47.1310414;7.2399983;0.921000063419342;1673372192.9853103;8.20097827911377;179.16067504882812;109.26017761230469
244;1673372193.110322;47.1310417;7.2399973;0.8950000405311584;1673372193.1922987;8.342636108398438;179.16001892089844;109.33515930175781
245;1673372193.3001907;47.1310419;7.2399964;0.8700000643730164;1673372193.3835485;8.507379531860352;179.15228271484375;109.37507629394531
246;1673372193.5065536;47.131042099999995;7.239995599999999;0.8460000157356262;1673372193.5898836;8.6609525680542;179.1438751220703;109.44245147705078
247;1673372193.699503;47.1310423;7.2399948;0.8220000267028809;1673372193.7723057;8.764939308166504;179.17042541503906;109.4887924194336
248;1673372193.8903527;47.1310425;7.2399939;0.7970000505447388;1673372193.9792538;8.976896286010742;179.169921875;109.52482604980469
249;1673372194.1032786;47.1310431;7.239992099999999;0.7790000438690186;1673372194.1910033;9.07673168182373;179.16648864746094;109.55879974365234
250;1673372194.3124337;47.131043399999996;7.239991;0.7580000162124634;1673372194.395;9.169964790344238;179.1717071533203;109.59610748291016
251;1673372194.508835;47.1310436;7.2399903;0.7390000224113464;1673372194.5921469;9.31566047668457;179.15438842773438;109.66812133789062
252;1673372194.7047012;47.1310437;7.2399897;0.7190000414848328;1673372194.802066;9.441606521606445;179.1646270751953;109.70533752441406
253;1673372194.9231498;47.131043899999995;7.2399892999999995;0.6970000267028809;1673372195.0077562;9.508870124816895;179.1975860595703;109.74484252929688
254;1673372195.1495721;47.131043999999996;7.2399888;-0.014000000432133675;1673372195.2203796;9.622909545898438;179.17404174804688;109.7738265991211
255;1673372195.3332138;47.131042199999996;7.2399932;-0.04500000178813934;1673372195.4184117;9.40073013305664;179.22225952148438;110.05863189697266
256;1673372195.551237;47.1310387;7.240001899999999;0.7250000238418579;1673372195.6331646;8.965914726257324;179.2863311767578;110.04716491699219
257;1673372195.7293525;47.131037299999996;7.240004399999999;0.7280000448226929;1673372195.8140326;8.978164672851562;179.32766723632812;110.01177215576172
258;1673372195.9220457;47.1310368;7.240005;0.703000009059906;;;;
