;pos_time;latitude;longitude;altitude;alt_time;pitch;roll;yaw
0;1673372071.9116218;47.1306425;7.2406198999999996;-0.009000000543892384;1673372072.01869;0.18580932915210724;-0.5713644027709961;90.3764877319336
1;1673372072.0866456;47.1306425;7.2406198999999996;-0.01100000087171793;1673372072.221637;-0.07848788797855377;-0.6798511147499084;90.39051818847656
2;1673372072.3008103;47.1306425;7.2406198999999996;-0.013000000268220901;1673372072.4441261;0.012897971086204052;-0.3694096505641937;90.30046844482422
3;1673372072.5160725;47.1306425;7.2406198999999996;-0.015000000596046448;1673372072.6319103;0.07121913135051727;-0.5009312033653259;90.58024597167969
4;1673372072.7093909;47.1306425;7.2406198999999996;-0.013000000268220901;1673372072.8240995;0.10745404660701752;-0.5085813999176025;90.54354095458984
5;1673372072.9010637;47.1306425;7.240619799999999;-0.012000000104308128;1673372073.0342388;-0.009913778863847256;-0.3921947479248047;90.40667724609375
6;1673372073.1562612;47.1306424;7.2406198999999996;-0.012000000104308128;1673372073.2758439;-0.1496628373861313;-0.5015815496444702;90.46757507324219
7;1673372073.3422978;47.1306424;7.2406198999999996;-0.012000000104308128;1673372073.458435;-0.12128328531980515;-0.3859625458717346;90.39044189453125
8;1673372073.5175443;47.1306424;7.2406198999999996;-0.012000000104308128;1673372073.6421435;-0.0325150229036808;-0.46285244822502136;90.30642700195312
9;1673372073.7238548;47.1306424;7.2406198999999996;-0.013000000268220901;1673372073.8500667;0.0048530627973377705;-0.38530558347702026;90.38275146484375
10;1673372073.9393091;47.1306424;7.2406198999999996;-0.0010000000474974513;1673372074.107346;0.11323829740285873;-0.5590852499008179;90.58169555664062
11;1673372074.2169788;47.1306424;7.2406198999999996;-0.005000000353902578;1673372074.3151512;-0.014508388005197048;-0.4703057110309601;90.54132843017578
12;1673372074.3976843;47.1306424;7.2406198999999996;-0.01100000087171793;1673372074.520882;-0.10014838725328445;-0.3643677234649658;90.3147201538086
13;1673372074.5799775;47.1306424;7.24062;-0.01600000075995922;1673372074.679143;-0.28388556838035583;-0.38200265169143677;90.48941040039062
14;1673372074.7475677;47.1306424;7.2406201;-0.01900000125169754;1673372074.8585994;-0.09200520068407059;-0.33938682079315186;90.3425521850586
15;1673372074.933263;47.1306424;7.2406201;-0.021000001579523087;1673372075.0513322;0.257673442363739;-0.423646479845047;90.52535247802734
16;1673372075.1252658;47.1306424;7.2406201;-0.023000001907348633;1673372075.2504435;-0.06186360865831375;-0.4430367648601532;90.49456787109375
17;1673372075.3332508;47.1306424;7.2406201;-0.023000001907348633;1673372075.4499025;0.009643061086535454;-0.0624517984688282;90.37545013427734
18;1673372075.522477;47.1306424;7.2406201999999995;0.0010000000474974513;1673372075.653055;0.13937611877918243;-0.3727025091648102;90.51689147949219
19;1673372075.7242222;47.1306424;7.2406201999999995;0.0020000000949949026;1673372075.838311;0.0054528117179870605;-0.6014856100082397;90.33515930175781
20;1673372075.918629;47.1306424;7.2406203;0.003000000026077032;1673372076.0384085;-0.07720258086919785;-0.5547275543212891;90.48149108886719
21;1673372076.1163833;47.1306424;7.2406203;0.004000000189989805;1673372076.249458;0.05031678080558777;-0.5666200518608093;90.29603576660156
22;1673372076.3226616;47.1306424;7.2406204;0.006000000052154064;1673372076.4393008;0.12699422240257263;-0.026097632944583893;90.13862609863281
23;1673372076.5195796;47.1306424;7.2406203;0.01100000087171793;1673372076.628275;0.12688004970550537;-0.4535036087036133;91.09827423095703
24;1673372076.7083867;47.1306424;7.2406203;0.01100000087171793;1673372076.8316388;0.17028571665287018;-0.08505331724882126;90.48564910888672
25;1673372076.9074793;47.1306424;7.2406201999999995;0.010000000707805157;1673372077.032612;0.40006422996520996;-0.08137822896242142;90.18382263183594
26;1673372077.1143403;47.1306424;7.2406201;0.01100000087171793;1673372077.2363896;0.3927364647388458;0.09490250796079636;90.18070983886719
27;1673372077.3194258;47.1306424;7.2406201;0.012000000104308128;1673372077.4384181;0.7622740864753723;-0.1942000389099121;89.91295623779297
28;1673372077.557578;47.1306424;7.2406201;0.013000000268220901;1673372077.6743433;1.1575974225997925;-0.4005964398384094;90.49593353271484
29;1673372077.7473016;47.1306424;7.24062;0.018000001087784767;1673372077.8622518;0.7124714851379395;-2.04410719871521;90.92001342773438
30;1673372077.936443;47.1306424;7.2406198999999996;0.04100000113248825;1673372078.0586965;0.6772885918617249;2.242499828338623;90.73960876464844
31;1673372078.1384945;47.1306424;7.240619799999999;0.08000000566244125;1673372078.2619557;-0.08327443897724152;-0.7342798113822937;90.98441314697266
32;1673372078.3312895;47.1306423;7.2406197;0.13300000131130219;1673372078.4424415;-0.22917981445789337;-2.7346484661102295;91.16159057617188
33;1673372078.5195782;47.1306424;7.240619799999999;0.20500001311302185;1673372078.635175;-0.6589390635490417;2.2205512523651123;90.6839828491211
34;1673372078.7062242;47.1306425;7.2406198999999996;0.29200002551078796;1673372078.8272617;-0.46657249331474304;0.5701659321784973;90.66466522216797
35;1673372078.9070075;47.1306425;7.24062;0.3960000276565552;1673372079.0257235;0.19739283621311188;-2.8781895637512207;90.88467407226562
36;1673372079.0995674;47.1306425;7.2406201;0.5180000066757202;1673372079.2357876;0.978619396686554;1.1687304973602295;90.63689422607422
37;1673372079.3138254;47.1306425;7.2406203;0.6510000228881836;1673372079.466985;1.4981036186218262;1.6670012474060059;90.59939575195312
38;1673372079.537556;47.1306425;7.2406203;0.7940000295639038;1673372079.6471744;1.0964446067810059;-3.312011480331421;90.5982437133789
39;1673372079.718469;47.130642599999995;7.2406201999999995;0.9520000219345093;1673372079.8467464;0.13940918445587158;0.5404988527297974;90.40494537353516
40;1673372079.9542634;47.130642599999995;7.2406201999999995;1.1230000257492065;1673372080.0934284;-0.20254017412662506;2.418046712875366;90.10533142089844
41;1673372080.164184;47.130642599999995;7.2406201;1.308000087738037;1673372080.2897716;0.07550935447216034;-2.6678972244262695;90.46096801757812
42;1673372080.367431;47.130642599999995;7.2406201;1.4980000257492065;1673372080.4924388;0.5348846912384033;-1.0555206537246704;89.59413146972656
43;1673372080.5550082;47.1306425;7.2406201;1.6880000829696655;1673372080.6599977;0.795059084892273;2.4360904693603516;89.7032699584961
44;1673372080.7303987;47.1306424;7.24062;1.8780001401901245;1673372080.8423514;0.8747074604034424;-2.641686201095581;89.97386169433594
45;1673372080.9093957;47.1306424;7.2406198999999996;2.073000192642212;1673372081.0282955;-0.34273862838745117;-1.4674224853515625;89.84052276611328
46;1673372081.0959783;47.1306425;7.240619799999999;2.2690000534057617;1673372081.220659;-0.5898237824440002;2.6819775104522705;89.7235336303711
47;1673372081.2974;47.130642599999995;7.2406197;2.4650001525878906;1673372081.4288912;-0.5518069863319397;-0.051592763513326645;89.89588165283203
48;1673372081.505069;47.1306425;7.240619799999999;2.6620001792907715;1673372081.6300478;-0.23548422753810883;-3.5237622261047363;90.12150573730469
49;1673372081.7118206;47.1306425;7.2406198999999996;2.8590002059936523;1673372081.8403065;0.06918171793222427;1.7409613132476807;89.70304870605469
50;1673372081.9152613;47.1306425;7.2406198999999996;3.056000232696533;1673372082.0310817;0.34453216195106506;2.1221120357513428;89.77938842773438
51;1673372082.1108685;47.1306425;7.24062;3.251000165939331;1673372082.2267084;0.4530131220817566;-3.114149570465088;90.00730895996094
52;1673372082.2989616;47.1306425;7.2406198999999996;3.449000120162964;1673372082.425567;0.6853848099708557;1.0916672945022583;89.81918334960938
53;1673372082.5284057;47.130642599999995;7.2406198999999996;3.6540002822875977;1673372082.657494;0.13407480716705322;2.4669885635375977;89.7306900024414
54;1673372082.7502367;47.130642599999995;7.2406198999999996;3.8590002059936523;1673372082.8776004;-0.5634275078773499;-2.876598358154297;89.97749328613281
55;1673372083.0020072;47.1306424;7.2406198999999996;4.060000419616699;1673372083.1316006;-0.5114430785179138;-0.7411156296730042;89.99176788330078
56;1673372083.1965637;47.1306422;7.24062;4.261000156402588;1673372083.2958465;-0.19789063930511475;1.864687442779541;89.75603485107422
57;1673372083.3608108;47.130642099999996;7.24062;4.463000297546387;1673372083.4640207;0.10104084759950638;-3.120582342147827;89.77763366699219
58;1673372083.533325;47.130642099999996;7.24062;4.6660003662109375;1673372083.6632535;0.3649439811706543;-1.6487656831741333;89.84989166259766
59;1673372083.7395318;47.1306422;7.24062;4.869000434875488;1673372083.8607051;0.38121676445007324;2.694962501525879;89.82708740234375
60;1673372083.9368658;47.1306423;7.2406201;5.074000358581543;1673372084.0459485;0.33310920000076294;-1.6177693605422974;90.08059692382812
61;1673372084.1227918;47.1306422;7.2406201;5.278000354766846;1673372084.2416117;-0.39478686451911926;-2.3423399925231934;89.86803436279297
62;1673372084.3164208;47.130642099999996;7.2406201;5.482000350952148;1673372084.4390144;-0.4720088839530945;1.9835935831069946;89.57120513916016
63;1673372084.517625;47.1306422;7.2406201;5.682000160217285;1673372084.648069;-0.04967251792550087;0.05186806991696358;89.85311889648438
64;1673372084.7188957;47.1306422;7.2406201;5.883000373840332;1673372084.8460438;0.16649805009365082;-3.220419406890869;90.02529907226562
65;1673372084.922202;47.1306424;7.2406201;6.086000442504883;1673372085.037573;0.440420001745224;2.167522668838501;89.9135513305664
66;1673372085.113923;47.1306424;7.2406201;6.2920002937316895;1673372085.2412524;0.5178896188735962;1.9045519828796387;89.81483459472656
67;1673372085.3149903;47.1306424;7.2406201999999995;6.50100040435791;1673372085.4239345;0.467128723859787;-3.011258125305176;89.87049102783203
68;1673372085.491971;47.1306423;7.2406201999999995;6.712000370025635;1673372085.613547;0.22645016014575958;0.4680449962615967;89.81570434570312
69;1673372085.7042508;47.1306422;7.2406201999999995;6.9210004806518555;1673372085.8395026;-0.377114474773407;1.4146769046783447;89.7075424194336
70;1673372085.915218;47.130642099999996;7.2406203;7.123000144958496;1673372086.0378318;-0.17024505138397217;-3.2926840782165527;90.00746154785156
71;1673372086.121448;47.130641999999995;7.2406204999999995;7.327000141143799;1673372086.2462523;0.45733481645584106;-0.3462357819080353;89.88804626464844
72;1673372086.3284583;47.130642099999996;7.2406204999999995;7.528000354766846;1673372086.4499943;0.5893961191177368;2.1726529598236084;89.83548736572266
73;1673372086.5374537;47.130642099999996;7.2406204999999995;7.7300004959106445;1673372086.6530828;0.7872161865234375;-2.6337738037109375;89.91563415527344
74;1673372086.7191577;47.130641999999995;7.2406204999999995;7.934000492095947;1673372086.8445194;0.6649985313415527;-1.8755393028259277;89.84939575195312
75;1673372086.9163165;47.130641999999995;7.2406204;8.133000373840332;1673372087.040727;0.3714984059333801;2.236666440963745;89.70140075683594
76;1673372087.1244874;47.130642099999996;7.2406204;8.329000473022461;1673372087.2461615;0.12400908023118973;-0.8027228713035583;90.12281799316406
77;1673372087.327911;47.1306422;7.2406203;8.528000831604004;1673372087.4395914;-0.2750975787639618;-2.379380464553833;90.10276794433594
78;1673372087.5124018;47.1306423;7.2406204;8.72800064086914;1673372087.6293209;-0.20410749316215515;2.1156914234161377;89.6719741821289
79;1673372087.7050824;47.1306423;7.2406204;8.931000709533691;1673372087.8337014;0.0859098806977272;1.08065664768219;89.67560577392578
80;1673372087.9231384;47.1306422;7.2406204;9.131999969482422;1673372088.0567803;0.7019293904304504;-3.5114119052886963;89.79320526123047
81;1673372088.1315145;47.130642099999996;7.2406204;9.333000183105469;1673372088.2545645;1.0377990007400513;1.2635092735290527;89.93283081054688
82;1673372088.3281133;47.130642099999996;7.2406204;9.538000106811523;1673372088.4588468;0.5851494669914246;1.0712658166885376;89.97262573242188
83;1673372088.53605;47.130642099999996;7.2406204;9.73900032043457;1673372088.658233;0.2616766393184662;-3.2812390327453613;89.98408508300781
84;1673372088.731962;47.130642099999996;7.2406204;9.939000129699707;1673372088.8464756;-0.03368664160370827;0.29697176814079285;89.73902130126953
85;1673372088.922872;47.130642099999996;7.2406204;10.142000198364258;1673372089.0428572;-0.10011151432991028;1.7237881422042847;89.65766906738281
86;1673372089.117584;47.130642099999996;7.2406204;10.402000427246094;1673372089.2412543;-0.26699507236480713;-2.6520702838897705;90.03826141357422
87;1673372089.319931;47.130641999999995;7.2406204;10.75100040435791;1673372089.447359;0.20279459655284882;-1.6631759405136108;90.02733612060547
88;1673372089.5182915;47.130641999999995;7.2406204;11.12700080871582;1673372089.6545463;0.6760793328285217;1.8039172887802124;89.82291412353516
89;1673372089.7390766;47.130642099999996;7.2406204;11.517000198364258;1673372089.854836;0.8725910186767578;-0.4824354350566864;89.7998275756836
90;1673372089.9249363;47.1306422;7.2406203;11.914000511169434;1673372090.0322707;0.6653702855110168;-2.508007287979126;89.8751449584961
91;1673372090.1077495;47.1306423;7.2406203;12.315000534057617;1673372090.2283962;-0.13799336552619934;1.8326969146728516;89.59691619873047
92;1673372090.3057878;47.1306424;7.2406201999999995;12.717000961303711;1673372090.430338;-0.09603805094957352;1.0913505554199219;89.798583984375
93;1673372090.5089617;47.1306424;7.2406201999999995;13.123001098632812;1673372090.6454046;-0.31906452775001526;-2.788968801498413;89.96778106689453
94;1673372090.7310076;47.1306423;7.2406201999999995;13.531001091003418;1673372090.863858;-0.22663718461990356;1.035747766494751;89.76924896240234
95;1673372090.9391325;47.1306423;7.2406201999999995;13.934000968933105;1673372091.055003;0.10771171748638153;1.102773904800415;89.732177734375
96;1673372091.1324012;47.1306423;7.2406201999999995;14.336000442504883;1673372091.2512896;0.14246134459972382;-2.756277561187744;89.93473815917969
97;1673372091.3382878;47.1306423;7.2406201;14.738000869750977;1673372091.4582405;0.1618245542049408;-0.20382185280323029;89.95097351074219
98;1673372091.5356562;47.1306423;7.24062;15.141000747680664;1673372091.6557593;0.08437463641166687;1.9733247756958008;89.73007202148438
99;1673372091.7324812;47.1306422;7.2406198999999996;15.547000885009766;1673372091.8563604;-0.04778357967734337;-2.3677830696105957;89.99101257324219
100;1673372091.9335365;47.130642099999996;7.2406198999999996;15.956000328063965;1673372092.0424175;-0.2796945869922638;-1.80466890335083;89.91921997070312
101;1673372092.1202116;47.130642099999996;7.2406198999999996;16.365001678466797;1673372092.2513533;-0.4283382296562195;1.9836187362670898;89.62635803222656
102;1673372092.3212285;47.130642099999996;7.2406198999999996;16.772001266479492;1673372092.440451;-0.42969846725463867;-0.5082511305809021;89.83575439453125
103;1673372092.5178;47.1306422;7.2406198999999996;17.178001403808594;1673372092.6522176;-0.11071977764368057;-2.365806818008423;90.05953979492188
104;1673372092.741616;47.1306423;7.24062;17.58500099182129;1673372092.8555343;0.13440820574760437;2.288923978805542;89.94158935546875
105;1673372092.9294336;47.1306424;7.24062;17.99100112915039;1673372093.0491729;0.42219722270965576;1.213898777961731;89.83699798583984
106;1673372093.1338036;47.1306423;7.24062;18.398000717163086;1673372093.2546222;0.4591588079929352;-2.9173622131347656;89.86592864990234
107;1673372093.3332767;47.1306422;7.24062;18.803001403808594;1673372093.4572861;0.3592086434364319;0.7465713024139404;89.64459228515625
108;1673372093.5356715;47.1306422;7.24062;19.20400047302246;1673372093.6588376;0.29339224100112915;1.186295747756958;89.74163055419922
109;1673372093.732783;47.1306422;7.2406201;19.60500144958496;1673372093.8448737;-0.10351338237524033;-2.964768409729004;90.03536987304688
110;1673372093.9124393;47.1306423;7.2406201;20.00800132751465;1673372094.0425172;0.029651910066604614;0.17310449481010437;89.7884521484375
111;1673372094.1307552;47.1306423;7.2406201;20.411001205444336;1673372094.2541447;0.0029599263798445463;2.3795812129974365;89.68510437011719
112;1673372094.3172336;47.1306423;7.2406201999999995;20.81300163269043;1673372094.4386835;0.37038302421569824;-2.2014832496643066;89.97125244140625
113;1673372094.5142753;47.1306423;7.2406203;21.21500015258789;1673372094.6366134;0.4451591670513153;-1.5934417247772217;90.02066802978516
114;1673372094.7165594;47.1306423;7.2406203;21.6200008392334;1673372094.8444672;0.6075295209884644;2.3723509311676025;89.76278686523438
115;1673372094.9252954;47.1306423;7.2406203;22.020000457763672;1673372095.0520356;0.5422999262809753;-0.9774136543273926;90.00755310058594
116;1673372095.1356993;47.1306424;7.2406203;22.416000366210938;1673372095.254614;0.5194419026374817;-2.322464942932129;89.9944839477539
117;1673372095.3281293;47.1306425;7.2406203;22.81100082397461;1673372095.4509563;0.25903183221817017;2.2229623794555664;89.73585510253906
118;1673372095.52985;47.130642599999995;7.2406203;23.20800018310547;1673372095.6537201;0.08278559893369675;0.5719730854034424;89.8714370727539
119;1673372095.732981;47.1306425;7.2406203;23.60500144958496;1673372095.8621945;-0.19374391436576843;-2.52479887008667;90.08511352539062
120;1673372095.9378371;47.1306424;7.2406203;24.00200080871582;1673372096.065409;-0.060068003833293915;1.4236871004104614;89.77513122558594
121;1673372096.1489847;47.1306424;7.2406201999999995;24.3960018157959;1673372096.264856;0.10782350599765778;0.6169883012771606;89.62349700927734
122;1673372096.3386297;47.1306424;7.2406201999999995;24.793001174926758;1673372096.4592547;0.0618283748626709;-2.782994508743286;89.85323333740234
123;1673372096.5615892;47.1306424;7.24062;25.192001342773438;1673372096.6730466;0.18995288014411926;0.5550330877304077;89.85211181640625
124;1673372096.748798;47.1306425;7.24062;25.589000701904297;1673372096.8704846;0.07941057533025742;2.355855941772461;89.77034759521484
125;1673372096.9454718;47.1306425;7.2406198999999996;25.987001419067383;1673372097.0619347;0.0342162624001503;-2.489109516143799;89.95528411865234
126;1673372097.1464548;47.1306425;7.2406198999999996;26.387001037597656;1673372097.2641163;-0.3902871608734131;-1.2866193056106567;89.86328125
127;1673372097.3461437;47.1306425;7.2406198999999996;26.788002014160156;1673372097.486917;-0.26843562722206116;2.154728889465332;89.65255737304688
128;1673372097.5641496;47.1306425;7.2406198999999996;27.18600082397461;1673372097.6707313;-0.4505501985549927;-1.1528600454330444;89.86764526367188
129;1673372097.741032;47.130642599999995;7.2406198999999996;27.589000701904297;1673372097.8637953;-0.11619365215301514;-1.8429821729660034;90.052734375
130;1673372097.9394963;47.130642699999996;7.240619799999999;27.99700164794922;1673372098.070867;0.13852223753929138;2.8541932106018066;89.95619201660156
131;1673372098.1417098;47.130642699999996;7.240619799999999;28.40300178527832;1673372098.2557173;0.35851797461509705;0.3613179922103882;89.84495544433594
132;1673372098.3285086;47.130642599999995;7.2406197;28.806001663208008;1673372098.4453788;0.25518450140953064;-2.7591121196746826;89.74838256835938
133;1673372098.5222852;47.1306425;7.2406197;29.207000732421875;1673372098.6537504;0.2270566076040268;1.5991030931472778;89.760009765625
134;1673372098.733343;47.1306425;7.2406197;29.60500144958496;1673372098.856542;0.025871315971016884;1.1687458753585815;89.83301544189453
135;1673372098.9301417;47.1306425;7.240619799999999;29.999000549316406;1673372099.0482914;-0.0665479302406311;-2.718109607696533;90.07272338867188
136;1673372099.129858;47.1306425;7.240619799999999;30.398000717163086;1673372099.2834053;-0.14062519371509552;0.4313257932662964;89.8390884399414
137;1673372099.360512;47.1306425;7.240619799999999;30.80000114440918;1673372099.4828196;0.18088483810424805;2.07012939453125;89.73522186279297
138;1673372099.5492642;47.1306425;7.2406198999999996;31.19900131225586;1673372099.6688914;0.481598436832428;-2.715320348739624;89.84590148925781
139;1673372099.743655;47.1306423;7.2406198999999996;31.59800148010254;1673372099.8707318;0.4749769866466522;-0.809953510761261;89.87017822265625
140;1673372099.9528315;47.1306423;7.2406198999999996;31.998001098632812;1673372100.0755103;0.6970574855804443;2.252310037612915;89.78057861328125
141;1673372100.1446016;47.1306424;7.2406198999999996;32.393001556396484;1673372100.2483773;0.3578866720199585;-1.3012135028839111;90.07606506347656
142;1673372100.3280575;47.1306424;7.2406198999999996;32.78700256347656;1673372100.4518151;0.2769360840320587;-1.9568567276000977;89.87379455566406
143;1673372100.5332823;47.1306425;7.2406198999999996;33.1870002746582;1673372100.6608427;-0.21687757968902588;2.5770304203033447;89.60261535644531
144;1673372100.7455091;47.1306425;7.2406198999999996;33.5880012512207;1673372100.8662326;-0.2477855682373047;0.8434337973594666;89.89790344238281
145;1673372100.939039;47.1306425;7.2406198999999996;33.987003326416016;1673372101.066069;-0.24205631017684937;-2.623434066772461;90.08824157714844
146;1673372101.142365;47.1306424;7.24062;34.38800048828125;1673372101.2671282;0.08310453593730927;1.3997992277145386;89.80476379394531
147;1673372101.3536348;47.1306424;7.24062;34.78600311279297;1673372101.4773421;0.4174298346042633;1.174139380455017;89.66417694091797
148;1673372101.5530381;47.1306424;7.24062;35.182003021240234;1673372101.663195;0.3668614327907562;-2.8661699295043945;89.91157531738281
149;1673372101.7800114;47.1306425;7.24062;35.577003479003906;1673372101.889517;0.275856077671051;0.5020707845687866;89.6485595703125
150;1673372101.9490533;47.1306425;7.2406198999999996;35.97200012207031;1673372102.0739384;-0.10433951765298843;2.1008455753326416;89.75377655029297
151;1673372102.146707;47.1306425;7.2406198999999996;36.371002197265625;1673372102.262919;-0.21095235645771027;-2.3730859756469727;90.01158905029297
152;1673372102.3416905;47.1306425;7.2406198999999996;36.77300262451172;1673372102.4528081;-0.4430581033229828;-0.8530504703521729;89.9755859375
153;1673372102.549296;47.1306425;7.2406198999999996;37.178001403808594;1673372102.656347;-0.3581642806529999;2.26827073097229;89.61923217773438
154;1673372102.724868;47.1306425;7.24062;37.58100128173828;1673372102.846492;-0.1282961368560791;-1.226299524307251;89.8348159790039
155;1673372102.9282484;47.130642599999995;7.24062;37.98200225830078;1673372103.0530462;-0.0031653123442083597;-1.5663915872573853;89.9327163696289
156;1673372103.1365554;47.130642699999996;7.24062;38.38800048828125;1673372103.2622259;0.31036755442619324;2.7748115062713623;89.77662658691406
157;1673372103.3462799;47.130642699999996;7.24062;38.79300308227539;1673372103.4681587;0.3128979802131653;0.08929872512817383;89.90647888183594
158;1673372103.5393507;47.130642699999996;7.2406198999999996;39.19600296020508;1673372103.6631446;0.27142333984375;-2.521960973739624;89.9560775756836
159;1673372103.7404237;47.130642599999995;7.2406198999999996;39.59700012207031;1673372103.864626;-0.013634870760142803;1.9453600645065308;89.77546691894531
160;1673372103.9379454;47.130642599999995;7.2406198999999996;39.99400329589844;1673372104.0460124;-0.06650364398956299;0.6173834800720215;89.77375793457031
161;1673372104.1187856;47.130642599999995;7.2406198999999996;40.39200210571289;1673372104.2442496;-0.26911041140556335;-2.8844358921051025;90.0015640258789
162;1673372104.3192556;47.130642599999995;7.2406198999999996;40.79100036621094;1673372104.4537582;0.016285251826047897;1.353039026260376;89.7178726196289
163;1673372104.540163;47.130642699999996;7.24062;41.1870002746582;1673372104.6659682;0.06461413204669952;2.237239122390747;89.75379180908203
164;1673372104.7506454;47.130642699999996;7.24062;41.58500289916992;1673372104.8748455;0.5465095043182373;-2.556170701980591;89.87712097167969
165;1673372104.955927;47.130642599999995;7.24062;41.98400115966797;1673372105.068837;0.5603237748146057;-1.0578802824020386;89.88252258300781
166;1673372105.148483;47.1306425;7.24062;42.387001037597656;1673372105.2634923;0.7269030213356018;2.5248935222625732;89.84159851074219
167;1673372105.3321297;47.130642599999995;7.24062;42.78700256347656;1673372105.4719818;0.43164217472076416;-1.3861418962478638;89.95626068115234
168;1673372105.5468976;47.130642599999995;7.2406201;43.1870002746582;1673372105.685785;0.11622342467308044;-1.738094449043274;89.87449645996094
169;1673372105.7598374;47.130642699999996;7.2406201;43.58700180053711;1673372105.915748;-0.08698686212301254;2.469064235687256;89.5372314453125
170;1673372106.1185083;47.130642699999996;7.2406201;43.98600387573242;1673372106.2478554;0.013995603658258915;-0.23260675370693207;89.92658996582031
171;1673372106.2879188;47.130642599999995;7.2406201;44.38300323486328;1673372106.3572774;0.04625393822789192;-2.4759395122528076;90.05620574951172
172;1673372106.414282;47.130642599999995;7.24062;44.777000427246094;1673372106.5134134;0.17406831681728363;1.8089778423309326;89.84430694580078
173;1673372106.5886436;47.130642599999995;7.24062;45.17100143432617;1673372106.702003;0.24309545755386353;0.8557090163230896;89.71131134033203
174;1673372106.7742615;47.130642599999995;7.2406198999999996;45.566001892089844;1673372106.8905478;0.2625887989997864;-2.7143993377685547;89.94309997558594
175;1673372106.950287;47.130642599999995;7.2406198999999996;45.96200180053711;1673372107.0667639;0.06735800206661224;1.1431748867034912;89.78275299072266
176;1673372107.1405146;47.130642699999996;7.240619799999999;46.35700225830078;1673372107.2707965;-0.05683966353535652;2.019131660461426;89.88411712646484
177;1673372107.3528342;47.130642599999995;7.240619799999999;46.75300216674805;1673372107.4772882;-0.44369828701019287;-2.699333667755127;90.07896423339844
178;1673372107.5571756;47.1306425;7.2406197;47.14800262451172;1673372107.681415;-0.5739018321037292;-0.8957554697990417;90.03912353515625
179;1673372107.752308;47.1306424;7.2406197;47.54300308227539;1673372107.884283;-0.48069682717323303;2.238302707672119;89.58564758300781
180;1673372107.9575727;47.1306425;7.2406197;47.93700408935547;1673372108.0806315;-0.10076801478862762;-1.4403157234191895;89.76924133300781
181;1673372108.1696906;47.130642599999995;7.2406197;48.29900360107422;1673372108.296333;-0.16104544699192047;-1.018121361732483;89.67620849609375
182;1673372108.3694332;47.130642599999995;7.2406196;48.617000579833984;1673372108.4661105;-0.15301242470741272;2.8454766273498535;89.77361297607422
183;1673372108.5484307;47.130642699999996;7.2406196;48.88600158691406;1673372108.6701667;-0.1720639169216156;-1.3812240362167358;90.05862426757812
184;1673372108.7484174;47.130642599999995;7.2406196;49.10900115966797;1673372108.8761573;-0.25506848096847534;-1.3259118795394897;89.89261627197266
185;1673372108.958504;47.130642599999995;7.2406196;49.2910041809082;1673372109.0888808;3.4842162132263184;4.903929710388184;89.30467987060547
186;1673372109.1658082;47.130642599999995;7.2406194;49.43800354003906;1673372109.278662;22.578229904174805;-7.102778434753418;83.3950424194336
187;1673372109.3475275;47.130642699999996;7.2406184;49.566001892089844;1673372109.4673212;32.5489387512207;-24.697391510009766;71.07188415527344
188;1673372109.5494642;47.130643299999996;7.2406149;49.672000885009766;1673372109.68326;21.660991668701172;-31.270984649658203;63.386940002441406
189;1673372109.7628694;47.1306448;7.2406087999999995;49.75100326538086;1673372109.884134;7.976160526275635;-33.17345428466797;52.457664489746094
190;1673372109.9622672;47.1306473;7.2406007;49.81300354003906;1673372110.0848439;-1.7480729818344116;-33.975128173828125;41.91351318359375
191;1673372110.1675313;47.1306508;7.240591299999999;49.871002197265625;1673372110.2842467;-13.729069709777832;-43.64374542236328;31.427310943603516
192;1673372110.362066;47.130655499999996;7.2405805;49.928001403808594;1673372110.5003154;-30.518226623535156;-46.362464904785156;21.205280303955078
193;1673372110.5789926;47.130662099999995;7.240567599999999;49.98100280761719;1673372110.7041445;-43.951839447021484;-45.11311721801758;10.424827575683594
194;1673372110.7993312;47.130671;7.2405520999999995;50.03200149536133;1673372110.9299977;-51.88677215576172;-40.55016326904297;-1.9911750555038452
195;1673372111.0067725;47.1306818;7.2405335;50.070003509521484;1673372111.1266108;-57.18252944946289;-30.877119064331055;-13.849499702453613
196;1673372111.198845;47.130694399999996;7.240512;50.07600402832031;1673372111.3132665;-54.97481918334961;-21.401397705078125;-21.99976348876953
197;1673372111.4013028;47.1307082;7.2404883;50.047000885009766;1673372111.5149844;-53.74348068237305;-14.920517921447754;-28.332590103149414
198;1673372111.5862353;47.1307231;7.240463;49.993003845214844;1673372111.702269;-51.20610809326172;-9.965837478637695;-34.80824661254883
199;1673372111.7766438;47.130738799999996;7.2404367;49.92900085449219;1673372111.9067721;-48.68501281738281;-6.390742301940918;-40.82258605957031
200;1673372111.988884;47.130755;7.2404097;49.86300277709961;1673372112.099478;-42.532814025878906;-2.1133193969726562;-47.5473518371582
201;1673372112.1755214;47.1307713;7.240382299999999;49.68300247192383;1673372112.2866428;-12.493119239807129;-0.43283605575561523;-52.713897705078125
202;1673372112.350723;47.130787399999996;7.2403552;49.15500259399414;1673372112.4667904;38.691619873046875;-4.750359058380127;-58.09798049926758
203;1673372112.540529;47.1308034;7.2403284999999995;48.24700164794922;1673372112.682572;76.98077392578125;-142.8612060546875;164.95204162597656
204;1673372112.762783;47.1308193;7.2403017;46.95500183105469;1673372112.8917363;33.95660400390625;-171.90135192871094;137.23867797851562
205;1673372112.975629;47.1308352;7.240275;45.31800079345703;1673372113.092699;16.913698196411133;-175.54446411132812;132.90335083007812
206;1673372113.177584;47.130850699999996;7.2402489999999995;43.30600357055664;1673372113.2916398;27.229459762573242;-173.65757751464844;134.5021514892578
207;1673372113.3714364;47.130866;7.2402234;40.92100143432617;1673372113.4966753;65.49772644042969;-152.72625732421875;155.72808837890625
208;1673372113.577965;47.130880999999995;7.2401982;38.19000244140625;1673372113.698442;42.56028747558594;-13.80275821685791;-69.44447326660156
209;1673372113.7715526;47.1308961;7.2401728;35.104000091552734;1673372113.8954926;-25.4155330657959;2.8916678428649902;-61.18339538574219
210;1673372113.9656475;47.1309112;7.2401475;31.604001998901367;1673372114.0848281;-63.34261703491211;10.96440315246582;-61.14848709106445
211;1673372114.1738222;47.1309259;7.240122899999999;27.755001068115234;1673372114.304815;-60.4762077331543;6.980942726135254;-52.98233413696289
212;1673372114.386532;47.1309403;7.2400987;23.582000732421875;1673372114.513852;-14.112478256225586;1.7111207246780396;-45.14631271362305
213;1673372114.5929146;47.1309544;7.240075;19.062000274658203;1673372114.7104158;57.4212760925293;4.458488464355469;-36.510047912597656
214;1673372114.787655;47.1309684;7.2400515;14.13800048828125;1673372114.967175;73.32207489013672;153.928955078125;114.65998840332031
215;1673372115.045512;47.130982499999995;7.2400277;8.891000747680664;1673372115.190513;73.54656982421875;131.73533630371094;94.41231536865234
216;1673372115.2847567;47.130996599999996;7.2400043;3.3500001430511475;1673372115.422555;-4.7531843185424805;-3.588973045349121;-27.21170425415039
217;1673372115.4736013;47.1310046;7.2399885;0.44600000977516174;1673372115.5925944;-50.86045837402344;-7.693212985992432;-28.891998291015625
218;1673372115.6465764;47.1309988;7.2399898;0.9020000696182251;1673372115.7727091;-85.2284927368164;-49.97937774658203;13.238675117492676
219;1673372115.8503904;47.1309919;7.2399938;1.0509999990463257;1673372115.9641225;-60.89703369140625;-172.2156219482422;136.40484619140625
220;1673372116.0446582;47.1309855;7.2399983;1.152000069618225;1673372116.1616948;-22.50242042541504;-175.94064331054688;141.5634307861328
221;1673372116.2294827;47.130980799999996;7.2400025999999995;0.9950000643730164;1673372116.3447874;7.632200717926025;-176.14981079101562;142.81594848632812
222;1673372116.4326491;47.1309774;7.2400072;1.0500000715255737;1673372116.57663;7.936004161834717;-176.3936767578125;142.2835235595703
223;1673372116.6536806;47.1309761;7.2400107;1.1570000648498535;1673372116.7615576;8.089920043945312;-176.72239685058594;141.83396911621094
224;1673372116.8359625;47.1309763;7.2400131;1.2090001106262207;1673372116.9536767;8.362279891967773;-177.01577758789062;141.4892120361328
225;1673372117.0235555;47.130976499999996;7.240014599999999;1.2710000276565552;1673372117.1415877;8.539666175842285;-177.3213348388672;141.2365264892578
226;1673372117.2126012;47.130983099999995;7.240015499999999;1.409000039100647;1673372117.334769;9.598118782043457;-178.024169921875;140.14669799804688
227;1673372117.4086015;47.1309927;7.2400131;1.5660001039505005;1673372117.5276186;9.86248779296875;-178.11962890625;140.2156219482422
228;1673372117.592607;47.130999599999996;7.2400087;1.686000108718872;1673372117.7071176;9.88183307647705;-178.3084716796875;140.2711944580078
229;1673372117.7898839;47.1310042;7.240004399999999;1.7620000839233398;1673372117.907598;9.801528930664062;-178.5125732421875;140.2904052734375
230;1673372117.9887228;47.1310071;7.2400008;1.7980000972747803;1673372118.0955746;9.701275825500488;-178.6729736328125;140.3511199951172
231;1673372118.1755714;47.1310089;7.239997799999999;1.815000057220459;1673372118.2918296;9.576018333435059;-178.82530212402344;140.391845703125
232;1673372118.3839757;47.1310103;7.2399951;1.8570001125335693;1673372118.4957125;9.507603645324707;-178.94546508789062;140.45301818847656
233;1673372118.5726924;47.131011199999996;7.2399928;1.9060001373291016;1673372118.697605;9.31364631652832;-179.12733459472656;140.53668212890625
234;1673372118.7727845;47.131011799999996;7.2399911999999995;1.933000087738037;1673372118.8987572;9.154379844665527;-179.28018188476562;140.60581970214844
235;1673372118.9776213;47.1310121;7.239989899999999;1.9560000896453857;1673372119.1105478;9.026155471801758;-179.42665100097656;140.67361450195312
236;1673372119.1846468;47.1310122;7.2399888;1.9820001125335693;1673372119.3100123;8.891031265258789;-179.66807556152344;140.73928833007812
237;1673372119.409106;47.131012399999996;7.2399876999999995;2.014000177383423;1673372119.540524;8.78317642211914;-179.8665313720703;140.80523681640625
238;1673372119.6104424;47.131012999999996;7.239986399999999;2.072000026702881;1673372119.7275972;8.7362642288208;179.9341583251953;140.8478240966797
239;1673372119.7968624;47.131013599999996;7.239985099999999;2.1410000324249268;1673372119.9146798;8.629499435424805;179.7259063720703;140.91766357421875
240;1673372119.9965181;47.1310139;7.239984199999999;2.2080001831054688;1673372120.1296759;8.579854965209961;179.5798797607422;140.9664764404297
241;1673372120.201511;47.131014;7.239983499999999;2.2730000019073486;1673372120.3286374;8.509132385253906;179.42579650878906;141.02711486816406
242;1673372120.3998873;47.131014199999996;7.239982899999999;2.3380000591278076;1673372120.5307698;8.417819023132324;179.1863555908203;141.06927490234375
243;1673372120.6036198;47.1310144;7.239982299999999;2.4010000228881836;1673372120.7236695;8.349081993103027;178.97288513183594;141.11927795410156
244;1673372120.7976325;47.1310146;7.2399816999999995;2.4610002040863037;1673372120.9091046;8.302109718322754;178.80824279785156;141.17747497558594
245;1673372120.9806013;47.1310153;7.2399809;2.5280001163482666;1673372121.1174896;8.2711181640625;178.65284729003906;141.19664001464844
246;1673372121.1905406;47.131015999999995;7.23998;2.6000001430511475;1673372121.3054738;8.208083152770996;178.57302856445312;141.26052856445312
247;1673372121.392704;47.1310163;7.239979399999999;2.6650002002716064;1673372121.5136037;8.162633895874023;178.43296813964844;141.30873107910156
248;1673372121.5936158;47.1310165;7.2399789;2.7230000495910645;1673372121.7098763;8.148388862609863;178.23068237304688;141.34458923339844
249;1673372121.7835777;47.131016599999995;7.239978499999999;2.7760000228881836;1673372121.8970678;8.08853816986084;178.0189208984375;141.40481567382812
250;1673372121.985136;47.131016699999996;7.2399781999999995;2.823000192642212;1673372122.1042674;8.020255088806152;177.84202575683594;141.45899963378906
251;1673372122.1867917;47.1310174;7.2399776;2.871000051498413;1673372122.3177435;8.006304740905762;177.69461059570312;141.49928283691406
252;1673372122.4047716;47.1310181;7.239976899999999;0.003000000026077032;1673372122.5202694;7.931567668914795;177.58053588867188;141.54965209960938
253;1673372122.5910857;47.131018399999995;7.239976599999999;-0.0010000000474974513;1673372122.713864;7.85857629776001;177.40927124023438;141.5980987548828
254;1673372122.79185;47.131018499999996;7.2399762999999995;-0.07300000637769699;;;;
