;pos_time;latitude;longitude;altitude;alt_time;pitch;roll;yaw
0;1666162289.1614702;46.9755342;7.180356199999999;-0.013000000268220901;1666162289.2092905;-0.14380881190299988;-0.3352776765823364;92.71719360351562
1;1666162289.3742335;46.9755343;7.180356199999999;-0.012000000104308128;1666162289.4181573;0.05923168361186981;-0.24705806374549866;92.55513000488281
2;1666162289.5713897;46.9755343;7.180356199999999;-0.013000000268220901;1666162289.623116;-0.14267998933792114;-0.13493597507476807;92.6189956665039
3;1666162289.80856;46.9755343;7.1803563;-0.010000000707805157;1666162289.8495502;-0.08022370934486389;-0.13794030249118805;92.56048583984375
4;1666162290.018397;46.9755343;7.180356199999999;-0.006000000052154064;1666162290.0593863;-0.31261566281318665;-0.3784852623939514;92.57767486572266
5;1666162290.2174983;46.9755343;7.180356199999999;-0.005000000353902578;1666162290.2692273;-0.18776246905326843;-0.1934567540884018;92.57955169677734
6;1666162290.4439309;46.9755343;7.180356199999999;-0.005000000353902578;1666162290.490779;0.07177216559648514;-0.2323152869939804;92.64034271240234
7;1666162290.6615803;46.9755343;7.1803561;-0.004000000189989805;1666162290.699643;0.017513858154416084;-0.21969884634017944;92.68179321289062
8;1666162290.8665395;46.9755343;7.1803561;-0.003000000026077032;1666162290.9124115;-0.13598138093948364;-0.090888112783432;92.5692367553711
9;1666162291.0890698;46.9755343;7.180356;-0.004000000189989805;1666162291.1242054;-0.07287035882472992;-0.09055843949317932;92.37474060058594
10;1666162291.2764597;46.9755343;7.180356;-0.009000000543892384;1666162291.3301404;-0.027783993631601334;0.02580219879746437;92.38336944580078
11;1666162291.4843483;46.9755343;7.180356;-0.00800000037997961;1666162291.5321712;0.09899330884218216;-0.20168130099773407;92.45258331298828
12;1666162291.7010193;46.9755343;7.1803561;-0.004000000189989805;1666162291.750797;-0.06838952004909515;-0.15644092857837677;92.63361358642578
13;1666162291.9211352;46.9755343;7.1803561;0.006000000052154064;1666162291.9621239;-0.23750901222229004;-0.09550009667873383;92.4032974243164
14;1666162292.1153562;46.9755343;7.180356199999999;0.009000000543892384;1666162292.1719656;-0.18138815462589264;0.09533911198377609;92.33718872070312
15;1666162292.3261719;46.9755343;7.1803561;0.012000000104308128;1666162292.369117;0.2196791172027588;-0.08352750539779663;92.62871551513672
16;1666162292.5223505;46.9755343;7.180356;0.013000000268220901;1666162292.567244;-0.251255601644516;0.10686524212360382;92.47129821777344
17;1666162292.7390208;46.9755343;7.180356;0.013000000268220901;1666162292.7790382;-0.1754935383796692;0.035279471427202225;92.29634857177734
18;1666162292.9280019;46.9755343;7.180356;0.013000000268220901;1666162292.9729002;0.040222879499197006;0.1596912294626236;92.42163848876953
19;1666162293.1466255;46.9755343;7.1803558999999995;0.006000000052154064;1666162293.1973774;-0.08363720774650574;0.17304199934005737;92.23375701904297
20;1666162293.3553617;46.9755343;7.1803558999999995;-0.0020000000949949026;1666162293.4012332;-0.0027598747983574867;-0.024282192811369896;92.51301574707031
21;1666162293.5789208;46.9755343;7.1803558999999995;0.0;1666162293.6365063;0.254308819770813;0.5529556274414062;92.29100799560547
22;1666162293.8170633;46.9755344;7.1803558999999995;0.005000000353902578;1666162293.8561053;0.027253521606326103;1.9532042741775513;92.49188232421875
23;1666162294.0288577;46.9755344;7.1803558999999995;0.021000001579523087;1666162294.0718002;-0.02364000305533409;-0.7040666937828064;93.15892028808594
24;1666162294.2445548;46.9755342;7.180356;0.03400000184774399;1666162294.2962828;0.4939538538455963;-7.7035908699035645;95.19550323486328
25;1666162294.463693;46.9755344;7.1803561;0.07300000637769699;1666162294.5115166;1.188210129737854;2.44830584526062;95.45744323730469
26;1666162294.676916;46.975534599999996;7.1803561;0.14000000059604645;1666162294.7218134;18.157794952392578;4.820501804351807;96.28494262695312
27;1666162294.891695;46.9755347;7.180355199999999;0.21000000834465027;1666162294.938081;16.93368148803711;-0.12853524088859558;97.41842651367188
28;1666162295.1047235;46.9755349;7.1803538;0.2680000066757202;1666162295.155475;15.299836158752441;0.6147996783256531;96.38763427734375
29;1666162295.307731;46.975535199999996;7.180350799999999;0.3930000066757202;1666162295.3575075;-3.601041078567505;13.339349746704102;94.28984832763672
30;1666162295.5234287;46.975535199999996;7.1803478;0.5220000147819519;1666162295.5825808;-22.958749771118164;1.9756457805633545;89.92943572998047
31;1666162295.729956;46.975535099999995;7.180346;0.6380000114440918;1666162295.7719238;-14.77151107788086;2.7077083587646484;87.58380126953125
32;1666162295.9378464;46.975534599999996;7.1803463;0.8110000491142273;1666162295.9778614;-1.7175098657608032;2.7882304191589355;79.31652069091797
33;1666162296.2482178;46.9755337;7.1803471;0.9970000386238098;1666162296.2901857;3.0664830207824707;1.7384840250015259;76.78388977050781
34;1666162296.4733562;46.9755326;7.1803481;1.1740000247955322;1666162296.514348;-7.9388556480407715;6.14542293548584;72.91056060791016
35;1666162296.687098;46.9755319;7.1803494;1.3590000867843628;1666162296.7290668;-8.833276748657227;-20.921274185180664;71.22415161132812
36;1666162296.8969386;46.9755323;7.180351099999999;1.592000126838684;1666162296.939885;-6.777573108673096;-7.068743705749512;82.69147491455078
37;1666162297.1262999;46.975533299999995;7.1803528;1.8090001344680786;1666162297.1780276;-1.0007768869400024;8.258172988891602;81.71672058105469
38;1666162297.3419943;46.9755342;7.1803542;2.0530002117156982;1666162297.3849404;12.952404022216797;-4.76632022857666;76.61617279052734
39;1666162297.5479307;46.9755348;7.1803551;2.3370001316070557;1666162297.5899005;10.061371803283691;-13.026556968688965;77.25199890136719
40;1666162297.748011;46.975535699999995;7.180354899999999;2.636000156402588;1666162297.7909558;-0.7952812910079956;3.1415629386901855;79.86382293701172
41;1666162297.9627333;46.9755368;7.1803548;2.9210002422332764;1666162298.0037248;0.6721583008766174;4.703067779541016;81.24112701416016
42;1666162298.1637874;46.9755374;7.180354899999999;3.2280001640319824;1666162298.2067313;0.5535833239555359;0.8896581530570984;82.04314422607422
43;1666162298.3706994;46.9755379;7.180354899999999;3.5920002460479736;1666162298.4136434;0.3517439067363739;4.586336612701416;80.36477661132812
44;1666162298.5776114;46.9755384;7.1803548;3.9230000972747803;1666162298.6225076;2.6620736122131348;-11.853937149047852;80.78362274169922
45;1666162298.7776942;46.9755386;7.1803548;4.252000331878662;1666162298.8245432;0.6026290655136108;5.29371452331543;80.46499633789062
46;1666162298.9816766;46.975538799999995;7.1803548;4.6010003089904785;1666162299.0255957;3.240589141845703;-9.980865478515625;82.32310485839844
47;1666162299.1895661;46.9755389;7.1803545;4.961000442504883;1666162299.2383637;2.5710537433624268;12.057101249694824;80.38368225097656
48;1666162299.3974538;46.9755386;7.180354299999999;5.283000469207764;1666162299.4511342;3.62967586517334;26.90251350402832;79.71281433105469
49;1666162299.6004622;46.9755373;7.1803544;5.617000102996826;1666162299.660976;2.1369097232818604;-11.54948902130127;78.92924499511719
50;1666162299.8239639;46.975536;7.180354299999999;5.974000453948975;1666162299.8747177;-0.6589394807815552;-5.870462894439697;79.3201904296875
51;1666162300.0357573;46.9755354;7.1803542;6.294000148773193;1666162300.0787;5.8155903816223145;-15.687606811523438;79.0067367553711
52;1666162300.2338855;46.975535199999996;7.1803536;6.615000247955322;1666162300.2768288;5.774375915527344;4.074880599975586;77.70268249511719
53;1666162300.4354916;46.975535099999995;7.1803528;6.949000358581543;1666162300.4969811;-21.783199310302734;15.608402252197266;76.13250732421875
54;1666162300.6736352;46.975534599999996;7.1803532;7.2900004386901855;1666162300.7214615;-0.13749396800994873;-2.111619710922241;77.03065490722656
55;1666162300.8795722;46.975533999999996;7.1803539;7.609000205993652;1666162300.925969;4.428407669067383;-1.3054386377334595;76.09152221679688
56;1666162301.1026134;46.975533399999996;7.1803545;7.955000400543213;1666162301.1543434;-0.8628084063529968;7.997025012969971;76.48146057128906
57;1666162301.3153815;46.9755325;7.180355;8.300000190734863;1666162301.3544211;-0.27366235852241516;-14.269336700439453;78.01631927490234
58;1666162301.537909;46.975532199999996;7.1803555;8.621000289916992;1666162301.5798795;9.223762512207031;-16.711734771728516;75.2797622680664
59;1666162301.7623894;46.9755326;7.180355199999999;8.93600082397461;1666162301.801431;-0.4647131860256195;-3.9333670139312744;79.66400909423828
60;1666162301.9707935;46.975533299999995;7.1803545;9.276000022888184;1666162302.0088553;-21.008302688598633;8.164359092712402;79.89974975585938
61;1666162302.1825857;46.9755337;7.180354899999999;9.598000526428223;1666162302.2225995;8.499917030334473;17.82486343383789;75.30734252929688
62;1666162302.3870876;46.9755341;7.1803551;9.905000686645508;1666162302.4349115;9.64249038696289;-7.932962894439697;80.30033874511719
63;1666162302.6107786;46.975534499999995;7.1803548;10.256000518798828;1666162302.6683612;-8.024478912353516;-7.722347259521484;85.07453155517578
64;1666162302.8372085;46.9755355;7.180354899999999;10.696000099182129;1666162302.9011724;10.372430801391602;10.921623229980469;81.63687896728516
65;1666162303.076855;46.975535799999996;7.1803547;11.277000427246094;1666162303.11687;4.299534320831299;0.8385266661643982;83.95027160644531
66;1666162303.2964559;46.975535799999996;7.1803541;11.87600040435791;1666162303.3296397;-10.680139541625977;2.901763677597046;80.22958374023438
67;1666162303.4877892;46.9755355;7.1803539999999995;12.482000350952148;1666162303.523903;-7.010102272033691;2.691645622253418;79.2970199584961
68;1666162303.7112932;46.975535199999996;7.180355;13.105000495910645;1666162303.7571657;6.661474227905273;-6.912112236022949;79.53569030761719
69;1666162303.9533417;46.975535199999996;7.1803558;13.734000205993652;1666162303.9933574;12.410261154174805;-15.088586807250977;80.90548706054688
70;1666162304.1670883;46.9755355;7.1803555999999995;14.345000267028809;1666162304.2100325;-0.4957278370857239;4.462700366973877;81.07421875
71;1666162304.3593576;46.9755355;7.1803552999999996;14.951001167297363;1666162304.409136;9.09408950805664;-1.1975986957550049;81.12483978271484
72;1666162304.5779817;46.975535799999996;7.180354599999999;15.581000328063965;1666162304.6140938;-5.114633560180664;-0.26837435364723206;83.009765625
73;1666162304.7673259;46.975536299999995;7.1803542;16.211000442504883;1666162304.8180802;-11.194486618041992;-5.715448379516602;82.31564331054688
74;1666162304.974241;46.9755366;7.180354299999999;16.810001373291016;1666162305.0142577;3.2922489643096924;2.7034060955047607;79.91606903076172
75;1666162305.2787504;46.975536899999994;7.180354599999999;17.416000366210938;1666162305.3285265;3.974771499633789;0.25861603021621704;80.81309509277344
76;1666162305.4924967;46.9755372;7.180354599999999;18.0260009765625;1666162305.5373921;-3.772883653640747;-7.729068756103516;81.78358459472656
77;1666162305.7169764;46.9755377;7.180354599999999;18.645000457763672;1666162305.7667532;-1.8713068962097168;9.26693058013916;82.85150146484375
78;1666162305.9482899;46.9755381;7.1803548;19.237001419067383;1666162305.9746382;5.358868598937988;-4.216350078582764;81.735107421875
79;1666162306.154223;46.9755384;7.1803551;19.84400177001953;1666162306.1942413;4.953145980834961;21.58742904663086;78.74248504638672
80;1666162306.3572319;46.9755378;7.1803551;20.466001510620117;1666162306.3962724;4.081973552703857;2.4458580017089844;78.97991943359375
81;1666162306.5758548;46.9755366;7.1803552999999996;21.056001663208008;1666162306.6207511;0.656730592250824;-11.612479209899902;78.75003814697266
82;1666162306.871583;46.9755356;7.1803554;21.658000946044922;1666162306.919408;-7.697845458984375;-5.167507171630859;80.37603759765625
83;1666162307.0741332;46.9755354;7.1803555;22.260000228881836;1666162307.1180604;2.2472212314605713;-4.4500412940979;79.26348114013672
84;1666162307.2683594;46.9755355;7.1803552999999996;22.875001907348633;1666162307.3152063;8.941015243530273;-5.989146709442139;80.56462860107422
85;1666162307.4996703;46.975535699999995;7.1803548;23.464000701904297;1666162307.5406618;-6.301214694976807;-5.4599833488464355;83.01551818847656
86;1666162307.6877074;46.975536;7.1803542;24.059001922607422;1666162307.730651;-10.279651641845703;1.4313428401947021;80.86896514892578
87;1666162307.890717;46.975536399999996;7.180354599999999;24.674001693725586;1666162307.9307342;1.7941476106643677;9.178598403930664;79.35687255859375
88;1666162308.1083653;46.975536399999996;7.1803551;25.27800178527832;1666162308.1483793;13.219664573669434;15.357856750488281;76.1524658203125
89;1666162308.312348;46.975535699999995;7.1803551;25.862001419067383;1666162308.3601742;-4.232784748077393;10.775369644165039;74.1010513305664
90;1666162308.5339003;46.9755349;7.1803555999999995;26.452001571655273;1666162308.5729399;-4.623197078704834;-12.063702583312988;78.2361831665039
91;1666162308.7549977;46.975534499999995;7.1803567;27.056001663208008;1666162308.8096507;6.4961113929748535;-17.792261123657227;83.08343505859375
92;1666162308.9716692;46.9755347;7.1803573;27.644001007080078;1666162309.0195007;2.9440531730651855;-10.4187593460083;82.33490753173828
93;1666162309.1776114;46.975535199999996;7.1803577;28.240001678466797;1666162309.2215338;5.847701072692871;5.542575836181641;81.46065521240234
94;1666162309.4099014;46.9755354;7.1803574;28.85300064086914;1666162309.4538214;9.925609588623047;21.90440559387207;75.63607788085938
95;1666162309.615837;46.975535099999995;7.180357;29.44500160217285;1666162309.6597583;-3.405785083770752;-3.6513869762420654;76.38182067871094
96;1666162309.8305588;46.975534499999995;7.180356799999999;30.03400230407715;1666162309.8754513;-15.564811706542969;-3.698378562927246;79.15999603271484
97;1666162310.0433242;46.975533999999996;7.1803574999999995;30.643001556396484;1666162310.090171;0.4132223129272461;-7.352661609649658;79.89209747314453
98;1666162310.2668288;46.975533999999996;7.180358099999999;31.257001876831055;1666162310.312701;1.569313883781433;-14.556591033935547;82.1031265258789
99;1666162310.4610531;46.975534499999995;7.180358399999999;31.847002029418945;1666162310.5049715;3.2576825618743896;-4.948617935180664;81.22435760498047
100;1666162310.6650388;46.975535099999995;7.1803582;32.427001953125;1666162310.7109141;7.382849216461182;9.013059616088867;80.32018280029297
101;1666162310.868053;46.9755353;7.1803574;33.027000427246094;1666162310.9090447;8.216585159301758;0.7302667498588562;80.72870635986328
102;1666162311.0876524;46.975535;7.1803561;33.612003326416016;1666162311.1315715;-1.558493971824646;-1.838832139968872;80.3180923461914
103;1666162311.291726;46.975535;7.1803547;34.1879997253418;1666162311.3426664;-12.919034004211426;-15.6583833694458;83.95320129394531
104;1666162311.5124903;46.9755354;7.1803541;34.76700210571289;1666162311.5515313;-4.288814067840576;9.677773475646973;80.62711334228516
105;1666162311.7262347;46.9755356;7.1803544;35.37700271606445;1666162311.7815542;11.338544845581055;5.348603248596191;79.24687957763672
106;1666162311.929907;46.975535199999996;7.1803544;35.967002868652344;1666162311.9699197;5.031042575836182;0.17953556776046753;78.73277282714844
107;1666162312.1192484;46.9755347;7.1803539999999995;36.55400085449219;1666162312.1641436;-2.543095111846924;2.359891891479492;80.07453155517578
108;1666162312.338848;46.975533899999995;7.1803539;37.16400146484375;1666162312.381792;-4.884185791015625;-2.502957820892334;77.8352279663086
109;1666162312.5369773;46.975533;7.1803544;37.762001037597656;1666162312.5789454;5.6683220863342285;-1.3626703023910522;74.16697692871094
110;1666162312.7497444;46.9755326;7.180354599999999;38.345001220703125;1666162312.790738;4.360676288604736;-7.7950639724731445;79.78492736816406
111;1666162312.9722733;46.9755325;7.1803545;38.91400146484375;1666162313.0171683;-6.299068927764893;-1.5463865995407104;80.69654846191406
112;1666162313.1694267;46.9755324;7.180354599999999;39.50600051879883;1666162313.2104168;-4.726904392242432;-5.482207775115967;79.15612030029297
113;1666162313.3802426;46.975532199999996;7.1803551;40.08500289916992;1666162313.4290407;7.951114177703857;-16.285856246948242;75.69017028808594
114;1666162313.5803223;46.9755326;7.1803552999999996;40.63300323486328;1666162313.643761;8.042723655700684;-6.445981502532959;80.63006591796875
115;1666162313.8028498;46.9755335;7.1803547;41.169002532958984;1666162313.937539;-13.403861999511719;-1.661061406135559;82.74784088134766
116;1666162314.111265;46.9755348;7.1803547;41.72300338745117;1666162314.148355;-6.3721418380737305;18.299360275268555;79.72054290771484
117;1666162314.3123229;46.9755353;7.1803555;42.29800033569336;1666162314.360145;19.56104278564453;7.164974689483643;82.83790588378906
118;1666162314.5094762;46.975535199999996;7.1803554;42.86900329589844;1666162314.5533953;-8.176133155822754;0.7110262513160706;79.45343780517578
119;1666162314.8208191;46.975535199999996;7.1803551;43.432003021240234;1666162314.8657155;-18.88052749633789;-13.51398754119873;80.77853393554688
120;1666162315.0472496;46.975535799999996;7.1803561;44.02800369262695;1666162315.0892196;4.602723121643066;6.776346206665039;78.44258117675781
121;1666162315.248309;46.9755362;7.1803573;44.62700271606445;1666162315.3839707;22.70496940612793;8.89433479309082;82.09707641601562
122;1666162315.5596504;46.9755361;7.180357;45.204002380371094;1666162315.6133342;-0.32182809710502625;-0.9757091999053955;83.08946990966797
123;1666162315.7812064;46.9755359;7.180356;45.784000396728516;1666162315.823171;-17.437137603759766;1.0251158475875854;81.77921295166016
124;1666162315.9793305;46.975535799999996;7.180356;46.3900032043457;1666162316.0222769;0.4663524925708771;11.62790298461914;77.91268920898438
125;1666162316.2038114;46.9755354;7.1803563;47.00200271606445;1666162316.2477329;9.633357048034668;1.3060904741287231;78.46755981445312
126;1666162316.4390283;46.9755348;7.180356199999999;47.59300231933594;1666162316.4849007;-4.2922468185424805;-3.5920615196228027;79.29423522949219
127;1666162316.649843;46.9755343;7.180356;48.19300079345703;1666162316.694742;4.545300483703613;1.201626181602478;78.47396850585938
128;1666162316.8616357;46.9755336;7.1803558;48.794002532958984;1666162316.897748;-7.70904016494751;-5.19602108001709;77.19613647460938
129;1666162317.0587888;46.9755331;7.180356199999999;49.400001525878906;1666162317.1046617;-6.346294403076172;-19.16546630859375;81.91548156738281
130;1666162317.259844;46.975533299999995;7.180357;49.98100280761719;1666162317.3008356;1.3969489336013794;-7.499619960784912;81.30582427978516
131;1666162317.4589477;46.9755341;7.1803579;50.579002380371094;1666162317.5009172;1.4230629205703735;-3.7151553630828857;81.66819763183594
132;1666162317.68538;46.9755354;7.1803585;51.17900085449219;1666162317.7380865;0.3391922414302826;1.2968382835388184;80.23931121826172
133;1666162317.8903396;46.975536399999996;7.1803586;51.76100158691406;1666162317.93231;7.860524654388428;3.8940792083740234;81.0973892211914
134;1666162318.1036203;46.9755371;7.180358099999999;52.33400344848633;1666162318.1494966;5.348108768463135;3.416569471359253;82.44493865966797
135;1666162318.4418292;46.975537499999994;7.180357;52.93000411987305;1666162318.4853046;-5.814052104949951;0.8258006572723389;83.06031036376953
136;1666162318.6590405;46.975538;7.180356199999999;53.54500198364258;1666162318.7127213;-0.14889049530029297;-2.2147302627563477;84.05261993408203
137;1666162318.8801303;46.9755384;7.1803555999999995;54.13500213623047;1666162318.9279556;4.392614841461182;3.741868019104004;83.01012420654297
138;1666162319.1983063;46.9755384;7.1803551;54.74400329589844;1666162319.241251;-0.6855047345161438;10.180583000183105;80.11491394042969
139;1666162319.4100997;46.9755379;7.1803547;55.353004455566406;1666162319.4559715;3.9388115406036377;9.988862037658691;78.55084991455078
140;1666162319.6179862;46.975536899999994;7.180354599999999;55.935001373291016;1666162319.6589801;1.9929916858673096;12.16352653503418;79.09400939941406
141;1666162319.8258767;46.975535699999995;7.180354299999999;56.445003509521484;1666162319.871746;-2.385463237762451;-17.5667724609375;80.76225280761719
142;1666162320.0337625;46.975535;7.1803539;56.90800094604492;1666162320.0825632;-4.251980304718018;-1.1689445972442627;78.78560638427734
143;1666162320.2367709;46.975534599999996;7.1803538;57.2920036315918;1666162320.281669;-14.495277404785156;-3.4054830074310303;78.71710968017578
144;1666162320.4388027;46.975534599999996;7.180354299999999;57.630001068115234;1666162320.4817476;0.015609116293489933;-9.592398643493652;79.32157135009766
145;1666162320.6632829;46.9755349;7.180355;57.91100311279297;1666162320.7062283;4.691625118255615;-3.1645517349243164;79.49072265625
146;1666162320.8672695;46.9755353;7.1803555999999995;58.14400100708008;1666162320.9214652;-9.11843490600586;-1.5351030826568604;80.60093688964844
147;1666162321.0898528;46.9755359;7.180356199999999;58.33200454711914;1666162321.1454842;6.9019622802734375;-12.793659210205078;80.25691986083984
148;1666162321.3947012;46.975536999999996;7.1803558999999995;58.5160026550293;1666162321.4493568;14.626224517822266;-37.025028228759766;69.294189453125
149;1666162321.6064925;46.9755392;7.1803535;58.65200424194336;1666162321.6494386;30.099842071533203;-49.79445266723633;52.56044387817383
150;1666162321.8182838;46.9755434;7.1803465;58.7760009765625;1666162321.863182;16.464258193969727;-47.18023681640625;50.476558685302734
151;1666162322.0232444;46.9755496;7.1803357;58.900001525878906;1666162322.0681477;-19.12506866455078;-57.84812545776367;41.9057731628418
152;1666162322.22918;46.975558;7.1803213999999995;58.98400115966797;1666162322.2760286;-36.20335006713867;-53.749202728271484;23.623844146728516
153;1666162322.5562973;46.9755688;7.1803034;59.02700424194336;1666162322.6051009;-42.6842155456543;-35.92571258544922;2.6724205017089844
154;1666162322.766138;46.9755818;7.1802826;59.05400466918945;1666162322.8100598;-50.82231521606445;-33.51814270019531;-4.242783069610596
155;1666162323.0784576;46.9755967;7.1802595;59.070003509521484;1666162323.1174977;-52.155574798583984;-13.990377426147461;-17.54851531982422
156;1666162323.2785385;46.9756131;7.1802354;59.08900451660156;1666162323.3234346;-48.13270568847656;-10.182439804077148;-11.356164932250977
157;1666162323.4864285;46.975631199999995;7.180211099999999;59.11900329589844;1666162323.5244899;-45.439109802246094;-7.759611129760742;-3.9967305660247803
158;1666162323.6952903;46.9756505;7.1801876;59.1510009765625;1666162323.7470202;-42.94382095336914;6.226991653442383;2.6535849571228027
159;1666162323.9090369;46.975670799999996;7.1801658999999995;59.1670036315918;1666162323.9539328;-30.48240089416504;-7.243427276611328;23.932689666748047
160;1666162324.1208267;46.9756911;7.1801474;59.185001373291016;1666162324.1647477;0.8004069924354553;10.287862777709961;39.84614562988281
161;1666162324.3160274;46.9757099;7.1801315;59.191001892089844;1666162324.3609233;8.298441886901855;23.4432373046875;34.6054573059082
162;1666162324.5444138;46.9757256;7.180118599999999;59.19600296020508;1666162324.5902824;4.934934616088867;-2.48156476020813;21.90853500366211
163;1666162324.7601075;46.975739499999996;7.1801074;59.21800231933594;1666162324.8059788;-2.130521774291992;-24.175844192504883;-6.307480812072754
164;1666162324.959211;46.975751599999995;7.1800957;59.27400207519531;1666162324.9992266;-13.233000755310059;-48.36527633666992;-30.730884552001953
165;1666162325.1475804;46.9757623;7.1800817;59.27300262451172;1666162325.189548;-44.331783294677734;-52.43476867675781;-28.355329513549805
166;1666162325.355467;46.9757714;7.180062599999999;59.23100280761719;1666162325.3945072;-66.35445404052734;-27.995637893676758;-28.01386070251465
167;1666162325.5536005;46.9757817;7.180039;59.15900421142578;1666162325.6053236;-46.970760345458984;1.7278692722320557;-37.91944122314453
168;1666162325.764413;46.975794199999996;7.1800137;59.16200256347656;1666162325.8337076;-47.47880172729492;-2.3162360191345215;-34.23019027709961
169;1666162325.9908457;46.9758083;7.179988;59.18800354003906;1666162326.0396445;-41.60358428955078;26.882678985595703;-45.854591369628906
170;1666162326.2016623;46.975824599999996;7.1799636;59.224002838134766;1666162326.2397234;-51.99824142456055;25.60580825805664;-41.39043045043945
171;1666162326.3978362;46.975843;7.1799409999999995;59.24400329589844;1666162326.4378524;-45.6478385925293;-0.40659672021865845;-12.433574676513672
172;1666162326.6135342;46.975862799999994;7.17992;59.243003845214844;1666162326.6652606;-25.619060516357422;3.0753390789031982;7.16294002532959
173;1666162326.8292308;46.9758825;7.1799019;59.23500442504883;1666162326.875103;25.005218505859375;31.08637237548828;25.83440399169922
174;1666162327.149066;46.9759004;7.1798863;59.086002349853516;1666162327.1951709;25.128931045532227;30.68099021911621;27.975513458251953
175;1666162327.3484004;46.9759153;7.1798734;58.823001861572266;1666162327.388418;17.793638229370117;7.897640705108643;18.934778213500977
176;1666162327.555312;46.9759264;7.1798626;58.6510009765625;1666162327.7134266;27.381338119506836;-4.676483631134033;-0.1121082752943039
177;1666162327.9681602;46.9759338;7.1798531;58.638004302978516;1666162328.0101285;28.676677703857422;-4.21047306060791;-20.0468692779541
178;1666162328.1766026;46.9759385;7.1798449;58.74200439453125;1666162328.218573;-5.566862106323242;-9.740544319152832;-27.128835678100586
179;1666162328.3932772;46.975941899999995;7.1798372;58.88900375366211;1666162328.4381692;-28.939922332763672;-18.167118072509766;-36.636661529541016
180;1666162328.5962818;46.9759452;7.179827599999999;59.03400421142578;1666162328.6450815;-57.91367721557617;-29.252763748168945;-32.53623962402344
181;1666162328.7992923;46.9759497;7.179813599999999;59.0880012512207;1666162328.847114;-69.17437744140625;-18.040788650512695;-43.11478042602539
182;1666162329.012057;46.975956;7.1797948;59.0420036315918;1666162329.058913;-37.21087646484375;17.3857421875;-46.96780776977539
183;1666162329.2404423;46.9759648;7.1797749;59.10200119018555;1666162329.2872932;-40.203487396240234;5.581054210662842;-22.394317626953125
184;1666162329.455162;46.9759758;7.1797561;59.19600296020508;1666162329.5039618;-57.630401611328125;10.14803695678711;-16.39533805847168
185;1666162329.705994;46.975989899999995;7.179739;59.25400161743164;1666162329.7596748;-61.894126892089844;35.57697296142578;-22.1721134185791
186;1666162329.9373064;46.976007499999994;7.179726;59.21900177001953;1666162329.9743972;-36.83642578125;-9.589324951171875;9.094717979431152
187;1666162330.1432452;46.9760268;7.1797141;59.250003814697266;1666162330.1930182;-21.630563735961914;-54.35992431640625;12.796717643737793
188;1666162330.362844;46.9760464;7.179699299999999;59.27900314331055;1666162330.4057872;-33.961578369140625;-33.16910171508789;14.06827449798584
189;1666162330.5648751;46.976066499999995;7.1796831999999995;59.310001373291016;1666162330.6126986;-8.20590591430664;-22.458120346069336;26.862821578979492
190;1666162330.7649553;46.976086099999996;7.1796668;59.37200164794922;1666162330.8098521;7.887436389923096;-19.942846298217773;22.58238983154297
191;1666162330.9806526;46.9761047;7.17965;59.413002014160156;1666162331.024571;11.822550773620605;-23.10198974609375;-11.48239517211914
192;1666162331.1817079;46.9761205;7.179632799999999;59.419002532958984;1666162331.2275789;20.12590980529785;-55.16301727294922;-35.5333137512207
193;1666162331.3954532;46.9761314;7.1796142;59.42000198364258;1666162331.4393716;-2.2724692821502686;-46.659332275390625;-46.39850616455078
194;1666162331.5945554;46.9761378;7.1795943;59.46600341796875;1666162331.6414032;5.245122909545898;-29.440628051757812;-70.56778717041016
195;1666162331.7965875;46.9761415;7.179575;59.51000213623047;1666162331.8395329;20.615564346313477;-10.920610427856445;-78.94869995117188
196;1666162332.0035002;46.976144;7.179557699999999;59.52400207519531;1666162332.0610833;23.77082633972168;17.60582160949707;-66.54829406738281
197;1666162332.212366;46.9761461;7.1795443;59.54700469970703;1666162332.2601871;-2.576876163482666;28.109909057617188;-62.39934158325195
198;1666162332.4329398;46.976149199999995;7.1795333;59.54900360107422;1666162332.4729571;-21.44693374633789;25.663450241088867;-60.23182678222656
199;1666162332.64571;46.9761538;7.1795227;59.54600143432617;1666162332.6857247;-40.398536682128906;24.71488380432129;-50.346763610839844
200;1666162332.9639156;46.976160799999995;7.179512399999999;59.55800247192383;1666162333.0078342;-66.93576049804688;32.31882858276367;-38.08753204345703
201;1666162333.2694087;46.9761716;7.1795024;59.474002838134766;1666162333.4267702;-57.497520446777344;-9.515729904174805;-2.9691717624664307
202;1666162333.6014414;46.9761862;7.1794918999999995;59.37700271606445;1666162333.6473153;-32.74497604370117;-38.523685455322266;11.744325637817383
203;1666162333.8093305;46.9762026;7.1794784;59.36700439453125;1666162333.9533162;-41.50435256958008;-57.416378021240234;27.9453125
204;1666162334.1153789;46.9762213;7.1794616;59.342002868652344;1666162334.1690586;-41.81884002685547;-51.80364990234375;41.11164474487305
205;1666162334.3496192;46.9762427;7.1794433;59.275001525878906;1666162334.3867166;-14.312464714050293;-36.65885543823242;43.59516525268555
206;1666162334.5799546;46.9762649;7.1794248;59.285003662109375;1666162334.6170437;20.57259750366211;-4.063751220703125;47.31072998046875
207;1666162334.7771096;46.9762853;7.1794066;59.255001068115234;1666162334.8337142;25.532554626464844;45.56721496582031;42.06455612182617
208;1666162334.9928029;46.9763028;7.1793907;59.031002044677734;1666162335.0386748;17.83892059326172;15.276839256286621;35.33929443359375
209;1666162335.2006924;46.9763168;7.1793771;58.82500457763672;1666162335.2455914;23.266864776611328;-1.53353750705719;25.531789779663086
210;1666162335.3997974;46.976327;7.1793638;58.816001892089844;1666162335.4427397;29.399738311767578;-20.30990982055664;16.927936553955078
211;1666162335.6115863;46.9763342;7.1793491;58.91200256347656;1666162335.6525786;-0.3646448850631714;-40.32051086425781;30.33005142211914
212;1666162335.8145964;46.9763413;7.1793328999999995;59.0150032043457;1666162335.8585167;-34.52662658691406;-37.53480911254883;19.475448608398438
213;1666162336.0507877;46.9763501;7.179315399999999;59.08500289916992;1666162336.1054454;-56.57280731201172;-6.764824390411377;-19.849519729614258
214;1666162336.2664833;46.9763616;7.1792973;59.16400146484375;1666162336.3113794;-40.75061798095703;11.03983211517334;-22.19254493713379
215;1666162336.4733982;46.9763753;7.179279999999999;59.24100112915039;1666162336.512439;-30.408916473388672;14.654561042785645;-0.5377704501152039
216;1666162336.6842139;46.976389999999995;7.1792649;59.310001373291016;1666162336.724228;-26.947792053222656;39.56311798095703;3.4272940158843994
217;1666162336.908694;46.976405;7.1792539;59.34100341796875;1666162336.9565156;-25.369352340698242;20.38003158569336;16.78281021118164
218;1666162337.1195114;46.9764195;7.1792473;59.36900329589844;1666162337.1585498;-7.159150123596191;7.085851192474365;18.17149543762207
219;1666162337.429878;46.9764334;7.179242299999999;59.380001068115234;1666162337.4767241;22.528905868530273;-20.38371467590332;7.061464309692383
220;1666162337.6426458;46.976445399999996;7.1792367;59.35700225830078;1666162337.681685;30.368064880371094;-29.904071807861328;-12.726668357849121
221;1666162337.8651748;46.9764537;7.1792298;59.34100341796875;1666162337.902261;16.25130844116211;-2.0915627479553223;-17.347665786743164
222;1666162338.056469;46.9764595;7.1792234;59.35100173950195;1666162338.0984378;33.39884948730469;-6.844352722167969;-20.427221298217773
223;1666162338.2594767;46.9764627;7.179217899999999;59.37700271606445;1666162338.298517;28.762685775756836;-19.10235023498535;-27.649024963378906
224;1666162338.4507725;46.9764632;7.1792121;59.37000274658203;1666162338.4995732;32.56200408935547;-42.07276153564453;-39.77629089355469
225;1666162338.6498775;46.976461099999995;7.1792053;59.375003814697266;1666162338.6908693;24.627656936645508;-40.3423957824707;-45.34589767456055
226;1666162338.8489807;46.976456299999995;7.179197599999999;59.393001556396484;1666162338.893878;-2.9274258613586426;-16.241374969482422;-43.60054016113281
227;1666162339.055894;46.976450899999996;7.1791898;59.415000915527344;1666162339.1007898;-28.305978775024414;26.702245712280273;-45.026763916015625
228;1666162339.2667093;46.9764469;7.1791830999999995;59.40300369262695;1666162339.3106291;-31.152050018310547;68.5821304321289;-34.29375457763672
229;1666162339.4833825;46.976445999999996;7.1791808999999995;59.28900146484375;1666162339.5351102;-27.721664428710938;22.60177230834961;-17.915319442749023
230;1666162339.6824875;46.976448399999995;7.179181499999999;59.262001037597656;1666162339.7254322;-19.669647216796875;5.327539443969727;-11.370609283447266
231;1666162339.8933022;46.9764524;7.179182399999999;59.29500198364258;1666162339.9333208;-1.2427558898925781;7.507366180419922;3.641455888748169
232;1666162340.0914307;46.9764561;7.1791839;59.371002197265625;1666162340.1343756;13.332717895507812;21.550539016723633;22.043842315673828
233;1666162340.298343;46.976458799999996;7.179186199999999;59.419002532958984;1666162340.3383589;-1.6816320419311523;-4.18671178817749;32.121463775634766
234;1666162340.4993997;46.976461099999995;7.1791887;59.483001708984375;1666162340.5433242;1.8542779684066772;-10.500049591064453;32.9114990234375
235;1666162340.7121696;46.9764635;7.179190299999999;59.51700210571289;1666162340.7599926;-13.256874084472656;-11.15607738494873;20.636661529541016
236;1666162340.925117;46.9764663;7.1791914;59.54600143432617;1666162340.9661086;-6.092205047607422;-1.3543717861175537;-8.78918743133545
237;1666162341.134956;46.9764693;7.179191899999999;59.56300354003906;1666162341.1799026;-0.24731048941612244;2.1514036655426025;-28.089765548706055
238;1666162341.4460096;46.976472199999996;7.1791925;59.5680046081543;1666162341.4938354;-18.297300338745117;-0.960411012172699;-37.431419372558594
239;1666162341.6597526;46.9764754;7.1791924;59.5680046081543;1666162341.7046502;-7.574433326721191;-8.482694625854492;-48.64425277709961
240;1666162341.8632839;46.9764784;7.1791915;59.60700225830078;1666162341.90916;-13.275483131408691;-11.260946273803711;-57.37361145019531
241;1666162342.1698163;46.9764811;7.1791892;59.621002197265625;1666162342.2108076;-18.133895874023438;-1.7182283401489258;-63.217647552490234
242;1666162342.390392;46.9764838;7.1791858;59.67500305175781;1666162342.4245515;-11.926257133483887;1.453113317489624;-63.689353942871094
243;1666162342.5914474;46.9764864;7.179182;59.702003479003906;1666162342.6324394;-10.755282402038574;-0.8193926215171814;-61.09478759765625
244;1666162342.801286;46.9764893;7.1791770999999995;59.685001373291016;1666162342.844232;-17.075597763061523;2.4893863201141357;-58.955772399902344
245;1666162343.0042946;46.9764924;7.1791716;59.689002990722656;1666162343.0569985;0.08074118196964264;5.511890411376953;-55.952632904052734
246;1666162343.224872;46.9764954;7.179166599999999;59.6930046081543;1666162343.2736723;-4.831752777099609;-2.7590713500976562;-54.51641082763672
247;1666162343.4239748;46.9764985;7.1791613;59.67000198364258;1666162343.466919;-0.9486595392227173;-4.108903884887695;-56.06707763671875
248;1666162343.6142943;46.9765011;7.1791564999999995;59.678001403808594;1666162343.6562645;1.5222035646438599;-1.4205518960952759;-57.49653625488281
249;1666162343.8212068;46.9765035;7.1791516;59.65200424194336;1666162343.8661053;-0.24202264845371246;-0.002166890073567629;-55.4809684753418
250;1666162344.0417836;46.976505499999995;7.1791474;59.62000274658203;1666162344.0886323;14.219237327575684;0.8097230792045593;-53.23210525512695
251;1666162344.260409;46.9765071;7.1791442;59.59800338745117;1666162344.3053033;-1.2519397735595703;1.0431822538375854;-50.988521575927734
252;1666162344.4722095;46.9765085;7.1791412999999995;59.60200119018555;1666162344.5161216;11.70805835723877;1.5655653476715088;-48.957637786865234
253;1666162344.6761868;46.9765095;7.1791393;59.60200119018555;1666162344.720105;2.293397903442383;1.683126449584961;-47.86945724487305
254;1666162344.8850486;46.976510399999995;7.1791377;59.60200119018555;1666162344.9377522;3.606153964996338;1.3670119047164917;-46.33015823364258
255;1666162345.0861063;46.9765109;7.1791367;59.60100173950195;1666162345.1280718;-0.3368367850780487;1.085269570350647;-45.67330551147461
256;1666162345.3008244;46.9765115;7.1791358;59.56500244140625;1666162345.3388906;-18.78546714782715;-0.7332772612571716;-44.56012725830078
257;1666162345.4979756;46.976512299999996;7.1791345;59.57100296020508;1666162345.5428748;11.594188690185547;1.063387393951416;-44.50627517700195
258;1666162345.7117207;46.976513;7.1791335;59.59400177001953;1666162345.7497838;3.7932751178741455;0.5980768203735352;-43.67695236206055
259;1666162345.935225;46.9765137;7.1791326;59.586002349853516;1666162345.9752405;3.8799352645874023;-0.29845988750457764;-42.56576156616211
260;1666162346.1479933;46.9765142;7.1791319;59.60200119018555;1666162346.1928897;-10.230576515197754;14.69875431060791;-43.253578186035156
261;1666162346.3480725;46.976515199999994;7.179131399999999;59.59400177001953;1666162346.3968725;-23.48537826538086;10.585063934326172;-48.56746292114258
262;1666162346.5549853;46.976517199999996;7.1791301;59.61000442504883;1666162346.5969539;-15.096095085144043;-14.303887367248535;-48.385013580322266
263;1666162346.7540894;46.976519599999996;7.179127299999999;59.59700393676758;1666162346.802892;1.4575543403625488;-16.149751663208008;-44.59174728393555
264;1666162346.9570992;46.976521399999996;7.1791241999999995;59.595001220703125;1666162346.9971147;-0.8964056372642517;-1.0463027954101562;-49.66367721557617
265;1666162347.152302;46.9765227;7.1791208;59.660003662109375;1666162347.1942651;-14.865538597106934;-9.535384178161621;-53.93901062011719
266;1666162347.3553069;46.9765242;7.1791163;59.71600341796875;1666162347.4011788;-17.217500686645508;0.6973137855529785;-56.64621353149414
267;1666162347.5739334;46.976525699999996;7.1791111999999995;59.801002502441406;1666162347.6158972;-15.269153594970703;6.510805130004883;-57.52001190185547
268;1666162347.787674;46.9765279;7.1791054999999995;59.855003356933594;1666162347.83062;-24.82257843017578;10.334559440612793;-55.879756927490234
269;1666162348.0062985;46.976531;7.179098799999999;59.86300277709961;1666162348.0433867;-34.49403762817383;7.976510524749756;-53.47823715209961
270;1666162348.200522;46.976535299999995;7.1790908;59.893001556396484;1666162348.243466;-34.09506607055664;-0.4757857322692871;-49.955535888671875
271;1666162348.4103696;46.9765407;7.179081;59.92900466918945;1666162348.4562368;-43.843441009521484;2.1195130348205566;-51.53717803955078
272;1666162348.6241062;46.9765474;7.1790692;59.91200256347656;1666162348.6787658;-52.323097229003906;0.8535984754562378;-51.3021125793457
273;1666162348.839802;46.9765558;7.1790541;59.900001525878906;1666162348.880794;-59.404502868652344;-8.293489456176758;-47.729644775390625
274;1666162349.0574522;46.9765659;7.1790357;59.84700393676758;1666162349.096492;-58.09791946411133;13.36585807800293;-52.706214904785156
275;1666162349.2633886;46.9765784;7.179014199999999;59.79000473022461;1666162349.2994986;-48.14976119995117;-4.3688554763793945;-46.955108642578125
276;1666162349.5659475;46.9765923;7.178991099999999;59.74500274658203;1666162349.6127949;-35.527130126953125;5.004430770874023;-51.280731201171875
277;1666162349.765051;46.976607;7.1789673;59.781002044677734;1666162349.807019;-13.433098793029785;-0.18105904757976532;-47.817447662353516
278;1666162349.9602542;46.9766213;7.1789445;59.816001892089844;1666162350.002223;21.833616256713867;-0.3685460686683655;-51.15854263305664
279;1666162350.1652148;46.9766343;7.1789238;59.77900314331055;1666162350.2081554;35.937217712402344;-4.407918453216553;-55.20588302612305
280;1666162350.3736217;46.9766445;7.1789074;59.763004302978516;1666162350.4126606;11.03879165649414;-0.39645424485206604;-55.41537857055664
281;1666162350.575653;46.9766528;7.1788941;59.79500198364258;1666162350.6156707;26.006824493408203;4.631144046783447;-54.36672592163086
282;1666162350.7874484;46.9766597;7.1788834999999995;59.78000259399414;1666162350.8294158;25.68789291381836;0.5611023306846619;-50.655670166015625
283;1666162350.98167;46.9766651;7.1788756;59.78200149536133;1666162351.0226622;22.09227180480957;-6.031578540802002;-50.90541458129883
284;1666162351.1924882;46.9766688;7.1788699;59.78400421142578;1666162351.2412882;5.440077304840088;-2.2836215496063232;-53.53064727783203
285;1666162351.392566;46.976671499999995;7.1788653;59.84400177001953;1666162351.4325836;-13.633418083190918;0.44898298382759094;-55.38203430175781
286;1666162351.7078152;46.9766742;7.1788604;59.86900329589844;1666162351.7546654;-32.60359191894531;1.4808627367019653;-54.488616943359375
287;1666162351.910822;46.9766775;7.1788542;59.91100311279297;1666162351.9527946;-37.29225158691406;-0.7845980525016785;-53.07118225097656
288;1666162352.1109061;46.9766817;7.1788460999999995;59.93700408935547;1666162352.1538467;-58.954185485839844;6.31601095199585;-53.7337646484375
289;1666162352.3129349;46.976687999999996;7.1788343;59.86600112915039;1666162352.3558798;-73.4707260131836;-2.6603755950927734;-50.257118225097656
290;1666162352.5208228;46.976696999999994;7.1788172999999995;59.73600387573242;1666162352.56279;-51.962764739990234;1.8297823667526245;-49.69761657714844
291;1666162352.7238328;46.9767082;7.1787968;59.638004302978516;1666162352.7726338;-36.89110565185547;0.6209431290626526;-47.3538818359375
292;1666162352.9365993;46.9767209;7.1787747;59.65500259399414;1666162352.9893036;-43.243751525878906;5.953079700469971;-50.83395004272461
293;1666162353.1542492;46.9767346;7.1787512;59.65500259399414;1666162353.2059765;-54.606773376464844;-0.12972639501094818;-50.185001373291016
294;1666162353.3728712;46.9767495;7.1787259;59.669002532958984;1666162353.4187446;-49.07425308227539;-0.34641432762145996;-48.07254409790039
295;1666162353.5719757;46.976765199999996;7.178699099999999;59.6660041809082;1666162353.6207762;-34.22089767456055;1.8691216707229614;-50.16312026977539
296;1666162353.7720587;46.9767812;7.1786721;59.67200469970703;1666162353.8110964;-11.001253128051758;0.40303224325180054;-49.79329299926758
297;1666162353.9877524;46.9767966;7.178646199999999;59.647003173828125;1666162354.0336246;16.020769119262695;1.2690731287002563;-46.56892395019531
298;1666162354.1927137;46.9768104;7.1786235;59.656002044677734;1666162354.2473693;-6.521092414855957;-3.739260673522949;-50.14192199707031
299;1666162354.4181688;46.976822899999995;7.1786024;59.64600372314453;1666162354.4601357;-13.535991668701172;-6.971251964569092;-48.79990768432617
300;1666162354.6387446;46.9768343;7.1785825999999995;59.63600158691406;1666162354.6777852;22.03114128112793;-1.6624764204025269;-46.985137939453125
301;1666162354.8534646;46.9768438;7.178565799999999;59.62900161743164;1666162354.895435;4.566637992858887;-0.6016539931297302;-44.21369934082031
302;1666162355.0613534;46.9768518;7.1785514;59.6140022277832;1666162355.1023486;-12.817492485046387;0.13513942062854767;-49.03723907470703
303;1666162355.2643638;46.9768593;7.178538;59.59400177001953;1666162355.303402;-30.11605453491211;5.934059143066406;-54.141204833984375
304;1666162355.4702995;46.976867;7.1785248;59.60400390625;1666162355.5171456;3.8017680644989014;1.2410107851028442;-51.88987731933594
305;1666162355.6928253;46.976874099999996;7.1785127;59.61100387573242;1666162355.7338176;15.204197883605957;9.977712631225586;-51.9500846862793
306;1666162355.890955;46.9768803;7.178502399999999;59.58700180053711;1666162355.9504905;28.588594436645508;-5.350704669952393;-48.16923141479492
307;1666162356.1037266;46.9768848;7.1784949;59.5780029296875;1666162356.1447139;0.5948065519332886;0.014660763554275036;-47.33710479736328
308;1666162356.315525;46.976888699999996;7.178488499999999;59.55900192260742;1666162356.36529;-4.159478664398193;13.600069999694824;-53.493099212646484
309;1666162356.5165732;46.9768926;7.178482499999999;59.53600311279297;1666162356.5673246;-9.55454158782959;-2.923689842224121;-51.42063903808594
310;1666162356.8181577;46.9768964;7.1784764;59.55900192260742;1666162356.8659866;26.431964874267578;-22.3730525970459;-54.29340744018555
311;1666162357.02897;46.976898999999996;7.178471399999999;59.54300308227539;1666162357.07582;24.30707359313965;4.859676837921143;-56.503116607666016
312;1666162357.2251458;46.9769003;7.178468199999999;59.548004150390625;1666162357.2739465;1.3057173490524292;1.2137775421142578;-56.30546951293945
313;1666162357.4467006;46.976901399999996;7.1784655;59.57100296020508;1666162357.4906194;0.5010237097740173;-3.3361239433288574;-45.71737289428711
314;1666162357.6409237;46.9769023;7.1784631;59.55600357055664;1666162357.6994867;16.70035743713379;5.865429878234863;-39.991207122802734
315;1666162357.858573;46.9769028;7.1784615;59.535003662109375;1666162357.9024906;3.680309295654297;-2.2287099361419678;-35.98585891723633
316;1666162358.0635333;46.9769029;7.1784607;59.531002044677734;1666162358.1025722;-36.8522834777832;8.556621551513672;-39.29681396484375
317;1666162358.2567797;46.9769041;7.1784592;59.522003173828125;1666162358.297776;-30.43170738220215;0.3660355508327484;-41.7453727722168
318;1666162358.4675949;46.9769065;7.178456499999999;59.5420036315918;1666162358.512491;13.053033828735352;-7.072436809539795;-38.63248825073242
319;1666162358.6647553;46.976908599999994;7.1784539999999994;59.56200408935547;1666162358.7096431;34.188777923583984;15.474143028259277;-34.42984390258789
320;1666162358.8697083;46.9769097;7.1784529;59.56200408935547;1666162358.9077723;3.081456184387207;-6.301929950714111;-32.36529541015625
321;1666162359.0619853;46.9769101;7.178452699999999;59.552001953125;1666162359.1059012;-13.246566772460938;-3.4955554008483887;-26.015670776367188
322;1666162359.2932923;46.9769104;7.178452399999999;59.68000411987305;1666162359.328427;-7.5416998863220215;19.36121940612793;-26.975746154785156
323;1666162359.4845884;46.9769114;7.1784528;59.87400436401367;1666162359.5333915;2.485762119293213;15.01736068725586;-22.251270294189453
324;1666162359.6993098;46.9769132;7.178454299999999;60.13200378417969;1666162359.7529914;-0.8924068808555603;37.55870056152344;-9.355168342590332
325;1666162359.9218361;46.9769155;7.1784589;60.42400360107422;1666162359.9618552;-37.37556457519531;56.68180465698242;-12.489562034606934
326;1666162360.1189883;46.9769195;7.1784683;60.685001373291016;1666162360.1668124;-57.060543060302734;26.70890998840332;1.652572751045227
327;1666162360.3346848;46.9769271;7.178481499999999;60.900001525878906;1666162360.3766527;-29.69265365600586;2.373175859451294;24.03565216064453
328;1666162360.5279324;46.9769368;7.178496;61.27100372314453;1666162360.5777106;-41.60255432128906;7.529921054840088;39.84340286254883
329;1666162360.7397275;46.9769479;7.178512899999999;61.69900131225586;1666162360.7807178;-61.99741744995117;-1.0345865488052368;49.752742767333984
330;1666162360.943709;46.976960999999996;7.1785334999999995;62.12600326538086;1666162360.9915338;-58.71726989746094;-10.458963394165039;49.48476791381836
331;1666162361.1506224;46.9769764;7.178556599999999;62.50200271606445;1666162361.1974711;-45.49356460571289;1.114159345626831;43.42262649536133
332;1666162361.370223;46.976993199999995;7.1785815;62.94000244140625;1666162361.4170692;-46.34255599975586;-0.286493182182312;48.27924728393555
333;1666162361.612663;46.9770106;7.1786072;63.37300491333008;1666162361.6575568;-45.43316650390625;-2.149466037750244;44.934844970703125
334;1666162361.828359;46.9770289;7.1786338999999995;63.80900192260742;1666162361.873255;-39.2778205871582;1.4861489534378052;43.559539794921875
335;1666162362.036247;46.9770475;7.178661099999999;64.2509994506836;1666162362.0811415;-36.346168518066406;0.31016334891319275;45.56181335449219
336;1666162362.238277;46.977066199999996;7.1786885;64.70100402832031;1666162362.283175;-36.57016372680664;-0.07684123516082764;45.47092819213867
337;1666162362.436406;46.9770849;7.1787158;65.1500015258789;1666162362.4803264;-34.06448745727539;0.29270562529563904;45.27000427246094
338;1666162362.656985;46.9771034;7.178743;65.61199951171875;1666162362.7048082;-34.630184173583984;-0.007871214300394058;45.469764709472656
339;1666162362.8687747;46.9771216;7.1787697999999995;66.06100463867188;1666162362.9097672;-25.025745391845703;0.40679439902305603;45.19673156738281
340;1666162363.0747123;46.977139099999995;7.178795399999999;66.46000671386719;1666162363.113752;-7.926387310028076;0.5044066905975342;44.733917236328125
341;1666162363.2650366;46.9771553;7.1788193;66.84500122070312;1666162363.3069983;7.280872821807861;0.6644230484962463;44.829368591308594
342;1666162363.462183;46.9771698;7.1788408;67.21000671386719;1666162363.5051272;4.934382915496826;-0.43946710228919983;45.51050567626953
343;1666162363.6690967;46.9771827;7.178859999999999;67.53400421142578;1666162363.714969;4.503941535949707;-0.7460840940475464;44.9992561340332
344;1666162363.8682005;46.9771941;7.1788769;67.81600189208984;1666162363.9111438;12.76939868927002;-0.06616945564746857;44.34414291381836
345;1666162364.0682793;46.9772039;7.1788915;68.06900024414062;1666162364.1122005;8.69772720336914;-1.1554467678070068;45.25758361816406
346;1666162364.2722623;46.9772125;7.1789039;68.26300048828125;1666162364.311303;-3.8216729164123535;-0.5892590880393982;45.046165466308594
347;1666162364.4664886;46.977219899999994;7.178915;68.44499969482422;1666162364.508456;21.70426368713379;1.3025803565979004;43.18339920043945
348;1666162364.6743746;46.977225999999995;7.1789242;68.6310043334961;1666162364.713417;10.854525566101074;-4.407717227935791;44.53125
349;1666162364.8705509;46.9772311;7.178931899999999;68.78400421142578;1666162364.9213052;31.334482192993164;-2.827378511428833;43.92616653442383
350;1666162365.0842986;46.977235;7.1789375;68.91200256347656;1666162365.129194;-1.5241270065307617;-1.5495798587799072;51.03175735473633
351;1666162365.2931597;46.9772381;7.1789418;69.01300048828125;1666162365.3370824;-13.794322967529297;6.318079948425293;43.78771209716797
352;1666162365.6123114;46.977241;7.178946;69.11600494384766;1666162365.6796582;-7.0735554695129395;6.488699436187744;39.66341018676758
353;1666162365.8377707;46.9772438;7.1789504;69.17000579833984;1666162365.8826637;-9.566224098205566;-2.861964702606201;41.920406341552734
354;1666162366.0398018;46.9772465;7.178954699999999;69.20800018310547;1666162366.087625;-14.234707832336426;-3.245953321456909;40.82539367675781
355;1666162366.2389066;46.9772493;7.1789589;69.27799987792969;1666162366.2964904;-9.502777099609375;-4.805112838745117;41.031063079833984
356;1666162366.4614332;46.977252299999996;7.1789628;69.33900451660156;1666162366.5024266;7.546224117279053;-1.208672285079956;40.943603515625
357;1666162366.6644452;46.9772549;7.178966099999999;69.37200164794922;1666162366.7064092;15.276707649230957;-2.6841423511505127;40.08481216430664
358;1666162366.8635461;46.977256499999996;7.1789679;69.41400146484375;1666162366.908442;32.27814865112305;-1.3664885759353638;39.673133850097656
359;1666162367.0792425;46.977256999999994;7.1789678;69.41200256347656;1666162367.1231618;-9.993958473205566;4.377183437347412;38.43740463256836
360;1666162367.278345;46.9772569;7.1789676;69.41600036621094;1666162367.3203154;-13.20607852935791;-9.247583389282227;42.69682312011719
361;1666162367.4862328;46.977257099999996;7.178967399999999;69.44200134277344;1666162367.528203;13.831235885620117;9.33320140838623;45.034278869628906
362;1666162367.6804595;46.9772567;7.1789672;69.427001953125;1666162367.723401;20.99016761779785;43.89777755737305;63.91770553588867
363;1666162367.8863943;46.9772537;7.1789673;69.43600463867188;1666162367.9303145;-15.778656959533691;1.9418442249298096;69.31716918945312
364;1666162368.089402;46.9772501;7.1789686999999995;69.45000457763672;1666162368.140155;-56.30202102661133;24.636537551879883;72.68231964111328
365;1666162368.298266;46.9772464;7.1789742;69.44200134277344;1666162368.3480425;-21.756486892700195;8.415143966674805;70.70132446289062
366;1666162368.499322;46.977243;7.178982599999999;69.4260025024414;1666162368.540315;8.514531135559082;-25.407682418823242;42.33995056152344
367;1666162368.69257;46.9772403;7.178989499999999;69.41400146484375;1666162368.73649;9.208709716796875;-19.695968627929688;24.71715545654297
368;1666162368.8965545;46.9772386;7.1789944;69.4280014038086;1666162368.9365714;-28.95519256591797;-11.860462188720703;28.009031295776367
369;1666162369.091754;46.9772385;7.178998399999999;69.46100616455078;1666162369.1415324;-31.39988136291504;-28.545623779296875;43.06976318359375
370;1666162369.3074517;46.977240099999996;7.179002;69.44000244140625;1666162369.3611307;-27.06102752685547;-7.682608127593994;54.05038070678711
371;1666162369.523147;46.977243099999995;7.1790058;69.45100402832031;1666162369.5592587;-7.51463508605957;15.383587837219238;64.1587142944336
372;1666162369.7261548;46.977246199999996;7.1790106;69.4330062866211;1666162369.7642193;4.634349822998047;14.708379745483398;79.17170715332031
373;1666162369.913547;46.977248499999995;7.1790147;69.44100189208984;1666162369.9545403;21.069189071655273;28.909679412841797;92.83573150634766
374;1666162370.1126516;46.977249;7.1790169;69.46700286865234;1666162370.1565738;-22.27128028869629;25.52713394165039;94.39497375488281
375;1666162370.304926;46.977247899999995;7.1790189;69.49000549316406;1666162370.3488479;-18.441913604736328;20.673044204711914;102.82784271240234
376;1666162370.5128138;46.9772453;7.1790216;69.52200317382812;1666162370.55772;3.4385766983032227;25.740388870239258;103.10907745361328
377;1666162370.7197356;46.977241899999996;7.1790235;69.5300064086914;1666162370.7617023;27.607267379760742;17.355634689331055;119.60843658447266
378;1666162370.9237168;46.977238;7.179023399999999;69.54400634765625;1666162370.9725187;16.808359146118164;2.1812775135040283;134.9672393798828
379;1666162371.1218452;46.9772347;7.1790218999999995;69.52000427246094;1666162371.1686935;-21.657243728637695;-3.2925477027893066;139.76187133789062
380;1666162371.3277824;46.9772311;7.179020899999999;69.4990005493164;1666162371.3824384;-26.628787994384766;-10.888901710510254;131.29946899414062
381;1666162371.5425036;46.977227299999996;7.1790221;69.5040054321289;1666162371.5942314;-19.328781127929688;-20.516687393188477;125.35680389404297
382;1666162371.7455103;46.9772239;7.1790259999999995;69.50800323486328;1666162371.8011444;-43.11039733886719;-37.694007873535156;142.31622314453125
383;1666162371.9494934;46.977220599999995;7.1790348999999996;69.52000427246094;1666162371.9856083;-51.70818328857422;0.36897581815719604;131.0869598388672
384;1666162372.1485984;46.977215799999996;7.1790473;69.55500030517578;1666162372.1934993;-37.56489181518555;12.80435562133789;127.54460906982422
385;1666162372.359419;46.977208999999995;7.1790614999999995;69.56900024414062;1666162372.4013839;-55.71914291381836;0.22973503172397614;128.31475830078125
386;1666162372.5516884;46.9772002;7.179078499999999;69.57600402832031;1666162372.5926828;-59.64461135864258;5.565440654754639;125.17707824707031
387;1666162372.771289;46.977188999999996;7.1790989;69.59500122070312;1666162372.8161826;-49.688446044921875;1.3712737560272217;128.59555053710938
388;1666162372.9723454;46.977176299999996;7.179121599999999;69.62200164794922;1666162373.0133379;-49.04953384399414;1.8863598108291626;129.4775848388672
389;1666162373.1724246;46.9771626;7.1791458;69.6310043334961;1666162373.2114658;-41.4592170715332;3.102518081665039;129.14064025878906
390;1666162373.3725028;46.977148199999995;7.1791711;69.66200256347656;1666162373.4164226;-24.362512588500977;0.061084944754838943;131.53988647460938
391;1666162373.5784397;46.977134;7.179195699999999;69.69800567626953;1666162373.6184564;18.46107292175293;2.896932363510132;130.802978515625
392;1666162373.7785194;46.9771211;7.179217899999999;69.69700622558594;1666162373.819514;23.847801208496094;-1.3558156490325928;137.1379852294922
393;1666162373.9844563;46.9771101;7.179236899999999;69.67000579833984;1666162374.031306;27.18473243713379;-7.846445083618164;132.43394470214844
394;1666162374.1923468;46.9771016;7.179252399999999;69.6760025024414;1666162374.2362635;20.317567825317383;-12.357100486755371;129.9622344970703
395;1666162374.4031632;46.9770956;7.179265099999999;69.72900390625;1666162374.4451287;-2.345942258834839;0.2610663175582886;125.61744689941406
396;1666162374.6139781;46.977090399999994;7.179276499999999;69.77100372314453;1666162374.6598535;2.831171989440918;6.3615851402282715;126.83362579345703
397;1666162374.8179607;46.9770858;7.1792862;69.83800506591797;1666162374.8609068;8.714584350585938;9.910619735717773;132.2814483642578
398;1666162375.0326812;46.9770817;7.179294;69.8550033569336;1666162375.0678163;-1.4143729209899902;4.7477707862854;135.95582580566406
399;1666162375.225929;46.977077699999995;7.1793011;69.8790054321289;1666162375.2708254;-0.7787185907363892;-4.367978096008301;135.10562133789062
400;1666162375.4338174;46.9770742;7.179307499999999;69.94600677490234;1666162375.4718826;3.2701761722564697;-5.289589881896973;130.34559631347656
401;1666162375.6504896;46.9770712;7.179313499999999;69.98100280761719;1666162375.695396;-9.212936401367188;1.0870317220687866;127.70002746582031
402;1666162375.8642335;46.9770681;7.1793197;69.99300384521484;1666162375.9052246;-15.65273666381836;3.703934907913208;127.7052001953125
403;1666162376.0701728;46.9770648;7.179326;70.03300476074219;1666162376.1140926;-9.743903160095215;3.353147268295288;130.3358154296875
404;1666162376.2761083;46.977061299999995;7.179332199999999;70.03700256347656;1666162376.323929;-9.05340576171875;1.3932950496673584;131.03952026367188
405;1666162376.4859457;46.9770578;7.1793385;70.03800201416016;1666162376.5298653;-16.77699851989746;0.3506672978401184;131.42147827148438
406;1666162376.6938338;46.9770537;7.179345499999999;70.01800537109375;1666162376.735803;-20.363740921020508;0.8480673432350159;130.7666473388672
407;1666162376.8948908;46.9770494;7.1793529;70.03500366210938;1666162376.934909;-10.377373695373535;1.2262067794799805;130.7402801513672
408;1666162377.0969226;46.9770451;7.1793603;70.0780029296875;1666162377.1437702;1.8316940069198608;1.9883533716201782;130.5601043701172
409;1666162377.30481;46.9770411;7.1793670999999994;70.08200073242188;1666162377.3487303;3.261441946029663;1.8677539825439453;131.38909912109375
410;1666162377.5048902;46.9770373;7.179373099999999;70.03900146484375;1666162377.5468574;-10.19812297821045;0.860641360282898;131.88832092285156
411;1666162377.712778;46.9770335;7.1793793;70.02000427246094;1666162377.7557251;-8.310234069824219;-0.6774251461029053;131.6072540283203
412;1666162378.0211945;46.9770299;7.1793852;70.03900146484375;1666162378.0612135;-4.328213214874268;-0.4108259677886963;130.43377685546875
413;1666162378.2124915;46.9770265;7.179391;70.0510025024414;1666162378.2554355;-4.888122081756592;1.7987353801727295;130.0543212890625
414;1666162378.4125729;46.977022899999994;7.1793971999999995;70.0320053100586;1666162378.462349;-19.07113265991211;2.3984968662261963;130.705078125
415;1666162378.6292434;46.9770189;7.1794037;70.02300262451172;1666162378.6692586;-24.797006607055664;2.061763048171997;130.98175048828125
416;1666162378.8371332;46.977014499999996;7.1794107;70.0050048828125;1666162378.8791003;-19.844789505004883;0.46304377913475037;131.83326721191406
417;1666162379.038188;46.977009599999995;7.1794186;70.02000427246094;1666162379.0811317;-12.650607109069824;-1.3651056289672852;132.5001220703125
418;1666162379.250955;46.977004699999995;7.1794268;70.02400207519531;1666162379.293904;-9.08023452758789;-1.231569766998291;132.15367126464844
419;1666162379.452015;46.9769995;7.1794356;70.00200653076172;1666162379.494957;-14.584027290344238;0.46970364451408386;131.8326873779297
