;pos_time;latitude;longitude;altitude;alt_time;pitch;roll;yaw
0;1666168946.2208734;46.9755343;7.1803558999999995;-0.07600000500679016;1666168946.3145697;-0.12808780372142792;-0.06343493610620499;90.34806060791016
1;1666168946.4570673;46.9755343;7.1803558999999995;-0.07700000703334808;1666168946.5478337;0.003646923927590251;0.08224339783191681;90.24380493164062
2;1666168946.6678817;46.9755343;7.1803558999999995;-0.07800000160932541;1666168946.7762182;0.07201609760522842;-0.06801100820302963;90.25436401367188
3;1666168946.8972425;46.9755343;7.1803558;-0.07900000363588333;1666168946.9802017;-0.05386784300208092;-0.09504641592502594;90.39768981933594
4;1666168947.1002495;46.9755343;7.1803558;-0.08100000023841858;1666168947.2007797;-0.1232268363237381;-0.07449130713939667;90.36817932128906
5;1666168947.3149698;46.9755343;7.1803557;-0.08800000697374344;1666168947.4018354;-0.17768028378486633;-0.06602150946855545;90.26499938964844
6;1666168947.5140746;46.9755343;7.1803557;-0.09100000560283661;1666168947.5921557;-0.0566139742732048;-0.0047961752861738205;90.26447296142578
7;1666168947.7063475;46.9755343;7.1803557;-0.09100000560283661;1666168947.797115;-0.1218695268034935;-0.16598127782344818;90.36051940917969
8;1666168947.9474192;46.9755343;7.1803557;-0.09100000560283661;1666168948.0684443;-0.01098537165671587;-0.11963794380426407;90.39981079101562
9;1666168948.1875157;46.9755343;7.1803555999999995;-0.08900000154972076;1666168948.276331;-0.1477997750043869;-0.16151142120361328;90.37374877929688
10;1666168948.378812;46.9755343;7.1803557;0.0010000000474974513;1666168948.4666512;-0.06988885998725891;-0.02381117083132267;90.21614837646484
11;1666168948.5964584;46.9755343;7.1803557;-0.0010000000474974513;1666168948.690155;-0.06360389292240143;-0.05732514709234238;90.4457015991211
12;1666168948.8189867;46.9755343;7.1803557;-0.004000000189989805;1666168948.9048762;-0.05827106907963753;-0.04011125490069389;90.23773193359375
13;1666168949.0180962;46.9755343;7.1803557;-0.004000000189989805;1666168949.1371639;-0.08612163364887238;-0.14651507139205933;90.45284271240234
14;1666168949.248427;46.9755344;7.1803557;-0.0020000000949949026;1666168949.3557873;-0.1305573582649231;0.017590835690498352;90.22730255126953
15;1666168949.4670515;46.9755344;7.1803557;0.0;1666168949.573803;-0.06906970590353012;-0.11887174099683762;90.36305236816406
16;1666168949.68897;46.9755344;7.1803558;0.003000000026077032;1666168949.780249;0.044467005878686905;-0.06140788644552231;90.31967163085938
17;1666168949.9056928;46.9755344;7.1803558;0.007000000216066837;1666168950.0018542;-0.06429708749055862;-0.07474882155656815;90.36151123046875
18;1666168950.1189756;46.9755344;7.1803558;0.006000000052154064;1666168950.203885;0.00740694859996438;-0.026396464556455612;90.3681640625
19;1666168950.33467;46.9755344;7.1803558;0.005000000353902578;1666168950.424462;0.07668463885784149;-0.27501121163368225;90.33906555175781
20;1666168950.5523179;46.9755344;7.1803558;0.01900000125169754;1666168950.6401587;1.2102364301681519;3.3332202434539795;90.59675598144531
21;1666168950.7533784;46.975534499999995;7.1803557;0.06100000441074371;1666168950.845117;0.6463638544082642;-18.88494110107422;93.3099594116211
22;1666168950.9612641;46.975534499999995;7.1803557;0.12400000542402267;1666168951.0481265;-0.6623765826225281;15.723849296569824;90.73115539550781
23;1666168951.16089;46.9755343;7.1803558;0.20100000500679016;1666168951.2545877;-1.9803062677383423;13.311307907104492;90.0159912109375
24;1666168951.4961722;46.9755341;7.1803561;0.32500001788139343;1666168951.581485;0.02453574538230896;-17.01573944091797;92.40447998046875
25;1666168951.702513;46.975533999999996;7.1803566;0.453000009059906;1666168951.7874217;0.5071570873260498;-8.678109169006348;91.57195281982422
26;1666168951.9152763;46.975533899999995;7.1803571999999996;0.6150000095367432;1666168952.0060441;2.4830102920532227;16.769800186157227;88.21228790283203
27;1666168952.1310217;46.975533999999996;7.1803577;0.7760000228881836;1666168952.2149582;4.5711565017700195;2.9026906490325928;88.90576171875
28;1666168952.3320773;46.9755341;7.180358;0.9620000720024109;1666168952.4121082;4.6655120849609375;-18.62672996520996;91.11344146728516
29;1666168952.5428927;46.9755343;7.180358;1.1610000133514404;1666168952.6385422;3.316046714782715;-3.0752246379852295;88.4561767578125
30;1666168952.7507813;46.9755344;7.1803577999999995;1.3840000629425049;1666168952.8435025;2.5401923656463623;15.155499458312988;84.97447204589844
31;1666168952.9586687;46.9755344;7.1803576;1.6070001125335693;1666168953.0484629;0.18106605112552643;2.50109601020813;90.83086395263672
32;1666168953.168509;46.975534499999995;7.1803573;1.88100004196167;1666168953.2778213;0.9657524228096008;-16.096813201904297;91.31549835205078
33;1666168953.4007974;46.975534599999996;7.180357099999999;2.1579999923706055;1666168953.5013258;1.378865361213684;-1.0305920839309692;88.47335815429688
34;1666168953.606736;46.9755347;7.180357;2.4570000171661377;1666168953.696525;1.277902364730835;15.158514976501465;86.38308715820312
35;1666168953.800961;46.9755347;7.180356799999999;2.7760000228881836;1666168953.8927019;-0.6341891884803772;-1.4428422451019287;85.73775482177734
36;1666168954.011777;46.9755347;7.1803567;3.1010000705718994;1666168954.0966866;-0.5094278454780579;-8.19802474975586;84.70059204101562
37;1666168954.2186875;46.9755347;7.1803566;3.457000255584717;1666168954.3455663;0.6553698778152466;3.151388645172119;85.93569946289062
38;1666168954.4587822;46.9755348;7.1803566;3.823000192642212;1666168954.5671184;-0.11533123254776001;6.363315105438232;84.87760162353516
39;1666168954.6793582;46.975535;7.180356499999999;4.190000057220459;1666168954.757441;0.3815431594848633;11.617700576782227;83.12300109863281
40;1666168954.8843215;46.975535;7.180356499999999;4.549000263214111;1666168954.9663038;0.7548832297325134;1.9865875244140625;83.60813903808594
41;1666168955.1048949;46.9755347;7.180356499999999;4.89900016784668;1666168955.2171342;-0.7326947450637817;-11.0153226852417;84.41993713378906
42;1666168955.322543;46.9755344;7.180356499999999;5.267000198364258;1666168955.4064808;-0.5141875743865967;5.746517181396484;82.96758270263672
43;1666168955.5401917;46.9755342;7.1803567;5.623000144958496;1666168955.6319346;0.9741074442863464;4.68474817276001;82.57597351074219
44;1666168955.7441752;46.9755343;7.180356799999999;6.002000331878662;1666168955.8388476;1.9722325801849365;-15.27875804901123;85.5397720336914
45;1666168955.956944;46.9755344;7.1803569;6.371000289916992;1666168956.0623515;2.6042933464050293;-5.292356491088867;84.04642486572266
46;1666168956.1902075;46.975534499999995;7.1803569;6.749000549316406;1666168956.2995212;2.113250732421875;15.576292991638184;81.57763671875
47;1666168956.405905;46.9755347;7.180356799999999;7.122000217437744;1666168956.4917934;1.247143268585205;0.12359597533941269;83.87660217285156
48;1666168956.6186733;46.9755347;7.1803567;7.493000507354736;1666168956.7445767;0.9059526324272156;-12.715747833251953;86.10091400146484
49;1666168956.8568156;46.9755347;7.1803566;7.8580002784729;1666168956.9417286;1.3501219749450684;2.2297654151916504;83.60608673095703
50;1666168957.0656822;46.9755347;7.180356499999999;8.221000671386719;1666168957.1544986;0.04916605353355408;3.2232587337493896;83.39891052246094
51;1666168957.2755227;46.9755347;7.1803564;8.568000793457031;1666168957.358481;-0.3560338020324707;0.057343218475580215;84.6222152709961
52;1666168957.496096;46.9755348;7.1803563;8.901000022888184;1666168957.5917451;0.659791886806488;3.968364953994751;85.06053161621094
53;1666168957.7030103;46.975535;7.1803563;9.237000465393066;1666168957.8025613;0.4298371970653534;-19.212589263916016;86.86256408691406
54;1666168957.9177308;46.9755353;7.1803561;9.581000328063965;1666168958.0006883;0.338522344827652;8.508951187133789;84.1393051147461
55;1666168958.1129289;46.9755355;7.1803561;9.926000595092773;1666168958.2056518;2.660228967666626;13.823573112487793;82.96458435058594
56;1666168958.3110583;46.9755355;7.1803561;10.285000801086426;1666168958.398898;1.9033498764038086;-0.22354401648044586;84.16891479492188
57;1666168958.5140648;46.9755353;7.180356;10.743000984191895;1666168958.6067846;-1.332381248474121;-5.913087368011475;86.10677337646484
58;1666168958.7112186;46.975535199999996;7.180356;11.338000297546387;1666168958.8156493;0.314907431602478;12.027079582214355;82.70933532714844
59;1666168958.92789;46.975535;7.1803561;11.946000099182129;1666168959.0196333;2.7716760635375977;4.888707160949707;83.48602294921875
60;1666168959.1338272;46.9755348;7.180356199999999;12.556000709533691;1666168959.214834;0.9583983421325684;-4.8746018409729;85.15603637695312
61;1666168959.3319557;46.975534599999996;7.1803561;13.136000633239746;1666168959.4315085;0.08194655179977417;0.9575210809707642;84.67642211914062
62;1666168959.55741;46.9755344;7.1803561;13.719000816345215;1666168959.6501307;-0.140257328748703;3.51759672164917;83.19359588623047
63;1666168959.7672498;46.9755342;7.1803561;14.321001052856445;1666168959.8638759;0.043199025094509125;-7.147886276245117;84.45649719238281
64;1666168959.9975865;46.975533999999996;7.1803561;14.916000366210938;1666168960.078594;-0.029861265793442726;-1.074869155883789;85.2402572631836
65;1666168960.1888852;46.9755337;7.180356199999999;15.529000282287598;1666168960.275746;0.15703392028808594;9.919560432434082;82.1528549194336
66;1666168960.387015;46.9755337;7.1803563;16.147001266479492;1666168960.481682;1.4129936695098877;-0.9389393329620361;84.48685455322266
67;1666168960.6144197;46.9755338;7.1803564;16.748001098632812;1666168960.7042117;1.2025554180145264;8.491320610046387;83.87335205078125
68;1666168960.8213322;46.9755338;7.1803564;17.345001220703125;1666168960.9042907;0.6285805702209473;-6.894644260406494;84.85408782958984
69;1666168961.1258433;46.9755338;7.180356199999999;17.928001403808594;1666168961.2195396;1.009782314300537;-4.6864776611328125;86.11941528320312
70;1666168961.3395889;46.9755337;7.1803561;18.534000396728516;1666168961.4381635;1.7125489711761475;4.0988993644714355;83.67232513427734
71;1666168961.5591881;46.9755336;7.180356;19.136001586914062;1666168961.647029;1.074233055114746;-4.3357110023498535;85.195068359375
72;1666168961.7700033;46.9755337;7.1803558999999995;19.735000610351562;1666168961.8519886;-0.27527177333831787;-6.012420654296875;86.34217834472656
73;1666168961.9817955;46.975533999999996;7.1803557;20.32900047302246;1666168962.087204;0.6268651485443115;0.12017293274402618;85.7628402709961
74;1666168962.2062757;46.9755343;7.1803555;20.909000396728516;1666168962.391716;-0.713599681854248;6.399675369262695;85.15097045898438
75;1666168962.502004;46.9755347;7.1803555;21.49700164794922;1666168962.7050128;-0.5726043581962585;9.64385986328125;86.0984115600586
76;1666168962.8250606;46.975534599999996;7.1803555999999995;22.086000442504883;1666168962.9148571;0.011919106356799603;-8.221302032470703;84.54570770263672
77;1666168963.047588;46.9755344;7.1803557;22.681001663208008;1666168963.1383564;-0.027019374072551727;8.533143043518066;84.1539535522461
78;1666168963.2584045;46.9755342;7.1803558;23.2760009765625;1666168963.4565322;0.6822952032089233;-2.6473352909088135;84.9668197631836
79;1666168963.575607;46.975533999999996;7.1803558999999995;23.873001098632812;1666168963.671254;0.8522042036056519;-3.5097289085388184;85.32727813720703
80;1666168963.7873974;46.975533999999996;7.1803558999999995;24.464000701904297;1666168963.908421;1.7533353567123413;-1.8940646648406982;85.45796966552734
81;1666168964.022615;46.9755342;7.1803558;25.06300163269043;1666168964.1133814;0.30044713616371155;-0.340431809425354;84.90864562988281
82;1666168964.2451417;46.975534499999995;7.1803555999999995;25.665000915527344;1666168964.3329816;-0.9564558863639832;2.102339267730713;84.57437896728516
83;1666168964.4549828;46.975534599999996;7.1803555999999995;26.269001007080078;1666168964.559415;-0.4917638301849365;4.418542385101318;84.63301086425781
84;1666168964.6911738;46.975534499999995;7.1803555999999995;26.875001907348633;1666168964.7721837;0.6134869456291199;-5.401327610015869;85.60016632080078
85;1666168964.899064;46.975534499999995;7.1803557;27.48000144958496;1666168964.9800708;0.8133738040924072;-2.068263053894043;85.66175842285156
86;1666168965.0965514;46.975534599999996;7.1803557;28.07400131225586;1666168965.2019625;0.012828375212848186;3.280941963195801;84.85659790039062
87;1666168965.320055;46.9755347;7.1803557;28.66900062561035;1666168965.4186344;0.79385906457901;3.960667610168457;84.59998321533203
88;1666168965.5562496;46.975534499999995;7.1803557;29.269001007080078;1666168965.6489677;0.8803842663764954;-3.7818551063537598;84.90778350830078
89;1666168965.7690194;46.9755344;7.1803555999999995;29.8700008392334;1666168965.8529537;0.6152458190917969;4.267403602600098;84.9758071899414
90;1666168965.9788587;46.9755344;7.1803555;30.472002029418945;1666168966.0706015;0.13086098432540894;-4.9550275802612305;85.46568298339844
91;1666168966.1857712;46.9755344;7.1803554;31.07600212097168;1666168966.2794647;-0.7975489497184753;2.4191789627075195;84.73777770996094
92;1666168966.5137062;46.9755343;7.1803554;31.673002243041992;1666168966.5995924;-0.33651968836784363;0.1746405065059662;84.99303436279297
93;1666168966.7221084;46.9755343;7.1803554;32.27300262451172;1666168966.812875;-0.13376225531101227;-0.46630382537841797;85.28416442871094
94;1666168966.938779;46.9755344;7.1803555;32.87800216674805;1666168967.0266244;0.6877761483192444;-1.4449050426483154;85.13798522949219
95;1666168967.149594;46.975534499999995;7.1803555;33.48500061035156;1666168967.3438213;-0.006979599129408598;5.158359050750732;84.56732177734375
96;1666168967.4658182;46.975534499999995;7.1803555;34.09100341796875;1666168967.552683;0.15768492221832275;-4.350134372711182;85.48941040039062
97;1666168967.684443;46.975534599999996;7.1803555999999995;34.69200134277344;1666168967.7771637;0.23020999133586884;0.6379935145378113;84.8557357788086
98;1666168967.9928617;46.975534599999996;7.1803555999999995;35.28200149536133;1666168968.0875316;1.4027831554412842;3.9976253509521484;84.62889862060547
99;1666168968.1939163;46.975534499999995;7.1803555999999995;35.880001068115234;1666168968.3910685;0.7929375171661377;-2.8661227226257324;85.4609603881836
100;1666168968.5169716;46.9755344;7.1803555999999995;36.48200225830078;1666168968.6028616;-0.09982240945100784;-4.079559326171875;85.47940826416016
101;1666168968.7258365;46.975534599999996;7.1803555;37.086002349853516;1666168968.8107507;0.2458777278661728;7.85935640335083;84.32321166992188
102;1666168968.9239657;46.9755347;7.1803555;37.689002990722656;1666168969.0049746;0.7383686304092407;-3.6641974449157715;85.29450988769531
103;1666168969.137709;46.975534599999996;7.1803555;38.28900146484375;1666168969.221646;0.3336949944496155;1.2924435138702393;85.22666931152344
104;1666168969.3436437;46.975534599999996;7.1803555;38.887001037597656;1666168969.4363642;0.5070929527282715;0.8711310625076294;85.02974700927734
105;1666168969.5681238;46.975534599999996;7.1803555;39.47500228881836;1666168969.6559641;-0.20306584239006042;1.445796251296997;85.02275085449219
106;1666168969.7789404;46.975534599999996;7.1803555999999995;40.06300354003906;1666168969.8794703;0.2577703893184662;-2.6458840370178223;84.99251556396484
107;1666168969.9946377;46.975534499999995;7.1803557;40.65700149536133;1666168970.0854056;0.012401621788740158;0.46485635638237;85.2033920288086
108;1666168970.1986203;46.975534499999995;7.1803557;41.25600051879883;1666168970.2981756;0.7130411267280579;2.6941475868225098;84.7356185913086
109;1666168970.4084637;46.975534499999995;7.1803558;41.85700225830078;1666168970.494348;0.597142219543457;-3.1623175144195557;85.47489166259766
110;1666168970.6124468;46.975534499999995;7.1803558;42.45800018310547;1666168970.6963801;0.37391993403434753;2.673279285430908;84.76530456542969
111;1666168970.8261888;46.975534499999995;7.1803558999999995;43.04900360107422;1666168970.9159825;0.5174079537391663;-1.1640918254852295;85.48278045654297
112;1666168971.0370045;46.975534599999996;7.1803558;43.64200210571289;1666168971.149245;0.2991887032985687;1.6484794616699219;85.10150909423828
113;1666168971.2585595;46.975534599999996;7.1803558999999995;44.2400016784668;1666168971.3424945;0.66371750831604;-2.7070882320404053;85.33422088623047
114;1666168971.457664;46.9755347;7.1803558999999995;44.840003967285156;1666168971.551363;0.42717739939689636;5.586726188659668;84.71967315673828
115;1666168971.6675022;46.9755347;7.1803558999999995;45.43800354003906;1666168971.757297;0.7271192669868469;-2.895493507385254;85.5718765258789
116;1666168971.8685575;46.9755347;7.1803558999999995;46.03300094604492;1666168971.9593294;0.2045835703611374;0.2640566825866699;84.9986801147461
117;1666168972.0871818;46.9755347;7.1803558;46.624000549316406;1666168972.2755506;0.683607280254364;1.8668497800827026;84.9630126953125
118;1666168972.4024296;46.9755347;7.1803557;47.204002380371094;1666168972.4873457;0.35327383875846863;0.14440104365348816;85.60136413574219
119;1666168972.5956779;46.9755347;7.1803557;47.78600311279297;1666168972.6883993;0.4920109808444977;-2.573066473007202;85.27889251708984
120;1666168972.8035681;46.9755347;7.1803557;48.37300109863281;1666168972.883601;0.21482039988040924;5.279187202453613;84.75381469726562
121;1666168973.0124304;46.9755347;7.1803558;48.96200180053711;1666168973.0953915;0.5210049748420715;-0.6259293556213379;85.31492614746094
122;1666168973.228129;46.9755347;7.1803558;49.54600143432617;1666168973.3247497;0.5123155117034912;-2.581545114517212;85.46597290039062
123;1666168973.4330893;46.975534599999996;7.1803558999999995;50.13300323486328;1666168973.5170233;1.3464926481246948;4.320204257965088;84.59011840820312
124;1666168973.6253598;46.975534599999996;7.1803558999999995;50.71200180053711;1666168973.7063682;0.8916445970535278;-2.543412923812866;85.64654541015625
125;1666168973.825439;46.975534499999995;7.1803558;51.294002532958984;1666168973.9123044;0.44801065325737;-1.2997876405715942;85.08882141113281
126;1666168974.032351;46.975534499999995;7.1803558;51.884002685546875;1666168974.1211689;0.0013450136175379157;3.574646234512329;85.17704772949219
127;1666168974.248048;46.9755344;7.1803557;52.47600173950195;1666168974.3378406;0.5763218402862549;-0.3545233905315399;85.02114868164062
128;1666168974.4539874;46.9755343;7.1803555999999995;53.06700134277344;1666168974.5428004;0.6546233892440796;-4.212978363037109;85.59644317626953
129;1666168974.6774876;46.9755343;7.1803555999999995;53.660003662109375;1666168974.7692318;0.4249415397644043;4.245474815368652;84.80358123779297
130;1666168974.8775697;46.9755342;7.1803555;54.25700378417969;1666168974.9722404;0.04146255925297737;-2.41992449760437;85.61996459960938
131;1666168975.0903378;46.9755341;7.1803555999999995;54.845001220703125;1666168975.1889136;0.31119969487190247;-1.369997501373291;84.79582214355469
132;1666168975.2952964;46.9755341;7.1803555999999995;55.43400192260742;1666168975.3880186;0.44482675194740295;1.6674387454986572;85.26121520996094
133;1666168975.505137;46.9755342;7.1803555999999995;56.01000213623047;1666168975.6007867;0.40456920862197876;3.1730291843414307;84.80845642089844
134;1666168975.7257159;46.9755341;7.1803555999999995;56.52300262451172;1666168975.825266;0.34727710485458374;-4.034954071044922;85.48389434814453
135;1666168975.9394584;46.9755341;7.1803555;56.9630012512207;1666168976.0282757;0.08871585875749588;3.6555278301239014;84.95166778564453
136;1666168976.1561291;46.9755342;7.1803554;57.33100128173828;1666168976.2478735;0.20416021347045898;-1.0119775533676147;85.41694641113281
137;1666168976.3708496;46.9755344;7.1803554;57.630001068115234;1666168976.4733324;-0.025546936318278313;1.1869386434555054;85.07981872558594
138;1666168976.5845928;46.9755344;7.1803554;57.88300323486328;1666168976.6870737;0.2234441637992859;-0.5463374853134155;85.2501220703125
139;1666168976.8373773;46.9755344;7.1803554;58.10000228881836;1666168976.9213154;-0.02096259593963623;2.4396495819091797;85.25007629394531
140;1666168977.0306258;46.975534499999995;7.1803554;58.28200149536133;1666168977.1184669;3.013665199279785;-1.1832391023635864;83.89301300048828
141;1666168977.2404659;46.975534599999996;7.1803552999999996;58.44900131225586;1666168977.3390455;12.24840259552002;-16.162643432617188;75.48995208740234
142;1666168977.4493299;46.9755353;7.1803542;58.62300109863281;1666168977.5352187;23.293832778930664;-39.55451202392578;66.70021057128906
143;1666168977.6533165;46.9755372;7.1803509;58.78900146484375;1666168977.7382271;20.188953399658203;-61.0189323425293;62.15005874633789
144;1666168977.8572996;46.9755414;7.1803444;58.90200424194336;1666168977.9451382;8.514348983764648;-53.89641571044922;49.15604019165039
145;1666168978.0554268;46.975547999999996;7.1803338;58.99200439453125;1666168978.1383874;-6.308735370635986;-37.757083892822266;41.11078643798828
146;1666168978.2681973;46.9755557;7.1803205;59.07200241088867;1666168978.3550591;-13.631489753723145;-56.67097091674805;39.613502502441406
147;1666168978.4721816;46.9755646;7.1803053;59.13300323486328;1666168978.566851;-36.9112663269043;-36.53647232055664;13.076857566833496
148;1666168978.6742127;46.9755749;7.180288099999999;59.18400192260742;1666168978.760098;-42.98933792114258;-27.88850212097168;-11.116826057434082
149;1666168978.8772182;46.9755858;7.1802699;59.228004455566406;1666168978.9816556;-43.10247039794922;-16.60142707824707;-18.099292755126953
150;1666168979.1095073;46.9755974;7.1802513;59.26700210571289;1666168979.1924708;-41.540523529052734;-14.011603355407715;-14.042946815490723
151;1666168979.3193467;46.975609399999996;7.1802328;59.311004638671875;1666168979.4120684;-37.704063415527344;-12.673014640808105;-5.133500099182129
152;1666168979.5223556;46.9756219;7.1802147;59.34400177001953;1666168979.6141071;-37.231712341308594;-28.908456802368164;6.57943058013916
153;1666168979.7243874;46.975634799999995;7.180196899999999;59.375003814697266;1666168979.8171072;-33.75050354003906;-40.98957824707031;21.693429946899414
154;1666168979.9439898;46.9756485;7.1801793;59.40500259399414;1666168980.0279233;-28.80875587463379;-46.525001525878906;33.391845703125
155;1666168980.1411412;46.9756631;7.180161399999999;59.426002502441406;1666168980.2299557;-31.394664764404297;-32.010868072509766;34.38450622558594
156;1666168980.3470793;46.9756785;7.1801441;59.44900131225586;1666168980.4368684;-26.301807403564453;-44.68803405761719;42.6768913269043
157;1666168980.551062;46.9756943;7.180128;59.46000289916992;1666168980.6515875;-24.903980255126953;-29.34596824645996;39.63631820678711
158;1666168980.7618768;46.975710299999996;7.180112899999999;59.44400405883789;1666168980.847764;-14.753016471862793;-17.38943099975586;43.71391677856445
159;1666168980.9678154;46.9757258;7.1800994;59.41200256347656;1666168981.0644395;-2.0535316467285156;-10.793586730957031;48.476112365722656
160;1666168981.1766784;46.9757399;7.180087299999999;59.37000274658203;1666168981.2645185;3.6708977222442627;-4.879436016082764;48.76062774658203
161;1666168981.3865206;46.975752;7.1800768999999995;59.34100341796875;1666168981.4733813;12.898676872253418;-9.845867156982422;47.985572814941406
162;1666168981.5895245;46.9757621;7.180067299999999;59.33700180053711;1666168981.6744368;21.33142852783203;-37.19767761230469;31.808162689208984
163;1666168981.805224;46.975770499999996;7.1800562999999995;59.36600112915039;1666168981.8881826;3.3966846466064453;-28.28384017944336;5.539416790008545
164;1666168982.0150616;46.975777699999995;7.1800438;59.388004302978516;1666168982.1019273;-18.406206130981445;-44.61735534667969;-0.7276180386543274
165;1666168982.2170942;46.9757842;7.1800294;59.436004638671875;1666168982.3010294;-43.82145690917969;-16.139934539794922;-20.980974197387695
166;1666168982.4308455;46.975791099999995;7.1800134;59.49900436401367;1666168982.515751;-51.922401428222656;-8.736506462097168;-27.807880401611328
167;1666168982.6289656;46.9757992;7.1799969;59.544002532958984;1666168982.7255921;-56.518821716308594;-1.8386468887329102;-15.777355194091797
168;1666168982.8475914;46.9758096;7.1799811;59.566001892089844;1666168982.9334798;-54.86039733886719;-12.842938423156738;-6.2401275634765625
169;1666168983.0710945;46.975822099999995;7.1799656;59.59300231933594;1666168983.1569822;-51.125823974609375;2.2015886306762695;-6.975776672363281
170;1666168983.2809343;46.975836199999996;7.179951099999999;59.592002868652344;1666168983.3804858;-44.78773880004883;-22.67262840270996;9.116490364074707
171;1666168983.490776;46.9758515;7.1799374;59.60200119018555;1666168983.5815425;-37.19640350341797;-33.56974792480469;20.72471809387207
172;1666168983.6967163;46.9758673;7.1799241;59.60000228881836;1666168983.7894363;-35.05927658081055;-27.394065856933594;27.569704055786133
173;1666168983.904599;46.975883499999995;7.179911199999999;59.57200241088867;1666168983.9875617;-28.396574020385742;-24.468891143798828;31.15458869934082
174;1666168984.1076071;46.9758996;7.179899499999999;59.53200149536133;1666168984.2032557;-20.8316650390625;-2.4749176502227783;24.266611099243164
175;1666168984.3291597;46.9759148;7.1798896;59.47500228881836;1666168984.4111428;-6.384734630584717;25.637269973754883;18.409147262573242
176;1666168984.5263107;46.9759278;7.179882399999999;59.38600158691406;1666168984.6356263;10.224242210388184;32.53460693359375;20.283639907836914
177;1666168984.7488396;46.9759378;7.1798782;59.3280029296875;1666168984.8308256;28.65213394165039;9.175838470458984;31.086360931396484
178;1666168984.9420896;46.9759442;7.1798759;59.294002532958984;1666168985.0367625;50.5033073425293;5.30349063873291;21.45974349975586
179;1666168985.152903;46.975946799999996;7.1798733;59.26400375366211;1666168985.2348895;40.37702560424805;6.750126838684082;-1.8156280517578125
180;1666168985.3500564;46.975945499999995;7.1798714;59.262001037597656;1666168985.4554653;36.58536148071289;-37.14798355102539;-16.597957611083984
181;1666168985.5725832;46.9759421;7.1798687999999995;59.27000427246094;1666168985.6584733;20.72615623474121;-45.58929443359375;-27.162307739257812
182;1666168985.769737;46.9759369;7.179863999999999;59.24900436401367;1666168985.8741689;0.9022945165634155;-26.525737762451172;-31.33003807067871
183;1666168985.9766505;46.9759308;7.1798576999999995;59.221004486083984;1666168986.0576572;-19.686248779296875;-5.76483678817749;-36.077213287353516
184;1666168986.1894171;46.9759256;7.1798511;59.21400451660156;1666168986.2753055;-31.151691436767578;10.897012710571289;-43.53246307373047
185;1666168986.393401;46.975922499999996;7.1798445;59.22700119018555;1666168986.498809;-21.448780059814453;17.83843994140625;-37.052005767822266
186;1666168986.6100726;46.9759216;7.179838999999999;59.255001068115234;1666168986.7027931;-25.684789657592773;34.460540771484375;-40.40966033935547
187;1666168986.8130832;46.9759227;7.1798348;59.27700424194336;1666168986.9126334;-23.528249740600586;30.66426658630371;-25.239486694335938
188;1666168987.0380685;46.9759257;7.1798328;59.27700424194336;1666168987.1464052;-8.405844688415527;14.520442008972168;-4.543877124786377
189;1666168987.2674289;46.975929799999996;7.1798332;59.298004150390625;1666168987.3718617;-18.028947830200195;25.27182388305664;-1.0199733972549438
190;1666168987.5114293;46.9759343;7.179835;59.30900192260742;1666168987.6158605;-13.958528518676758;24.526063919067383;15.529999732971191
191;1666168987.733957;46.9759385;7.1798383;59.31500244140625;1666168987.835461;-15.507475852966309;24.55118751525879;15.224813461303711
192;1666168987.967221;46.975942499999995;7.179842799999999;59.30400466918945;1666168988.067749;-15.183451652526855;11.374950408935547;8.696881294250488
193;1666168988.1751091;46.9759464;7.1798478999999995;59.275001525878906;1666168988.2590451;-10.990097045898438;-19.16930389404297;-0.23839883506298065
194;1666168988.3712862;46.9759503;7.1798522;59.24100112915039;1666168988.4640076;-13.482203483581543;-29.652345657348633;-17.60887908935547
195;1666168988.5694132;46.9759536;7.179853199999999;59.1930046081543;1666168988.6543267;-18.874916076660156;-36.88294219970703;-28.355825424194336
196;1666168988.7665658;46.9759561;7.1798500999999995;59.16400146484375;1666168988.851478;8.869455337524414;-14.419990539550781;-39.945884704589844
197;1666168988.9666464;46.9759576;7.1798455;59.17500305175781;1666168989.0496058;19.16976547241211;-51.255409240722656;-46.7754020690918
198;1666168989.1678028;46.975956599999996;7.1798399999999996;59.17200469970703;1666168989.269324;12.095693588256836;-35.5593147277832;-50.242469787597656
199;1666168989.3786385;46.975953399999995;7.1798338;59.1660041809082;1666168989.4615982;-5.819029808044434;-16.224441528320312;-50.07862854003906
200;1666168989.5992122;46.9759496;7.1798274;59.16800308227539;1666168989.6851003;-13.661212921142578;2.327186346054077;-51.04153823852539
201;1666168989.7963634;46.9759466;7.179821;59.169002532958984;1666168989.8998199;-13.873308181762695;20.864917755126953;-46.925697326660156
202;1666168990.0091338;46.9759452;7.1798157;59.198001861572266;1666168990.094044;-17.85865592956543;37.54916763305664;-36.22953414916992
203;1666168990.2131236;46.975945599999996;7.1798123;59.21600341796875;1666168990.306813;-8.831640243530273;22.6544246673584;-17.855484008789062
204;1666168990.4190514;46.975947;7.1798112;59.26100158691406;1666168990.514702;-5.097228527069092;33.43440628051758;-2.180311441421509
205;1666168990.6288917;46.9759488;7.1798123;59.2910041809082;1666168990.728444;-9.380620956420898;29.3131046295166;1.7739179134368896
206;1666168990.8455634;46.9759508;7.1798155999999995;59.29900360107422;1666168991.0475955;-3.8647217750549316;19.004758834838867;12.032002449035645
207;1666168991.173502;46.9759527;7.1798204;59.288002014160156;1666168991.2642694;-3.9424493312835693;10.00024700164795;12.307100296020508
208;1666168991.3745577;46.9759544;7.1798253999999995;59.25700378417969;1666168991.4741106;-12.788558006286621;-12.156255722045898;1.498715877532959
209;1666168991.5844016;46.9759562;7.1798294;59.24100112915039;1666168991.66638;-27.24344825744629;-26.041345596313477;-13.380210876464844
210;1666168991.7747183;46.975958399999996;7.1798312;59.22200393676758;1666168991.8684149;-29.87931251525879;-20.044404983520508;-27.3789119720459
211;1666168991.9787009;46.975961299999994;7.1798302;59.20100402832031;1666168992.0714204;-21.336143493652344;-21.396705627441406;-43.31311798095703
212;1666168992.203182;46.975964399999995;7.179826299999999;59.237003326416016;1666168992.2949278;-26.46529197692871;12.60570240020752;-54.051727294921875
213;1666168992.4052136;46.9759679;7.179820599999999;59.31300354003906;1666168992.5076933;-42.99260711669922;4.267627239227295;-55.95863723754883
214;1666168992.6218877;46.975972399999996;7.179813299999999;59.39600372314453;1666168992.7107022;-49.810585021972656;5.583144664764404;-54.26618576049805
215;1666168992.839533;46.9759781;7.1798037;59.46000289916992;1666168992.9254217;-54.15665054321289;6.103525161743164;-53.278533935546875
216;1666168993.0366864;46.975985099999995;7.1797917;59.487003326416016;1666168993.137215;-55.244598388671875;-5.14483118057251;-41.0959587097168
217;1666168993.2455497;46.975993599999995;7.179777199999999;59.50200271606445;1666168993.345104;-57.13304901123047;-1.1688047647476196;-44.644920349121094
218;1666168993.4573424;46.9760036;7.1797607;59.50700378417969;1666168993.5500631;-57.128135681152344;-3.386347532272339;-35.821327209472656
219;1666168993.6730397;46.976015499999995;7.1797431;59.50200271606445;1666168993.7501426;-54.170711517333984;5.9182329177856445;-41.66701126098633
220;1666168993.8701925;46.976028799999995;7.1797246999999995;59.513004302978516;1666168993.9521742;-47.30412292480469;1.5067397356033325;-45.071956634521484
221;1666168994.059536;46.976042799999995;7.1797061;59.52400207519531;1666168994.160064;-49.433563232421875;-1.5758155584335327;-37.883140563964844
222;1666168994.2723026;46.976057399999995;7.1796872;59.53700256347656;1666168994.3611197;-48.012027740478516;10.071660995483398;-45.361900329589844
223;1666168994.4889765;46.9760725;7.1796679;59.551002502441406;1666168994.5738866;-45.679317474365234;3.318281412124634;-39.842010498046875
224;1666168994.6890552;46.9760882;7.1796492;59.55600357055664;1666168994.7895849;-43.56898880004883;3.156406879425049;-46.28738021850586
225;1666168994.9164703;46.9761039;7.1796307;59.56700134277344;1666168995.0023537;-47.19416809082031;8.162456512451172;-49.88077163696289
226;1666168995.111664;46.976119399999995;7.179612199999999;59.57600402832031;1666168995.2043834;-45.39602279663086;-15.878849983215332;-38.852622985839844
227;1666168995.3302934;46.9761344;7.179593199999999;59.56700134277344;1666168995.4083712;-48.08182907104492;-4.2114152908325195;-43.04092788696289
228;1666168995.5215833;46.976149299999996;7.1795735;59.570003509521484;1666168995.614304;-46.832096099853516;-17.581331253051758;-37.53330993652344
229;1666168995.7294722;46.9761637;7.1795526999999995;59.57500457763672;1666168995.8153634;-49.820194244384766;7.730325698852539;-41.231597900390625
230;1666168995.949076;46.9761783;7.1795316;59.570003509521484;1666168996.0281293;-51.10438919067383;8.458117485046387;-38.7928466796875
231;1666168996.148178;46.9761935;7.1795107;59.560001373291016;1666168996.252608;-44.61970138549805;36.460670471191406;-43.368247985839844
232;1666168996.356065;46.976210099999996;7.1794924;59.54300308227539;1666168996.4439058;-42.51742172241211;-27.071937561035156;-13.963522911071777
233;1666168996.5502887;46.976226999999994;7.179475099999999;59.52400207519531;1666168996.6371539;-44.979915618896484;-7.847233772277832;-24.521690368652344
234;1666168996.7650094;46.9762437;7.1794573999999995;59.506004333496094;1666168996.854802;-39.106449127197266;-17.43934440612793;-15.407835006713867
235;1666168996.9660668;46.9762601;7.1794401;59.4900016784668;1666168997.0568323;-41.02920913696289;-25.900224685668945;-19.410959243774414
236;1666168997.173953;46.976276;7.1794218999999995;59.47600173950195;1666168997.2530103;-45.59849166870117;-4.983788013458252;-44.497169494628906
237;1666168997.3623269;46.9762911;7.1794027;59.48800277709961;1666168997.461874;-45.876800537109375;-22.796749114990234;-44.52538299560547
238;1666168997.5663075;46.9763054;7.1793824;59.50100326538086;1666168997.6570747;-52.868099212646484;3.3292760848999023;-55.17310333251953
239;1666168997.7673633;46.976319;7.1793605;59.505001068115234;1666168997.8639848;-55.58022689819336;-2.7946226596832275;-38.47299575805664
240;1666168997.9742749;46.976333399999994;7.1793382999999995;59.500003814697266;1666168998.0718756;-46.07568359375;34.054561614990234;-52.016719818115234
241;1666168998.1880188;46.9763489;7.179317299999999;59.48100280761719;1666168998.2817147;-47.08155059814453;4.615779876708984;-34.25926208496094
242;1666168998.3910272;46.9763653;7.179297999999999;59.471004486083984;1666168998.4720364;-44.50439453125;4.964720726013184;-35.706783294677734
243;1666168998.6057453;46.9763817;7.1792792;59.45500183105469;1666168998.6955402;-32.991493225097656;-0.14374230802059174;-29.93276596069336
244;1666168998.8019223;46.9763978;7.179261599999999;59.4170036315918;1666168998.8965933;-26.9903564453125;-7.379096031188965;-26.781497955322266
245;1666168999.0215218;46.9764129;7.179245;59.37800216674805;1666168999.110339;-26.080625534057617;-1.8299719095230103;-29.354156494140625
246;1666168999.230388;46.9764269;7.1792295;59.346004486083984;1666168999.3113935;-24.923898696899414;-7.433900833129883;-27.228588104248047
247;1666168999.428515;46.9764398;7.1792150999999995;59.29700469970703;1666168999.5173326;-20.002647399902344;-2.694831609725952;-28.34003448486328
248;1666168999.6266427;46.9764517;7.1792019;59.255001068115234;1666168999.7193654;-15.768669128417969;-5.595939636230469;-28.739559173583984
249;1666168999.8277392;46.976462299999994;7.1791898;59.21400451660156;1666168999.9067543;-8.129684448242188;4.663999080657959;-39.69923400878906
250;1666169000.028756;46.976471599999996;7.179178899999999;59.18800354003906;1666169000.1146452;-3.96208119392395;-7.784545421600342;-37.60139465332031
251;1666169000.2200503;46.976479499999996;7.1791693;59.165000915527344;1666169000.3196056;6.782395839691162;-7.425467014312744;-39.32979965209961
252;1666169000.4503899;46.9764859;7.179161199999999;59.15500259399414;1666169000.545059;11.851463317871094;11.93804931640625;-43.44974899291992
253;1666169000.6582756;46.976490899999995;7.1791548;59.125003814697266;1666169000.7470915;7.478387355804443;2.899742603302002;-39.97509002685547
254;1666169000.8788528;46.976494699999996;7.1791503;59.11100387573242;1666169000.9647405;0.8596417903900146;14.063627243041992;-43.4329948425293
255;1666169001.0711234;46.976497699999996;7.1791469;59.09800338745117;1666169001.174582;-1.9733384847640991;6.482914447784424;-42.54521560668945
256;1666169001.285845;46.9765004;7.179144399999999;59.09100341796875;1666169001.369782;-8.523660659790039;-8.6989107131958;-40.48343276977539
257;1666169001.4908051;46.9765027;7.179142;59.08500289916992;1666169001.5708358;-8.184948921203613;-0.34422019124031067;-41.38749313354492
258;1666169001.6889346;46.976504899999995;7.1791396999999995;59.079002380371094;1666169001.779703;-8.5890474319458;4.690608978271484;-41.33487319946289
259;1666169001.8987737;46.9765072;7.1791374;59.073001861572266;1666169001.986614;-3.841679811477661;-6.3244147300720215;-41.632076263427734
260;1666169002.0959241;46.9765094;7.179135;59.06300354003906;1666169002.1954799;-2.980908155441284;0.13836415112018585;-40.66236877441406
261;1666169002.3057644;46.9765114;7.1791329;59.04700469970703;1666169002.3945823;-3.994036912918091;3.636796712875366;-39.739078521728516
262;1666169002.503892;46.9765132;7.1791312;59.0410041809082;1666169002.60442;6.204980373382568;-7.267185211181641;-38.58544921875
263;1666169002.7195895;46.9765145;7.1791298;59.04500198364258;1666169002.811334;0.5502090454101562;0.141224205493927;-38.15447998046875
264;1666169002.9313831;46.976515299999996;7.1791287;59.053001403808594;1666169003.022149;-0.8446354866027832;6.136758327484131;-38.46602249145508
265;1666169003.136342;46.976516;7.1791282;59.06200408935547;1666169003.226133;-2.7236979007720947;-4.751334190368652;-38.18440628051758
266;1666169003.3461812;46.9765167;7.179127599999999;59.07100296020508;1666169003.4320703;-26.63981056213379;-4.323698043823242;-40.5544319152832
267;1666169003.5462618;46.9765176;7.179126;59.10400390625;1666169003.6272686;-48.629722595214844;6.9040913581848145;-51.25088119506836
268;1666169003.7482944;46.9765199;7.1791214;59.15400314331055;1666169003.831254;-54.22102737426758;3.6658971309661865;-57.964534759521484
269;1666169003.9425206;46.976523799999995;7.1791132;59.198001861572266;1666169004.0420709;-52.24050521850586;-2.4136111736297607;-55.74248504638672
270;1666169004.1504092;46.976529;7.1791013999999995;59.24700164794922;1666169004.236324;-45.93927764892578;-8.552475929260254;-48.54391860961914
271;1666169004.353414;46.9765356;7.1790873;59.30400466918945;1666169004.440279;-41.83695983886719;28.476055145263672;-63.939849853515625
272;1666169004.5700886;46.9765434;7.179072;59.3640022277832;1666169004.6540236;-44.47500991821289;12.788797378540039;-57.51702117919922
273;1666169004.7770014;46.9765527;7.1790563999999994;59.4160041809082;1666169004.8658144;-43.02656555175781;-14.063346862792969;-49.51781463623047
274;1666169004.9702477;46.9765623;7.1790403;59.461002349853516;1666169005.0639443;-45.13895797729492;0.8136633634567261;-58.30757141113281
275;1666169005.175209;46.9765716;7.1790226;59.4900016784668;1666169005.264022;-46.0794677734375;9.310637474060059;-58.08168411254883
276;1666169005.3733346;46.9765811;7.179004099999999;59.513004302978516;1666169005.460201;-46.615997314453125;-13.471625328063965;-46.775726318359375
277;1666169005.57732;46.9765911;7.178985;59.522003173828125;1666169005.6671119;-45.84676742553711;6.782759189605713;-52.740177154541016
278;1666169005.790089;46.9766018;7.1789656;59.52900314331055;1666169005.8769555;-40.525081634521484;30.17923355102539;-59.81560516357422
279;1666169005.9930956;46.976613199999996;7.1789469;59.51700210571289;1666169006.0819106;-43.28044509887695;7.573849678039551;-47.783565521240234
280;1666169006.1922002;46.9766255;7.1789285;59.531002044677734;1666169006.2917545;-40.68278503417969;-25.831148147583008;-31.4931697845459
281;1666169006.4030213;46.9766378;7.178909999999999;59.535003662109375;1666169006.4928098;-42.58528137207031;-13.890215873718262;-35.76190185546875
282;1666169006.6089542;46.9766499;7.1788908;59.54600143432617;1666169006.695818;-40.37699890136719;5.49429988861084;-43.525848388671875
283;1666169006.80708;46.976661899999996;7.1788712;59.55600357055664;1666169006.889067;-42.28652572631836;-12.785919189453125;-34.26483154296875
284;1666169006.9983764;46.976673899999994;7.1788517999999995;59.560001373291016;1666169007.0832891;-45.17269515991211;-14.55993366241455;-45.28492736816406
285;1666169007.2023623;46.976685499999995;7.178831799999999;59.566001892089844;1666169007.295081;-44.38593673706055;22.571725845336914;-69.95210266113281
286;1666169007.4102502;46.976696999999994;7.1788113;59.54900360107422;1666169007.4961374;-42.55548858642578;-26.639291763305664;-50.31897735595703
287;1666169007.6113057;46.9767076;7.178789699999999;59.548004150390625;1666169007.6942666;-45.4875602722168;13.590202331542969;-64.05448150634766
288;1666169007.8133402;46.976717699999995;7.1787674;59.551002502441406;1666169008.0036595;-45.437747955322266;-2.670659065246582;-47.21973419189453
289;1666169008.1100426;46.9767283;7.1787453;59.53600311279297;1666169008.1959279;-39.88230514526367;31.91419792175293;-57.60008239746094
290;1666169008.3267133;46.97674;7.1787246;59.51700210571289;1666169008.4145567;-38.76523971557617;-23.851009368896484;-37.65007019042969
291;1666169008.5375319;46.976751799999995;7.1787046;59.48800277709961;1666169008.622446;-35.48210144042969;13.250113487243652;-57.79589080810547
292;1666169008.7424889;46.9767632;7.178685;59.43800354003906;1666169008.83033;-13.845783233642578;12.053573608398438;-42.791683197021484
293;1666169008.956235;46.9767742;7.1786676;59.37400436401367;1666169009.0392;-1.5784424543380737;26.815948486328125;-31.054529190063477
294;1666169009.1592436;46.9767843;7.178654;59.31500244140625;1666169009.249036;2.254626989364624;44.915489196777344;-18.86490821838379
295;1666169009.3534658;46.976793199999996;7.1786452999999995;59.263004302978516;1666169009.4491153;-15.254851341247559;42.73807144165039;-32.71148681640625
296;1666169009.560378;46.976802199999995;7.1786438;59.24400329589844;1666169009.6433408;-18.227462768554688;-1.7184851169586182;-22.03474998474121
297;1666169009.7663136;46.9768109;7.1786438;59.25800323486328;1666169009.845373;-23.07817840576172;-20.353485107421875;-26.55487823486328
298;1666169009.9576094;46.976819;7.1786426;59.28600311279297;1666169010.049354;-24.141719818115234;10.020044326782227;-39.045997619628906
299;1666169010.1557388;46.976826599999995;7.17864;59.27300262451172;1666169010.2416277;-16.975448608398438;-34.884098052978516;-38.35840606689453
300;1666169010.3665555;46.9768331;7.178636;59.233001708984375;1666169010.4534209;-2.0792558193206787;-22.3663387298584;-66.76234436035156
301;1666169010.563706;46.9768372;7.1786305;59.191001892089844;1666169010.661313;12.906720161437988;-43.52421188354492;-73.64006042480469
302;1666169010.772571;46.976838199999996;7.1786258;59.17200469970703;1666169010.8545544;2.86580753326416;-23.357486724853516;-81.68355560302734
303;1666169010.970701;46.9768365;7.178621499999999;59.177001953125;1666169011.0575624;-9.679864883422852;-36.83563995361328;-87.22042846679688
304;1666169011.1629725;46.976833299999996;7.178617399999999;59.189002990722656;1666169011.251789;-17.311683654785156;-2.015153169631958;-105.49345397949219
305;1666169011.365979;46.9768292;7.1786129999999995;59.18300247192383;1666169011.4547954;-16.72325897216797;-16.15762710571289;-113.52069854736328
306;1666169011.5738683;46.976824799999996;7.1786083;59.176002502441406;1666169011.6636612;-10.60380744934082;-4.422096252441406;-121.3505859375
307;1666169011.782732;46.976819899999995;7.178603799999999;59.20900344848633;1666169011.8725233;1.886080265045166;-5.885576248168945;-119.91764068603516
308;1666169011.991595;46.9768153;7.1785996999999995;59.272003173828125;1666169012.0882225;-1.833574891090393;25.240478515625;-117.60379028320312
309;1666169012.1955802;46.9768122;7.178595499999999;59.32100296020508;1666169012.2834222;-3.701979875564575;41.3696403503418;-101.44617462158203
310;1666169012.3917558;46.976811399999995;7.178590799999999;59.32400131225586;1666169012.494236;-10.400422096252441;41.38479232788086;-77.82536315917969
311;1666169012.6035495;46.976813299999996;7.1785865;59.288002014160156;1666169012.6894357;-0.596906304359436;4.2593889236450195;-58.75416564941406
312;1666169012.809484;46.9768166;7.178583199999999;59.27700424194336;1666169012.9012296;-0.8043375015258789;-12.528435707092285;-54.60540771484375
313;1666169013.0124922;46.976819;7.178579999999999;59.30500411987305;1666169013.1130216;0.974987804889679;15.879355430603027;-44.82861328125
314;1666169013.2340472;46.9768213;7.1785776;59.34100341796875;1666169013.3228605;-0.1528194695711136;9.995291709899902;-29.05528450012207
315;1666169013.458526;46.9768239;7.1785767;59.355003356933594;1666169013.542462;-8.941915512084961;30.770505905151367;-23.855802536010742
316;1666169013.6566525;46.976827;7.178577799999999;59.36000442504883;1666169013.7581596;-18.719335556030273;38.496009826660156;-17.87157440185547
317;1666169013.8645406;46.976830899999996;7.1785803999999995;59.35100173950195;1666169013.948481;-21.123729705810547;19.599668502807617;-10.731117248535156
318;1666169014.0626707;46.9768355;7.1785839;59.346004486083984;1666169014.1563663;-17.34524154663086;10.68376636505127;-6.806440353393555
319;1666169014.2656791;46.976840499999994;7.1785882;59.327003479003906;1666169014.36523;-16.128005981445312;7.876425266265869;-9.213200569152832
320;1666169014.4833274;46.976845499999996;7.178592399999999;59.30000305175781;1666169014.5955648;-11.858105659484863;-20.046401977539062;-8.43276309967041
321;1666169014.7098188;46.976850299999995;7.178595499999999;59.268001556396484;1666169014.7966807;-6.537778377532959;-15.936797142028809;-17.98505401611328
322;1666169014.9050164;46.976854499999995;7.1785967;59.22600173950195;1666169015.0045674;11.492009162902832;-47.632354736328125;-33.00172805786133
323;1666169015.1343744;46.9768567;7.1785954;59.17500305175781;1666169015.2173352;11.099928855895996;-51.12713623046875;-51.14455032348633
324;1666169015.3207936;46.9768553;7.1785906;59.1410026550293;1666169015.414489;6.608254432678223;-17.885135650634766;-61.34003448486328
325;1666169015.5257502;46.9768519;7.178585399999999;59.13300323486328;1666169015.6155436;7.283769607543945;12.991950035095215;-73.6060791015625
326;1666169015.7189994;46.9768488;7.1785815;59.13300323486328;1666169015.8273377;-3.914111375808716;-20.714204788208008;-78.31147766113281
327;1666169015.940554;46.9768457;7.178578099999999;59.13900375366211;1666169016.027415;-19.071311950683594;1.720355749130249;-88.6222152709961
328;1666169016.1503918;46.9768428;7.178574299999999;59.14200210571289;1666169016.230423;-2.642596483230591;6.9682512283325195;-89.06156921386719
329;1666169016.3475447;46.9768408;7.1785701;59.186004638671875;1666169016.4373355;-14.26144027709961;24.25865364074707;-92.08732604980469
330;1666169016.5622637;46.976839899999995;7.178565799999999;59.22600173950195;1666169016.6559606;-15.981765747070312;38.0742301940918;-80.44489288330078
331;1666169016.7682006;46.9768409;7.1785612;59.2660026550293;1666169016.8628726;-26.689838409423828;0.7559229135513306;-65.5655288696289
332;1666169016.996585;46.9768434;7.1785562999999994;59.30600357055664;1666169017.0746655;-35.39394760131836;10.476856231689453;-59.392269134521484
333;1666169017.2034965;46.9768469;7.1785502999999995;59.36300277709961;1666169017.3079288;-36.16206741333008;7.236364841461182;-51.15921401977539
334;1666169017.4240718;46.9768512;7.1785428;59.4160041809082;1666169017.5148416;-34.46180725097656;-11.182563781738281;-40.16403579711914
335;1666169017.6300077;46.9768566;7.1785345;59.44000244140625;1666169017.7158973;-36.29635238647461;3.2203521728515625;-42.04498291015625
336;1666169017.8310642;46.976862499999996;7.178525199999999;59.43000411987305;1666169017.9189045;-25.65533447265625;-9.579977035522461;-41.944889068603516
337;1666169018.0506647;46.9768684;7.178515399999999;59.42000198364258;1666169018.133624;-15.112861633300781;-4.5836992263793945;-43.04301834106445
338;1666169018.2507515;46.9768742;7.1785058;59.38500213623047;1666169018.33761;-8.803131103515625;28.970945358276367;-49.39501190185547
339;1666169018.4547286;46.97688;7.1784978;59.34300231933594;1666169018.5415936;-0.5366237759590149;-16.283599853515625;-37.13490676879883
340;1666169018.6528568;46.9768853;7.178490999999999;59.310001373291016;1666169018.7397234;-9.215455055236816;-24.20953369140625;-35.58763885498047
341;1666169018.8656251;46.9768891;7.1784837999999995;59.28700256347656;1666169018.953467;-2.404503107070923;19.126859664916992;-44.29492950439453
342;1666169019.0608265;46.9768924;7.1784776;59.26900100708008;1666169019.1545217;-4.203232765197754;-3.5175414085388184;-40.754390716552734
343;1666169019.262858;46.9768954;7.1784726;59.2390022277832;1666169019.3438673;2.1202502250671387;-2.7687132358551025;-42.620208740234375
344;1666169019.4697697;46.9768979;7.178468499999999;59.22300338745117;1666169019.662044;-3.3358521461486816;9.5485258102417;-44.73481369018555
345;1666169019.7752597;46.976900099999995;7.1784653;59.20500183105469;1666169019.8591962;-7.215289115905762;11.399149894714355;-44.9646110534668
346;1666169019.9743626;46.9769023;7.178462799999999;59.18800354003906;1666169020.063178;-1.626235008239746;1.1702100038528442;-43.529232025146484
347;1666169020.1773708;46.976904499999996;7.1784607;59.17400360107422;1666169020.2730181;2.833461284637451;0.059877488762140274;-44.9637451171875
348;1666169020.3881884;46.9769064;7.1784590999999995;59.16100311279297;1666169020.4701695;2.163346290588379;1.261762022972107;-46.454708099365234
349;1666169020.59217;46.9769079;7.1784577;59.138004302978516;1666169020.6819649;-0.5655266046524048;-2.005427122116089;-46.61958312988281
350;1666169020.8059142;46.976909;7.1784566;59.125003814697266;1666169020.8888774;1.1298930644989014;0.5929173827171326;-46.29012680053711
351;1666169021.0040429;46.976909899999995;7.1784558;59.12600326538086;1666169021.1006715;8.820561408996582;6.541172981262207;-43.299713134765625
352;1666169021.2158349;46.9769104;7.1784557;59.23600387573242;1666169021.3017247;10.283245086669922;15.938142776489258;-36.95868682861328
353;1666169021.4286034;46.9769108;7.1784569;59.470001220703125;1666169021.5174212;-16.130765914916992;15.690041542053223;-34.7658576965332
354;1666169021.6238058;46.976911799999996;7.1784589;59.78700256347656;1666169021.7018845;-20.471450805664062;39.41253662109375;-21.47811508178711
355;1666169021.837547;46.9769146;7.178462799999999;60.13300323486328;1666169021.9205084;-28.7559757232666;40.43107223510742;-2.2359135150909424
356;1666169022.0386035;46.976919699999996;7.1784707;60.53600311279297;1666169022.1244936;-28.797168731689453;38.43632507324219;16.245546340942383
357;1666169022.2552752;46.976925699999995;7.178482;60.98100280761719;1666169022.3558052;-36.536590576171875;-3.0132052898406982;30.619251251220703
358;1666169022.4670694;46.9769325;7.178494799999999;61.46200180053711;1666169022.5636914;-35.14152526855469;-1.393201470375061;31.881576538085938
359;1666169022.6778834;46.9769401;7.1785077;61.94900131225586;1666169022.761823;-36.365501403808594;-9.17580509185791;33.192726135253906
360;1666169022.8857775;46.976949;7.1785197;62.406002044677734;1666169022.9892282;-40.230690002441406;5.694295883178711;41.77324295043945
361;1666169023.1004927;46.9769587;7.178532;62.811004638671875;1666169023.195165;-45.37765884399414;-1.7632900476455688;45.289798736572266
362;1666169023.3122842;46.9769692;7.178545;63.16100311279297;1666169023.410865;-46.73183822631836;-16.831396102905273;52.57373046875
363;1666169023.5201733;46.9769803;7.1785592;63.47500228881836;1666169023.6050847;-47.040260314941406;-0.47080811858177185;46.519744873046875
364;1666169023.7192774;46.9769921;7.1785748;63.78700256347656;1666169023.8168795;-45.75548553466797;15.18740463256836;40.359947204589844
365;1666169023.925213;46.9770043;7.1785916;64.09500122070312;1666169024.007198;-46.46031188964844;-2.9607088565826416;44.02427291870117
366;1666169024.124319;46.9770171;7.1786093;64.39800262451172;1666169024.208255;-40.41529083251953;-16.1751708984375;50.244544982910156
367;1666169024.337085;46.977030299999996;7.1786274;64.71200561523438;1666169024.4161475;-37.986244201660156;9.202130317687988;34.995880126953125
368;1666169024.547903;46.977043699999996;7.1786449999999995;65.01600646972656;1666169024.6347663;-36.2098274230957;-1.9458101987838745;35.197574615478516
369;1666169024.7635975;46.9770572;7.1786617999999995;65.34100341796875;1666169024.8563178;-33.23603057861328;0.7685633897781372;32.725643157958984
370;1666169024.9636796;46.9770703;7.178678199999999;65.64600372314453;1666169025.047613;-34.101097106933594;32.13697052001953;23.05011558532715
371;1666169025.1725454;46.9770827;7.1786955;65.93800354003906;1666169025.264285;-35.30351257324219;20.96727180480957;28.356359481811523
372;1666169025.38531;46.9770946;7.1787133;66.23800659179688;1666169025.4682732;-34.13475036621094;-20.070537567138672;46.544193267822266
373;1666169025.5853918;46.9771064;7.178730799999999;66.53800201416016;1666169025.6907985;-37.657264709472656;5.187910556793213;32.620025634765625
374;1666169025.8098705;46.977118399999995;7.1787472999999995;66.83600616455078;1666169025.8967347;-34.450721740722656;30.112274169921875;28.0999813079834
375;1666169026.0089738;46.9771296;7.178764999999999;67.09300231933594;1666169026.1114557;-34.08625793457031;1.5365277528762817;38.08789825439453
376;1666169026.2188168;46.977140399999996;7.1787829;67.32100677490234;1666169026.3066583;-33.30816650390625;22.381072998046875;32.94328308105469
377;1666169026.423777;46.977150599999995;7.178800799999999;67.53700256347656;1666169026.5057585;-32.5311393737793;-14.95329475402832;47.169368743896484
378;1666169026.632639;46.9771615;7.1788184;67.75;1666169026.7068148;-28.72856330871582;7.578342914581299;36.85612869262695
379;1666169026.8180861;46.977171299999995;7.1788335;67.91500091552734;1666169026.913728;-28.365644454956055;-18.169193267822266;44.72853469848633
380;1666169027.0240145;46.9771815;7.1788482;68.06900024414062;1666169027.1108794;-23.94114112854004;8.986370086669922;32.75731658935547
381;1666169027.217267;46.9771913;7.178862;68.20100402832031;1666169027.3041291;-17.160350799560547;9.511092185974121;30.883371353149414
382;1666169027.4232016;46.977200499999995;7.1788748;68.31100463867188;1666169027.504207;-14.58984375;-6.148406982421875;36.251487731933594
383;1666169027.6349928;46.9772089;7.1788865;68.4010009765625;1666169027.7179515;-9.575910568237305;9.041213989257812;30.91403579711914
384;1666169027.8253112;46.9772162;7.1788970999999995;68.49500274658203;1666169027.9121761;-1.811383605003357;4.3708720207214355;32.6353645324707
385;1666169028.0292969;46.977222499999996;7.1789065999999995;68.58000183105469;1666169028.1239684;-9.06839656829834;10.389925003051758;36.21870422363281
386;1666169028.2401142;46.9772278;7.1789153;68.6520004272461;1666169028.3260002;-5.500810146331787;5.042405128479004;45.54540252685547
387;1666169028.4450727;46.977232199999996;7.1789232;68.71100616455078;1666169028.624656;-10.96540355682373;5.628922939300537;46.15218734741211
388;1666169028.744708;46.977236;7.1789305;68.74600219726562;1666169028.8305936;-16.234222412109375;0.7479743957519531;45.45195388793945
389;1666169028.9457605;46.977239399999995;7.178937299999999;68.7750015258789;1666169029.0384798;-7.874514579772949;4.093528747558594;44.08183288574219
390;1666169029.1663408;46.9772426;7.1789435;68.80500030517578;1666169029.2541785;-5.841635704040527;-7.451601028442383;44.47150421142578
391;1666169029.3683724;46.9772454;7.1789489;68.83399963378906;1666169029.4542596;-2.2290561199188232;4.601736068725586;42.18194580078125
392;1666169029.57333;46.977247999999996;7.1789534999999995;68.86000061035156;1666169029.6631255;-0.7927266359329224;6.213246822357178;41.20084762573242
393;1666169029.7763398;46.9772501;7.1789572999999995;68.88600158691406;1666169029.8651538;0.43801766633987427;1.683001160621643;41.23846435546875
394;1666169029.983249;46.977252;7.1789603;68.90400695800781;1666169030.0769444;3.234576463699341;-1.3218872547149658;41.726680755615234
395;1666169030.1852813;46.977253499999996;7.178962599999999;68.9260025024414;1666169030.2770252;2.9070990085601807;-0.2884925901889801;41.889076232910156
396;1666169030.385362;46.977254599999995;7.178964199999999;68.94900512695312;1666169030.4839401;0.4440552592277527;-0.7030758857727051;42.288700103759766
397;1666169030.597154;46.9772555;7.1789654999999994;68.96700286865234;1666169030.6879222;-2.5247576236724854;2.419891357421875;42.9891471862793
398;1666169030.7991989;46.9772563;7.1789666;68.98400115966797;1666169030.8948333;-4.030149936676025;-0.5820181965827942;43.88500213623047
399;1666169031.019763;46.977257099999996;7.1789676;68.99800109863281;1666169031.1003158;0.9709383249282837;5.59276819229126;43.90558624267578
400;1666169031.2052648;46.9772579;7.1789685;69.01500701904297;1666169031.2940829;2.4366180896759033;-3.4462008476257324;44.79963302612305
401;1666169031.4229147;46.9772584;7.1789694;69.0260009765625;1666169031.5117304;7.01552677154541;13.048505783081055;47.21831512451172
402;1666169031.6288502;46.9772584;7.1789703;69.03900146484375;1666169031.7137651;-3.0399746894836426;31.861478805541992;48.75912094116211
403;1666169031.8347847;46.9772573;7.1789723;69.07600402832031;1666169031.920676;-10.010391235351562;55.24131393432617;56.620704650878906
404;1666169032.0397482;46.9772543;7.1789762999999995;69.12000274658203;1666169032.130516;-9.183588027954102;7.222859859466553;74.63536071777344
405;1666169032.2544656;46.9772507;7.1789812;69.20899963378906;1666169032.3481624;-21.555641174316406;11.385492324829102;83.80638885498047
406;1666169032.4711375;46.9772472;7.1789866;69.30599975585938;1666169032.5570264;-40.57083511352539;20.94105339050293;98.71360778808594
407;1666169032.6897652;46.977243099999995;7.1789941;69.37000274658203;1666169032.775653;-48.849849700927734;7.5440850257873535;121.25006866455078
408;1666169032.9035077;46.9772379;7.179004;69.41300201416016;1666169032.9923224;-54.0865478515625;-10.61344051361084;139.2406768798828
409;1666169033.1143239;46.9772311;7.1790159;69.42500305175781;1666169033.2050924;-54.69514846801758;-9.427979469299316;138.67050170898438
410;1666169033.316354;46.9772228;7.17903;69.44100189208984;1666169033.4051726;-51.50917053222656;-25.177494049072266;143.19581604003906
411;1666169033.5213165;46.9772135;7.1790464;69.45600128173828;1666169033.6052525;-50.82493209838867;-1.8354706764221191;137.86016845703125
412;1666169033.7253022;46.9772034;7.1790644;69.47200012207031;1666169033.8238776;-45.03684616088867;12.493226051330566;128.9147491455078
413;1666169033.9263566;46.977192599999995;7.179083299999999;69.49500274658203;1666169034.0102925;-42.94584274291992;-6.043166160583496;139.40731811523438
414;1666169034.1264348;46.9771812;7.1791022;69.50700378417969;1666169034.221107;-39.627567291259766;-12.202701568603516;137.71044921875
415;1666169034.3362749;46.97717;7.1791212;69.52799987792969;1666169034.4270434;-41.13725662231445;-20.674795150756836;137.0069122314453
416;1666169034.5519717;46.9771599;7.1791412;69.54300689697266;1666169034.6320038;-42.00324249267578;-13.418102264404297;131.62078857421875
417;1666169034.748148;46.9771502;7.1791618999999995;69.55400085449219;1666169034.8525822;-42.90936279296875;21.929866790771484;119.60783386230469
418;1666169034.9716527;46.97714;7.179182399999999;69.55900573730469;1666169035.0634007;-43.142173767089844;7.775848865509033;127.10974884033203
