;pos_time;latitude;longitude;altitude;alt_time;pitch;roll;yaw
0;1666160976.9856358;46.9755343;7.180356;-0.0010000000474974513;1666160977.2247555;-0.2145596593618393;-0.5654807686805725;93.03948974609375
1;1666160977.2960074;46.9755343;7.180356;-0.004000000189989805;1666160977.438502;0.08092708140611649;-0.37228649854660034;93.0782470703125
2;1666160977.4921825;46.9755343;7.180356;-0.005000000353902578;1666160977.6532218;0.07260804623365402;-0.5587924718856812;93.0372543334961
3;1666160977.723494;46.9755343;7.180356;-0.004000000189989805;1666160977.8513482;0.030047081410884857;-0.41830942034721375;93.14486694335938
4;1666160977.9069803;46.9755343;7.180356;-0.005000000353902578;1666160978.057285;-0.12211844325065613;-0.37197959423065186;92.82355499267578
5;1666160978.1275582;46.9755342;7.180356;-0.006000000052154064;1666160978.2729812;-0.013080318458378315;-0.35366931557655334;92.74653625488281
6;1666160978.334469;46.9755342;7.1803561;-0.005000000353902578;1666160978.512104;-0.07131539285182953;-0.35135558247566223;92.86503601074219
7;1666160978.5755424;46.9755342;7.1803561;-0.003000000026077032;1666160978.7346318;-0.13414734601974487;-0.37766408920288086;92.79473876953125
8;1666160978.8332062;46.9755342;7.180356;0.0010000000474974513;1666160978.947398;0.07910815626382828;-0.5350804328918457;93.02400207519531
9;1666160979.0118134;46.9755342;7.1803561;0.003000000026077032;1666160979.1591914;0.3820512592792511;-0.3657480776309967;92.9539794921875
10;1666160979.2099414;46.9755342;7.1803561;0.0;1666160979.3485348;0.00823635421693325;-0.5974643230438232;93.00691223144531
11;1666160979.4070935;46.9755342;7.1803561;0.0020000000949949026;1666160979.656951;-0.1907837837934494;-0.4901256561279297;92.9067153930664
12;1666160979.7155097;46.9755343;7.180356;0.0;1666160979.8628879;-0.08444003015756607;-0.42653125524520874;92.95407104492188
13;1666160979.9175425;46.9755343;7.1803558999999995;-0.003000000026077032;1666160980.0727267;-0.05725953355431557;-0.40353330969810486;92.94339752197266
14;1666160980.13519;46.9755343;7.1803558;-0.006000000052154064;1666160980.2760828;0.09080015867948532;-0.4340357184410095;93.01093292236328
15;1666160980.3458893;46.9755343;7.1803558;-0.006000000052154064;1666160980.468401;0.14453035593032837;-0.15895774960517883;92.97429656982422
16;1666160980.522079;46.9755343;7.1803558;-0.005000000353902578;1666160980.6831198;0.11364275217056274;-0.2147216647863388;93.00291442871094
17;1666160980.7416809;46.9755343;7.1803558999999995;0.0;1666160980.891985;0.35624104738235474;-0.13187330961227417;92.93241882324219
18;1666160980.9466395;46.9755343;7.1803558999999995;0.0020000000949949026;1666160981.113537;0.04058204963803291;-1.0458858013153076;93.05146789550781
19;1666160981.1662424;46.9755343;7.1803558999999995;0.01600000075995922;1666160981.4063363;0.15770651400089264;0.18232792615890503;93.20789337158203
20;1666160981.4805148;46.9755343;7.1803558999999995;0.03200000151991844;1666160981.6308165;-0.6450474858283997;1.503682255744934;91.52375793457031
21;1666160981.6942565;46.9755343;7.180356;0.04200000315904617;1666160981.9387755;-1.0146206617355347;-1.6320303678512573;91.67781829833984
22;1666160981.9924555;46.975534499999995;7.1803561;0.06300000101327896;1666160982.1378782;1.9350104331970215;0.573065459728241;91.31116485595703
23;1666160982.1964397;46.975534599999996;7.1803558;0.09600000083446503;1666160982.347719;11.044846534729004;0.7583335638046265;92.32833099365234
24;1666160982.3974946;46.975534599999996;7.180355;0.16900001466274261;1666160982.5985506;4.708616256713867;6.390859127044678;91.82408905029297
25;1666160982.6781645;46.975534499999995;7.1803536;0.26600000262260437;1666160982.8460925;-13.199098587036133;-5.1445231437683105;92.87946319580078
26;1666160982.9091172;46.9755343;7.180352399999999;0.35600000619888306;1666160983.0644622;-5.5365891456604;-24.270090103149414;94.5761947631836
27;1666160983.1387784;46.9755344;7.1803520999999995;0.4490000307559967;1666160983.276661;-2.0515384674072266;-1.0764461755752563;95.42253112792969
28;1666160983.342717;46.975535;7.1803526;0.5830000042915344;1666160983.486219;16.678077697753906;1.5787290334701538;97.49483489990234
29;1666160983.5404155;46.975535799999996;7.180352699999999;0.7250000238418579;1666160983.7127047;10.632513999938965;5.486520290374756;97.56285858154297
30;1666160983.7761462;46.975536399999996;7.1803520999999995;0.8910000324249268;1666160983.9293776;-12.68207836151123;3.838149070739746;96.44176483154297
31;1666160983.9889128;46.9755367;7.180351099999999;1.1170001029968262;1666160984.1440978;-5.667139053344727;-6.438417434692383;95.26598358154297
32;1666160984.2026591;46.9755371;7.180351;1.3420000076293945;1666160984.3432007;1.690788745880127;-3.313593864440918;98.37323760986328
33;1666160984.3959062;46.9755379;7.1803513;1.5810000896453857;1666160984.5618274;0.322885662317276;8.50812816619873;103.17121124267578
34;1666160984.6086736;46.9755383;7.1803517;1.8500001430511475;1666160984.7950912;-9.590654373168945;13.732257843017578;100.14222717285156
35;1666160984.8380346;46.975538;7.1803520999999995;2.139000177383423;1666160985.0078592;-2.4084999561309814;-1.436021089553833;99.49420166015625
36;1666160985.0566595;46.9755372;7.180352999999999;2.427000045776367;1666160985.2342913;-3.5179073810577393;-2.2274680137634277;97.8591079711914
37;1666160985.2840674;46.975536299999995;7.1803542;2.75600004196167;1666160985.4548693;8.527740478515625;-4.160098075866699;95.98687744140625
38;1666160985.4958608;46.975536;7.1803552999999996;3.0860002040863037;1666160985.6783712;11.89366626739502;5.191241264343262;95.90729522705078
39;1666160985.7252204;46.9755359;7.1803558999999995;3.4010002613067627;1666160985.9067562;4.937207221984863;1.5729146003723145;95.33624267578125
40;1666160985.9516506;46.975535699999995;7.1803555999999995;3.7160000801086426;1666160986.1146448;1.7018508911132812;5.689106464385986;94.21613311767578
41;1666160986.1605155;46.975535099999995;7.180354899999999;4.055000305175781;1666160986.3127725;-3.9284205436706543;1.6144784688949585;93.4244155883789
42;1666160986.3615732;46.9755342;7.180354299999999;4.389000415802002;1666160986.5401807;4.313663482666016;-10.891810417175293;94.61727142333984
43;1666160986.5889819;46.9755336;7.1803538;4.707000255584717;1666160986.7373307;2.160261392593384;-14.951383590698242;94.57672119140625
44;1666160986.7871094;46.9755336;7.1803532;5.047000408172607;1666160986.9588864;-9.234233856201172;-4.047950744628906;97.98568725585938
45;1666160987.0076833;46.9755344;7.1803529;5.380000114440918;1666160987.1677504;-15.735986709594727;-2.156724214553833;96.49761199951172
46;1666160987.214599;46.9755353;7.180353299999999;5.696000099182129;1666160987.3697908;-9.530341148376465;3.352153778076172;94.39271545410156
47;1666160987.4137084;46.975536;7.1803545;6.01200008392334;1666160987.5835352;5.004324436187744;4.241578578948975;94.70655822753906
48;1666160987.6303813;46.9755366;7.180356;6.3470001220703125;1666160987.8021574;28.356569290161133;9.575465202331543;99.1726303100586
49;1666160987.8607194;46.975536899999994;7.180356199999999;6.6710004806518555;1666160988.0276136;-1.6070008277893066;-2.7217299938201904;97.57408142089844
50;1666160988.0666535;46.9755368;7.1803552999999996;6.98900032043457;1666160988.2228134;-20.779449462890625;0.8513749837875366;96.05884552001953
51;1666160988.2843013;46.9755365;7.1803548;7.317000389099121;1666160988.4609592;2.2691187858581543;-2.675133228302002;94.56372833251953
52;1666160988.5175693;46.975536299999995;7.1803551;7.639000415802002;1666160988.6737258;12.299222946166992;6.528013706207275;94.2132339477539
53;1666160988.7147186;46.975536399999996;7.1803551;7.962000370025635;1666160988.87771;-4.8496174812316895;14.248469352722168;94.63755798339844
54;1666160988.9352953;46.9755361;7.180354899999999;8.279000282287598;1666160989.0895035;-12.74123764038086;-1.2374321222305298;94.04940795898438
55;1666160989.1373298;46.9755354;7.1803551;8.608000755310059;1666160989.2934866;0.6923713088035583;-6.756790637969971;94.14151000976562
56;1666160989.3452141;46.975534599999996;7.1803558;8.929000854492188;1666160989.6009886;14.061222076416016;-4.941155433654785;94.47272491455078
57;1666160989.645215;46.9755342;7.1803564;9.236000061035156;1666160989.8124347;-5.486288547515869;1.7930961847305298;95.11251831054688
58;1666160989.8631797;46.9755342;7.1803563;9.546000480651855;1666160990.0144658;-3.951568603515625;4.586550712585449;96.85910034179688
59;1666160990.1559844;46.975533999999996;7.180356199999999;9.87700080871582;1666160990.329255;6.837947845458984;-2.1133458614349365;93.69730377197266
60;1666160990.4025502;46.975533399999996;7.180356199999999;10.219000816345215;1666160990.5689602;0.7300084829330444;-0.893409252166748;94.91536712646484
61;1666160990.6128805;46.975533;7.1803557;10.584000587463379;1666160990.7817297;-2.772641181945801;-4.306565284729004;96.63683319091797
62;1666160990.8305285;46.9755331;7.1803554;11.080000877380371;1666160991.008673;9.652052879333496;-2.2521917819976807;95.93965911865234
63;1666160991.0535703;46.975533399999996;7.1803557;11.675000190734863;1666160991.3366115;3.7637600898742676;-2.0712273120880127;96.6046142578125
64;1666160991.3883388;46.9755338;7.1803555;12.284000396728516;1666160991.5503554;-1.5380185842514038;-1.995265007019043;96.40939331054688
65;1666160991.5913453;46.9755342;7.180355199999999;12.892000198364258;1666160991.755313;9.98006534576416;-1.0516830682754517;95.66357421875
66;1666160991.802162;46.975534599999996;7.180355;13.491000175476074;1666160991.9641788;-7.238722801208496;5.358972072601318;94.57369995117188
67;1666160992.0144737;46.975535;7.180354599999999;14.097001075744629;1666160992.1930823;-4.843005180358887;3.950425863265991;96.27967071533203
68;1666160992.2399287;46.9755349;7.1803547;14.710000991821289;1666160992.3990185;4.800562381744385;6.5514373779296875;95.90721130371094
69;1666160992.4429379;46.9755344;7.180355199999999;15.307001113891602;1666160992.61374;4.245307922363281;-5.447481632232666;95.6475601196289
70;1666160992.6635146;46.9755337;7.180355199999999;15.903000831604004;1666160992.8255298;1.069042444229126;-12.182085990905762;96.82585144042969
71;1666160992.8674967;46.9755335;7.180355;16.486000061035156;1666160993.0236573;-4.322332382202148;-1.9930249452590942;96.41932678222656
72;1666160993.078315;46.9755337;7.1803551;17.07400131225586;1666160993.2315464;4.341207981109619;1.9862200021743774;95.9588623046875
73;1666160993.2774205;46.975533899999995;7.1803552999999996;17.667001724243164;1666160993.441387;3.2390573024749756;-0.30228570103645325;96.79782104492188
74;1666160993.4950671;46.9755342;7.180355199999999;18.256999969482422;1666160993.6687958;-8.523390769958496;-1.1480876207351685;95.90387725830078
75;1666160993.714667;46.9755343;7.1803552999999996;18.828001022338867;1666160993.8776581;14.085453033447266;2.676706314086914;95.75674438476562
76;1666160993.9215796;46.975534499999995;7.1803558;19.39900016784668;1666160994.0865233;7.984260082244873;1.5703572034835815;96.25141143798828
77;1666160994.1343486;46.975534499999995;7.1803554;19.97800064086914;1666160994.286602;-11.581360816955566;-6.87139892578125;97.80255126953125
78;1666160994.3275945;46.9755347;7.1803548;20.576000213623047;1666160994.4983974;-8.121648788452148;2.8609416484832764;95.86560821533203
79;1666160994.5462184;46.975535099999995;7.180355;21.16400146484375;1666160994.7189713;10.734848022460938;5.510680198669434;95.90918731689453
80;1666160994.7589877;46.975535199999996;7.1803554;21.7450008392334;1666160994.9161236;-1.526809573173523;2.8081347942352295;96.86587524414062
81;1666160994.9649239;46.975535099999995;7.1803552999999996;22.32000160217285;1666160995.1201074;-12.092449188232422;-7.961471080780029;98.021484375
82;1666160995.1786692;46.975535;7.1803555;22.905000686645508;1666160995.3328753;5.583871364593506;4.519017696380615;95.66509246826172
83;1666160995.3826509;46.975535;7.1803563;23.485000610351562;1666160995.5524747;12.510894775390625;2.238002300262451;96.62454986572266
84;1666160995.598347;46.9755349;7.180356499999999;24.056001663208008;1666160995.7759793;-6.707501411437988;0.49841126799583435;96.88948822021484
85;1666160995.8189235;46.9755347;7.1803558;24.647001266479492;1666160995.9809396;-15.04304313659668;-0.7998698949813843;96.10301971435547
86;1666160996.0434055;46.975534499999995;7.1803558;25.248001098632812;1666160996.2142053;2.6066925525665283;-0.7726545333862305;95.72430419921875
87;1666160996.2639804;46.9755343;7.1803564;25.828001022338867;1666160996.4279482;8.309530258178711;-0.21815763413906097;95.76775360107422
88;1666160996.4718692;46.9755342;7.1803569;26.404001235961914;1666160996.634863;11.598443984985352;-1.115422248840332;96.08091735839844
89;1666160996.6817088;46.9755341;7.1803566;26.98600196838379;1666160996.8764443;-10.9051513671875;-1.8471366167068481;96.33436584472656
90;1666160996.9257565;46.9755342;7.1803558;27.588001251220703;1666160997.1299763;-2.9529550075531006;2.7440335750579834;95.64971160888672
91;1666160997.1797523;46.9755342;7.1803555;28.19300079345703;1666160997.347626;7.446711540222168;1.2594102621078491;96.43606567382812
92;1666160997.397402;46.975533999999996;7.180355;28.788002014160156;1666160997.5613692;2.604910135269165;0.03117029368877411;95.5802993774414
93;1666160997.6101682;46.975533999999996;7.1803541;29.374000549316406;1666160997.779018;-12.583877563476562;-1.7156777381896973;96.297607421875
94;1666160997.825864;46.975533899999995;7.1803536;29.96000099182129;1666160998.003497;2.122921943664551;-3.271332263946533;95.06843566894531
95;1666160998.0581524;46.975533999999996;7.1803536999999995;30.548002243041992;1666160998.2074807;-1.9979790449142456;0.9497363567352295;95.86762237548828
96;1666160998.2543292;46.9755341;7.1803539999999995;31.12200164794922;1666160998.404633;1.141150712966919;12.220661163330078;95.161376953125
97;1666160998.4534354;46.9755341;7.180354599999999;31.689001083374023;1666160998.712074;-2.733705997467041;-5.510293006896973;95.70466613769531
98;1666160998.7667286;46.9755338;7.1803551;32.2660026550293;1666160998.9258175;8.400132179260254;-3.039860486984253;95.34302520751953
99;1666160998.968763;46.9755338;7.1803555;32.842002868652344;1666160999.1434653;-4.701028823852539;4.851231098175049;95.31663513183594
100;1666160999.1883614;46.9755338;7.1803555999999995;33.406002044677734;1666160999.3464732;2.3728339672088623;5.680922508239746;95.33070373535156
101;1666160999.3952756;46.9755337;7.1803558999999995;33.97200012207031;1666160999.5602188;-2.9339771270751953;1.5189961194992065;95.83361053466797
102;1666160999.6070666;46.975533399999996;7.180356;34.552001953125;1666160999.7690828;10.03258228302002;-3.9208903312683105;95.7262191772461
103;1666160999.816907;46.975533;7.1803561;35.15500259399414;1666160999.9847803;-2.6943774223327637;-0.009192817844450474;92.2844467163086
104;1666161000.0335774;46.9755325;7.1803558999999995;35.75600051879883;1666161000.2004793;-5.275701999664307;-5.939180374145508;95.74119567871094
105;1666161000.2482991;46.975532099999995;7.1803557;36.3390007019043;1666161000.4191;3.462536096572876;-5.986990928649902;96.12591552734375
106;1666161000.46985;46.975532099999995;7.1803558999999995;36.93300247192383;1666161000.6269908;13.739694595336914;-5.180548667907715;95.39996337890625
107;1666161000.6728606;46.9755325;7.1803558;37.53300094604492;1666161000.839755;-6.4953293800354;-1.4648622274398804;96.76040649414062
108;1666161000.8778205;46.9755332;7.1803551;38.14800262451172;1666161001.039836;-3.066070318222046;12.197636604309082;95.50166320800781
109;1666161001.088638;46.9755338;7.180354899999999;38.74800109863281;1666161001.2399168;0.4264589548110962;0.9463838934898376;96.40193176269531
110;1666161001.289692;46.975533999999996;7.1803547;39.332000732421875;1666161001.4604933;7.4544758796691895;0.24526122212409973;95.91715240478516
111;1666161001.5083177;46.9755341;7.1803544;39.93300247192383;1666161001.6664274;-8.258707046508789;-0.21230217814445496;94.46807861328125
112;1666161001.7376773;46.9755338;7.1803539999999995;40.53300094604492;1666161001.8987164;-7.744287490844727;0.9248025417327881;95.30096435546875
113;1666161001.9465387;46.9755335;7.1803539999999995;41.10200119018555;1666161002.106606;-0.44946280121803284;7.199436664581299;95.63885498046875
114;1666161002.15638;46.9755332;7.1803547;41.660003662109375;1666161002.2969246;2.3310813903808594;0.7885196805000305;94.56327056884766
115;1666161002.3457243;46.975532799999996;7.1803555;42.23100280761719;1666161002.503838;1.4121172428131104;-10.411330223083496;94.96842193603516
116;1666161002.5516593;46.975532699999995;7.1803558999999995;42.81500244140625;1666161002.7078223;-2.07962965965271;-10.844077110290527;97.93502807617188
117;1666161002.759549;46.9755331;7.1803558;43.38900375366211;1666161002.9186382;-8.115839004516602;0.9090431928634644;97.58135223388672
118;1666161002.9645097;46.9755337;7.1803558999999995;43.965003967285156;1666161003.1510043;7.566129684448242;8.762547492980957;97.67962646484375
119;1666161003.2027402;46.9755343;7.1803564;44.566001892089844;1666161003.346726;1.3314489126205444;1.7907894849777222;95.74248504638672
120;1666161003.4009206;46.9755343;7.180356199999999;45.159000396728516;1666161003.5805047;-3.9794745445251465;5.616713047027588;95.7042007446289
121;1666161003.6263785;46.9755341;7.1803561;45.75200271606445;1666161003.8898976;-2.1279098987579346;11.568344116210938;95.79232788085938
122;1666161003.943577;46.9755337;7.1803563;46.34700393676758;1666161004.0948582;3.9541385173797607;-10.522711753845215;94.8659896850586
123;1666161004.1514685;46.975533299999995;7.1803564;46.95000076293945;1666161004.3037214;1.1203627586364746;-8.300175666809082;95.80973815917969
124;1666161004.3486173;46.975533399999996;7.1803566;47.55800247192383;1666161004.5184433;8.821162223815918;-1.9245625734329224;94.94198608398438
125;1666161004.5701706;46.9755337;7.1803566;48.163002014160156;1666161004.722425;3.0808019638061523;7.966366767883301;94.55034637451172
126;1666161004.7624438;46.9755341;7.180356;48.750003814697266;1666161004.930313;-3.2140040397644043;0.5602671504020691;96.34757995605469
127;1666161004.971306;46.9755344;7.1803552999999996;49.35400390625;1666161005.2436116;-7.3185038566589355;-1.3429160118103027;94.84845733642578
128;1666161005.2933872;46.9755343;7.1803552999999996;49.961002349853516;1666161005.4573553;3.903851270675659;-4.9000244140625;95.47522735595703
129;1666161005.5110369;46.9755342;7.1803554;50.55900192260742;1666161005.7501552;8.530291557312012;-1.6405670642852783;95.63251495361328
130;1666161005.7999308;46.9755343;7.1803555;51.16800308227539;1666161005.9580426;-6.00368595123291;0.934069812297821;96.24823760986328
131;1666161006.0039158;46.9755344;7.1803555999999995;51.768001556396484;1666161006.161055;3.304939031600952;5.230005741119385;96.10353088378906
132;1666161006.2020457;46.975534499999995;7.180356;52.35000228881836;1666161006.3708928;-0.3762672245502472;-1.8525587320327759;96.39497375488281
133;1666161006.4167633;46.9755344;7.180356199999999;52.93400192260742;1666161006.5758526;5.9580512046813965;-3.7841107845306396;96.61663818359375
134;1666161006.625627;46.9755344;7.180356199999999;53.53400421142578;1666161006.775933;0.11720870435237885;0.17034120857715607;96.23130798339844
135;1666161006.816924;46.975534599999996;7.1803563;54.12900161743164;1666161007.0823975;-4.134292125701904;2.330801248550415;95.83024597167969
136;1666161007.1351006;46.9755347;7.1803566;54.724002838134766;1666161007.2883358;-4.347386360168457;1.8781789541244507;95.65910339355469
137;1666161007.3312755;46.9755347;7.180357;55.33500289916992;1666161007.4884126;4.371405124664307;-1.1390125751495361;96.62737274169922
138;1666161007.5362382;46.975534599999996;7.180357;55.90200424194336;1666161007.6963003;-2.3429150581359863;-1.9595468044281006;96.32109069824219
139;1666161007.7616932;46.975534499999995;7.1803569;56.3900032043457;1666161007.9080942;0.725718080997467;0.2150839865207672;96.20655059814453
140;1666161007.9539661;46.975534499999995;7.180357099999999;56.829002380371094;1666161008.108173;0.4160461723804474;1.0750209093093872;96.04368591308594
141;1666161008.162831;46.975534499999995;7.1803574;57.217002868652344;1666161008.3160603;4.17860746383667;1.166736364364624;96.03079223632812
142;1666161008.3668144;46.9755344;7.1803574;57.55400085449219;1666161008.5298045;-3.3853182792663574;-2.51713490486145;96.48304748535156
143;1666161008.5786052;46.9755343;7.180357099999999;57.83200454711914;1666161008.8313887;7.920707702636719;-2.165353298187256;95.79996490478516
144;1666161008.8840942;46.9755344;7.180357099999999;58.079002380371094;1666161009.0402527;4.013326168060303;-1.0798366069793701;96.26915740966797
145;1666161009.0910063;46.975534599999996;7.1803569;58.2910041809082;1666161009.2539983;3.67545485496521;-0.9356235861778259;91.7544174194336
146;1666161009.2979212;46.975535;7.180356499999999;58.44900131225586;1666161009.4491973;8.68431568145752;-16.614845275878906;82.19712829589844
147;1666161009.498;46.9755356;7.1803558;58.603004455566406;1666161009.6707497;17.05091667175293;-25.308340072631836;69.68270874023438
148;1666161009.7351663;46.975536999999996;7.1803539;58.763004302978516;1666161009.908895;18.00674057006836;-27.4486026763916;58.4444694519043
149;1666161009.9684322;46.9755392;7.1803504;58.881004333496094;1666161010.1148307;6.354015827178955;-39.79417037963867;51.540374755859375
150;1666161010.1753418;46.975542399999995;7.180344799999999;58.96000289916992;1666161010.3510215;-6.182358741760254;-43.14210891723633;41.91533279418945
151;1666161010.4007974;46.9755471;7.1803368;59.02100372314453;1666161010.551102;-13.890549659729004;-31.816617965698242;29.685909271240234
152;1666161010.5930698;46.9755532;7.1803272;59.03400421142578;1666161010.751184;-16.482776641845703;-29.979116439819336;18.018964767456055
153;1666161010.811694;46.975560099999996;7.1803159999999995;59.04300308227539;1666161010.9610226;-27.177854537963867;-20.67924690246582;6.313668251037598
154;1666161011.0068939;46.975567999999996;7.1803037;59.07200241088867;1666161011.1659822;-30.76630973815918;-7.680587291717529;-5.53986120223999
155;1666161011.209905;46.9755767;7.1802908;59.09300231933594;1666161011.3699687;-32.192291259765625;-5.9611687660217285;-14.310850143432617
156;1666161011.4207222;46.975586199999995;7.1802775;59.09400177001953;1666161011.5817592;-33.09354782104492;0.9705825448036194;-21.679325103759766
157;1666161011.6334884;46.9755967;7.180264299999999;59.10100173950195;1666161011.7925756;-33.86876678466797;-0.4335950016975403;-28.26643180847168
158;1666161011.8364952;46.975608;7.180250999999999;59.090003967285156;1666161011.9868002;-36.05646514892578;-18.597545623779297;-30.90298080444336
159;1666161012.0424323;46.9756199;7.1802372;59.08000183105469;1666161012.2952154;-36.12351608276367;-15.023731231689453;-38.67707061767578
160;1666161012.3381624;46.975632;7.180221599999999;59.07400131225586;1666161012.5001774;-34.58077621459961;-7.060452461242676;-46.028846740722656
161;1666161012.55093;46.975643999999996;7.180204799999999;59.07500457763672;1666161012.7129436;-36.26614761352539;-0.2971762716770172;-46.501468658447266
162;1666161012.7724805;46.975656199999996;7.180187;59.09300231933594;1666161012.918881;-22.256235122680664;5.79972505569458;-43.2577018737793
163;1666161012.9657292;46.9756685;7.1801689;59.118003845214844;1666161013.127745;-12.3869047164917;9.676654815673828;-35.169036865234375
164;1666161013.1697142;46.9756807;7.1801514;59.11700439453125;1666161013.330752;-17.183727264404297;1.8243728876113892;-24.349151611328125
165;1666161013.3815062;46.975692699999996;7.180135399999999;59.12800216674805;1666161013.528882;-15.279301643371582;-7.996726989746094;-15.292036056518555
166;1666161013.5825632;46.9757044;7.1801203;59.156002044677734;1666161013.7523866;-16.442062377929688;2.2600741386413574;-12.178333282470703
167;1666161013.7972803;46.975715699999995;7.1801059;59.173004150390625;1666161013.963202;-24.845352172851562;1.892963171005249;-5.890566349029541
168;1666161014.009072;46.975727199999994;7.1800922;59.19000244140625;1666161014.1691391;-31.411943435668945;-3.3423330783843994;6.165668487548828
169;1666161014.2130566;46.9757391;7.180079999999999;59.220001220703125;1666161014.3819067;-30.259170532226562;-7.304427623748779;18.85434913635254
170;1666161014.42778;46.975751599999995;7.180069;59.224002838134766;1666161014.581986;-23.74367904663086;-22.876094818115234;25.366857528686523
171;1666161014.63274;46.975764899999994;7.180058799999999;59.23400115966797;1666161014.7879217;-18.622360229492188;-16.493215560913086;5.708519458770752
172;1666161014.8347704;46.975778399999996;7.1800488;59.26100158691406;1666161014.9909317;-27.218029022216797;-2.9377737045288086;-15.244762420654297
173;1666161015.0446095;46.9757919;7.180038499999999;59.272003173828125;1666161015.2115054;-33.26028060913086;-24.351808547973633;-13.294513702392578
174;1666161015.2564034;46.9758056;7.180027099999999;59.27800369262695;1666161015.414515;-36.12156295776367;-33.55954360961914;-20.25551986694336
175;1666161015.4603858;46.9758193;7.1800139;59.275001525878906;1666161015.631186;-39.29426574707031;-26.302814483642578;-28.565549850463867
176;1666161015.676082;46.9758328;7.1799979;59.25700378417969;1666161015.8244333;-36.41449737548828;-20.430286407470703;-36.17469024658203
177;1666161015.8781137;46.975845799999995;7.1799792;59.25400161743164;1666161016.0323212;-31.81031036376953;-8.60433292388916;-46.30003356933594
178;1666161016.080148;46.9758583;7.1799588;59.24200439453125;1666161016.2353308;-33.10328674316406;-12.74880313873291;-41.6227912902832
179;1666161016.2812028;46.9758705;7.1799376;59.25300216674805;1666161016.4480994;-37.174041748046875;4.673588752746582;-44.83791732788086
180;1666161016.499827;46.9758828;7.179915599999999;59.25800323486328;1666161016.6530588;-36.046756744384766;20.371074676513672;-47.539676666259766
181;1666161016.6979563;46.975895699999995;7.179893799999999;59.26100158691406;1666161016.8580198;-40.906036376953125;5.866179466247559;-41.70904541015625
182;1666161016.9058425;46.9759098;7.1798731;59.27300262451172;1666161017.0659087;-40.35509490966797;4.129177570343018;-43.875892639160156
183;1666161017.1147068;46.9759248;7.1798525;59.2760009765625;1666161017.27282;-34.24951171875;-1.765844702720642;-37.0471305847168
184;1666161017.3225973;46.9759402;7.1798319;59.281002044677734;1666161017.4758298;-27.181987762451172;9.14126968383789;-40.896846771240234
185;1666161017.5353675;46.975955899999995;7.1798116;59.29900360107422;1666161017.6817646;-19.01191520690918;10.101324081420898;-31.343128204345703
186;1666161017.7393496;46.9759716;7.179792399999999;59.314002990722656;1666161017.8906283;-18.328506469726562;-10.729917526245117;-17.34004020690918
187;1666161017.9433339;46.975986999999996;7.1797740999999995;59.34300231933594;1666161018.092661;-4.583856582641602;-16.03958511352539;-30.12149429321289
188;1666161018.1385334;46.9760013;7.1797565;59.384002685546875;1666161018.2917628;17.661678314208984;-9.585489273071289;-49.28678894042969
189;1666161018.3376353;46.9760141;7.1797398;59.380001068115234;1666161018.5152686;10.625109672546387;-0.32379308342933655;-46.81794738769531
190;1666161018.5650458;46.9760245;7.1797255;59.3640022277832;1666161018.7202303;9.735773086547852;-5.412994384765625;-35.17799758911133
191;1666161018.763172;46.9760334;7.179713199999999;59.36000442504883;1666161018.9173794;10.253705978393555;-5.470869541168213;-28.61738395690918
192;1666161018.9632576;46.9760408;7.1797018999999995;59.36600112915039;1666161019.1272202;5.734129428863525;-9.986202239990234;-23.076539993286133
193;1666161019.175046;46.9760468;7.179691699999999;59.37600326538086;1666161019.326324;-12.871771812438965;0.666510283946991;-14.856429100036621
194;1666161019.3848846;46.976051999999996;7.179681899999999;59.37700271606445;1666161019.5371418;-48.64670181274414;-2.71769380569458;-1.6480450630187988
195;1666161019.5966794;46.9760578;7.1796725;59.39200210571289;1666161019.7557683;-44.0899543762207;-21.881359100341797;20.068655014038086
196;1666161019.7977352;46.9760658;7.179664;59.37900161743164;1666161019.9499917;-25.688928604125977;-38.060543060302734;25.67571449279785
197;1666161020.0007439;46.9760761;7.1796552;59.34700393676758;1666161020.1647122;-19.762052536010742;-40.493045806884766;33.124229431152344
198;1666161020.2222974;46.976087799999995;7.1796447;59.3280029296875;1666161020.474102;-19.068750381469727;-37.10835266113281;47.73386764526367
199;1666161020.5209498;46.976101;7.1796333;59.3280029296875;1666161020.6810167;-20.02060317993164;-18.567646026611328;57.17561340332031
200;1666161020.7249358;46.976115;7.179622299999999;59.355003356933594;1666161020.8889055;0.043629541993141174;-7.03674840927124;45.74473571777344
201;1666161020.9533198;46.9761287;7.1796121;59.37200164794922;1666161021.1094785;0.12455926090478897;-7.484683036804199;23.575868606567383
202;1666161021.163159;46.976141899999995;7.179602;59.39600372314453;1666161021.3144388;-7.378419876098633;-29.42095947265625;2.890378713607788
203;1666161021.3593354;46.976154099999995;7.1795918;59.41400146484375;1666161021.5096405;-29.816755294799805;-29.816452026367188;-7.490504264831543
204;1666161021.5555124;46.9761659;7.1795803;59.4160041809082;1666161021.7077672;-40.5038948059082;-32.148040771484375;-15.084728240966797
205;1666161021.7546144;46.976177899999996;7.179566299999999;59.400001525878906;1666161021.915656;-39.49394607543945;-23.33510971069336;-26.943912506103516
206;1666161021.964455;46.9761903;7.179549499999999;59.406002044677734;1666161022.1186628;-41.03799057006836;-16.74469757080078;-32.923519134521484
207;1666161022.165511;46.976202699999995;7.179530499999999;59.40700149536133;1666161022.3167922;-42.97711181640625;-8.773348808288574;-38.93560791015625
208;1666161022.3636382;46.9762153;7.179509899999999;59.40300369262695;1666161022.518824;-41.04277038574219;-3.1206912994384766;-46.3184814453125
209;1666161022.5695765;46.976228299999995;7.1794880999999995;59.39900207519531;1666161022.7237835;-29.29648208618164;-4.344529628753662;-43.268802642822266
210;1666161022.775513;46.9762414;7.179465899999999;59.40200424194336;1666161022.923867;-36.450897216796875;-1.3225750923156738;-39.27824020385742
211;1666161022.9638789;46.9762546;7.179443699999999;59.41800308227539;1666161023.1200402;-41.13300704956055;8.239335060119629;-40.81862258911133
212;1666161023.1707911;46.9762682;7.1794215999999995;59.428001403808594;1666161023.3269515;-43.64082717895508;6.25981330871582;-35.18819046020508
213;1666161023.381612;46.9762826;7.179399999999999;59.43100357055664;1666161023.5328894;-38.55506896972656;3.267212390899658;-24.103530883789062
214;1666161023.576809;46.9762979;7.1793792;59.4430046081543;1666161023.7378473;-37.83721160888672;26.624574661254883;-25.633211135864258
215;1666161023.7817695;46.976313999999995;7.1793597;59.44600296020508;1666161023.9340253;-38.39643478393555;-4.495894908905029;-6.9698166847229
216;1666161023.9759943;46.976330999999995;7.1793426;59.441001892089844;1666161024.1399612;-28.766271591186523;-29.52034568786621;0.926551103591919
217;1666161024.1838818;46.976348699999996;7.1793258;59.44400405883789;1666161024.346873;-33.776824951171875;-21.731874465942383;-5.772859573364258
218;1666161024.3976257;46.9763666;7.1793081999999995;59.44400405883789;1666161024.5586665;-17.176837921142578;-7.696752071380615;-22.2806453704834
219;1666161024.6064882;46.9763841;7.1792906;59.44900131225586;1666161024.7655761;9.852519035339355;-10.340630531311035;-39.1732292175293
220;1666161024.8153527;46.9764007;7.1792738;59.435001373291016;1666161024.9734652;-0.5514280200004578;-6.616218566894531;-48.724082946777344
221;1666161025.02324;46.9764152;7.1792582;59.43000411987305;1666161025.1842816;-18.019926071166992;-9.399840354919434;-50.816959381103516
222;1666161025.2291765;46.9764279;7.1792432999999996;59.406002044677734;1666161025.3911934;6.466747283935547;-19.674560546875;-48.32981872558594
223;1666161025.4360907;46.9764395;7.1792286999999995;59.38500213623047;1666161025.5990825;10.27420711517334;7.006692409515381;-47.311038970947266
224;1666161025.6488583;46.9764492;7.179215699999999;59.381004333496094;1666161025.8050196;-6.013884544372559;1.510174036026001;-42.7935905456543
225;1666161025.8538194;46.976458;7.1792042;59.375003814697266;1666161026.0090024;-18.720767974853516;5.049132347106934;-46.574729919433594
226;1666161026.0665853;46.9764664;7.179193199999999;59.36000442504883;1666161026.2188442;16.321443557739258;-0.4214015305042267;-48.68075180053711
227;1666161026.2656896;46.9764741;7.1791833;59.362003326416016;1666161026.4247773;19.846538543701172;2.6044628620147705;-41.38837432861328
228;1666161026.4696765;46.976480099999996;7.1791754999999995;59.33700180053711;1666161026.6268115;-16.3665828704834;0.008020046167075634;-42.205081939697266
229;1666161026.6726816;46.976484799999994;7.1791697;59.33100128173828;1666161026.8249402;-19.2014217376709;-2.032888412475586;-42.330928802490234
230;1666161026.8698342;46.9764895;7.1791637999999995;59.327003479003906;1666161027.0386841;-5.997815132141113;0.052253756672143936;-43.042449951171875
231;1666161027.0786984;46.976493999999995;7.1791579;59.316001892089844;1666161027.2358348;3.948141098022461;0.9683557748794556;-43.857261657714844
232;1666161027.283658;46.976498199999995;7.1791526999999995;59.31500244140625;1666161027.4398196;19.02322769165039;-1.9338093996047974;-43.78516387939453
233;1666161027.4847417;46.9765018;7.179148199999999;59.327003479003906;1666161027.660424;1.9536322355270386;2.86488938331604;-42.7932243347168
234;1666161027.7014134;46.9765048;7.1791445;59.31900405883789;1666161027.8624568;-0.5019842386245728;0.9753235578536987;-42.66777038574219
235;1666161027.914185;46.9765072;7.1791415;59.30900192260742;1666161028.0770507;15.311985969543457;-3.2150774002075195;-42.86820602416992
236;1666161028.1190186;46.9765091;7.1791393;59.31500244140625;1666161028.2751803;2.5506932735443115;-20.363887786865234;-41.020320892333984
237;1666161028.3191;46.9765103;7.1791373;59.314002990722656;1666161028.4664736;-15.923104286193848;6.600697994232178;-42.12335968017578
238;1666161028.5103946;46.9765112;7.179135;59.3180046081543;1666161028.6694856;1.2804186344146729;18.134918212890625;-40.32148361206055
239;1666161028.7143776;46.9765124;7.1791329;59.33400344848633;1666161028.871516;4.971855163574219;11.475480079650879;-39.27486801147461
240;1666161028.9212904;46.976513999999995;7.1791319;59.333003997802734;1666161029.069643;-1.9835606813430786;-8.001696586608887;-38.08442306518555
241;1666161029.12137;46.976515299999996;7.1791313;59.33100128173828;1666161029.274603;-4.84994649887085;-11.487228393554688;-36.11198806762695
242;1666161029.3302348;46.9765163;7.1791303;59.32200241088867;1666161029.4844432;-3.252838373184204;-17.576934814453125;-34.33760452270508
243;1666161029.531297;46.9765169;7.1791287;59.31200408935547;1666161029.6874518;-5.282716751098633;-5.113009929656982;-39.27192687988281
244;1666161029.7401562;46.976517199999996;7.1791266;59.31300354003906;1666161029.8904617;-23.19112777709961;9.68453311920166;-52.2194709777832
245;1666161029.9314525;46.9765179;7.1791237;59.3280029296875;1666161030.0837064;-15.698740005493164;10.297114372253418;-49.725807189941406
246;1666161030.1403148;46.9765198;7.1791198;59.340003967285156;1666161030.299406;-21.824373245239258;2.1442675590515137;-47.868080139160156
247;1666161030.350155;46.9765227;7.179115299999999;59.38500213623047;1666161030.5033894;-16.107789993286133;-2.123795986175537;-49.48854446411133
248;1666161030.5521896;46.976526;7.1791101;59.415000915527344;1666161030.7073722;-12.095436096191406;-7.256354331970215;-50.108848571777344
249;1666161030.7630036;46.9765296;7.179104199999999;59.441001892089844;1666161030.921231;-24.454301834106445;-4.979261875152588;-49.194725036621094
250;1666161030.9758892;46.9765334;7.1790973;59.480003356933594;1666161031.1671832;-32.68791580200195;-21.89849090576172;-46.20375442504883
251;1666161031.2077188;46.976537199999996;7.1790889;59.50800323486328;1666161031.347285;-49.39970016479492;-14.663928985595703;-42.94816207885742
252;1666161031.393158;46.976541399999995;7.179078199999999;59.496002197265625;1666161031.532727;-40.67592239379883;18.259227752685547;-49.90129852294922
253;1666161031.5815258;46.9765473;7.179065;59.48100280761719;1666161031.7298806;-32.60506057739258;-5.331392288208008;-45.7711181640625
254;1666161031.7786798;46.9765547;7.1790508;59.465003967285156;1666161031.9241035;-36.12454605102539;4.419444561004639;-52.160736083984375
255;1666161031.9670472;46.976562799999996;7.179035799999999;59.467002868652344;1666161032.1271105;-33.85169219970703;2.3548474311828613;-49.23479461669922
256;1666161032.1798234;46.976571799999995;7.1790198;59.46800231933594;1666161032.3428063;-43.214202880859375;3.4804348945617676;-49.78179931640625
257;1666161032.3896549;46.976581599999996;7.179003;59.478004455566406;1666161032.5482862;-41.72233200073242;-1.5181611776351929;-48.73832702636719
258;1666161032.5970848;46.9765923;7.178985;59.47500228881836;1666161032.7473888;-34.59529113769531;-4.822366237640381;-45.35357666015625
259;1666161032.795214;46.976603499999996;7.178965799999999;59.47900390625;1666161032.9543004;-37.346248626708984;4.615649700164795;-50.549705505371094
260;1666161033.0040762;46.9766151;7.178946;59.480003356933594;1666161033.1524293;-40.92501449584961;8.317710876464844;-52.77181625366211
261;1666161033.2041554;46.9766273;7.1789258;59.470001220703125;1666161033.357389;-42.25035095214844;-0.18588924407958984;-49.74394226074219
262;1666161033.4130213;46.976639999999996;7.1789048;59.46200180053711;1666161033.5721083;-37.74785614013672;16.092586517333984;-55.84395980834961
263;1666161033.6160288;46.9766535;7.1788832;59.47200393676758;1666161033.762429;-40.3931770324707;-3.462043046951294;-48.96769332885742
264;1666161033.8034196;46.9766677;7.178861599999999;59.467002868652344;1666161033.9634867;-41.14031219482422;-5.128345012664795;-48.8463249206543
265;1666161034.0171645;46.976682;7.1788392;59.45900344848633;1666161034.171373;-37.76182174682617;-1.3311959505081177;-49.46211242675781
266;1666161034.2191982;46.9766963;7.1788161;59.461002349853516;1666161034.3821907;-35.128543853759766;-0.4645231068134308;-50.79862594604492
267;1666161034.4339163;46.9767106;7.1787925999999995;59.445003509521484;1666161034.5900779;-38.47052764892578;-1.9488272666931152;-49.289085388183594
268;1666161034.634974;46.9767249;7.178768799999999;59.436004638671875;1666161034.8106537;-41.743858337402344;-1.511247158050537;-49.04640579223633
269;1666161034.8506706;46.9767393;7.178744399999999;59.43000411987305;1666161035.004878;-31.87850570678711;2.666274309158325;-49.840206146240234
270;1666161035.049774;46.9767539;7.178719699999999;59.42500305175781;1666161035.2225263;-31.727869033813477;1.8196064233779907;-50.09215545654297
271;1666161035.2664468;46.9767684;7.1786951;59.41800308227539;1666161035.4245613;-17.642641067504883;-4.854211330413818;-49.30512619018555
272;1666161035.472381;46.9767826;7.178670899999999;59.42100143432617;1666161035.6324472;13.871196746826172;3.535330295562744;-47.243350982666016
273;1666161035.6792953;46.9767957;7.1786484999999995;59.38600158691406;1666161035.847165;3.293412208557129;-2.181488275527954;-50.366485595703125
274;1666161035.8823023;46.9768073;7.1786287;59.35900115966797;1666161036.0521257;-13.679339408874512;-3.4927256107330322;-50.099246978759766
275;1666161036.1009257;46.976817499999996;7.178610699999999;59.37200164794922;1666161036.2551336;9.187139511108398;5.669070243835449;-50.982608795166016
276;1666161036.3078394;46.9768268;7.1785939999999995;59.375003814697266;1666161036.4757097;9.046196937561035;-1.7361425161361694;-47.535057067871094
277;1666161036.52451;46.976835;7.1785793;59.37800216674805;1666161036.7948637;16.13218116760254;2.801154851913452;-49.087677001953125
278;1666161036.844638;46.976841799999995;7.178566999999999;59.37800216674805;1666161036.9939694;1.3602970838546753;1.657644510269165;-48.90870666503906
279;1666161037.0339868;46.9768476;7.1785567;59.40200424194336;1666161037.182337;5.506300926208496;1.4492539167404175;-48.303367614746094
280;1666161037.2262552;46.9768526;7.178547999999999;59.4010009765625;1666161037.3726552;-1.1455456018447876;2.2489731311798096;-48.18123245239258
281;1666161037.4185297;46.976856999999995;7.1785403;59.419002532958984;1666161037.5707834;-13.399409294128418;0.8447899222373962;-48.478424072265625
282;1666161037.6137292;46.9768611;7.1785334;59.44700241088867;1666161037.869806;-14.783849716186523;1.6067042350769043;-48.753623962402344
283;1666161037.923913;46.9768652;7.1785264;59.45000457763672;1666161038.0853255;-21.73289680480957;1.4066290855407715;-48.909446716308594
284;1666161038.1331506;46.9768696;7.178518899999999;59.4630012512207;1666161038.3034892;-10.157279968261719;3.654390811920166;-49.02020263671875
285;1666161038.3532662;46.9768742;7.1785115;59.458003997802734;1666161038.501617;-8.42931079864502;-0.3401598334312439;-48.18015670776367
286;1666161038.5631049;46.976878899999996;7.1785041;59.435001373291016;1666161038.7241445;-0.34534952044487;0.7876624464988708;-48.446510314941406
287;1666161038.7670898;46.9768833;7.178496999999999;59.4160041809082;1666161038.9398422;1.874066948890686;1.189915657043457;-47.95476531982422
288;1666161038.9827855;46.9768872;7.1784908;59.38900375366211;1666161039.144802;-27.97480010986328;-0.20304420590400696;-47.44963073730469
289;1666161039.196534;46.976890999999995;7.178484699999999;59.37200164794922;1666161039.345858;-1.8427883386611938;3.1878461837768555;-48.67860412597656
290;1666161039.3878243;46.976895;7.1784783999999995;59.36100387573242;1666161039.5449612;32.30820846557617;0.9788052439689636;-45.761512756347656
291;1666161039.5918093;46.9768982;7.1784735;59.31700134277344;1666161039.746019;-14.282136917114258;-2.362969398498535;-44.658172607421875
292;1666161039.8026276;46.9769005;7.17847;59.29700469970703;1666161039.9529305;-7.7468719482421875;0.47038549184799194;-47.93655776977539
293;1666161039.9968514;46.9769025;7.1784666999999995;59.288002014160156;1666161040.163745;17.067110061645508;-2.680363178253174;-47.724849700927734
294;1666161040.2144995;46.9769043;7.1784637;59.275001525878906;1666161040.3657763;-4.79976749420166;3.7667551040649414;-46.255706787109375
295;1666161040.4136014;46.976905599999995;7.1784614;59.2650032043457;1666161040.5707388;-15.41087818145752;0.7956660389900208;-47.1399040222168
296;1666161040.6214912;46.976906899999996;7.1784593999999995;59.27300262451172;1666161040.7678905;-6.01249361038208;-1.419671654701233;-46.3407096862793
297;1666161040.8137665;46.9769082;7.1784574999999995;59.268001556396484;1666161040.9699228;15.467066764831543;1.4011712074279785;-45.90736770629883
298;1666161041.0167727;46.9769091;7.1784561;59.256004333496094;1666161041.179769;-0.4436589181423187;12.417579650878906;-48.4325065612793
299;1666161041.2236817;46.9769098;7.1784555;59.25300216674805;1666161041.372035;8.087419509887695;14.908990859985352;-40.67964553833008
300;1666161041.4179065;46.9769108;7.178456;59.32600402832031;1666161041.5750427;11.522965431213379;-12.603311538696289;-31.96463394165039
301;1666161041.618963;46.9769114;7.1784574;59.5160026550293;1666161041.7751245;-0.6286313533782959;4.302620887756348;-19.10085105895996
302;1666161041.8180666;46.9769113;7.1784586;59.77800369262695;1666161041.9742267;-13.552597045898438;27.245656967163086;-15.51081371307373
303;1666161042.0181468;46.976911799999996;7.1784605;60.08200454711914;1666161042.17333;-27.658557891845703;30.63933563232422;-9.366708755493164
304;1666161042.2172565;46.976913499999995;7.1784646;60.42000198364258;1666161042.3812196;-24.88033103942871;29.141311645507812;6.340000629425049
305;1666161042.4280715;46.976916499999994;7.178471399999999;60.78300476074219;1666161042.5891075;-34.854515075683594;11.792487144470215;20.356258392333984
306;1666161042.6369317;46.9769211;7.178480899999999;61.15700149536133;1666161042.793093;-36.79193878173828;9.17533016204834;31.271791458129883
307;1666161042.8428688;46.9769271;7.1784922;61.55000305175781;1666161043.0039096;-36.83427047729492;3.3389666080474854;34.70646667480469
308;1666161043.0488033;46.976934299999996;7.1785051;61.94900131225586;1666161043.2049656;-39.44397735595703;6.860540390014648;20.97876739501953
309;1666161043.2547402;46.9769429;7.1785191;62.36300277709961;1666161043.4099278;-34.89974594116211;14.159814834594727;7.225512504577637
310;1666161043.4538434;46.9769528;7.1785337;62.775001525878906;1666161043.6217175;-33.993099212646484;25.562681198120117;-6.07404899597168
311;1666161043.6685646;46.976963999999995;7.1785486;63.17900466918945;1666161043.8276532;-25.355867385864258;29.531055450439453;-15.979194641113281
312;1666161043.8666928;46.9769763;7.1785647;63.608001708984375;1666161044.023831;-14.826833724975586;25.846759796142578;-16.2073974609375
313;1666161044.068724;46.9769894;7.178581599999999;64.06100463867188;1666161044.231719;-21.066028594970703;27.568714141845703;-6.456489086151123
314;1666161044.2766128;46.977002399999996;7.1785991;64.4990005493164;1666161044.43375;-30.135704040527344;25.28203010559082;8.798890113830566
315;1666161044.4776685;46.9770155;7.1786175;64.91300201416016;1666161044.6426165;-34.741539001464844;20.238422393798828;22.579914093017578
316;1666161044.7821825;46.9770288;7.1786368;65.29600524902344;1666161044.9393165;-37.19880294799805;11.519896507263184;33.37858200073242
317;1666161044.9842136;46.977042;7.1786568;65.6300048828125;1666161045.1442788;-39.47180938720703;5.112610340118408;40.9201774597168
318;1666161045.1921005;46.9770555;7.178677599999999;65.93600463867188;1666161045.3599749;-39.03849411010742;-1.3399653434753418;49.309688568115234
319;1666161045.3999906;46.977069199999995;7.1786992;66.20899963378906;1666161045.5639594;-38.15306091308594;-4.501401424407959;49.491973876953125
320;1666161045.610809;46.977083199999996;7.178721299999999;66.4540023803711;1666161045.7689211;-40.198848724365234;-5.283050060272217;45.76066970825195
321;1666161045.8177176;46.9770976;7.1787436;66.69100189208984;1666161045.9836388;-35.50406265258789;-6.210959434509277;43.53754425048828
322;1666161046.0275583;46.9771126;7.1787658;66.9050064086914;1666161046.1817696;-27.530595779418945;-3.022214889526367;42.390018463134766
323;1666161046.2247128;46.977127499999995;7.1787871999999995;67.10800170898438;1666161046.5067801;-22.741836547851562;-2.074862003326416;43.339107513427734
324;1666161046.5526476;46.977142099999995;7.178807399999999;67.29100036621094;1666161046.7078323;-11.08836841583252;-0.9354169964790344;43.430057525634766
325;1666161046.7576082;46.977156199999996;7.1788269;67.46500396728516;1666161046.9020545;-4.54632568359375;0.41142451763153076;44.08940887451172
326;1666161046.945002;46.9771693;7.178845;67.63400268554688;1666161047.1040866;2.889859914779663;0.6457417607307434;44.736759185791016
327;1666161047.1460578;46.9771813;7.178861599999999;67.80400085449219;1666161047.3002634;9.611113548278809;0.899438738822937;45.006168365478516
328;1666161047.3441842;46.9771919;7.1788764;67.97100067138672;1666161047.5286481;7.04884672164917;1.9126635789871216;44.92676544189453
329;1666161047.5881867;46.9772013;7.1788896;68.13400268554688;1666161047.738489;4.9528422355651855;1.1123918294906616;45.04343032836914
330;1666161047.7814384;46.9772094;7.1789008;68.27200317382812;1666161047.953004;-0.22183485329151154;0.6100057363510132;44.976078033447266
331;1666161047.9959483;46.977216299999995;7.1789108;68.40400695800781;1666161048.1530848;-0.5273582339286804;0.6482202410697937;44.25642395019531
332;1666161048.199931;46.977222399999995;7.1789198;68.5270004272461;1666161048.359997;1.2144949436187744;-0.40623003244400024;44.14729690551758
333;1666161048.4097717;46.9772278;7.178928;68.63600158691406;1666161048.553243;8.586063385009766;-0.5518888235092163;43.240840911865234
334;1666161048.6059484;46.9772324;7.1789349;68.72900390625;1666161048.766012;-1.3790092468261719;-1.3343243598937988;43.00544738769531
335;1666161048.8099341;46.9772362;7.1789407999999995;68.82400512695312;1666161048.9651155;1.0596681833267212;-0.8737131357192993;42.50733184814453
336;1666161049.012941;46.9772396;7.178946;68.90400695800781;1666161049.176909;-2.7683064937591553;0.5016332268714905;40.96377944946289
337;1666161049.2198513;46.9772426;7.1789504;68.96100616455078;1666161049.3828495;0.2515611946582794;-1.8640505075454712;40.616207122802734
338;1666161049.4331713;46.9772452;7.1789543;69.01399993896484;1666161049.58456;3.719733715057373;-2.4594438076019287;39.94473648071289
339;1666161049.6294556;46.9772477;7.1789577;69.06300354003906;1666161049.7709749;1.4441879987716675;-2.5073134899139404;39.24923324584961
340;1666161049.8227072;46.9772499;7.1789606;69.1050033569336;1666161050.0862262;1.7649121284484863;-1.3119250535964966;38.8631477355957
341;1666161050.131121;46.9772517;7.1789628;69.14500427246094;1666161050.296065;-2.0927016735076904;2.6628096103668213;38.518714904785156
342;1666161050.3497436;46.9772531;7.1789647;69.15900421142578;1666161050.506881;7.295700550079346;-0.8343896865844727;38.30399703979492
343;1666161050.567406;46.9772544;7.1789663;69.17200469970703;1666161050.8407562;16.037717819213867;-6.404423236846924;37.631813049316406
344;1666161050.8983357;46.9772554;7.178967;69.19600677490234;1666161051.059461;-14.374832153320312;3.247727394104004;38.70952224731445
345;1666161051.1082597;46.9772561;7.1789672;69.21400451660156;1666161051.2712536;-3.964756488800049;-0.5978848934173584;40.26222610473633
346;1666161051.3200521;46.9772569;7.1789676;69.24800109863281;1666161051.4704337;13.340086936950684;1.5379971265792847;40.282772064208984
347;1666161051.5163045;46.9772572;7.1789679;69.26100158691406;1666161051.7759304;-8.548869132995605;16.222064971923828;46.87623596191406
348;1666161051.818873;46.9772572;7.1789685;69.26500701904297;1666161051.9726276;-13.777923583984375;7.1170501708984375;57.54680633544922
349;1666161052.0282564;46.9772568;7.178969899999999;69.28600311279297;1666161052.1800551;2.3354883193969727;16.72732162475586;68.41658020019531
350;1666161052.22691;46.9772561;7.178972;69.28600311279297;1666161052.388919;-5.153066158294678;33.453041076660156;82.828857421875
351;1666161052.4362903;46.977254099999996;7.1789742;69.29500579833984;1666161052.5963538;-28.26781463623047;26.971534729003906;91.83882141113281
352;1666161052.647106;46.9772506;7.1789776;69.32300567626953;1666161052.8003364;-45.82325744628906;-2.3426132202148438;103.7649154663086
353;1666161052.8462117;46.977246;7.1789834;69.33700561523438;1666161053.0059514;-38.30521011352539;11.21875;106.50411987304688
354;1666161053.0557227;46.9772409;7.1789925;69.32600402832031;1666161053.2089586;-27.71211051940918;17.910741806030273;118.99942779541016
355;1666161053.257754;46.977234599999996;7.179003499999999;69.3550033569336;1666161053.416846;-34.55512619018555;1.3393462896347046;127.93318939208984
356;1666161053.4666195;46.9772274;7.1790151;69.35800170898438;1666161053.6501083;-41.20169448852539;-1.0479505062103271;132.74508666992188
357;1666161053.7018404;46.977219399999996;7.1790283;69.35600280761719;1666161053.8550692;-35.34724044799805;-6.610249042510986;134.06703186035156
358;1666161053.9009395;46.9772107;7.1790433;69.35900115966797;1666161054.0522192;-36.935760498046875;-4.945098400115967;131.87979125976562
359;1666161054.1000443;46.9772015;7.1790597;69.3740005493164;1666161054.2493713;-43.57113265991211;-0.28550398349761963;129.51446533203125
360;1666161054.3089075;46.9771918;7.1790774;69.3790054321289;1666161054.4660542;-35.21326446533203;0.07132411748170853;129.41775512695312
361;1666161054.5109532;46.9771815;7.1790962;69.3790054321289;1666161054.6603339;-39.32098388671875;0.2905140221118927;129.96766662597656
362;1666161054.7110863;46.977170699999995;7.1791158;69.36400604248047;1666161054.9638717;-39.82777786254883;0.5319849848747253;129.86013793945312
363;1666161055.012671;46.9771595;7.179136199999999;69.34600067138672;1666161055.1688313;-36.572784423828125;0.5256608724594116;129.80831909179688
364;1666161055.2195816;46.977147699999996;7.179157399999999;69.34100341796875;1666161055.3815975;-42.46837615966797;1.0574195384979248;130.1988525390625
365;1666161055.4245453;46.977135399999995;7.1791792;69.34100341796875;1666161055.5875344;-40.60478210449219;1.0942330360412598;130.25634765625
366;1666161055.6460936;46.977122699999995;7.179201699999999;69.33800506591797;1666161055.806158;-36.65066146850586;0.9320537447929382;130.42733764648438
367;1666161055.8656948;46.9771096;7.1792245999999995;69.33399963378906;1666161056.0316143;-41.23963165283203;1.041521430015564;130.5293426513672
368;1666161056.0794425;46.9770962;7.1792479;69.32300567626953;1666161056.2443836;-41.70735168457031;1.177756428718567;130.07058715820312
369;1666161056.3078232;46.977082599999996;7.1792716;69.31100463867188;1666161056.4708178;-41.298797607421875;0.6448549032211304;130.44061279296875
370;1666161056.5215676;46.977068499999994;7.1792959;69.31200408935547;1666161056.670898;-40.21189498901367;1.0292587280273438;130.0525665283203
371;1666161056.7245836;46.9770541;7.179320499999999;69.31800079345703;1666161056.878784;-40.831993103027344;0.5199025273323059;130.18722534179688
372;1666161056.9256327;46.9770396;7.1793454;69.31999969482422;1666161057.0847206;-36.11469268798828;1.9567639827728271;130.510986328125
373;1666161057.1393757;46.977024899999996;7.1793705999999995;69.32200622558594;1666161057.2994406;-34.80693054199219;0.017735131084918976;131.17529296875
374;1666161057.3453126;46.9770101;7.1793957;69.31500244140625;1666161057.5083055;-27.553197860717773;1.0418425798416138;129.27964782714844
375;1666161057.557106;46.976995599999995;7.1794204;69.3070068359375;1666161057.7152174;-16.621427536010742;0.47788503766059875;129.22840881347656
376;1666161057.76597;46.9769818;7.1794440999999996;69.29000091552734;1666161057.9396958;-9.217352867126465;-0.1351812481880188;129.37655639648438
377;1666161057.9806886;46.9769687;7.1794664;69.27300262451172;1666161058.1329439;-0.6537457704544067;-1.385927677154541;129.25526428222656
378;1666161058.1797934;46.976956699999995;7.179487;69.2560043334961;1666161058.340834;5.8004560470581055;-0.7694270014762878;129.00990295410156
379;1666161058.3837764;46.976945799999996;7.1795054;69.23900604248047;1666161058.5379863;4.335230350494385;-0.5872021913528442;128.61956787109375
380;1666161058.5936182;46.9769363;7.1795218;69.23300170898438;1666161058.7419693;7.4227471351623535;-1.4959901571273804;128.53250122070312
381;1666161058.7888172;46.9769278;7.1795364;69.23400115966797;1666161058.9557137;1.5526942014694214;0.09741904586553574;128.10398864746094
382;1666161059.0152495;46.9769205;7.1795491;69.2229995727539;1666161059.1675062;5.763511657714844;-1.2758376598358154;128.72132873535156
383;1666161059.2133791;46.976914;7.1795602999999995;69.22000122070312;1666161059.3753943;4.77390718460083;-0.487844854593277;129.0048828125
384;1666161059.4163842;46.9769083;7.179570099999999;69.22600555419922;1666161059.583281;-0.40109050273895264;-1.057590365409851;128.92417907714844
385;1666161059.6281803;46.9769031;7.1795789;69.23100280761719;1666161059.7823865;-3.0434181690216064;0.0058372654020786285;128.49888610839844
386;1666161059.8321633;46.976898299999995;7.179587;69.22600555419922;1666161059.9853947;0.4600982666015625;-1.509092092514038;128.5347900390625
387;1666161060.0341964;46.9768942;7.1795941;69.22900390625;1666161060.1971874;0.08010184019804001;-0.42911121249198914;128.10897827148438
388;1666161060.2411313;46.9768908;7.1796;69.2300033569336;1666161060.3894787;7.089130401611328;-0.7493590712547302;128.0466766357422
389;1666161060.4353526;46.976887999999995;7.1796051;69.21800231933594;1666161060.5973656;6.34145450592041;-0.24598994851112366;127.62744903564453
390;1666161060.651045;46.9768857;7.1796093;69.21400451660156;1666161060.804277;3.6040585041046143;-0.9600469470024109;127.33692932128906
391;1666161060.8491933;46.9768836;7.179613;69.21600341796875;1666161061.0073133;-2.687479257583618;0.5247331261634827;126.8708267211914
392;1666161061.0531876;46.9768817;7.1796164;69.21500396728516;1666161061.2230096;-4.179762363433838;-1.0213842391967773;126.6905746459961
393;1666161061.265953;46.97688;7.179619499999999;69.21900177001953;1666161061.4250445;-0.3717225193977356;-1.5581730604171753;127.13941192626953
394;1666161061.4718952;46.9768787;7.1796219;69.21600341796875;1666161061.6329308;4.167916297912598;-0.39119014143943787;126.36994171142578
395;1666161061.6797795;46.976877699999996;7.179624;69.2030029296875;1666161061.8456986;6.869312763214111;-1.025377631187439;126.14398193359375
396;1666161061.8905938;46.9768768;7.1796257;69.19700622558594;1666161062.0408978;5.420553684234619;-0.9189175963401794;127.11676788330078
397;1666161062.08189;46.9768762;7.1796272;69.19600677490234;1666161062.248786;-6.512057781219482;1.3134299516677856;126.71540832519531
398;1666161062.2975864;46.9768756;7.1796285;69.19400024414062;1666161062.4586267;-4.0131988525390625;-0.3477955758571625;126.59696197509766
399;1666161062.5064573;46.976875;7.179629899999999;69.2020034790039;1666161062.6655412;5.755963325500488;4.822594165802002;128.68759155273438
400;1666161062.7075083;46.976874599999995;7.1796308;69.16699981689453;1666161062.8665946;7.171136379241943;8.670123100280762;137.07550048828125
401;1666161062.9095392;46.9768743;7.179631;69.0300064086914;1666161063.0656993;6.516634941101074;9.970653533935547;148.80233764648438
402;1666161063.107668;46.9768738;7.1796305;68.83500671386719;1666161063.2589495;-7.6595001220703125;20.9881534576416;156.29852294921875
403;1666161063.3018932;46.9768732;7.1796292;68.6520004272461;1666161063.459027;-23.36273765563965;36.993011474609375;160.3800048828125
404;1666161063.5068524;46.9768717;7.1796263;68.48600006103516;1666161063.6708212;-30.24551773071289;25.12042999267578;179.24655151367188
405;1666161063.7225487;46.9768688;7.1796213;68.32300567626953;1666161063.8806615;-34.17254638671875;18.55722427368164;-166.1869659423828
406;1666161063.9216528;46.9768647;7.1796147999999995;68.14500427246094;1666161064.0856197;-24.291948318481445;17.94083595275879;-153.73629760742188
407;1666161064.1285663;46.976859499999996;7.179606199999999;68.0;1666161064.2905793;-4.43182897567749;-0.10995849221944809;-143.83709716796875
408;1666161064.3354762;46.976853999999996;7.179596699999999;67.83700561523438;1666161064.5004225;2.8084428310394287;-5.6144914627075195;-140.92359924316406
409;1666161064.5462914;46.9768487;7.179588;67.6820068359375;1666161064.6956205;13.855997085571289;-7.059263229370117;-137.71517944335938
410;1666161064.7405162;46.9768439;7.1795807;67.52900695800781;1666161064.8947258;-4.047911167144775;-11.509085655212402;-132.24862670898438
411;1666161064.9396214;46.9768397;7.179574799999999;67.36300659179688;1666161065.0987115;-28.670068740844727;-5.304405212402344;-132.2991943359375
412;1666161065.1416533;46.9768352;7.1795693;67.22500610351562;1666161065.30172;-37.81716537475586;-5.141312122344971;-134.81069946289062
413;1666161065.3485646;46.976829599999995;7.1795627;67.0790023803711;1666161065.5017974;-29.61726951599121;-2.8036866188049316;-136.64466857910156
414;1666161065.544743;46.976822999999996;7.1795547;66.91500091552734;1666161065.713589;-33.537315368652344;-6.279571533203125;-132.69656372070312
415;1666161065.7614162;46.9768154;7.1795459;66.76499938964844;1666161065.9156215;-32.74668502807617;8.18563175201416;-135.56375122070312
416;1666161065.959542;46.976807199999996;7.179536;66.59900665283203;1666161066.1274152;-28.505701065063477;1.4716732501983643;-134.4710693359375
417;1666161066.1684065;46.976798699999996;7.179525;66.42400360107422;1666161066.3304226;-16.365890502929688;5.989304542541504;-135.83880615234375
418;1666161066.378247;46.9767903;7.179513399999999;66.2540054321289;1666161066.5324564;-14.625274658203125;6.123966693878174;-135.49575805664062
419;1666161066.589063;46.976782199999995;7.1795019;66.0770034790039;1666161066.7452226;-12.565007209777832;1.6809420585632324;-134.4873809814453
420;1666161066.7871902;46.9767746;7.1794904;65.88700103759766;1666161066.9413998;-13.058237075805664;-0.18345050513744354;-135.5016632080078
