;pos_time;latitude;longitude;altitude;alt_time;pitch;roll;yaw
0;1666290189.8420947;46.975534499999995;7.1803558999999995;-0.0950000062584877;1666290189.9845877;-0.4035869836807251;0.06282368302345276;90.69619750976562
1;1666290190.0402217;46.975534499999995;7.1803558999999995;-0.09400000423192978;1666290190.1944313;-0.37677711248397827;-0.1402757316827774;90.86669921875
2;1666290190.2500615;46.975534499999995;7.1803558999999995;-0.0950000062584877;1666290190.391582;-0.3718557059764862;-0.027854204177856445;90.7480697631836
3;1666290190.4481924;46.975534599999996;7.1803558999999995;-0.09700000286102295;1666290190.5945888;-0.20710806548595428;-0.05264836177229881;90.8819351196289
4;1666290190.6629102;46.975534599999996;7.1803558999999995;-0.10000000149011612;1666290190.8190696;-0.33412957191467285;-0.12881430983543396;90.82099151611328
5;1666290190.8786075;46.975534599999996;7.1803558999999995;-0.10400000214576721;1666290191.0269568;-0.15306542813777924;0.013389385305345058;90.87167358398438
6;1666290191.079661;46.975534599999996;7.1803558;-0.10700000822544098;1666290191.2299647;-0.34841203689575195;-0.07271621376276016;90.89183807373047
7;1666290191.2846227;46.975534599999996;7.1803558;-0.10700000822544098;1666290191.4544435;-0.29129183292388916;0.02402086928486824;90.72686767578125
8;1666290191.5003178;46.975534599999996;7.1803558;-0.10900000482797623;1666290191.6525745;-0.2097601741552353;0.06542930006980896;90.74222564697266
9;1666290191.7062516;46.975534599999996;7.1803558;-0.11100000888109207;1666290191.847773;-0.23870746791362762;0.1183118000626564;90.67485809326172
10;1666290191.900476;46.975534599999996;7.1803558;-0.11100000888109207;1666290192.0439498;-0.3747890591621399;0.15239955484867096;90.85063171386719
11;1666290192.112268;46.975534599999996;7.1803558;-0.11100000888109207;1666290192.255743;-0.2798118591308594;0.02798571065068245;90.90908813476562
12;1666290192.3064947;46.975534599999996;7.1803558;-0.11000000685453415;1666290192.4870522;-0.36001959443092346;-0.0012959204614162445;90.78775787353516
13;1666290192.5348854;46.975534499999995;7.1803558;0.0;1666290192.6744554;-0.2684001326560974;0.0833561047911644;90.79743194580078
14;1666290192.7310581;46.975534599999996;7.1803558;-0.0020000000949949026;1666290192.8706286;-0.19494570791721344;0.0841226726770401;90.78395080566406
15;1666290192.9291863;46.975534599999996;7.1803557;-0.003000000026077032;1666290193.0804675;-0.17220188677310944;0.15603739023208618;90.67252349853516
16;1666290193.1312187;46.975534499999995;7.1803557;-0.0020000000949949026;1666290193.271764;-0.21623317897319794;0.08801748603582382;90.93051147460938
17;1666290193.3332515;46.975534499999995;7.1803557;-0.003000000026077032;1666290193.4845302;-0.3330080807209015;0.05127842351794243;90.76045227050781
18;1666290193.5499237;46.975534499999995;7.1803557;-0.006000000052154064;1666290193.7041326;-0.1062280535697937;0.15084467828273773;90.7697982788086
19;1666290193.7548852;46.975534499999995;7.1803555999999995;-0.0010000000474974513;1666290193.8983552;-0.18108610808849335;0.15270213782787323;90.82573699951172
20;1666290193.9510598;46.9755344;7.1803555999999995;-0.0020000000949949026;1666290194.103836;-0.18340449035167694;0.15661516785621643;90.74701690673828
21;1666290194.1600127;46.9755344;7.1803555999999995;0.0;1666290194.3171582;-0.14408665895462036;0.1695443093776703;90.77801513671875
22;1666290194.3669343;46.9755344;7.1803555999999995;0.0;1666290194.5158029;0.05399448424577713;0.2055055797100067;90.88809967041016
23;1666290194.5685053;46.9755344;7.1803557;0.0020000000949949026;1666290194.715881;0.6946809887886047;1.0132737159729004;90.69729614257812
24;1666290194.7842023;46.9755343;7.1803557;0.017000000923871994;1666290194.9482226;0.48830848932266235;1.545465111732483;90.67153930664062
25;1666290195.011662;46.9755343;7.1803555999999995;0.0560000017285347;1666290195.151232;0.22217220067977905;-3.4681718349456787;91.13636016845703
26;1666290195.210766;46.9755343;7.1803555999999995;0.12000000476837158;1666290195.471359;0.08563181757926941;9.793281555175781;90.75605773925781
27;1666290195.5240645;46.9755343;7.1803555;0.20800000429153442;1666290195.6704617;0.414744108915329;2.0357272624969482;91.41354370117188
28;1666290195.7212136;46.9755342;7.1803554;0.31800001859664917;1666290195.873471;0.21197111904621124;-11.440343856811523;93.28810119628906
29;1666290195.9222715;46.975533899999995;7.1803552999999996;0.445000022649765;1666290196.077455;0.2085200548171997;-2.470390558242798;91.31678771972656
30;1666290196.1453133;46.9755338;7.180355199999999;0.6210000514984131;1666290196.2892985;2.0354087352752686;-2.2254092693328857;89.19082641601562
31;1666290196.347396;46.975533899999995;7.180355199999999;0.815000057220459;1666290196.4971492;1.133269190788269;-0.36959901452064514;93.87149810791016
32;1666290196.5498493;46.9755342;7.180355;1.0290000438690186;1666290196.6952727;-0.514039933681488;0.058281634002923965;94.26931762695312
33;1666290196.7548091;46.975534499999995;7.1803548;1.2630000114440918;1666290196.9021835;-1.0023977756500244;0.8987955451011658;88.1772232055664
34;1666290196.9490333;46.9755348;7.1803547;1.5190000534057617;1666290197.142281;-0.7421513199806213;0.7122610211372375;92.37271118164062
35;1666290197.1910818;46.975535;7.1803547;1.7920000553131104;1666290197.3491912;-0.79183429479599;0.7078173756599426;98.50650787353516
36;1666290197.3999457;46.975535099999995;7.1803548;2.1019999980926514;1666290197.5443945;-0.4266500174999237;0.09149184077978134;97.09436798095703
37;1666290197.6000266;46.975535199999996;7.180354899999999;2.4120001792907715;1666290197.751305;0.007769660092890263;0.9130926132202148;90.4441909790039
38;1666290197.808888;46.975535199999996;7.180355;2.759000062942505;1666290197.9646006;0.26266077160835266;0.42917636036872864;94.5551528930664
39;1666290198.0163321;46.975535199999996;7.180355199999999;3.114000082015991;1666290198.1597972;0.021238472312688828;-0.2678334712982178;98.92232513427734
40;1666290198.213478;46.975535099999995;7.1803552999999996;3.496000051498413;1666290198.3592417;0.7037550210952759;0.2764876186847687;91.77381134033203
41;1666290198.4137492;46.975535099999995;7.1803554;3.883000135421753;1666290198.5591793;0.18693988025188446;0.5778689384460449;90.88020324707031
42;1666290198.6216342;46.975535099999995;7.1803555;4.26200008392334;1666290198.7653468;0.333945095539093;-0.2800840437412262;96.1384506225586
43;1666290198.8200014;46.975535;7.1803555999999995;4.64300012588501;1666290198.978118;0.9796208143234253;0.11992961913347244;90.9197998046875
44;1666290199.0317945;46.975535;7.1803557;5.009000301361084;1666290199.190887;0.16292820870876312;0.6939133405685425;89.0675277709961
45;1666290199.2435873;46.975535;7.1803557;5.369000434875488;1666290199.3958461;0.39094579219818115;0.14318232238292694;96.49158477783203
46;1666290199.4504988;46.975535;7.1803557;5.738000392913818;1666290199.6076396;0.5699496269226074;0.5479159951210022;91.96865844726562
47;1666290199.6642427;46.975535;7.1803557;6.107000350952148;1666290199.8125966;-0.22302865982055664;0.8367984294891357;86.43453979492188
48;1666290199.8613951;46.975535;7.1803557;6.467000484466553;1666290200.0107238;0.3757892847061157;0.2301165908575058;92.1317367553711
49;1666290200.0761135;46.975535;7.1803557;6.834000110626221;1666290200.2371535;0.24115712940692902;0.2349957674741745;92.01785278320312
50;1666290200.3991704;46.9755349;7.1803555999999995;7.198000431060791;1666290200.5416656;0.09391742944717407;0.855112612247467;85.16837310791016
51;1666290200.598276;46.9755349;7.1803555999999995;7.575000286102295;1666290200.7515047;0.33803826570510864;0.47269314527511597;87.6126480102539
52;1666290200.8032353;46.9755349;7.1803555999999995;7.933000564575195;1666290200.976964;-0.13179749250411987;0.22916577756404877;92.04070281982422
53;1666290201.0267403;46.9755348;7.1803555999999995;8.303000450134277;1666290201.1682565;0.4035877585411072;0.030132194980978966;87.95175170898438
54;1666290201.2180328;46.9755348;7.1803555999999995;8.67300033569336;1666290201.3634589;0.2570752799510956;0.6003736853599548;86.2690200805664
55;1666290201.4366598;46.9755347;7.1803557;9.045000076293945;1666290201.5791533;0.6030652523040771;0.3527092933654785;90.9417953491211
56;1666290201.6308827;46.9755347;7.1803557;9.395000457763672;1666290201.7870414;0.3557233512401581;-0.0881943330168724;92.1558609008789
57;1666290201.8475542;46.9755347;7.1803557;9.743000030517578;1666290201.9880998;0.41910433769226074;0.48531728982925415;86.9584732055664
58;1666290202.0417795;46.9755347;7.1803557;10.099000930786133;1666290202.2047698;0.1012408435344696;0.6246458292007446;85.22216796875
59;1666290202.2496648;46.9755347;7.1803557;10.471000671386719;1666290202.404849;0.29046517610549927;0.15369264781475067;90.84381866455078
60;1666290202.466337;46.9755347;7.1803555999999995;10.995000839233398;1666290202.613714;0.008816046640276909;-0.09591040015220642;92.1943359375
61;1666290202.6664193;46.9755347;7.1803555999999995;11.600000381469727;1666290202.8323393;0.3789680600166321;0.6332303881645203;88.2322998046875
62;1666290202.8909013;46.9755347;7.1803555999999995;12.230000495910645;1666290203.0421796;0.05197203531861305;0.5822647213935852;86.68502807617188
63;1666290203.092933;46.975534599999996;7.1803555999999995;12.870000839233398;1666290203.2364032;0.13232247531414032;0.19929857552051544;90.77808380126953
64;1666290203.2910576;46.975534599999996;7.1803555999999995;13.456000328063965;1666290203.4433157;-0.010399899445474148;-0.09970809519290924;93.48458862304688
65;1666290203.510657;46.975534499999995;7.1803555999999995;14.066000938415527;1666290203.6638896;0.3996090292930603;0.36574849486351013;89.5221176147461
66;1666290203.7107377;46.975534499999995;7.1803555999999995;14.659000396728516;1666290203.85421;-0.02555648796260357;0.5158140659332275;86.31366729736328
67;1666290203.9069135;46.975534499999995;7.1803555999999995;15.255001068115234;1666290204.0601473;0.29639145731925964;0.17638202011585236;89.65115356445312
68;1666290204.1089485;46.975534499999995;7.1803555999999995;15.862000465393066;1666290204.25925;-0.019186774268746376;0.038667913526296616;92.33740997314453
69;1666290204.3090248;46.975534499999995;7.1803557;16.46700096130371;1666290204.4808033;0.3346051871776581;0.4973601996898651;90.63996887207031
70;1666290204.5344844;46.975534499999995;7.1803557;17.06599998474121;1666290204.6760051;0.15042242407798767;0.5831499099731445;87.44941711425781
71;1666290204.7267537;46.9755344;7.1803557;17.677000045776367;1666290204.8838885;0.3332492411136627;-0.1155528575181961;89.91017150878906
72;1666290204.9414732;46.9755344;7.1803558;18.2710018157959;1666290205.0995858;0.08999864757061005;-0.2097582221031189;94.15187072753906
73;1666290205.1513157;46.9755344;7.1803558;18.863000869750977;1666290205.296738;0.5123921036720276;0.4958755373954773;88.97492980957031
74;1666290205.355302;46.9755344;7.1803558;19.486000061035156;1666290205.515363;0.06622698903083801;0.5189898014068604;85.9828109741211
75;1666290205.5680645;46.9755344;7.1803558;20.062000274658203;1666290205.7144642;0.49578729271888733;-0.24916425347328186;91.07044219970703
76;1666290205.7642415;46.9755344;7.1803558999999995;20.66400146484375;1666290205.91552;0.2101752758026123;0.058274269104003906;93.19062805175781
77;1666290205.9662728;46.975534499999995;7.1803558;21.266000747680664;1666290206.126339;0.4376969039440155;0.8636184334754944;88.31243896484375
78;1666290206.1809926;46.975534499999995;7.1803558;21.86800193786621;1666290206.326419;0.04102475941181183;0.39969778060913086;86.88648986816406
79;1666290206.383025;46.975534499999995;7.1803558;22.47800064086914;1666290206.5362582;0.20843403041362762;-0.5259727835655212;90.25747680664062
80;1666290206.5918915;46.975534499999995;7.1803557;23.08300018310547;1666290206.7597606;-0.07394449412822723;-0.2116471827030182;93.43595886230469
81;1666290206.8105125;46.975534499999995;7.1803558;23.68000030517578;1666290206.9530103;0.20422343909740448;0.6199142932891846;91.9614486694336
82;1666290207.002787;46.975534599999996;7.1803558;24.29400062561035;1666290207.1413774;0.2538102865219116;0.7745397686958313;87.09175109863281
83;1666290207.203843;46.975534599999996;7.1803558;24.898000717163086;1666290207.3502429;0.6097764372825623;-0.3627552092075348;91.23838806152344
84;1666290207.4166102;46.975534599999996;7.1803558;25.488000869750977;1666290207.5659368;0.1518966406583786;-0.00705823116004467;94.65684509277344
85;1666290207.6274254;46.9755347;7.1803558;26.07000160217285;1666290207.7835844;0.4924466907978058;0.8329379558563232;89.89501953125
86;1666290207.8460507;46.9755347;7.1803558;26.678001403808594;1666290207.9895236;0.04612589627504349;0.5372998714447021;86.84978485107422
87;1666290208.064673;46.9755348;7.1803557;27.274002075195312;1666290208.2247372;0.3735867142677307;-0.42913731932640076;91.172607421875
88;1666290208.273537;46.9755348;7.1803557;27.875001907348633;1666290208.4228666;0.14044201374053955;0.212477445602417;93.69326782226562
89;1666290208.4765446;46.9755348;7.1803557;28.466001510620117;1666290208.6248991;0.4435291588306427;1.1561414003372192;90.09950256347656
90;1666290208.6961477;46.9755349;7.1803557;29.077001571655273;1666290208.8386433;0.13019956648349762;0.5902643203735352;89.43923950195312
91;1666290208.8981774;46.9755349;7.1803555999999995;29.649002075195312;1666290209.0543373;0.2599447965621948;-0.583121657371521;92.91111755371094
92;1666290209.0972805;46.9755349;7.1803555999999995;30.246002197265625;1666290209.2407541;-0.0005910380859859288;0.2953285574913025;94.76629638671875
93;1666290209.3022404;46.9755349;7.1803555999999995;30.828001022338867;1666290209.4525461;0.2893393337726593;1.4161436557769775;89.00970458984375
94;1666290209.5081782;46.9755349;7.1803555999999995;31.427001953125;1666290209.6565309;0.09171319007873535;0.4863472878932953;87.57343292236328
95;1666290209.7150917;46.9755349;7.1803555999999995;32.0160026550293;1666290209.8585637;0.2138286978006363;-0.7048169374465942;93.93304443359375
96;1666290209.9180963;46.9755349;7.1803555999999995;32.61800003051758;1666290210.0820682;0.07746666669845581;0.8022664785385132;93.48084259033203
97;1666290210.139649;46.975535;7.1803555999999995;33.22100067138672;1666290210.3016665;0.3770047426223755;1.9140995740890503;87.36943054199219
98;1666290210.3485153;46.975535;7.1803555999999995;33.82200241088867;1666290210.4997933;0.23791848123073578;-0.03234225884079933;87.73474884033203
99;1666290210.5544481;46.9755349;7.1803555999999995;34.41100311279297;1666290210.6930413;0.32724589109420776;-0.694399893283844;93.57798767089844
100;1666290210.7496502;46.9755349;7.1803555999999995;35.01900100708008;1666290210.9019074;0.33098188042640686;1.0174859762191772;91.52447509765625
101;1666290210.9565613;46.9755349;7.1803555999999995;35.634002685546875;1666290211.1146722;0.24078595638275146;1.7074846029281616;85.58305358886719
102;1666290211.1624997;46.9755348;7.1803555999999995;36.224002838134766;1666290211.3206155;0.3253294825553894;-0.4975179433822632;88.76239776611328
103;1666290211.3694103;46.9755347;7.1803555999999995;36.820003509521484;1666290211.5167875;-0.002482400042936206;-0.7468306422233582;94.21805572509766
104;1666290211.572416;46.975534599999996;7.1803555999999995;37.410003662109375;1666290211.817394;0.41371503472328186;0.8981648087501526;89.39350891113281
105;1666290211.8700976;46.975534599999996;7.1803555999999995;38.009002685546875;1666290212.1287372;0.07428254187107086;0.8622668385505676;86.55846405029297
106;1666290212.1804667;46.975534499999995;7.1803555;38.63199996948242;1666290212.4322753;0.18639253079891205;-0.6120084524154663;91.38652038574219
107;1666290212.4840002;46.975534499999995;7.1803555;39.2140007019043;1666290212.6352818;-0.060593537986278534;-0.24092066287994385;93.8692855834961
108;1666290212.682128;46.975534499999995;7.1803555999999995;39.8120002746582;1666290212.832435;0.4279344379901886;1.0560709238052368;88.87110137939453
109;1666290212.8939219;46.975534499999995;7.1803555999999995;40.435001373291016;1666290213.0422735;0.24935941398143768;0.4203896224498749;88.58541870117188
110;1666290213.1008348;46.975534499999995;7.1803555999999995;41.012001037597656;1666290213.2511375;0.2548757493495941;-0.5400840044021606;92.2036361694336
111;1666290213.3048182;46.9755344;7.1803555999999995;41.6140022277832;1666290213.444384;0.1244199201464653;-0.395582914352417;93.99864196777344
112;1666290213.496112;46.9755344;7.1803555999999995;42.20500183105469;1666290213.66496;0.3705730438232422;1.0466817617416382;88.91161346435547
113;1666290213.7205956;46.9755344;7.1803555999999995;42.80500030517578;1666290213.869921;0.08788321912288666;0.6461969614028931;86.61123657226562
114;1666290213.929458;46.975534499999995;7.1803555999999995;43.415000915527344;1666290214.0748813;0.16115470230579376;-0.3562864661216736;91.75096130371094
115;1666290214.125635;46.975534499999995;7.1803555;43.97900390625;1666290214.2808175;-0.04819200560450554;-0.2870880663394928;93.61913299560547
116;1666290214.3354762;46.975534499999995;7.1803555;44.58000183105469;1666290214.484802;0.14585120975971222;1.0829486846923828;88.58258056640625
117;1666290214.536528;46.975534599999996;7.1803555;45.18400192260742;1666290214.6800008;0.08274413645267487;1.0380005836486816;86.7541275024414
118;1666290214.7346566;46.975534599999996;7.1803555;45.77800369262695;1666290214.9903708;0.16509737074375153;-0.5494220852851868;92.40467834472656
119;1666290215.051857;46.975534599999996;7.1803555;46.384002685546875;1666290215.2958906;0.05696873739361763;-0.19901567697525024;92.02301788330078
120;1666290215.352465;46.975534599999996;7.1803555;46.993003845214844;1666290215.4988637;0.07643196731805801;1.0601794719696045;86.38182830810547
121;1666290215.5535219;46.975534599999996;7.1803555;47.56200408935547;1666290215.6960156;0.036511071026325226;0.6986830234527588;85.85306549072266
122;1666290215.7536016;46.975534599999996;7.1803555999999995;48.1410026550293;1666290215.9009771;0.10117511451244354;-0.22831027209758759;91.9702377319336
123;1666290215.9497793;46.975534599999996;7.1803555999999995;48.72300338745117;1666290216.0991051;0.20198944211006165;-0.05955613777041435;93.45699310302734
124;1666290216.1527853;46.9755347;7.1803557;49.314002990722656;1666290216.3079698;0.4244377315044403;1.6208152770996094;87.28671264648438
125;1666290216.3577466;46.9755347;7.1803557;49.927001953125;1666290216.5090263;0.37784749269485474;0.5858847498893738;87.69758605957031
126;1666290216.564656;46.9755347;7.1803557;50.525001525878906;1666290216.7071612;0.19501371681690216;-0.7172818183898926;93.85901641845703
127;1666290216.759868;46.9755347;7.1803557;51.14400100708008;1666290216.9140747;0.1814977079629898;0.41409215331077576;92.75226593017578
128;1666290216.9667804;46.9755347;7.1803557;51.742000579833984;1666290217.117081;0.13094818592071533;1.7374416589736938;87.04183959960938
129;1666290217.1717372;46.9755347;7.1803557;52.34600067138672;1666290217.3249724;0.0458197183907032;-0.003939449321478605;88.16556549072266
130;1666290217.3766968;46.975534599999996;7.1803557;52.94300079345703;1666290217.5240734;-0.13909102976322174;-0.7764019966125488;92.17176055908203
131;1666290217.574825;46.975534499999995;7.1803557;53.54300308227539;1666290217.726108;-0.030484165996313095;0.11181943863630295;92.7059555053711
132;1666290217.778812;46.975534499999995;7.1803558;54.12700271606445;1666290217.9369245;0.3455878794193268;2.3300647735595703;87.58014678955078
133;1666290217.9876788;46.975534499999995;7.1803558;54.72700119018555;1666290218.1389565;0.3200432360172272;0.4651651084423065;87.27986907958984
134;1666290218.205325;46.9755344;7.1803558999999995;55.314002990722656;1666290218.4473698;0.2584703266620636;-1.4734638929367065;93.72867584228516
135;1666290218.5020254;46.975534499999995;7.1803558999999995;55.884002685546875;1666290218.6581864;0.006067928858101368;0.4802972674369812;92.09659576416016
136;1666290218.7069848;46.975534599999996;7.180356;56.37300109863281;1666290218.8485065;-0.20052829384803772;0.5531789660453796;91.40750122070312
137;1666290218.9021852;46.975534599999996;7.180356;56.78200149536133;1666290219.0593243;0.11702608317136765;-0.5016660094261169;90.86607360839844
138;1666290219.1139772;46.9755347;7.180356;57.131004333496094;1666290219.2701395;0.258891224861145;1.6525115966796875;90.4098892211914
139;1666290219.3218668;46.975534599999996;7.1803561;57.43000411987305;1666290219.4546044;0.32784178853034973;1.8321095705032349;90.43836975097656
140;1666290219.5053532;46.9755344;7.1803561;57.68100357055664;1666290219.6595619;0.18436050415039062;-0.5426225662231445;90.54527282714844
141;1666290219.7132416;46.9755343;7.1803561;57.8910026550293;1666290219.8518364;-0.016392292454838753;-1.7048206329345703;90.5304183959961
142;1666290219.915275;46.9755343;7.1803561;58.06500244140625;1666290220.0587487;0.21108074486255646;2.061774969100952;90.3709487915039
143;1666290220.2080731;46.9755343;7.1803561;58.21000289916992;1666290220.3730195;1.3227866888046265;1.3418066501617432;89.08203887939453
144;1666290220.422795;46.9755344;7.180356;58.34300231933594;1666290220.5701697;11.432772636413574;-18.42762565612793;82.0355453491211
145;1666290220.623854;46.9755348;7.1803555;58.461002349853516;1666290220.7731779;26.460214614868164;-33.560508728027344;78.77765655517578
146;1666290220.8356416;46.9755365;7.180353299999999;58.6150016784668;1666290220.979115;26.944364547729492;-50.374332427978516;64.8904800415039
147;1666290221.0279126;46.975539999999995;7.1803482;58.746002197265625;1666290221.1801686;15.4768648147583;-57.48486328125;54.94760513305664
148;1666290221.2318974;46.9755456;7.180339099999999;58.849002838134766;1666290221.3909855;-10.36403751373291;-58.39872360229492;35.250343322753906
149;1666290221.4475935;46.9755532;7.1803259;58.932003021240234;1666290221.597899;-29.05161476135254;-42.79475784301758;18.878662109375
150;1666290221.64865;46.9755623;7.1803098;59.01100158691406;1666290221.7989533;-32.910526275634766;-26.558921813964844;5.587352275848389
151;1666290221.8614163;46.975572299999996;7.180292499999999;59.08700180053711;1666290222.0156255;-37.01530838012695;-25.944690704345703;-2.9659738540649414
152;1666290222.072234;46.9755829;7.1802752;59.15300369262695;1666290222.230345;-36.541046142578125;-18.895156860351562;-6.787713050842285
153;1666290222.2918346;46.975594;7.180257999999999;59.202003479003906;1666290222.4411614;-34.15309143066406;-18.670522689819336;0.25921088457107544
154;1666290222.5046012;46.975605699999996;7.1802413;59.24800109863281;1666290222.6383128;-29.66468048095703;-32.259239196777344;14.095752716064453
155;1666290222.6929686;46.9756177;7.1802252;59.28300094604492;1666290222.8549879;-24.607439041137695;-38.594825744628906;28.090675354003906
156;1666290222.9037843;46.9756301;7.180209199999999;59.30600357055664;1666290223.0414011;-24.600934982299805;-52.10956954956055;39.538818359375
157;1666290223.0931315;46.9756435;7.180193099999999;59.329002380371094;1666290223.237578;-25.448213577270508;-52.74639892578125;38.37259292602539
158;1666290223.2912571;46.9756587;7.1801758;59.323001861572266;1666290223.4425385;-26.297971725463867;-48.04087829589844;38.196659088134766
159;1666290223.499151;46.975673799999996;7.1801594;59.32600402832031;1666290223.6533527;-20.032007217407227;-45.13675308227539;41.237003326416016
160;1666290223.7050817;46.9756903;7.180142399999999;59.33000183105469;1666290223.8563666;-17.821115493774414;-39.96535110473633;43.657840728759766
161;1666290223.9061403;46.975707;7.1801258;59.32100296020508;1666290224.0437562;-11.691158294677734;-40.94456100463867;43.64935302734375
162;1666290224.098409;46.975723699999996;7.1801097;59.30600357055664;1666290224.2555463;-8.9669189453125;-40.785911560058594;38.914283752441406
163;1666290224.304348;46.975740099999996;7.1800938;59.298004150390625;1666290224.4448917;-11.047576904296875;-43.08699035644531;30.078935623168945
164;1666290224.5102813;46.9757567;7.180076799999999;59.316001892089844;1666290224.6566825;-18.61522102355957;-45.04541778564453;17.887781143188477
165;1666290224.7054808;46.9757715;7.1800603999999995;59.34300231933594;1666290224.8548095;-30.429262161254883;-41.53404235839844;-1.7211977243423462
166;1666290224.9075131;46.975786299999996;7.1800419;59.37400436401367;1666290225.058795;-42.70016860961914;-24.991193771362305;-31.2137508392334
167;1666290225.1154087;46.975800299999996;7.180021699999999;59.40500259399414;1666290225.2657075;-40.60624313354492;-10.904258728027344;-37.292659759521484
168;1666290225.3203626;46.9758134;7.1800004;59.43700408935547;1666290225.4755454;-37.630210876464844;-6.087876319885254;-41.57975387573242
169;1666290225.5302005;46.9758261;7.1799791;59.46400451660156;1666290225.6687963;-43.39265441894531;2.7642552852630615;-45.02406692504883
170;1666290225.7351623;46.975838499999995;7.1799582;59.48400115966797;1666290225.8815663;-45.03055191040039;9.06502914428711;-45.8173713684082
171;1666290226.0347931;46.9758517;7.1799371;59.50200271606445;1666290226.1811948;-43.32070541381836;15.526931762695312;-41.823097229003906
172;1666290226.2309685;46.975865;7.179917799999999;59.51000213623047;1666290226.3812745;-47.288421630859375;2.3293888568878174;-25.72811508178711
173;1666290226.438856;46.9758785;7.179900699999999;59.50300216674805;1666290226.5813563;-49.93482971191406;-4.8850579261779785;-18.277545928955078
174;1666290226.6447942;46.9758931;7.1798839;59.48100280761719;1666290226.8058326;-46.04435729980469;-16.251209259033203;-4.509559154510498
175;1666290226.8575628;46.975908999999994;7.1798671999999994;59.43700408935547;1666290227.008842;-37.664608001708984;-28.169158935546875;6.205966949462891
176;1666290227.0586176;46.9759246;7.1798516999999995;59.381004333496094;1666290227.2058723;-23.272363662719727;-28.64972496032715;8.047783851623535
177;1666290227.2683349;46.9759393;7.1798369;59.32400131225586;1666290227.422542;-10.509382247924805;-36.70217514038086;7.794258117675781
178;1666290227.4762251;46.9759537;7.1798212999999995;59.27700424194336;1666290227.637263;-10.962108612060547;-43.99930953979492;-3.5366809368133545
179;1666290227.6870387;46.9759667;7.1798047;59.24400329589844;1666290227.8392968;-26.886873245239258;-42.71487808227539;-19.160184860229492
180;1666290227.8890743;46.975977799999995;7.1797863;59.21900177001953;1666290228.0423045;-41.59695053100586;-26.391727447509766;-29.61765480041504
181;1666290228.1018398;46.975987599999996;7.179766099999999;59.21200180053711;1666290228.2423837;-42.065956115722656;-22.472097396850586;-21.061260223388672
182;1666290228.302895;46.9759974;7.1797441;59.198001861572266;1666290228.4678438;-30.463542938232422;-19.93961524963379;-6.002768516540527
183;1666290228.512734;46.976006999999996;7.1797233;59.156002044677734;1666290228.6649907;-17.27152442932129;0.3749046325683594;2.9532718658447266
184;1666290228.7167213;46.976016;7.179704999999999;59.10400390625;1666290228.8748324;-15.08799934387207;28.19683265686035;11.718194007873535
185;1666290228.9314423;46.9760245;7.179690099999999;59.038002014160156;1666290229.0934541;-21.685853958129883;42.236793518066406;21.194435119628906
186;1666290229.1422539;46.9760315;7.1796812999999995;58.97700119018555;1666290229.3032937;-22.488523483276367;37.587425231933594;27.829246520996094
187;1666290229.3530762;46.9760369;7.1796789;58.954002380371094;1666290229.4945898;-30.62758445739746;35.4036865234375;41.29087448120117
188;1666290229.5570567;46.9760412;7.1796812999999995;58.974002838134766;1666290229.798128;-27.450973510742188;23.26523780822754;44.92664337158203
189;1666290229.85571;46.976044699999996;7.179687299999999;58.98400115966797;1666290229.9943037;-26.402387619018555;0.02577735297381878;50.61881637573242
190;1666290230.0489612;46.9760479;7.1796953;58.95900344848633;1666290230.2129269;-19.17174530029297;-1.9629663228988647;49.9053840637207
191;1666290230.2675862;46.9760512;7.179704;58.92400360107422;1666290230.4217916;-13.863828659057617;-11.985856056213379;39.77542495727539
192;1666290230.476446;46.9760545;7.179713;58.8380012512207;1666290230.6169899;-0.9821490049362183;-35.370643615722656;30.927640914916992
193;1666290230.67067;46.9760584;7.179719599999999;58.79700469970703;1666290230.8082862;10.510778427124023;-45.50265884399414;19.43602752685547
194;1666290230.8609912;46.9760625;7.1797217;58.78300094604492;1666290231.0064147;16.91263771057129;-26.66914939880371;15.723227500915527
195;1666290231.060094;46.9760663;7.1797194;58.79500198364258;1666290231.208446;22.622724533081055;-23.014493942260742;9.088861465454102
196;1666290231.2562711;46.976068999999995;7.1797146;58.855003356933594;1666290231.402677;22.63052749633789;-19.718088150024414;-2.4812498092651367
197;1666290231.4583032;46.976070199999995;7.1797083;58.89900207519531;1666290231.6173916;25.230880737304688;-21.7041072845459;-13.159050941467285
198;1666290231.6720488;46.9760698;7.179701199999999;58.93300247192383;1666290231.8262572;20.584760665893555;-26.452919006347656;-23.712556838989258
199;1666290231.8760295;46.9760679;7.1796937;58.941001892089844;1666290232.0214539;11.830608367919922;-18.318126678466797;-35.93727111816406
200;1666290232.069278;46.9760646;7.1796861;58.935001373291016;1666290232.2254395;2.3461389541625977;-7.3655781745910645;-42.90652847290039
201;1666290232.2801003;46.976061;7.1796792;58.915000915527344;1666290232.4362555;-8.852229118347168;12.763031005859375;-44.0062370300293
202;1666290232.4879842;46.9760578;7.179673299999999;58.90800094604492;1666290232.6334076;-10.61514663696289;38.78904724121094;-30.107383728027344
203;1666290232.694894;46.9760559;7.179668899999999;58.91100311279297;1666290232.840319;-15.838994026184082;28.38591194152832;-18.71620750427246
204;1666290232.902785;46.9760559;7.1796675;58.92500305175781;1666290233.0716317;-20.940214157104492;30.425498962402344;-3.9131388664245605
205;1666290233.1145754;46.976057499999996;7.179668899999999;58.978004455566406;1666290233.2580478;-21.8320255279541;20.480342864990234;11.037498474121094
206;1666290233.3078246;46.97606;7.179672399999999;59.013004302978516;1666290233.4620295;-23.3662052154541;9.415349006652832;10.271551132202148
207;1666290233.5176644;46.9760633;7.1796773;59.060001373291016;1666290233.7694728;-25.4111385345459;-2.1701254844665527;16.75612449645996
208;1666290233.827054;46.9760673;7.179682499999999;59.079002380371094;1666290233.9705274;-19.841564178466797;-13.736481666564941;6.583976745605469
209;1666290234.0232296;46.9760719;7.1796869999999995;59.05500411987305;1666290234.180369;-17.128704071044922;-29.361276626586914;-4.821278095245361
210;1666290234.2301433;46.9760768;7.179689199999999;59.03000259399414;1666290234.378498;-20.929943084716797;-31.955991744995117;-15.413973808288574
211;1666290234.4383337;46.9760814;7.1796881;58.99400329589844;1666290234.5915785;-33.167274475097656;-25.524484634399414;-29.719141006469727
212;1666290234.6403732;46.9760858;7.179683499999999;59.00800323486328;1666290234.7887251;-42.654117584228516;-17.65485382080078;-40.83003616333008
213;1666290234.8404515;46.9760904;7.1796755999999995;59.05000305175781;1666290234.984902;-50.09328079223633;-4.007527828216553;-45.84641647338867
214;1666290235.0424848;46.976095799999996;7.1796647;59.10400390625;1666290235.1908379;-53.68907928466797;9.759949684143066;-53.647857666015625
215;1666290235.2454941;46.9761026;7.179651499999999;59.1410026550293;1666290235.3987293;-53.49493408203125;15.320935249328613;-56.82829666137695
216;1666290235.4533827;46.9761111;7.179636599999999;59.163002014160156;1666290235.6066155;-52.41964340209961;9.030526161193848;-46.13291931152344
217;1666290235.6632237;46.976121299999996;7.1796206;59.18100357055664;1666290235.8086445;-48.41720199584961;3.655677080154419;-40.17764663696289
218;1666290235.860375;46.976133;7.1796039;59.195003509521484;1666290236.0087254;-45.922882080078125;2.736910104751587;-43.69696044921875
219;1666290236.0663085;46.9761455;7.1795867;59.21600341796875;1666290236.2224698;-42.70818328857422;-0.8226242661476135;-40.04142761230469
220;1666290236.2722437;46.976158399999996;7.1795693;59.237003326416016;1666290236.404007;-42.66777801513672;0.4351304769515991;-38.983741760253906
221;1666290236.4576843;46.9761714;7.179551999999999;59.25800323486328;1666290236.6040869;-44.08711242675781;4.346883296966553;-42.77737808227539
222;1666290236.6577642;46.9761847;7.1795348;59.27100372314453;1666290236.8080707;-42.787811279296875;-0.4548194408416748;-39.023521423339844
223;1666290236.864678;46.9761983;7.1795176;59.28400421142578;1666290237.016934;-47.071468353271484;2.057147264480591;-42.92738723754883
224;1666290237.0657358;46.976212;7.1795003;59.302001953125;1666290237.221895;-49.656707763671875;2.30448579788208;-42.51233673095703
225;1666290237.2755764;46.976226;7.1794828;59.30600357055664;1666290237.4395437;-47.28358840942383;2.2103309631347656;-40.68901062011719
226;1666290237.4981017;46.976240399999995;7.179464899999999;59.31700134277344;1666290237.7489345;-47.381004333496094;1.0710256099700928;-41.8565788269043
227;1666290237.806517;46.976254999999995;7.1794468;59.33200454711914;1666290237.9490125;-51.87786865234375;3.217566967010498;-43.28717041015625
228;1666290237.9987876;46.9762699;7.1794284;59.336002349853516;1666290238.1510472;-53.7691535949707;1.835158348083496;-40.41828155517578
229;1666290238.1978948;46.9762852;7.1794096;59.33100128173828;1666290238.3569815;-52.87352752685547;3.7778844833374023;-44.71928024291992
230;1666290238.4077315;46.976301;7.179390199999999;59.32100296020508;1666290238.5736535;-48.05967712402344;-1.1868592500686646;-38.10155487060547
231;1666290238.6244056;46.976317099999996;7.1793705;59.30400466918945;1666290238.7708058;-47.00556564331055;2.424489736557007;-41.96189498901367
232;1666290238.8235078;46.9763332;7.1793508;59.29300308227539;1666290239.0714123;-47.66741180419922;2.4381473064422607;-41.0997200012207
233;1666290239.1231403;46.9763492;7.1793312;59.27300262451172;1666290239.2783298;-45.10071563720703;0.29922252893447876;-39.790897369384766
234;1666290239.3329825;46.9763653;7.1793116999999995;59.24200439453125;1666290239.4930477;-42.094871520996094;3.0109565258026123;-41.16812515258789
235;1666290239.5516038;46.9763811;7.1792925;59.20900344848633;1666290239.703865;-38.9116325378418;1.5173741579055786;-40.00123596191406
236;1666290239.7585156;46.9763966;7.1792739999999995;59.16800308227539;1666290239.930295;-35.292274475097656;1.781015396118164;-41.360382080078125
237;1666290239.9771407;46.9764115;7.1792561;59.12300109863281;1666290240.1303778;-31.87148094177246;1.4068318605422974;-41.22570037841797
238;1666290240.185028;46.9764257;7.179239099999999;59.0780029296875;1666290240.345094;-27.069881439208984;1.862691044807434;-41.490570068359375
239;1666290240.3968208;46.9764391;7.1792231;59.031002044677734;1666290240.54615;-21.691570281982422;1.3615895509719849;-41.37684631347656
240;1666290240.5939727;46.976451399999995;7.179208399999999;58.97900390625;1666290240.77551;-15.368492126464844;0.9237291216850281;-41.172603607177734
241;1666290240.8243074;46.9764626;7.179195;58.92900466918945;1666290240.9804697;-9.00753116607666;1.1461061239242554;-41.24433135986328
242;1666290241.0321958;46.9764725;7.1791832;58.89400100708008;1666290241.1883585;-3.2098300457000732;0.21801437437534332;-40.75532150268555
243;1666290241.2381318;46.976481;7.1791731;58.87600326538086;1666290241.3991745;0.6620049476623535;-0.7249701023101807;-39.87693786621094
244;1666290241.459686;46.9764881;7.1791646;58.86300277709961;1666290241.6099894;3.3384616374969482;0.35417261719703674;-40.01717758178711
245;1666290241.6656206;46.9764939;7.1791578;58.85200119018555;1666290241.808116;4.060741901397705;-4.230155944824219;-40.744564056396484
246;1666290241.876437;46.9764985;7.1791525;58.842002868652344;1666290242.0062451;4.273372173309326;0.4223841726779938;-42.0222053527832
247;1666290242.064806;46.976501999999996;7.1791484;58.833003997802734;1666290242.2219417;2.8388190269470215;-3.283686637878418;-43.09366226196289
248;1666290242.272692;46.9765047;7.1791452;58.8280029296875;1666290242.4249516;2.1547467708587646;-4.587197780609131;-42.75094223022461
249;1666290242.477656;46.976506699999995;7.1791426;58.82600402832031;1666290242.6299102;0.1634230613708496;-2.0757782459259033;-42.88585662841797
250;1666290242.6894436;46.9765081;7.179140299999999;58.82500457763672;1666290242.8417003;-2.2111704349517822;-0.3331180214881897;-41.77174758911133
251;1666290242.895382;46.9765093;7.1791382;58.823001861572266;1666290243.0447104;-3.8920319080352783;4.214298725128174;-40.870460510253906
252;1666290243.1022954;46.976510399999995;7.1791364;58.82400131225586;1666290243.366788;-6.6485915184021;0.36930570006370544;-38.857154846191406
253;1666290243.423396;46.9765113;7.1791347;58.8280029296875;1666290243.577604;-5.213900089263916;-0.35814887285232544;-37.254127502441406
254;1666290243.6293342;46.9765121;7.1791331;58.833003997802734;1666290243.7806127;-4.1247944831848145;1.521990418434143;-35.13678741455078
255;1666290243.834292;46.976512899999996;7.1791316;58.840003967285156;1666290243.9719093;-1.7710211277008057;0.2875344455242157;-33.01348114013672
256;1666290244.0265644;46.9765138;7.1791303;58.845001220703125;1666290244.1729665;0.09030457586050034;0.12254263460636139;-32.48017883300781
257;1666290244.2246919;46.976514599999994;7.1791291;58.84400177001953;1666290244.376963;-0.7515471577644348;3.1422040462493896;-32.69599914550781
258;1666290244.427699;46.9765155;7.1791282;58.845001220703125;1666290244.5809376;-1.7133811712265015;0.04287412390112877;-32.80032730102539
259;1666290244.6346142;46.9765162;7.179127299999999;58.853004455566406;1666290244.7829642;-15.169175148010254;-1.2936913967132568;-35.309112548828125
260;1666290244.8434782;46.976517;7.1791262;58.87400436401367;1666290245.0006142;-34.85898208618164;3.130080223083496;-43.87166213989258
261;1666290245.0523415;46.976518399999996;7.179124099999999;58.92500305175781;1666290245.195814;-42.65910720825195;-7.0853400230407715;-48.605133056640625
262;1666290245.2524195;46.9765211;7.1791199;59.00200271606445;1666290245.4017475;-51.82484817504883;5.494478225708008;-60.0683479309082
263;1666290245.4515235;46.976525099999996;7.1791125;59.092002868652344;1666290245.6057343;-54.62867736816406;1.437211513519287;-52.49357223510742
264;1666290245.6613681;46.9765307;7.1791022;59.138004302978516;1666290245.8116693;-54.9139289855957;-3.0493571758270264;-43.84143829345703
265;1666290245.864375;46.9765379;7.1790891;59.1670036315918;1666290246.0127256;-54.022300720214844;3.928109884262085;-48.74693298339844
266;1666290246.0615265;46.9765465;7.1790739;59.185001373291016;1666290246.2176838;-50.099700927734375;2.741560935974121;-51.27677917480469
267;1666290246.2664862;46.976556599999995;7.179056699999999;59.217002868652344;1666290246.421667;-44.89873123168945;-2.4026777744293213;-46.0849723815918
268;1666290246.4724226;46.9765674;7.179038599999999;59.2390022277832;1666290246.6354136;-41.683712005615234;-2.024200916290283;-45.182308197021484
269;1666290246.6842148;46.976578499999995;7.179019899999999;59.26900100708008;1666290246.8296373;-40.79013442993164;-0.9728652834892273;-50.11397171020508
270;1666290246.8950276;46.9765897;7.179000899999999;59.29300308227539;1666290247.0385005;-42.4489860534668;1.2850077152252197;-51.338172912597656
271;1666290247.0970602;46.9766008;7.1789819999999995;59.31500244140625;1666290247.24151;-44.272518157958984;-0.8591002821922302;-47.152870178222656
272;1666290247.3059247;46.976611999999996;7.1789628;59.32400131225586;1666290247.446469;-43.02389907836914;2.658600091934204;-51.88579559326172
273;1666290247.5089402;46.9766233;7.1789434;59.33100128173828;1666290247.6533806;-42.4129753112793;1.5965275764465332;-52.08546447753906
274;1666290247.7148674;46.9766347;7.1789239;59.340003967285156;1666290247.865173;-44.74431228637695;-0.17616546154022217;-48.62100601196289
275;1666290247.925685;46.9766463;7.1789042;59.345001220703125;1666290248.085749;-44.22915267944336;2.080921173095703;-50.248252868652344
276;1666290248.1413803;46.9766579;7.1788843;59.342002868652344;1666290248.2838778;-44.01365280151367;1.5744816064834595;-52.945220947265625
277;1666290248.3424394;46.976669699999995;7.1788643;59.34700393676758;1666290248.500549;-46.56243133544922;1.1950377225875854;-50.70298385620117
278;1666290248.5610662;46.9766816;7.178844;59.349002838134766;1666290248.704533;-45.099613189697266;0.30365702509880066;-48.288246154785156
279;1666290248.7640717;46.9766937;7.1788232999999995;59.34700393676758;1666290248.916575;-44.859188079833984;1.1682305335998535;-50.87363815307617
280;1666290248.9712296;46.9767059;7.1788025;59.349002838134766;1666290249.144957;-45.94255447387695;1.319606065750122;-51.42082214355469
281;1666290249.1986406;46.9767182;7.1787816;59.345001220703125;1666290249.3596811;-44.51545333862305;0.08114105463027954;-47.99388885498047
282;1666290249.4172633;46.976730499999995;7.1787604;59.35000228881836;1666290249.569519;-46.4959716796875;0.7750612497329712;-49.79586410522461
283;1666290249.6222227;46.976743;7.178739299999999;59.34300231933594;1666290249.7735054;-47.275001525878906;3.090221881866455;-53.45779037475586
284;1666290249.8291337;46.976755399999995;7.178718099999999;59.333003997802734;1666290249.9843183;-47.04867172241211;-1.4650412797927856;-46.77772521972656
285;1666290250.030191;46.976768;7.1786965;59.333003997802734;1666290250.1980622;-45.83334732055664;0.48499244451522827;-49.54589080810547
286;1666290250.2527168;46.9767807;7.1786749;59.31200408935547;1666290250.4030244;-42.73329162597656;2.2030906677246094;-50.248497009277344
287;1666290250.450845;46.9767933;7.178653499999999;59.27800369262695;1666290250.6138394;-40.73896408081055;1.9116783142089844;-51.60110855102539
288;1666290250.665568;46.9768056;7.1786325;59.24100112915039;1666290250.9085925;-38.117977142333984;1.4879937171936035;-50.7132682800293
289;1666290250.9622686;46.9768177;7.178611999999999;59.202003479003906;1666290251.1145277;-34.62462615966797;0.8041447401046753;-51.02357482910156
290;1666290251.1691806;46.9768293;7.1785923;59.15700149536133;1666290251.3243663;-30.713924407958984;1.5701152086257935;-51.00381851196289
291;1666290251.377069;46.976840499999994;7.178573399999999;59.11000442504883;1666290251.5273762;-25.23986053466797;1.236340880393982;-50.659305572509766
292;1666290251.57715;46.976850899999995;7.178555599999999;59.0680046081543;1666290251.7342846;-18.372053146362305;0.4809052646160126;-50.46052169799805
293;1666290251.788941;46.976860599999995;7.1785391999999995;59.02800369262695;1666290251.9421756;-11.565855979919434;0.5573946237564087;-50.32890319824219
294;1666290251.9939053;46.9768693;7.178524599999999;58.99200439453125;1666290252.154944;-5.783473491668701;0.5279061794281006;-50.25799560546875
295;1666290252.213502;46.9768769;7.1785118;58.958003997802734;1666290252.354046;-0.654025673866272;-0.7787439227104187;-50.16238784790039
296;1666290252.4106529;46.9768833;7.1785011999999995;58.92900466918945;1666290252.5590057;3.2421536445617676;-1.5256876945495605;-49.838741302490234
297;1666290252.6126857;46.9768885;7.1784925;58.9170036315918;1666290252.7707977;5.325984001159668;0.2595542371273041;-49.3968620300293
298;1666290252.8186204;46.9768927;7.178485599999999;58.91400146484375;1666290252.972837;5.206730365753174;0.24706001579761505;-50.18156814575195
299;1666290253.0245593;46.9768958;7.1784801;58.91200256347656;1666290253.180717;3.896393060684204;1.532170295715332;-50.19694900512695
300;1666290253.2324452;46.9768982;7.1784759;58.91100311279297;1666290253.3768935;2.6321187019348145;0.28733310103416443;-50.31289291381836
301;1666290253.4374056;46.976900099999995;7.1784726999999995;58.910003662109375;1666290253.5847836;-0.3083040714263916;-0.18943142890930176;-50.11693572998047
302;1666290253.6345587;46.9769016;7.1784703;58.90800094604492;1666290253.7907171;-1.9952855110168457;-2.1558632850646973;-50.51783752441406
303;1666290253.843423;46.9769029;7.1784684;58.906002044677734;1666290253.9839678;-4.117464065551758;0.2801046371459961;-51.389678955078125
304;1666290254.0366702;46.976904;7.1784668;58.90200424194336;1666290254.1889327;-4.849999904632568;-1.2143439054489136;-52.30638122558594
305;1666290254.2416294;46.976904999999995;7.1784655;58.897003173828125;1666290254.3880298;-4.596193790435791;-1.529510736465454;-53.236236572265625
306;1666290254.445613;46.9769059;7.178464099999999;58.89200210571289;1666290254.591037;-3.0636672973632812;-0.9512078166007996;-53.72677230834961
307;1666290254.6408172;46.9769066;7.1784627;58.888004302978516;1666290254.7979524;-2.4117941856384277;-0.38810843229293823;-53.531612396240234
308;1666290254.847726;46.9769072;7.1784612999999995;58.884002685546875;1666290254.9921732;-1.8926700353622437;0.18420806527137756;-53.02399826049805
309;1666290255.0419507;46.9769078;7.1784599;58.881004333496094;1666290255.1942046;-1.412131905555725;0.6102685332298279;-52.78498077392578
310;1666290255.2488604;46.9769085;7.178458399999999;58.87400436401367;1666290255.3981879;-1.1262054443359375;0.31692856550216675;-52.750160217285156
311;1666290255.45968;46.976909299999996;7.1784569;58.8650016784668;1666290255.6060796;4.5843729972839355;6.6826910972595215;-47.34670639038086
312;1666290255.6587853;46.97691;7.1784558;58.926002502441406;1666290255.8139648;3.658651351928711;10.766934394836426;-38.1212272644043
313;1666290255.8637428;46.9769109;7.178456;59.092002868652344;1666290256.024783;0.15415285527706146;28.23225212097168;-27.85404396057129
314;1666290256.0843184;46.9769119;7.1784577;59.34800338745117;1666290256.2248645;-15.41663932800293;46.17789840698242;-12.332106590270996
315;1666290256.275613;46.976914;7.1784627;59.678001403808594;1666290256.42787;-35.084468841552734;36.93177032470703;-1.4097867012023926
316;1666290256.495214;46.9769176;7.1784721;60.061004638671875;1666290256.645518;-46.29157257080078;24.949077606201172;10.611207008361816
317;1666290256.6991963;46.9769235;7.178484399999999;60.48100280761719;1666290256.8524292;-49.218868255615234;17.406286239624023;23.936203002929688
318;1666290256.9031808;46.976931799999996;7.1784992999999995;60.93800354003906;1666290257.0564144;-47.42722702026367;14.514555931091309;21.639921188354492
319;1666290257.1139991;46.976941599999996;7.1785159;61.38200378417969;1666290257.3648324;-47.33602523803711;10.009978294372559;19.807729721069336
320;1666290257.4263167;46.9769529;7.1785334;61.82600402832031;1666290257.5736947;-40.821502685546875;22.29575538635254;3.986483573913574
321;1666290257.6293242;46.9769654;7.1785508;62.26100158691406;1666290257.783535;-33.449710845947266;32.330772399902344;-9.022944450378418
322;1666290257.8333087;46.9769789;7.1785684;62.70100402832031;1666290257.9894712;-29.183801651000977;39.33211898803711;-17.55808448791504
323;1666290258.0392466;46.9769929;7.1785863999999995;63.13500213623047;1666290258.1895487;-33.484161376953125;42.060760498046875;-4.7994279861450195
324;1666290258.2461562;46.9770073;7.1786050999999995;63.500003814697266;1666290258.4032931;-31.662446975708008;27.373523712158203;16.198055267333984
325;1666290258.4696608;46.9770216;7.1786254;63.84800338745117;1666290258.606304;-32.21335983276367;16.62044906616211;30.185544967651367
326;1666290258.6619408;46.977035;7.178646199999999;64.22200012207031;1666290258.81419;-33.439083099365234;9.810742378234863;34.72163391113281
327;1666290258.8668926;46.9770477;7.1786669;64.59900665283203;1666290259.01622;-37.698726654052734;6.7622270584106445;37.320377349853516
328;1666290259.0640445;46.9770599;7.178687;64.96200561523438;1666290259.2084937;-43.23890686035156;1.5251082181930542;42.031890869140625
329;1666290259.2621734;46.9770721;7.1787069;65.31999969482422;1666290259.4056463;-45.684959411621094;-4.903868675231934;50.15977478027344
330;1666290259.4642088;46.9770845;7.1787268;65.66200256347656;1666290259.631101;-44.882869720458984;-7.132363796234131;48.09187316894531
331;1666290259.6838078;46.9770976;7.1787467;65.9990005493164;1666290259.839966;-47.79460525512695;-3.7917652130126953;43.753299713134766
332;1666290259.8887646;46.977111199999996;7.1787662999999995;66.31100463867188;1666290260.0732312;-43.738685607910156;-5.054251670837402;45.27455520629883
333;1666290260.1249592;46.977125099999995;7.1787857;66.59100341796875;1666290260.2674541;-39.4211311340332;-0.265331894159317;42.08930206298828
334;1666290260.3230848;46.977139099999995;7.178804599999999;66.84300231933594;1666290260.4694865;-36.02126693725586;-0.17549176514148712;42.73390579223633
335;1666290260.5251188;46.9771529;7.1788231;67.07400512695312;1666290260.696893;-33.65385055541992;0.24543477594852448;43.00954818725586
336;1666290260.7574053;46.9771662;7.1788408;67.281005859375;1666290260.9008787;-30.540773391723633;0.6632918119430542;43.50680160522461
337;1666290260.9613888;46.9771789;7.178857799999999;67.46400451660156;1666290261.105838;-25.88557243347168;1.1638891696929932;43.8961181640625
338;1666290261.172206;46.977190799999995;7.1788738;67.62200164794922;1666290261.3312929;-19.922657012939453;1.4800066947937012;44.29312515258789
339;1666290261.3800921;46.977201799999996;7.1788887;67.7540054321289;1666290261.5391827;-13.517440795898438;1.634234070777893;44.63998031616211
340;1666290261.6123798;46.9772117;7.1789023;67.86300659179688;1666290261.7929416;-7.354006290435791;1.6288731098175049;44.86955261230469
341;1666290261.8407652;46.9772203;7.1789144;67.96400451660156;1666290261.9803329;-2.2830142974853516;1.3907904624938965;45.009281158447266
342;1666290262.0349886;46.9772276;7.1789247;68.06300354003906;1666290262.197009;1.7545816898345947;1.2716469764709473;45.08286666870117
343;1666290262.2487342;46.9772335;7.1789333;68.1520004272461;1666290262.3990378;4.512116432189941;1.1342047452926636;45.19981002807617
344;1666290262.4517417;46.977238299999996;7.1789401999999995;68.22600555419922;1666290262.60595;5.625433444976807;0.7400806546211243;45.456966400146484
345;1666290262.6635358;46.977242;7.1789456;68.29100036621094;1666290262.8109078;5.113829135894775;0.5667440295219421;45.63848114013672
346;1666290262.868493;46.9772447;7.1789496999999995;68.35100555419922;1666290263.0246546;3.4968554973602295;0.2392789125442505;45.733829498291016
347;1666290263.0773563;46.977246799999996;7.178952799999999;68.40400695800781;1666290263.2247367;1.1768529415130615;-0.0025207113940268755;45.64569091796875
348;1666290263.2715802;46.9772482;7.1789552;68.4520034790039;1666290263.4248135;-1.5184326171875;-0.305168092250824;45.426300048828125
349;1666290263.4706893;46.9772494;7.178957;68.49600219726562;1666290263.61904;-4.071583271026611;-0.47460314631462097;45.301883697509766
350;1666290263.6727178;46.977250399999996;7.178958499999999;68.53400421142578;1666290263.81912;-5.9655866622924805;-0.36090269684791565;45.387535095214844
351;1666290263.8718212;46.9772515;7.17896;68.56999969482422;1666290264.0221264;-6.89572811126709;-0.5370916128158569;45.6150016784668
352;1666290264.0758064;46.9772525;7.1789613999999995;68.60000610351562;1666290264.2290363;-6.932428359985352;-0.44978874921798706;46.0567741394043
353;1666290264.2788143;46.9772536;7.178962899999999;68.6310043334961;1666290264.4300926;-4.284103870391846;0.3925856947898865;46.584312438964844
354;1666290264.586252;46.9772548;7.178964499999999;68.66500091552734;1666290264.7424135;0.0444207638502121;0.13426917791366577;47.165924072265625
355;1666290264.7921896;46.977255899999996;7.178966;68.70000457763672;1666290264.9395669;1.6741156578063965;0.26569750905036926;47.23603820800781
356;1666290264.993249;46.9772568;7.1789672;68.7300033569336;1666290265.1435513;2.16719126701355;0.34100770950317383;47.1761360168457
357;1666290265.1943004;46.977257599999994;7.178968299999999;68.7540054321289;1666290265.3563194;1.4650744199752808;0.08131460845470428;47.129024505615234
358;1666290265.409996;46.977258299999995;7.1789691;68.7750015258789;1666290265.5612772;4.6375508308410645;10.415824890136719;52.618492126464844
359;1666290265.6208143;46.9772587;7.178969899999999;68.79100036621094;1666290265.7594059;1.025368571281433;17.770427703857422;63.274131774902344
360;1666290265.8169885;46.9772584;7.1789708999999995;68.80599975585938;1666290265.9711974;-9.451532363891602;36.87153244018555;70.94001007080078
361;1666290266.0229259;46.9772568;7.1789727999999995;68.8479995727539;1666290266.1751797;-22.706405639648438;40.730838775634766;88.90302276611328
362;1666290266.2249587;46.9772532;7.178976199999999;68.90900421142578;1666290266.3742855;-37.399497985839844;24.55901527404785;102.40508270263672
363;1666290266.4318712;46.9772476;7.1789814;69.0060043334961;1666290266.5821776;-45.67715072631836;8.944395065307617;111.51908874511719
364;1666290266.6417084;46.977240699999996;7.1789888;69.08800506591797;1666290266.7871327;-47.981998443603516;7.921349048614502;108.95394897460938
365;1666290266.8369088;46.977233299999995;7.1789989;69.16200256347656;1666290267.001856;-48.40903091430664;3.3980305194854736;107.96949005126953
366;1666290267.0584655;46.9772256;7.1790116;69.20500183105469;1666290267.2058358;-48.016605377197266;13.78260326385498;95.29242706298828
367;1666290267.2556124;46.9772179;7.1790268;69.24700164794922;1666290267.409822;-44.91583251953125;23.756208419799805;80.40222930908203
368;1666290267.461551;46.977210299999996;7.1790442;69.27300262451172;1666290267.6372285;-41.02667236328125;32.75175476074219;82.99359893798828
369;1666290267.6918852;46.9772025;7.1790632;69.2800064086914;1666290267.8392613;-40.26849365234375;32.34080123901367;103.07843017578125
370;1666290267.8919656;46.9771936;7.179082999999999;69.28500366210938;1666290268.0471494;-36.27496337890625;25.477462768554688;115.38761138916016
371;1666290268.1018083;46.977183499999995;7.179101999999999;69.29000091552734;1666290268.2491798;-34.740047454833984;7.927563667297363;125.90814971923828
372;1666290268.3038385;46.977172599999996;7.179119999999999;69.3070068359375;1666290268.4404771;-39.072330474853516;1.8331499099731445;126.66620635986328
373;1666290268.5000126;46.977161699999996;7.1791374999999995;69.32500457763672;1666290268.6434846;-43.75725555419922;0.9567561745643616;130.01988220214844
374;1666290268.69912;46.9771509;7.1791551;69.34000396728516;1666290268.8445408;-43.15494918823242;-1.1871109008789062;131.51611328125
375;1666290268.8933418;46.9771399;7.179173;69.3479995727539;1666290269.045597;-41.66262435913086;-4.396110534667969;135.7771453857422
376;1666290269.10123;46.9771289;7.179191299999999;69.35400390625;1666290269.2486064;-44.191688537597656;-3.7934134006500244;130.17410278320312
377;1666290269.3022842;46.977118;7.179209999999999;69.3530044555664;1666290269.4603982;-47.65324020385742;1.1942994594573975;126.75267791748047
378;1666290269.5140777;46.9771071;7.1792292;69.34500122070312;1666290269.6536481;-46.9908561706543;-3.3438773155212402;134.3194122314453
379;1666290269.716112;46.9770961;7.1792489999999995;69.34300231933594;1666290269.8517745;-45.07646560668945;1.3234184980392456;128.32785034179688
380;1666290269.902528;46.9770848;7.1792693;69.34100341796875;1666290270.0674703;-43.223724365234375;1.2829424142837524;127.8141860961914
381;1666290270.1162694;46.9770733;7.179289799999999;69.34200286865234;1666290270.2714527;-42.31153869628906;1.5173001289367676;130.15786743164062
382;1666290270.3280597;46.9770618;7.1793103;69.34600067138672;1666290270.5652297;-44.052547454833984;2.986464500427246;127.17554473876953
383;1666290270.6150043;46.977050299999995;7.1793308;69.34500122070312;1666290270.7789736;-43.33571243286133;3.000443696975708;127.2561264038086
384;1666290270.8316805;46.9770387;7.1793512999999995;69.33900451660156;1666290270.9907656;-42.67686080932617;0.319644570350647;131.7010040283203
385;1666290271.0454195;46.977027;7.179371799999999;69.34100341796875;1666290271.200605;-43.6788215637207;2.068415403366089;128.18069458007812
386;1666290271.2523355;46.9770153;7.1793923;69.34500122070312;1666290271.3977582;-43.07917785644531;3.843480110168457;127.55795288085938
387;1666290271.4485083;46.977003499999995;7.1794126;69.33399963378906;1666290271.6017416;-40.09684753417969;0.18859003484249115;130.74160766601562
388;1666290271.6583512;46.9769918;7.1794327;69.31300354003906;1666290271.799868;-38.859920501708984;1.182458758354187;129.2213592529297
389;1666290271.854528;46.9769802;7.1794525;69.28400421142578;1666290271.9989724;-36.49588394165039;2.794983386993408;127.72364044189453
390;1666290272.0594854;46.976968899999996;7.1794718;69.24800109863281;1666290272.2078354;-34.79079818725586;0.5995845198631287;129.42922973632812
391;1666290272.2605424;46.976957999999996;7.179490599999999;69.20899963378906;1666290272.4196308;-32.149539947509766;1.3521188497543335;128.59548950195312
392;1666290272.4781902;46.9769475;7.179508599999999;69.16800689697266;1666290272.6450834;-28.995492935180664;1.7371100187301636;129.03440856933594
393;1666290272.6968126;46.9769375;7.179525699999999;69.11900329589844;1666290272.839308;-24.881311416625977;1.2265714406967163;129.38369750976562
394;1666290272.891037;46.976928;7.1795418;69.06999969482422;1666290273.0471988;-19.56405258178711;1.6114479303359985;129.80235290527344
395;1666290273.1038065;46.9769193;7.1795567;69.0260009765625;1666290273.2492313;-13.199871063232422;1.4753328561782837;129.99827575683594
396;1666290273.3058357;46.9769113;7.1795702;68.98100280761719;1666290273.4454048;-6.627756595611572;1.2032829523086548;130.20675659179688
397;1666290273.500062;46.9769043;7.1795819;68.94200134277344;1666290273.6464634;-1.1558077335357666;1.2563680410385132;130.37548828125
398;1666290273.703073;46.976898299999995;7.1795918;68.90900421142578;1666290273.8523965;3.19728422164917;1.0785750150680542;130.3632049560547
399;1666290273.9011955;46.976893399999994;7.1795998;68.8790054321289;1666290274.0524788;5.408336639404297;0.8708723187446594;130.5677947998047
400;1666290274.1022515;46.9768895;7.1796061;68.85900115966797;1666290274.2515814;5.5209221839904785;0.9867803454399109;130.45616149902344
401;1666290274.3052614;46.9768865;7.1796108;68.84600067138672;1666290274.4633746;4.432325839996338;0.28932812809944153;130.3492889404297
402;1666290274.5121725;46.9768842;7.1796143;68.84600067138672;1666290274.65955;4.228848457336426;-0.3618077337741852;129.88272094726562
403;1666290274.7142043;46.976882599999996;7.1796168;68.85700225830078;1666290274.8645108;3.003382682800293;-0.17626766860485077;129.57623291015625
404;1666290274.9240434;46.9768815;7.1796185999999995;68.86700439453125;1666290275.0753255;0.22538208961486816;-0.8590517640113831;129.2458038330078
405;1666290275.1290033;46.9768806;7.17962;68.87700653076172;1666290275.2744277;-2.064383029937744;-0.13936741650104523;128.92276000976562
406;1666290275.3378682;46.9768797;7.1796212;68.88600158691406;1666290275.4920797;-3.4301164150238037;0.06491494923830032;128.5716552734375
407;1666290275.5418546;46.976879;7.1796223999999995;68.89400482177734;1666290275.6902065;-3.455873489379883;0.1569528579711914;128.21316528320312
408;1666290275.7419348;46.976878199999994;7.1796237;68.9050064086914;1666290275.905902;-4.059302806854248;0.4834035038948059;127.84553527832031
409;1666290275.9566517;46.9768774;7.1796251;68.91400146484375;1666290276.1030545;-4.268599510192871;0.5269201397895813;127.48390197753906
410;1666290276.1586833;46.976876499999996;7.1796264999999995;68.91900634765625;1666290276.306063;-3.6843388080596924;0.3809874653816223;127.47339630126953
411;1666290276.3568118;46.9768757;7.1796279;68.92200469970703;1666290276.5051699;-2.900214195251465;0.23326146602630615;127.54718017578125
412;1666290276.5588446;46.976875;7.179629299999999;68.92400360107422;1666290276.7062201;-0.6727591753005981;0.9124194383621216;127.94085693359375
413;1666290276.7589233;46.9768744;7.1796302999999995;68.92300415039062;1666290276.917038;4.702336311340332;8.291054725646973;131.70956420898438
414;1666290276.9619322;46.9768738;7.179631;68.82100677490234;1666290277.103452;5.430231094360352;17.559019088745117;144.92015075683594
415;1666290277.1551805;46.9768732;7.179631;68.6510009765625;1666290277.3064609;-7.8878607749938965;37.72637176513672;161.30905151367188
416;1666290277.3669732;46.9768721;7.179629299999999;68.48400115966797;1666290277.5133734;-25.137866973876953;38.15255355834961;175.84140014648438
