;pos_time;latitude;longitude;altitude;alt_time;pitch;roll;yaw
0;1666160278.0289;46.9755343;7.180356;0.0;1666160278.1882868;-1.1681561470031738;-1.581499695777893;94.94043731689453
1;1666160278.2468448;46.9755342;7.1803561;0.0;1666160278.4128222;-1.0195250511169434;-1.5053722858428955;95.03109741210938
2;1666160278.4655225;46.9755342;7.1803561;0.0;1666160278.6085458;-1.1398390531539917;-1.5229262113571167;94.99466705322266
3;1666160278.6797922;46.9755343;7.1803561;-0.003000000026077032;1666160278.8300958;-0.8671042919158936;-1.411921501159668;94.83281707763672
4;1666160278.8808494;46.9755343;7.1803561;-0.007000000216066837;1666160279.023346;-0.9102733731269836;-1.3496793508529663;94.98309326171875
5;1666160279.0975204;46.9755343;7.1803561;-0.012000000104308128;1666160279.255646;-1.0604287385940552;-1.5323485136032104;94.99471282958984
6;1666160279.3132265;46.9755343;7.1803561;-0.017000000923871994;1666160279.4586523;-1.069203495979309;-1.524860143661499;95.0385971069336
7;1666160279.524045;46.9755343;7.180356199999999;-0.018000001087784767;1666160279.6821575;-1.1228750944137573;-1.607465147972107;94.93814849853516
8;1666160279.7514539;46.9755343;7.180356199999999;-0.014000000432133675;1666160279.9954944;-0.8888188600540161;-1.5619406700134277;94.89017486572266
9;1666160280.0672512;46.9755343;7.180356199999999;-0.010000000707805157;1666160280.2312694;-0.9475032091140747;-1.5333144664764404;94.88516235351562
10;1666160280.2869012;46.9755343;7.1803561;-0.007000000216066837;1666160280.536383;-1.18394935131073;-1.4431767463684082;94.90506744384766
11;1666160280.6110506;46.9755344;7.1803561;0.0;1666160280.7662334;-0.9334517121315002;-1.5677419900894165;94.84893798828125
12;1666160280.8267438;46.9755344;7.1803561;0.006000000052154064;1666160280.9829228;-0.8896152377128601;-1.632311224937439;94.92969512939453
13;1666160281.0463574;46.9755344;7.180356;0.01100000087171793;1666160281.1995933;-1.2660434246063232;-1.7068535089492798;94.82636260986328
14;1666160281.2727914;46.9755344;7.180356;0.01900000125169754;1666160281.4357817;-1.2485966682434082;-1.7493464946746826;94.81126403808594
15;1666160281.499223;46.9755344;7.180356;0.005000000353902578;1666160281.6510143;-0.49117588996887207;-1.7439980506896973;94.74312591552734
16;1666160281.7193403;46.9755344;7.180356;0.006000000052154064;1666160281.9077044;-0.9751777648925781;-1.6463221311569214;94.8078384399414
17;1666160281.9691896;46.9755344;7.180356;0.006000000052154064;1666160282.119497;-0.8840076923370361;-1.6142418384552002;94.82841491699219
18;1666160282.1800058;46.9755344;7.180356;0.006000000052154064;1666160282.334222;-0.9266475439071655;-1.548310399055481;94.72532653808594
19;1666160282.3927739;46.9755344;7.1803558999999995;0.0020000000949949026;1666160282.5674815;-0.9852085113525391;-1.6050208806991577;94.73185729980469
20;1666160282.618234;46.9755344;7.1803558999999995;-0.004000000189989805;1666160282.7656074;-0.6733940243721008;-1.3706978559494019;94.58824920654297
21;1666160282.826118;46.9755344;7.1803558999999995;-0.013000000268220901;1666160282.977401;-0.863919198513031;-1.2732748985290527;94.81751251220703
22;1666160283.0398645;46.9755344;7.1803558999999995;-0.004000000189989805;1666160283.1891928;-0.781988263130188;-1.3331292867660522;94.78511810302734
23;1666160283.2467752;46.9755343;7.1803558999999995;-0.00800000037997961;1666160283.4029372;-0.8641717433929443;-1.2069625854492188;94.70223236083984
24;1666160283.4751613;46.9755343;7.180356;-0.00800000037997961;1666160283.6293669;-0.7464185357093811;-0.6435818672180176;94.89286041259766
25;1666160283.6791449;46.9755342;7.1803561;-0.003000000026077032;1666160283.836793;-0.7388239502906799;-0.543779194355011;94.95645904541016
26;1666160283.8939166;46.9755342;7.1803561;0.0010000000474974513;1666160284.0544949;-0.9403366446495056;-2.080836772918701;95.45867156982422
27;1666160284.110641;46.9755342;7.1803561;0.014000000432133675;1666160284.2643926;0.027324998751282692;0.165627583861351;95.1161880493164
28;1666160284.3209996;46.9755342;7.180356;0.030000001192092896;1666160284.4683774;1.1362698078155518;-3.6578197479248047;94.42140197753906
29;1666160284.5269384;46.9755343;7.1803558;0.05400000140070915;1666160284.6940777;-0.38638657331466675;-0.8060078620910645;94.46221160888672
30;1666160284.7506878;46.975534499999995;7.1803555;0.0990000069141388;1666160284.8956523;-1.3606747388839722;0.37304070591926575;94.80724334716797
31;1666160284.9542127;46.975534599999996;7.180355199999999;0.15800000727176666;1666160285.1064696;-0.22507457435131073;-1.588105320930481;94.63356018066406
32;1666160285.1630769;46.975534499999995;7.1803551;0.23400001227855682;1666160285.3085036;1.121801733970642;-0.89471036195755;94.25247192382812
33;1666160285.3602304;46.9755344;7.180354899999999;0.3290000259876251;1666160285.528102;1.2399919033050537;-1.2485010623931885;94.02665710449219
34;1666160285.5983734;46.9755342;7.180354899999999;0.4410000145435333;1666160285.7359927;1.5116949081420898;-2.523422956466675;94.10111236572266
35;1666160285.79943;46.975533999999996;7.1803547;0.5700000524520874;1666160286.0570939;-2.359574317932129;-2.300736427307129;93.9310302734375
36;1666160286.1205344;46.9755338;7.180354299999999;0.7220000624656677;1666160286.293286;-4.850778102874756;-2.704367160797119;93.75525665283203
37;1666160286.349894;46.9755338;7.1803539999999995;0.8940000534057617;1666160286.5041025;-3.3134994506835938;-2.654296636581421;93.5903091430664
38;1666160286.5568068;46.9755338;7.1803539999999995;1.0850000381469727;1666160286.7149196;-1.3384308815002441;-2.197506904602051;93.56745910644531
39;1666160286.778358;46.975533899999995;7.1803541;1.2950000762939453;1666160286.9345207;-0.8687819838523865;-1.8329055309295654;93.406494140625
40;1666160286.9891791;46.975533999999996;7.1803545;1.527000069618225;1666160287.1375275;0.09125840663909912;-1.6042578220367432;96.83714294433594
41;1666160287.2029197;46.9755341;7.180355;1.7740000486373901;1666160287.3532221;0.748509407043457;-1.7270290851593018;95.95236206054688
42;1666160287.4117827;46.9755342;7.1803554;2.0400002002716064;1666160287.5698967;0.09403039515018463;-1.262162208557129;95.38920593261719
43;1666160287.627481;46.9755343;7.1803554;2.325000047683716;1666160287.7768064;-3.2275583744049072;-1.3852463960647583;95.12638092041016
44;1666160287.8363454;46.9755344;7.1803552999999996;2.616000175476074;1666160287.9798164;-3.4093806743621826;-1.4317322969436646;94.81500244140625
45;1666160288.0383756;46.975534499999995;7.1803552999999996;2.9090001583099365;1666160288.1955113;-1.5618551969528198;-0.9937553405761719;94.3579330444336
46;1666160288.249193;46.975534499999995;7.1803552999999996;3.2060000896453857;1666160288.3868082;-0.8447754979133606;-1.2825171947479248;94.0540542602539
47;1666160288.4492736;46.975534499999995;7.1803555999999995;3.506000280380249;1666160288.5976236;1.805626392364502;-0.789129912853241;94.06687927246094
48;1666160288.662041;46.975534499999995;7.1803563;3.809000253677368;1666160288.8016088;3.7808923721313477;-0.7535563707351685;94.4699478149414
49;1666160288.8709064;46.975534499999995;7.1803567;4.113000392913818;1666160289.0192566;0.5915555953979492;-1.2023581266403198;94.3932113647461
50;1666160289.0778153;46.975534499999995;7.1803566;4.4160003662109375;1666160289.2534976;-1.6801692247390747;-1.505821943283081;94.67428588867188
51;1666160289.3071764;46.975534499999995;7.180356499999999;4.715000152587891;1666160289.4467466;-1.5270071029663086;-1.688835620880127;94.52616119384766
52;1666160289.5179918;46.9755344;7.1803563;5.016000270843506;1666160289.663417;-2.1894171237945557;-1.4373893737792969;94.42333221435547
53;1666160289.721978;46.9755344;7.1803558999999995;5.319000244140625;1666160289.8869202;-2.43111515045166;-1.429833173751831;94.3800048828125
54;1666160289.9474359;46.975534499999995;7.1803555999999995;5.619000434875488;1666160290.0909061;-2.353072166442871;-1.0780831575393677;94.59477996826172
55;1666160290.151418;46.975534499999995;7.1803557;5.9170002937316895;1666160290.2968404;0.07016623020172119;-1.0374231338500977;94.72744750976562
56;1666160290.3719943;46.975534499999995;7.1803561;6.214000225067139;1666160290.5144966;2.552398204803467;-1.1128878593444824;94.58954620361328
57;1666160290.5730507;46.975534499999995;7.1803564;6.511000156402588;1666160290.7233536;1.702180027961731;-1.5298651456832886;94.56320190429688
58;1666160290.7819152;46.975534499999995;7.1803566;6.810000419616699;1666160290.9380722;-0.07078452408313751;-1.765555500984192;94.65390014648438
59;1666160291.007373;46.975534499999995;7.180356799999999;7.112000465393066;1666160291.1527932;-0.5243222713470459;-1.5202406644821167;94.58013916015625
60;1666160291.2172115;46.975534499999995;7.1803566;7.4160003662109375;1666160291.3636093;-2.39983868598938;-1.5461965799331665;94.6037368774414
61;1666160291.4211938;46.975534499999995;7.1803563;7.7210001945495605;1666160291.5666192;-2.8866021633148193;-1.4536035060882568;94.61238098144531
62;1666160291.6251793;46.975534499999995;7.1803561;8.028000831604004;1666160291.774508;-1.626312255859375;-1.6516753435134888;94.49810028076172
63;1666160291.8350172;46.975534499999995;7.1803561;8.333000183105469;1666160291.9775145;1.0556269884109497;-1.5260339975357056;94.4571533203125
64;1666160292.0399792;46.975534599999996;7.180356199999999;8.641000747680664;1666160292.1893055;1.2386348247528076;-1.4563353061676025;94.34980010986328
65;1666160292.2507958;46.975534599999996;7.1803563;8.951000213623047;1666160292.4196432;0.304569810628891;-1.2450555562973022;94.3185043334961
66;1666160292.480154;46.9755347;7.1803564;9.26200008392334;1666160292.6421735;0.8601304888725281;-1.2156522274017334;94.29462432861328
67;1666160292.6978054;46.9755347;7.1803564;9.577000617980957;1666160292.9496133;-1.1597490310668945;-1.1763930320739746;94.60649871826172
68;1666160293.0042665;46.9755347;7.1803561;9.891000747680664;1666160293.158478;-2.663724422454834;-1.3587143421173096;94.59464263916016
69;1666160293.2141068;46.9755347;7.1803557;10.205000877380371;1666160293.3878348;-3.348759412765503;-1.1353435516357422;94.51744842529297
70;1666160293.4395626;46.9755348;7.1803557;10.550000190734863;1666160293.5840132;-0.4967251121997833;-0.6141090393066406;94.59620666503906
71;1666160293.6367188;46.9755348;7.1803555999999995;10.976000785827637;1666160293.7918992;-2.0197906494140625;-1.465682029724121;94.6330337524414
72;1666160293.8680289;46.9755348;7.1803558;11.509000778198242;1666160294.0310254;0.3179810047149658;-1.3804950714111328;94.7105712890625
73;1666160294.085681;46.9755348;7.180356199999999;12.084000587463379;1666160294.2369583;2.01053786277771;-0.8915584683418274;94.41278839111328
74;1666160294.3043036;46.9755348;7.180356499999999;12.675000190734863;1666160294.4526517;-0.3604530394077301;-1.5334628820419312;94.5184326171875
75;1666160294.5287814;46.9755348;7.1803563;13.277000427246094;1666160294.6878698;-3.3539352416992188;-1.167018175125122;94.6616439819336
76;1666160294.7474117;46.9755347;7.180356199999999;13.882000923156738;1666160294.912351;-2.526306629180908;-1.2701376676559448;94.51990509033203
77;1666160294.9738362;46.9755347;7.1803561;14.48900032043457;1666160295.1143825;-0.6179935336112976;-0.991344690322876;94.62892150878906
78;1666160295.1690364;46.9755347;7.180356;15.101000785827637;1666160295.3125107;-0.6686563491821289;-1.5543992519378662;94.69377136230469
79;1666160295.370092;46.9755347;7.1803561;15.714000701904297;1666160295.5360148;-0.026358874514698982;-1.3350456953048706;94.55686950683594
80;1666160295.591648;46.9755347;7.1803564;16.325000762939453;1666160295.751711;2.0124144554138184;-1.3449933528900146;94.50135803222656
81;1666160295.8161275;46.9755347;7.1803567;16.933000564575195;1666160295.9752123;2.1443521976470947;-1.1125668287277222;94.39476013183594
82;1666160296.0298693;46.9755347;7.1803567;17.540000915527344;1666160296.1694381;-1.263757586479187;-1.8614732027053833;94.6356430053711
83;1666160296.2299562;46.9755347;7.1803567;18.145000457763672;1666160296.38123;-2.2766356468200684;-1.5469253063201904;94.56748962402344
84;1666160296.4407701;46.975534599999996;7.1803567;18.75200080871582;1666160296.614498;-1.6158326864242554;-1.3294655084609985;94.56968688964844
85;1666160296.6671975;46.9755347;7.1803566;19.35700035095215;1666160296.8194554;-1.9324817657470703;-1.438967227935791;94.64302825927734
86;1666160296.8731363;46.9755347;7.180356499999999;19.95600128173828;1666160297.0273454;-0.8181504607200623;-1.1457784175872803;94.76278686523438
87;1666160297.0927355;46.975534599999996;7.1803566;20.549001693725586;1666160297.2401123;1.364930272102356;-1.5902719497680664;94.3731460571289
88;1666160297.2976952;46.975534599999996;7.180356799999999;21.141000747680664;1666160297.4577577;1.4520025253295898;-1.9994865655899048;94.4085464477539
89;1666160297.5202215;46.975534599999996;7.1803569;21.73000144958496;1666160297.662719;-0.3467922508716583;-1.1518148183822632;94.3233642578125
90;1666160297.7290866;46.975534599999996;7.180357;22.315000534057617;1666160297.8706067;-0.24354001879692078;-1.1424421072006226;94.376953125
91;1666160297.9262402;46.975534599999996;7.1803569;22.898000717163086;1666160298.0853279;-1.654011607170105;-1.6227996349334717;94.71131134033203
92;1666160298.138034;46.975534599999996;7.1803567;23.483001708984375;1666160298.2766259;-2.890155553817749;-0.9831686615943909;94.51423645019531
93;1666160298.3371387;46.975534599999996;7.1803564;24.06800079345703;1666160298.4776785;-1.7879241704940796;-1.4012824296951294;94.65581512451172
94;1666160298.5762575;46.975534599999996;7.180356499999999;24.654001235961914;1666160298.72656;-0.2282058596611023;-1.6297053098678589;94.54481506347656
95;1666160298.7939026;46.975534499999995;7.1803567;25.237001419067383;1666160298.9461627;1.8181990385055542;-1.010452389717102;94.6455078125
96;1666160299.0056977;46.975534499999995;7.1803569;25.817001342773438;1666160299.1472163;1.515122890472412;-1.0448116064071655;94.56901550292969
97;1666160299.200895;46.975534499999995;7.180357;26.4010009765625;1666160299.4429452;1.0203971862792969;-1.334279179573059;94.36325073242188
98;1666160299.5015028;46.9755344;7.180357;26.989002227783203;1666160299.6527834;-0.5848511457443237;-1.247330904006958;94.45848846435547
99;1666160299.713301;46.9755344;7.1803566;27.582000732421875;1666160299.8606758;-2.972123384475708;-1.3776235580444336;94.58500671386719
100;1666160299.9233024;46.9755344;7.180356199999999;28.179000854492188;1666160300.0745883;-3.1855053901672363;-1.8053666353225708;94.62864685058594
101;1666160300.1351025;46.9755343;7.1803558999999995;28.774002075195312;1666160300.2814999;-1.326705813407898;-1.400941252708435;94.46078491210938
102;1666160300.3361564;46.9755343;7.1803558999999995;29.364002227783203;1666160300.4847982;-0.03206688538193703;-1.6389683485031128;94.64247131347656
103;1666160300.5423923;46.9755343;7.180356;29.955001831054688;1666160300.7014072;0.3754200339317322;-1.7836604118347168;94.62580871582031
104;1666160300.765822;46.9755343;7.180356199999999;30.547000885009766;1666160300.9336946;1.234154224395752;-1.0299400091171265;94.1462631225586
105;1666160300.984452;46.9755343;7.1803564;31.137001037597656;1666160301.1357267;0.274056613445282;-1.2025034427642822;94.10424041748047
106;1666160301.197217;46.9755343;7.180356199999999;31.73200225830078;1666160301.3338585;-2.2865397930145264;-1.786057472229004;94.4207763671875
107;1666160301.3943741;46.9755344;7.1803558;32.33100128173828;1666160301.5505261;-3.442234754562378;-1.6866430044174194;94.79558563232422
108;1666160301.612014;46.9755344;7.1803555999999995;32.92900085449219;1666160301.7574403;-2.0518665313720703;-1.2234728336334229;94.50885772705078
109;1666160301.8208783;46.9755344;7.1803552999999996;33.53000259399414;1666160301.9760695;-2.194912910461426;-1.4365789890289307;94.54239654541016
110;1666160302.036576;46.9755344;7.180355199999999;34.13199996948242;1666160302.187857;-1.1468011140823364;-1.8837074041366577;94.62211608886719
111;1666160302.253248;46.975534499999995;7.1803555;34.72700119018555;1666160302.3928163;1.7500853538513184;-1.0667157173156738;94.51143646240234
112;1666160302.4572341;46.975534499999995;7.1803558999999995;35.31500244140625;1666160302.6251085;2.459681272506714;-0.9480673670768738;94.42539978027344
113;1666160302.6856146;46.975534499999995;7.1803561;35.90400314331055;1666160302.842752;-0.36174967885017395;-1.41963791847229;94.38956451416016
114;1666160302.9013143;46.975534499999995;7.180356;36.496002197265625;1666160303.049664;-2.6095969676971436;-1.4656541347503662;94.2869873046875
115;1666160303.1091998;46.975534499999995;7.1803558999999995;37.086002349853516;1666160303.255599;-2.4532952308654785;-1.5264570713043213;94.68522644042969
116;1666160303.3131866;46.9755344;7.1803558;37.68100357055664;1666160303.46837;-1.9973284006118774;-1.1839535236358643;94.63318634033203
117;1666160303.53181;46.9755344;7.1803557;38.284000396728516;1666160303.6791859;-2.304549217224121;-1.1696268320083618;94.46073913574219
118;1666160303.7396955;46.9755344;7.1803555999999995;38.88600158691406;1666160303.880242;-1.8807663917541504;-1.1436083316802979;94.49748229980469
119;1666160303.9358737;46.9755344;7.1803558999999995;39.48100280761719;1666160304.0930116;1.5303386449813843;-1.4377042055130005;94.65869903564453
120;1666160304.1535213;46.9755344;7.1803563;40.07400131225586;1666160304.3028493;2.599297523498535;-1.3500231504440308;94.5298080444336
121;1666160304.3604343;46.9755344;7.1803564;40.669002532958984;1666160304.4990265;-1.1857669353485107;-1.1931945085525513;94.64310455322266
122;1666160304.562465;46.9755344;7.180356499999999;41.26000213623047;1666160304.7127705;-1.3572866916656494;-1.699549913406372;94.80764770507812
123;1666160304.7810912;46.9755343;7.180356499999999;41.85200119018555;1666160304.9313939;-0.5775114297866821;-1.4974662065505981;94.72128295898438
124;1666160305.009475;46.9755344;7.1803564;42.44900131225586;1666160305.1519709;-2.512230634689331;-1.352845549583435;94.32905578613281
125;1666160305.2124841;46.9755344;7.180356199999999;43.052001953125;1666160305.3969452;-2.488731622695923;-1.558983325958252;94.37905883789062
126;1666160305.448675;46.9755344;7.1803563;43.65300369262695;1666160305.5989778;1.6253567934036255;-0.8615496754646301;94.14276885986328
127;1666160305.657538;46.9755344;7.1803564;44.246002197265625;1666160305.8205311;-0.1028236374258995;-1.4771151542663574;94.49654388427734
128;1666160305.8732376;46.9755344;7.1803564;44.84800338745117;1666160306.0215871;-0.3682381808757782;-1.4548386335372925;94.3229751586914
129;1666160306.0762427;46.9755344;7.1803567;45.452003479003906;1666160306.2265463;2.075413942337036;-1.0352470874786377;94.54068756103516
130;1666160306.2860823;46.9755344;7.180356799999999;46.05800247192383;1666160306.4461474;-0.40188661217689514;-1.374809980392456;94.50141906738281
131;1666160306.5008051;46.9755344;7.1803566;46.66600036621094;1666160306.6472042;-3.869596481323242;-1.7014797925949097;94.55623626708984
132;1666160306.7106452;46.975534499999995;7.1803563;47.275001525878906;1666160306.8589947;-1.7992627620697021;-1.2672502994537354;94.66941833496094
133;1666160307.0151541;46.975534499999995;7.1803561;47.87800216674805;1666160307.1586297;-1.174628496170044;-1.381812572479248;94.78533935546875
134;1666160307.22109;46.975534499999995;7.1803561;48.47600173950195;1666160307.3635874;-1.5990791320800781;-1.544348955154419;94.68753051757812
135;1666160307.419218;46.975534499999995;7.180356;49.07100296020508;1666160307.5665958;0.37875011563301086;-1.5227763652801514;94.81501770019531
136;1666160307.6349149;46.975534499999995;7.1803561;49.66400146484375;1666160307.7881489;1.129492998123169;-0.965835452079773;94.50005340576172
137;1666160307.8476834;46.975534499999995;7.1803563;50.25400161743164;1666160307.9970136;0.39322343468666077;-0.9742080569267273;94.48509979248047
138;1666160308.0497155;46.975534499999995;7.180356199999999;50.84700393676758;1666160308.212709;-1.9579018354415894;-1.3233323097229004;94.6688232421875
139;1666160308.2771263;46.975534499999995;7.180356;51.44600296020508;1666160308.4196196;-2.267625570297241;-0.9978780150413513;94.5432357788086
140;1666160308.474279;46.975534499999995;7.1803558;52.0420036315918;1666160308.6362932;-2.7532904148101807;-1.3579260110855103;94.52330017089844
141;1666160308.6909478;46.975534499999995;7.1803555;52.643001556396484;1666160308.946196;-2.423654794692993;-1.657194972038269;94.61467742919922
142;1666160309.0177476;46.975534499999995;7.1803554;53.24700164794922;1666160309.1846435;-0.6384887099266052;-1.1432082653045654;94.72097778320312
143;1666160309.248083;46.975534499999995;7.1803555999999995;53.84600067138672;1666160309.4081504;0.694567084312439;-1.4109117984771729;94.52748107910156
144;1666160309.4657316;46.9755344;7.180356;54.441001892089844;1666160309.6092079;3.1582589149475098;-1.3945033550262451;94.44144439697266
145;1666160309.664377;46.9755344;7.180356199999999;55.03400421142578;1666160309.8166308;-0.15253899991512299;-1.4095720052719116;94.44400024414062
146;1666160309.8888617;46.9755344;7.180356;55.6140022277832;1666160310.0342867;-3.1859211921691895;-1.4711925983428955;94.37739562988281
147;1666160310.093823;46.9755344;7.180356;56.13600158691406;1666160310.2412004;-0.3636849820613861;-1.7083542346954346;94.46000671386719
148;1666160310.2978077;46.9755344;7.1803558999999995;56.596004486083984;1666160310.4490874;-2.259371757507324;-1.632989764213562;94.7093734741211
149;1666160310.5183828;46.9755344;7.1803555999999995;56.99400329589844;1666160310.6774728;-2.5050389766693115;-1.6384317874908447;94.98976135253906
150;1666160310.7336192;46.9755344;7.1803555;57.33400344848633;1666160310.8946593;-0.4608980417251587;-1.5571389198303223;94.942626953125
151;1666160310.958203;46.975534499999995;7.1803557;57.62000274658203;1666160311.1318254;0.7066991925239563;-1.351728916168213;94.3465805053711
152;1666160311.196767;46.975534499999995;7.1803558;57.85600280761719;1666160311.338283;1.1594204902648926;-1.4094878435134888;94.3962173461914
153;1666160311.3939135;46.975534499999995;7.180356;58.05500411987305;1666160311.655485;0.8050610423088074;-1.6454604864120483;94.1535415649414
154;1666160311.7140412;46.975534499999995;7.1803563;58.22500228881836;1666160311.8565402;1.5763511657714844;-2.9353818893432617;93.51554107666016
155;1666160311.9180279;46.975534599999996;7.180356199999999;58.375003814697266;1666160312.0732121;8.915797233581543;-14.741666793823242;86.98052978515625
156;1666160312.1288428;46.975535;7.1803555;58.509002685546875;1666160312.2781699;18.176326751708984;-28.022808074951172;76.6396255493164
157;1666160312.3279479;46.9755362;7.1803536;58.62200164794922;1666160312.492205;19.1680965423584;-35.57835006713867;66.60272216796875
158;1666160312.5488105;46.9755387;7.1803498999999995;58.68400192260742;1666160312.703019;10.929702758789062;-38.651302337646484;58.46056365966797
159;1666160312.7771945;46.975542399999995;7.1803441;58.68800354003906;1666160312.9128606;0.6479682326316833;-35.443172454833984;45.84258270263672
160;1666160312.9723969;46.9755471;7.1803368;58.67000198364258;1666160313.1227;-8.989985466003418;-36.110836029052734;33.965797424316406
161;1666160313.175403;46.9755526;7.180327999999999;58.67100143432617;1666160313.3208294;-16.742877960205078;-31.830053329467773;21.72324562072754
162;1666160313.3813412;46.975558899999996;7.1803175999999995;58.68400192260742;1666160313.5306704;-21.874195098876953;-26.05772590637207;10.268468856811523
163;1666160313.58923;46.975566;7.180306;58.70100402832031;1666160313.7414858;-24.982913970947266;-23.406936645507812;1.4263392686843872
164;1666160313.8029723;46.9755736;7.1802936;58.71900177001953;1666160313.960109;-28.20303726196289;-19.78618049621582;-7.089487075805664
165;1666160314.0294037;46.9755818;7.180280799999999;58.743003845214844;1666160314.1748285;-30.30522346496582;-14.801568984985352;-15.593003273010254
166;1666160314.2353404;46.9755903;7.180267499999999;58.763004302978516;1666160314.4754357;-31.823612213134766;-5.133280277252197;-20.944608688354492
167;1666160314.536928;46.9755993;7.1802537;58.775001525878906;1666160314.6794207;-32.801185607910156;-6.006416320800781;-9.287498474121094
168;1666160314.738958;46.975608699999995;7.1802398;58.781002044677734;1666160314.8834076;-30.9140567779541;-17.679594039916992;9.118724822998047
169;1666160314.9380622;46.9756188;7.180226299999999;58.78300094604492;1666160315.1030061;-27.18891716003418;-27.005447387695312;23.10379409790039
170;1666160315.1674206;46.9756296;7.180213299999999;58.788002014160156;1666160315.3138204;-23.509666442871094;-31.301488876342773;34.51238250732422
171;1666160315.3675003;46.9756411;7.180200699999999;58.79900360107422;1666160315.5392783;-18.45379638671875;-33.990177154541016;45.938819885253906
172;1666160315.5997906;46.9756534;7.180188299999999;58.81200408935547;1666160315.7413118;-9.8980131149292;-37.568389892578125;56.58238983154297
173;1666160315.7930393;46.975666399999994;7.1801759999999994;58.82100296020508;1666160315.9570093;-7.048254013061523;-38.63197326660156;51.528480529785156
174;1666160316.0145903;46.975679899999996;7.1801637;58.829002380371094;1666160316.1658707;-10.89123249053955;-39.90083312988281;33.600128173828125
175;1666160316.2263813;46.9756937;7.1801509999999995;58.84100341796875;1666160316.3874233;-17.74871063232422;-37.14607620239258;16.30942726135254
176;1666160316.438176;46.9757075;7.1801371;58.84800338745117;1666160316.5943356;-21.89240074157715;-31.58693504333496;3.291134834289551
177;1666160316.6548464;46.9757211;7.180122099999999;58.849002838134766;1666160316.798318;-25.160018920898438;-28.63233757019043;-5.403560161590576
178;1666160316.8724985;46.9757342;7.1801061;58.853004455566406;1666160317.0218222;-28.821603775024414;-25.38921546936035;-12.512828826904297
179;1666160317.0774543;46.975746799999996;7.1800893;58.858001708984375;1666160317.2248356;-32.61054611206055;-18.65546226501465;-20.452571868896484
180;1666160317.3009613;46.9757591;7.1800719;58.86100387573242;1666160317.44443;-35.39915084838867;-10.699662208557129;-28.328964233398438
181;1666160317.5010402;46.9757712;7.1800539;58.86100387573242;1666160317.647441;-37.040435791015625;-4.605447292327881;-35.76862335205078
182;1666160317.726499;46.975783199999995;7.1800356;58.85900115966797;1666160317.8738706;-37.4008674621582;-0.8046295642852783;-42.90543746948242
183;1666160317.942195;46.975795299999994;7.1800172;58.85400390625;1666160318.0895698;-37.39046859741211;3.958209991455078;-46.41855239868164
184;1666160318.1461773;46.975807599999996;7.1799988;58.85000228881836;1666160318.308193;-38.55125045776367;5.992466449737549;-43.58302307128906
185;1666160318.363826;46.9758201;7.1799807;58.845001220703125;1666160318.5131512;-40.31282424926758;7.011324882507324;-38.0098876953125
186;1666160318.5717118;46.975833099999996;7.1799627;58.83700180053711;1666160318.7249463;-41.83488082885742;2.2926177978515625;-25.727190017700195
187;1666160318.7815514;46.9758466;7.179945099999999;58.82500457763672;1666160318.935765;-42.264808654785156;-6.2704291343688965;-13.441349029541016
188;1666160318.9923716;46.9758608;7.1799281;58.81500244140625;1666160319.1553605;-41.28606033325195;-12.998625755310059;-3.968656063079834
189;1666160319.2178252;46.9758758;7.1799117;58.810001373291016;1666160319.359345;-38.91499328613281;-19.9024600982666;5.222563743591309
190;1666160319.420832;46.975891399999995;7.179895699999999;58.80900192260742;1666160319.5867524;-38.01759338378906;-23.51994514465332;-0.012367889285087585
191;1666160319.6433628;46.9759074;7.1798796;58.81200408935547;1666160319.785857;-39.107276916503906;-18.9548282623291;-16.67597007751465
192;1666160319.844419;46.975923599999994;7.1798627999999995;58.82200241088867;1666160319.9937484;-40.6750373840332;-12.148885726928711;-29.072267532348633
193;1666160320.0571887;46.9759397;7.1798452;58.83700180053711;1666160320.203585;-41.98504638671875;-6.914449691772461;-37.62532424926758
194;1666160320.260193;46.9759555;7.1798268;58.85400390625;1666160320.4134245;-42.415950775146484;-0.746189296245575;-45.82352828979492
195;1666160320.4983375;46.9759712;7.179807599999999;58.8650016784668;1666160320.6476657;-42.66218185424805;2.5142576694488525;-46.08097457885742
196;1666160320.7052486;46.9759866;7.1797879;58.871002197265625;1666160320.8506746;-42.664710998535156;4.528409481048584;-43.20431137084961
197;1666160320.912167;46.976002099999995;7.1797679;58.87800216674805;1666160321.0468493;-43.039615631103516;3.5681958198547363;-40.62267303466797
198;1666160321.1181026;46.9760178;7.1797479;58.88300323486328;1666160321.2645;-43.580467224121094;2.026460647583008;-40.105682373046875
199;1666160321.3240345;46.976033699999995;7.179727799999999;58.884002685546875;1666160321.476292;-43.70414352416992;1.9749029874801636;-40.17976379394531
200;1666160321.530945;46.9760498;7.1797075999999995;58.884002685546875;1666160321.6832025;-43.65735626220703;1.9183851480484009;-39.95793914794922
201;1666160321.7417636;46.9760661;7.1796872;58.88600158691406;1666160321.8910918;-43.56901550292969;3.079540967941284;-40.373294830322266
202;1666160321.9467213;46.9760825;7.1796668;58.88900375366211;1666160322.0901928;-43.41250991821289;2.441533088684082;-39.938804626464844
203;1666160322.1672976;46.9760992;7.179646399999999;58.89400100708008;1666160322.3215082;-43.4393310546875;1.5400714874267578;-40.233428955078125
204;1666160322.3732364;46.976115899999996;7.179626;58.90300369262695;1666160322.6299238;-43.38095474243164;1.2408685684204102;-40.268802642822266
205;1666160322.6875095;46.9761327;7.1796054;58.91400146484375;1666160322.8280501;-43.1862678527832;0.856080949306488;-39.99724197387695
206;1666160322.895396;46.9761495;7.1795848;58.923004150390625;1666160323.0466762;-43.021644592285156;1.0109769105911255;-40.07171630859375
207;1666160323.1071885;46.9761664;7.179564;58.92900466918945;1666160323.264326;-42.93122863769531;1.5824834108352661;-40.38396072387695
208;1666160323.3180032;46.9761832;7.1795431;58.936004638671875;1666160323.4595256;-42.895713806152344;1.9180927276611328;-40.50060272216797
209;1666160323.520035;46.9762001;7.1795222;58.941001892089844;1666160323.6703436;-42.8074951171875;1.5299931764602661;-40.22793197631836
210;1666160323.7337816;46.9762169;7.1795013;58.94700241088867;1666160323.8792036;-42.89335250854492;0.42325711250305176;-40.00338363647461
211;1666160323.9484992;46.976233799999996;7.1794803;58.9530029296875;1666160324.095877;-42.84769821166992;1.0788724422454834;-40.25627899169922
212;1666160324.1544378;46.9762507;7.1794592999999995;58.95600128173828;1666160324.3066952;-42.637847900390625;1.3674885034561157;-39.994258880615234
213;1666160324.3633006;46.9762675;7.1794382;58.96000289916992;1666160324.5292215;-42.509464263916016;1.8309177160263062;-40.1771240234375
214;1666160324.5799742;46.976284299999996;7.179417099999999;58.965003967285156;1666160324.729301;-42.317413330078125;2.520927906036377;-40.43795394897461
215;1666160324.7829797;46.976301199999995;7.179396;58.970001220703125;1666160324.9332876;-42.12510299682617;2.5473358631134033;-40.24250411987305
216;1666160324.9879425;46.976318;7.179374999999999;58.97300338745117;1666160325.1665494;-42.130409240722656;2.1916263103485107;-39.939334869384766
217;1666160325.2260852;46.9763348;7.1793542;58.974002838134766;1666160325.3640344;-40.82400894165039;2.2866930961608887;-39.68128967285156
218;1666160325.4206433;46.976351699999995;7.1793334;58.97300338745117;1666160325.5738742;-35.6644172668457;1.3225922584533691;-39.43959045410156
219;1666160325.6304817;46.9763684;7.1793131;58.967002868652344;1666160325.7759078;-29.109844207763672;0.6102306246757507;-39.62944793701172
220;1666160325.8383708;46.9763848;7.1792932;58.9630012512207;1666160325.9798906;-22.73817253112793;0.015036005526781082;-39.781761169433594
221;1666160326.039428;46.976400399999996;7.1792742;58.96200180053711;1666160326.1946518;-15.298123359680176;-1.1409835815429688;-38.40324020385742
222;1666160326.250317;46.976414999999996;7.179256199999999;58.96000289916992;1666160326.3928027;-7.168430805206299;3.0088396072387695;-40.12014389038086
223;1666160326.4581943;46.976428299999995;7.1792396;58.954002380371094;1666160326.6065464;-3.35239577293396;2.0612359046936035;-39.9970817565918
224;1666160326.6690078;46.9764403;7.179225;58.941001892089844;1666160326.828098;-1.5314942598342896;0.43955227732658386;-41.17051315307617
225;1666160326.8895845;46.976450799999995;7.1792123;58.926002502441406;1666160327.0369613;1.1022567749023438;1.025349736213684;-42.661109924316406
226;1666160327.0984507;46.9764602;7.1792015;58.90500259399414;1666160327.2482984;-2.1509323120117188;-3.2901394367218018;-41.991085052490234
227;1666160327.3097885;46.9764683;7.1791921;58.89200210571289;1666160327.4649696;-1.3009445667266846;-2.9903512001037598;-42.59428787231445
228;1666160327.5332923;46.9764754;7.179183699999999;58.884002685546875;1666160327.6728606;1.0867244005203247;-0.898064911365509;-43.06830596923828
229;1666160327.737277;46.9764815;7.1791762;58.880001068115234;1666160327.8846505;-0.07308757305145264;-1.999946117401123;-42.55475616455078
230;1666160327.9549267;46.976486799999996;7.1791694999999995;58.88200378417969;1666160328.1071813;-1.3125340938568115;1.0221660137176514;-43.1597900390625
231;1666160328.165739;46.9764914;7.1791635;58.88900375366211;1666160328.3101883;-2.949201822280884;1.4045047760009766;-43.67474365234375
232;1666160328.373626;46.976495299999996;7.1791583;58.89800262451172;1666160328.506366;-4.901325702667236;-0.21861743927001953;-44.24820327758789
233;1666160328.5737078;46.976498799999995;7.1791538;58.90400314331055;1666160328.7181566;-3.330247640609741;0.27934175729751587;-44.63848876953125
234;1666160328.7757401;46.976501899999995;7.1791497;58.90800094604492;1666160328.9289725;-2.64343523979187;0.11475633829832077;-44.4224739074707
235;1666160328.9865603;46.9765047;7.179145999999999;58.913002014160156;1666160329.1231954;-0.7654681205749512;-0.46893471479415894;-44.625221252441406
236;1666160329.1798027;46.9765072;7.1791427;58.91400146484375;1666160329.3349886;1.5630087852478027;0.4948651194572449;-44.473445892333984
237;1666160329.399405;46.9765094;7.1791396999999995;58.92000198364258;1666160329.5379968;3.4567413330078125;0.9175395965576172;-44.421875
238;1666160329.5994925;46.9765112;7.179137099999999;58.927001953125;1666160329.744913;1.801905870437622;0.8240364193916321;-44.414608001708984
239;1666160329.8015168;46.9765126;7.179135199999999;58.932003021240234;1666160329.9420621;-3.754690170288086;0.3561989963054657;-44.56978988647461
240;1666160330.0074549;46.9765137;7.1791336999999995;58.941001892089844;1666160330.1538532;-2.2587692737579346;0.3476274013519287;-44.533817291259766
241;1666160330.2114358;46.976514699999996;7.1791323;58.9530029296875;1666160330.3597898;2.5757827758789062;-0.7354291081428528;-44.45710754394531
242;1666160330.4183478;46.9765156;7.179131099999999;58.96400451660156;1666160330.556942;1.2409907579421997;-0.5717870593070984;-44.295677185058594
243;1666160330.6194048;46.9765164;7.1791301;58.980003356933594;1666160330.7609258;1.0499025583267212;1.3792580366134644;-44.615089416503906
244;1666160330.815588;46.976517099999995;7.179129;58.99700164794922;1666160330.9697883;-10.917387962341309;-0.45403924584388733;-48.42178726196289
245;1666160331.0293293;46.9765176;7.1791281;59.00700378417969;1666160331.1796303;-34.933265686035156;2.973682403564453;-52.08402633666992
246;1666160331.4490073;46.9765187;7.1791262;59.0150032043457;1666160331.5954053;-43.85546875;7.473743915557861;-54.19334030151367
247;1666160331.6539655;46.976521;7.1791222999999995;59.00200271606445;1666160331.8062236;-41.285884857177734;1.601917028427124;-51.47290802001953
248;1666160331.8647838;46.976524999999995;7.1791161;58.94400405883789;1666160332.011181;-29.357728958129883;-0.6569994688034058;-50.11455535888672
249;1666160332.0697408;46.976529899999996;7.1791082;58.87800216674805;1666160332.2141905;-28.403871536254883;1.9310787916183472;-49.83711624145508
250;1666160332.2678747;46.976535299999995;7.1790992;58.87000274658203;1666160332.4230554;-34.27206039428711;-0.568943440914154;-49.5756721496582
251;1666160332.472832;46.9765412;7.179088999999999;58.915000915527344;1666160332.6192307;-36.85380935668945;-0.7925935983657837;-50.41428756713867
252;1666160332.684624;46.9765478;7.1790775;58.974002838134766;1666160332.824191;-37.373451232910156;-0.5171244144439697;-50.352474212646484
253;1666160332.8808024;46.976555;7.1790647;59.03200149536133;1666160333.0223203;-35.9642219543457;1.4408903121948242;-50.89799499511719
254;1666160333.0847821;46.976562699999995;7.1790509;59.079002380371094;1666160333.2302063;-35.561729431152344;0.1782214194536209;-49.6202507019043
255;1666160333.284863;46.9765708;7.1790362;59.1150016784668;1666160333.4293132;-37.12569808959961;0.47083011269569397;-49.364051818847656
256;1666160333.4888487;46.9765794;7.179020899999999;59.14800262451172;1666160333.6391568;-36.816864013671875;2.1192448139190674;-49.81636047363281
257;1666160333.6986864;46.9765884;7.1790049;59.178001403808594;1666160333.8636346;-35.02760696411133;1.2196027040481567;-49.736167907714844
258;1666160333.9212227;46.9765977;7.1789885;59.2030029296875;1666160334.0607824;-36.20547103881836;0.7244123816490173;-49.39085006713867
259;1666160334.1154408;46.9766074;7.1789716;59.224002838134766;1666160334.2667189;-37.33450698852539;1.0820646286010742;-49.28865432739258
260;1666160334.3174708;46.9766173;7.1789545;59.2400016784668;1666160334.461921;-36.24619674682617;4.346953392028809;-51.07406997680664
261;1666160334.5214548;46.9766275;7.1789371;59.246002197265625;1666160334.664929;-35.96976089477539;3.218449354171753;-50.96806716918945
262;1666160334.7303274;46.9766379;7.178919499999999;59.246002197265625;1666160334.883554;-37.63493347167969;1.88334321975708;-50.72090148925781
263;1666160334.9362555;46.9766487;7.1789016;59.250003814697266;1666160335.0846083;-38.482913970947266;3.8031623363494873;-51.55790710449219
264;1666160335.1412172;46.9766597;7.1788834999999995;59.25400161743164;1666160335.2856636;-38.11942672729492;4.596680164337158;-52.03183364868164
265;1666160335.344224;46.976670899999995;7.178865099999999;59.256004333496094;1666160335.4867218;-38.66334533691406;4.316111087799072;-52.78514862060547
266;1666160335.5413778;46.9766824;7.178846399999999;59.25700378417969;1666160335.6975408;-39.235233306884766;2.7691736221313477;-53.06135559082031
267;1666160335.7521932;46.976694099999996;7.1788275;59.25200271606445;1666160335.9220161;-39.20404815673828;2.607635974884033;-53.13851547241211
268;1666160335.9747198;46.976706;7.1788083;59.24500274658203;1666160336.1269763;-38.86336135864258;4.154922962188721;-52.974517822265625
269;1666160336.1933444;46.9767181;7.178788699999999;59.24200439453125;1666160336.4363694;-39.147071838378906;-0.12812206149101257;-49.646751403808594
270;1666160336.4920013;46.9767302;7.1787687;59.24400329589844;1666160336.6335201;-39.283390045166016;-3.861323118209839;-46.74091720581055
271;1666160336.695011;46.9767423;7.1787484;59.24500274658203;1666160336.8423846;-39.20221710205078;-4.712828159332275;-45.54631423950195
272;1666160336.9009478;46.9767545;7.1787278;59.24200439453125;1666160337.047346;-39.19783020019531;-2.6681876182556152;-46.59278106689453
273;1666160337.1078572;46.9767667;7.178706999999999;59.233001708984375;1666160337.246453;-39.56071472167969;-0.4534786343574524;-47.87885665893555
274;1666160337.3089128;46.9767788;7.178685799999999;59.22300338745117;1666160337.443602;-39.752620697021484;-0.0829584077000618;-48.49502944946289
275;1666160337.4992385;46.976791;7.178664299999999;59.21600341796875;1666160337.6466107;-35.57829666137695;-0.5746452212333679;-48.99980163574219
276;1666160337.7032175;46.9768032;7.178642699999999;59.211002349853516;1666160337.8554747;-28.08928680419922;-1.9706249237060547;-48.813026428222656
277;1666160337.9072018;46.9768153;7.1786216;59.20100402832031;1666160338.060433;-20.367097854614258;-2.2059485912323;-49.13254928588867
278;1666160338.1180174;46.9768268;7.1786011;59.18400192260742;1666160338.263446;-11.595471382141113;0.09988880157470703;-50.036720275878906
279;1666160338.3268852;46.976837499999995;7.1785818;59.160003662109375;1666160338.4801178;-6.0273261070251465;0.22144193947315216;-49.28084182739258
280;1666160338.5318475;46.9768471;7.178564199999999;59.134002685546875;1666160338.6782444;-2.038311719894409;2.747760057449341;-50.49726486206055
281;1666160338.7328994;46.976855699999994;7.1785486999999994;59.10100173950195;1666160338.877349;-0.14252148568630219;0.32251688838005066;-49.382835388183594
282;1666160338.9349298;46.9768632;7.1785353;59.0680046081543;1666160339.104754;2.2295119762420654;2.4130773544311523;-50.32566833496094
283;1666160339.1525784;46.9768699;7.1785238;59.03900146484375;1666160339.2950754;0.9566017985343933;-2.3244903087615967;-48.96989440917969
284;1666160339.363396;46.976875799999995;7.1785137;59.02000427246094;1666160339.499061;3.584264039993286;2.779200553894043;-50.201995849609375
285;1666160339.5566423;46.9768809;7.1785049999999995;59.00300216674805;1666160339.697188;2.937875270843506;1.3747056722640991;-50.146331787109375
286;1666160339.7518427;46.9768853;7.178497699999999;58.99100112915039;1666160339.908006;-1.161275863647461;0.8091338872909546;-50.368072509765625
287;1666160339.9636376;46.9768891;7.1784913999999995;58.98100280761719;1666160340.2095864;-2.513352155685425;2.335759162902832;-50.415348052978516
288;1666160340.2681472;46.9768924;7.1784858;58.97600173950195;1666160340.4204032;-3.683481454849243;0.5741821527481079;-50.17629623413086
289;1666160340.4799438;46.976895299999995;7.178481199999999;58.97300338745117;1666160340.6185322;-3.7854886054992676;-0.5118680000305176;-50.6748046875
290;1666160340.6770947;46.976897799999996;7.1784772;58.970001220703125;1666160340.8147106;-0.8176860809326172;-0.8422112464904785;-51.2089958190918
291;1666160340.8688807;46.976900199999996;7.1784735;58.96800231933594;1666160341.0191896;1.9399068355560303;0.14997541904449463;-52.293514251708984
292;1666160341.0699399;46.9769022;7.1784702;58.96400451660156;1666160341.2104821;2.076291084289551;0.6129350066184998;-52.93020248413086
293;1666160341.271972;46.976903899999996;7.178467299999999;58.9630012512207;1666160341.4193454;-0.9279715418815613;0.31787052750587463;-53.476383209228516
294;1666160341.4847386;46.9769054;7.1784647999999995;58.961002349853516;1666160341.6369944;-1.4366039037704468;-0.3281993269920349;-53.48469543457031
295;1666160341.7004347;46.9769065;7.1784627;58.96000289916992;1666160341.84098;-0.31863898038864136;0.14185960590839386;-53.58737564086914
296;1666160341.8975906;46.976907399999995;7.1784609999999995;58.96400451660156;1666160342.0576515;1.3105933666229248;0.11993110924959183;-53.73347091674805
297;1666160342.1171863;46.9769083;7.1784595;58.96900177001953;1666160342.258707;2.9395828247070312;0.26066190004348755;-53.82827377319336
298;1666160342.3162913;46.976909;7.178458099999999;58.974002838134766;1666160342.4568374;1.5124090909957886;0.6860522627830505;-53.86780548095703
299;1666160342.5188413;46.9769096;7.178457;58.97900390625;1666160342.672074;1.051157832145691;4.487579345703125;-52.45851516723633
300;1666160342.7374656;46.9769101;7.1784563;58.99900436401367;1666160342.8760571;5.781027317047119;10.635644912719727;-45.03928756713867
301;1666160342.9336417;46.976910499999995;7.178456499999999;59.06200408935547;1666160343.0790656;5.888075828552246;11.07352066040039;-34.6170539855957
302;1666160343.1347008;46.976911;7.1784577;59.17000198364258;1666160343.2752433;-1.7900145053863525;13.576284408569336;-24.526081085205078
303;1666160343.3338013;46.976911799999996;7.1784599;59.33700180053711;1666160343.4841087;-10.875234603881836;12.897444725036621;-14.171399116516113
304;1666160343.5358403;46.976912899999995;7.178462799999999;59.54000473022461;1666160343.6910172;-10.712016105651855;11.78569221496582;-2.34458065032959
305;1666160343.7495794;46.9769146;7.178466299999999;59.78900146484375;1666160343.895003;-11.366683006286621;8.937231063842773;8.988653182983398
306;1666160343.956493;46.976917;7.1784704999999995;60.07200241088867;1666160344.1097252;-16.063867568969727;6.898473739624023;18.603755950927734
307;1666160344.1770678;46.976919699999996;7.1784753;60.375003814697266;1666160344.3254204;-19.832361221313477;8.379605293273926;27.908002853393555
308;1666160344.3878827;46.976922699999996;7.1784807;60.695003509521484;1666160344.5235498;-26.218631744384766;8.851475715637207;38.15104293823242
309;1666160344.5986981;46.9769262;7.1784871;61.02800369262695;1666160344.743148;-36.01836395263672;1.1775788068771362;49.19563293457031
310;1666160344.794875;46.976930499999995;7.1784953;61.37400436401367;1666160344.9461555;-40.06526565551758;-6.112657070159912;54.59517288208008
311;1666160345.0008116;46.9769359;7.1785052;61.71800231933594;1666160345.1442893;-37.70704650878906;-4.102837085723877;48.148014068603516
312;1666160345.2077255;46.9769425;7.1785165;62.04300308227539;1666160345.35315;-34.935821533203125;-0.31995144486427307;35.22263717651367
313;1666160345.4204912;46.9769503;7.1785286;62.35700225830078;1666160345.550301;-35.17551040649414;9.350852012634277;21.789836883544922
314;1666160345.607885;46.976959;7.178541399999999;62.65500259399414;1666160345.7699008;-34.50062561035156;14.288934707641602;12.64717960357666
315;1666160345.84115;46.976968299999996;7.178554699999999;62.93000411987305;1666160345.9836428;-30.633930206298828;20.176753997802734;3.402571678161621
316;1666160346.0392754;46.9769784;7.1785685;63.185001373291016;1666160346.1817727;-28.375059127807617;26.055463790893555;-4.002549171447754
317;1666160346.2413096;46.9769891;7.1785828;63.43400192260742;1666160346.399421;-28.375946044921875;26.179546356201172;4.539344787597656
318;1666160346.4560275;46.9770002;7.178598;63.69700241088867;1666160346.596576;-30.850584030151367;21.430795669555664;20.124141693115234
319;1666160346.663917;46.977011399999995;7.178614199999999;63.97200393676758;1666160346.816177;-33.0291862487793;14.306516647338867;31.894407272338867
320;1666160346.9655004;46.9770225;7.1786313999999996;64.26100158691406;1666160347.2143836;-35.230743408203125;8.226943969726562;39.280670166015625
321;1666160347.270012;46.9770337;7.1786492;64.55900573730469;1666160347.4193416;-37.21074676513672;0.07588503509759903;48.039371490478516
322;1666160347.4749746;46.977044899999996;7.1786676;64.85400390625;1666160347.6164942;-39.34058380126953;-3.859849452972412;50.27947235107422
323;1666160347.6828613;46.977056399999995;7.178686399999999;65.14500427246094;1666160347.8292627;-40.01767349243164;-4.588268756866455;43.454620361328125
324;1666160347.8966048;46.9770684;7.178705399999999;65.43500518798828;1666160348.041054;-41.145355224609375;1.1838254928588867;29.908723831176758
325;1666160348.099613;46.9770812;7.178724099999999;65.73200225830078;1666160348.2587051;-39.88740539550781;11.599902153015137;17.696271896362305
326;1666160348.321166;46.977094699999995;7.1787426;66.03900146484375;1666160348.459759;-34.49873733520508;15.730828285217285;15.953349113464355
327;1666160348.517341;46.977108799999996;7.1787611;66.34900665283203;1666160348.6686232;-37.814430236816406;12.662809371948242;29.568105697631836
328;1666160348.7262068;46.9771229;7.17878;66.64300537109375;1666160348.8726087;-39.78194808959961;5.112977504730225;44.004398345947266
329;1666160348.9292147;46.9771369;7.178799199999999;66.87200164794922;1666160349.0756176;-25.893104553222656;-1.1339313983917236;50.521976470947266
330;1666160349.1303058;46.9771505;7.1788183;67.0510025024414;1666160349.276672;-19.62791633605957;-0.922837495803833;47.22270584106445
331;1666160349.3332787;46.977163499999996;7.1788365;67.21700286865234;1666160349.4826078;-16.521766662597656;-0.34943947196006775;45.11907196044922
332;1666160349.5440955;46.977175599999995;7.1788536;67.37000274658203;1666160349.6807342;-7.723501682281494;0.08420729637145996;44.3876838684082
333;1666160349.7422247;46.9771869;7.178869499999999;67.52100372314453;1666160349.8925285;0.5582045316696167;0.6286845803260803;44.133968353271484
334;1666160349.9471831;46.977197;7.1788837999999995;67.67200469970703;1666160350.0965123;0.0044264961034059525;1.2892330884933472;43.91529083251953
335;1666160350.1580045;46.9772057;7.178896099999999;67.81900024414062;1666160350.3083081;0.32263439893722534;-1.683782696723938;44.086578369140625
336;1666160350.3600335;46.9772132;7.178906899999999;67.96400451660156;1666160350.5054622;2.075443744659424;-2.76131534576416;43.66718292236328
337;1666160350.5581968;46.9772197;7.1789162;68.1030044555664;1666160350.7055345;3.1880686283111572;0.8568201065063477;42.1337776184082
338;1666160350.7611668;46.9772253;7.1789241;68.22500610351562;1666160350.912449;1.0236561298370361;3.1013636589050293;41.950809478759766
339;1666160350.9651537;46.9772302;7.1789311;68.32600402832031;1666160351.111553;2.6470794677734375;1.1998261213302612;42.59909439086914
340;1666160351.167183;46.9772344;7.1789371;68.40800476074219;1666160351.3155377;-1.0464104413986206;-2.5610203742980957;44.20995330810547
341;1666160351.3721428;46.9772379;7.178941999999999;68.48100280761719;1666160351.5136652;-4.973597049713135;0.948912501335144;44.192466735839844
342;1666160351.572223;46.977241;7.1789463;68.55400085449219;1666160351.7186234;-3.5964431762695312;0.46687936782836914;44.60966873168945
343;1666160351.7771878;46.977243699999995;7.1789502;68.62100219726562;1666160351.9235852;-0.5099894404411316;0.6050021648406982;44.58586120605469
344;1666160351.97922;46.9772463;7.1789539;68.677001953125;1666160352.2368824;1.7143117189407349;1.477335810661316;44.17330551147461
345;1666160352.2895844;46.977248499999995;7.178957199999999;68.7280044555664;1666160352.4379382;2.5454299449920654;-1.8229097127914429;43.395957946777344
346;1666160352.4945447;46.977250399999996;7.17896;68.77000427246094;1666160352.6448483;-0.3683534264564514;-0.9092573523521423;42.751136779785156
347;1666160352.709267;46.9772521;7.1789621;68.80500030517578;1666160352.8546927;-4.657278537750244;2.321303367614746;42.126304626464844
348;1666160352.9142265;46.977253399999995;7.178963899999999;68.83900451660156;1666160353.0781958;0.8225531578063965;-1.1306781768798828;42.522098541259766
349;1666160353.1377285;46.9772545;7.1789656;68.86900329589844;1666160353.285105;1.136160969734192;-2.9645488262176514;42.84248733520508
350;1666160353.337809;46.9772556;7.178967;68.89500427246094;1666160353.4871378;1.187332272529602;2.311793088912964;42.529319763183594
351;1666160353.5437448;46.977256499999996;7.1789682;68.91699981689453;1666160353.6960058;2.1068830490112305;4.486589431762695;41.902217864990234
352;1666160353.7643244;46.9772573;7.178969299999999;68.93700408935547;1666160353.9229522;-0.7513883113861084;-0.1846739947795868;42.59972381591797
353;1666160353.9785862;46.9772578;7.178970199999999;68.95500183105469;1666160354.126939;-6.614107608795166;13.645797729492188;46.00689697265625
354;1666160354.1845217;46.977258;7.178971199999999;68.98200225830078;1666160354.3358006;-3.8819148540496826;29.445770263671875;55.62751388549805
355;1666160354.4002156;46.977257599999994;7.1789733;69.00300598144531;1666160354.546617;-8.338083267211914;33.154457092285156;66.24237823486328
356;1666160354.6090827;46.977256;7.178976899999999;69.00300598144531;1666160354.762315;-22.117755889892578;30.76030158996582;76.29955291748047
357;1666160354.8238041;46.9772531;7.1789819999999995;68.98699951171875;1666160354.9760575;-30.502954483032227;23.277481079101562;89.73309326171875
358;1666160355.035592;46.977249099999995;7.178988599999999;68.95800018310547;1666160355.1819916;-31.369977951049805;18.534305572509766;101.66065979003906
359;1666160355.2434802;46.9772439;7.1789967;68.91200256347656;1666160355.381097;-29.516496658325195;12.611963272094727;111.42801666259766
360;1666160355.4435635;46.9772379;7.1790061;68.87800598144531;1666160355.5811765;-31.728853225708008;4.793625831604004;121.75072479248047
361;1666160355.6485217;46.9772312;7.1790164999999995;68.89600372314453;1666160355.7929688;-33.195404052734375;-0.6456388831138611;130.76307678222656
362;1666160355.8525043;46.9772239;7.1790278999999995;68.9330062866211;1666160355.9989064;-35.75544357299805;-4.701215744018555;136.8084259033203
363;1666160356.0662494;46.9772162;7.1790403;68.96700286865234;1666160356.2204573;-37.49594497680664;-4.061390399932861;135.35507202148438
364;1666160356.2858489;46.9772082;7.1790537;68.99800109863281;1666160356.4224896;-36.476444244384766;-2.8404088020324707;132.67941284179688
365;1666160356.4888573;46.9771997;7.179068;69.0250015258789;1666160356.6333053;-37.13045120239258;-2.2273058891296387;131.38668823242188
366;1666160356.6918666;46.977190799999995;7.1790832;69.04700469970703;1666160356.8490028;-39.563507080078125;-1.5848724842071533;130.89039611816406
367;1666160356.9046361;46.977181599999994;7.1790992;69.06400299072266;1666160357.0432293;-39.32828140258789;-1.0246117115020752;130.6542510986328
368;1666160357.096907;46.9771721;7.179116;69.0770034790039;1666160357.2423337;-39.162288665771484;-0.8221604824066162;130.7066192626953
369;1666160357.29601;46.977162199999995;7.1791335;69.08399963378906;1666160357.4511962;-41.24860763549805;-0.42583245038986206;130.705322265625
370;1666160357.511708;46.977152;7.1791516;69.09200286865234;1666160357.6522512;-41.202903747558594;-0.0682048499584198;130.75082397460938
371;1666160357.711787;46.9771414;7.179170399999999;69.0979995727539;1666160357.8630662;-41.07466125488281;-0.051275983452796936;130.87037658691406
372;1666160357.9274852;46.9771305;7.179189699999999;69.10100555419922;1666160358.070954;-41.883846282958984;0.18101410567760468;130.75656127929688
373;1666160358.131466;46.977119099999996;7.1792095;69.10100555419922;1666160358.2749417;-41.813880920410156;0.2603950500488281;130.69728088378906
374;1666160358.330576;46.977107499999995;7.1792298;69.10100555419922;1666160358.4847796;-41.457035064697266;0.3735896348953247;130.6448516845703
375;1666160358.553104;46.9770956;7.179250499999999;69.1030044555664;1666160358.6916919;-41.805606842041016;0.3568364679813385;130.6309051513672
376;1666160358.7502537;46.9770835;7.1792715;69.10400390625;1666160358.8937244;-42.031211853027344;0.560451328754425;130.5727081298828
377;1666160358.9532585;46.9770713;7.1792928;69.10400390625;1666160359.0967321;-42.0316162109375;0.5265713334083557;130.63082885742188
378;1666160359.1533387;46.9770587;7.179314499999999;69.10200500488281;1666160359.30755;-42.27952194213867;0.2882252037525177;130.64772033691406
379;1666160359.3592758;46.977046;7.1793363999999995;69.10000610351562;1666160359.5134866;-42.462520599365234;1.4771432876586914;130.30816650390625
380;1666160359.5710669;46.9770331;7.1793586;69.0979995727539;1666160359.716494;-42.546142578125;0.8862142562866211;130.8994140625
381;1666160359.774077;46.977019999999996;7.1793809;69.09600067138672;1666160359.917548;-42.72747039794922;0.3778396248817444;130.56297302246094
382;1666160359.979035;46.9770068;7.179403499999999;69.09200286865234;1666160360.126412;-39.37162399291992;0.9090972542762756;130.37933349609375
383;1666160360.1800926;46.9769935;7.1794261;69.08399963378906;1666160360.327472;-32.09336471557617;0.3178178071975708;130.6314239501953
384;1666160360.3831015;46.9769803;7.1794486;69.06999969482422;1666160360.5363326;-25.2791748046875;-0.2760458290576935;130.26361083984375
385;1666160360.5935109;46.9769675;7.179470299999999;69.04500579833984;1666160360.7389388;-18.239652633666992;-0.13657163083553314;130.06971740722656
386;1666160360.79652;46.9769554;7.179490899999999;69.01700592041016;1666160360.9575603;-10.969223022460938;-0.16836608946323395;130.15597534179688
387;1666160361.014863;46.9769442;7.1795101;68.98699951171875;1666160361.173193;-5.262467861175537;-0.1431613564491272;130.0001983642578
388;1666160361.2264776;46.9769341;7.1795274;68.96500396728516;1666160361.3728783;7.421016216278076;-0.37115010619163513;130.09410095214844
389;1666160361.42851;46.9769254;7.1795424;68.94000244140625;1666160361.5885773;4.341910362243652;-0.19934949278831482;129.9756622314453
390;1666160361.6598227;46.9769182;7.179555;68.91500091552734;1666160361.7993927;2.1687498092651367;0.17485776543617249;130.23988342285156
391;1666160361.8540466;46.9769121;7.1795656;68.90800476074219;1666160361.9936178;1.9831948280334473;1.062404990196228;130.5884552001953
392;1666160362.0629125;46.976906799999995;7.179574799999999;68.91400146484375;1666160362.206384;1.2333931922912598;1.4363040924072266;130.82470703125
393;1666160362.264944;46.9769022;7.1795826;68.92400360107422;1666160362.4074385;-0.14531168341636658;-3.344385862350464;131.03453063964844
394;1666160362.4620943;46.9768982;7.179589399999999;68.93400573730469;1666160362.6124005;-2.136038303375244;1.4819369316101074;129.4869384765625
395;1666160362.671935;46.9768948;7.1795952;68.94600677490234;1666160362.8144326;-6.122316360473633;-0.7801903486251831;129.00550842285156
396;1666160362.8739674;46.9768918;7.1796004;68.95500183105469;1666160363.0262227;-5.462836742401123;0.4681489169597626;128.52976989746094
397;1666160363.087716;46.976889;7.179605199999999;68.96100616455078;1666160363.2370439;-2.3680567741394043;0.6769962906837463;128.6251983642578
398;1666160363.2975519;46.9768866;7.1796096;68.96900177001953;1666160363.4459069;0.48175477981567383;-0.3486141562461853;128.9901885986328
399;1666160363.498608;46.9768842;7.1796137;68.97500610351562;1666160363.6411064;2.880349636077881;-0.21048177778720856;128.91531372070312
400;1666160363.7035687;46.9768821;7.179617299999999;68.9800033569336;1666160363.8411837;2.707792043685913;-2.1662795543670654;128.94212341308594
401;1666160363.8948667;46.9768804;7.1796202;68.98200225830078;1666160364.0422409;-1.7306548357009888;-0.6640198826789856;128.86012268066406
402;1666160364.095922;46.9768791;7.1796226999999995;68.98200225830078;1666160364.2442756;-2.209798812866211;1.626085638999939;128.4782257080078
403;1666160364.3047843;46.9768781;7.1796248;68.98400115966797;1666160364.4550905;0.8996675610542297;2.6876609325408936;128.7958221435547
404;1666160364.5107198;46.9768772;7.1796267;68.98900604248047;1666160364.6561446;2.12369704246521;3.1993038654327393;129.72987365722656
405;1666160364.7098246;46.9768762;7.1796283;68.99300384521484;1666160364.8601298;1.3539059162139893;-0.7525041699409485;130.22117614746094
406;1666160364.9138103;46.976875299999996;7.1796297;68.99400329589844;1666160365.0631397;3.2301547527313232;0.7859645485877991;130.2950439453125
407;1666160365.1187685;46.976874599999995;7.1796307;68.99200439453125;1666160365.2739556;-0.6586776971817017;3.4118707180023193;131.71392822265625
408;1666160365.3276346;46.976874099999996;7.1796314;68.96900177001953;1666160365.4798899;0.6891621351242065;9.278985977172852;138.48886108398438
409;1666160365.5394294;46.9768736;7.1796316;68.85000610351562;1666160365.6916852;2.71064829826355;11.34953784942627;149.9871063232422
410;1666160365.747315;46.9768731;7.1796313;68.66699981689453;1666160365.894691;-4.266755104064941;22.52292823791504;159.6180419921875
411;1666160365.9483693;46.976872199999995;7.1796299999999995;68.4780044555664;1666160366.0947711;-14.767462730407715;34.810733795166016;168.51426696777344
412;1666160366.1523535;46.9768705;7.1796272;68.28700256347656;1666160366.297777;-28.60307502746582;28.96761703491211;178.29444885253906
413;1666160366.356341;46.976867899999995;7.1796222;68.09200286865234;1666160366.509572;-31.9979190826416;20.955787658691406;-165.77178955078125
414;1666160366.5652032;46.9768641;7.179615399999999;67.9050064086914;1666160366.7145326;-32.09635543823242;11.995597839355469;-152.9076385498047
415;1666160366.7721176;46.976859399999995;7.179606799999999;67.73100280761719;1666160366.9155865;-32.86525344848633;5.258380889892578;-145.84007263183594
416;1666160366.974147;46.9768538;7.179596999999999;67.56500244140625;1666160367.1225035;-29.44614601135254;-0.3043200671672821;-138.69131469726562
417;1666160367.1781313;46.9768476;7.1795867;67.40400695800781;1666160367.3186758;-26.71550178527832;-7.552915096282959;-130.84239196777344
418;1666160367.379187;46.9768409;7.1795762;67.24800109863281;1666160367.5207074;-22.7486629486084;-9.014005661010742;-129.9252471923828
