;pos_time;latitude;longitude;altitude;alt_time;pitch;roll;yaw
0;1666166291.2605283;46.9755348;7.1803558999999995;-0.12000000476837158;1666166291.3991203;-0.4561726748943329;-0.20788830518722534;92.19351196289062
1;1666166291.4645147;46.9755348;7.1803558999999995;-0.11300000548362732;1666166291.5992007;0.12574687600135803;0.10849330574274063;92.04014587402344
2;1666166291.6782591;46.9755347;7.1803558999999995;-0.10300000756978989;1666166291.825633;-0.0929177924990654;-0.11949478089809418;91.9945297241211
3;1666166291.8910248;46.9755347;7.1803558999999995;-0.10000000149011612;1666166292.050113;0.050399355590343475;-0.49483752250671387;92.22490692138672
4;1666166292.1116033;46.9755347;7.180356;-0.10400000214576721;1666166292.267763;-0.08614811301231384;-0.6523414254188538;92.40249633789062
5;1666166292.3263211;46.9755347;7.180356;-0.10500000417232513;1666166292.4678423;-0.6020342111587524;-0.522999107837677;92.33277893066406
6;1666166292.5342104;46.9755347;7.180356;-0.10100000351667404;1666166292.6728039;-0.24548131227493286;-0.7059541940689087;92.31855773925781
7;1666166292.7342942;46.9755347;7.180356;-0.0990000069141388;1666166292.8826413;-0.1973254531621933;-0.58555006980896;92.14775085449219
8;1666166292.9656034;46.9755347;7.180356;-0.10000000149011612;1666166293.0944338;-0.5081089735031128;-0.6107510924339294;92.29702758789062
9;1666166293.167636;46.9755348;7.180356;-0.10400000214576721;1666166293.3267229;-0.471820205450058;-0.47636136412620544;92.32084655761719
10;1666166293.3911383;46.9755349;7.180356;-0.10300000756978989;1666166293.5268035;-0.40148916840553284;-0.5263844132423401;92.25111389160156
11;1666166293.6214747;46.9755349;7.180356;-0.0990000069141388;1666166293.7488644;-0.2949562966823578;-0.31177473068237305;92.31021881103516
12;1666166293.8191366;46.9755349;7.180356;-0.0950000062584877;1666166293.9489458;-0.04028186947107315;-0.4883171319961548;92.11739349365234
13;1666166294.0182436;46.9755349;7.180356;-0.09200000762939453;1666166294.1539073;-0.07435958832502365;-0.5276272296905518;92.26605987548828
14;1666166294.2251537;46.9755348;7.180356;-0.09100000560283661;1666166294.3774087;-0.40891894698143005;-0.23148958384990692;92.34830474853516
15;1666166294.4496343;46.9755349;7.180356;-0.003000000026077032;1666166294.5882254;-0.34234127402305603;-0.5429984331130981;92.40190887451172
16;1666166294.6584966;46.9755349;7.1803561;-0.007000000216066837;1666166294.81954;6.080469029257074e-05;-0.4515742063522339;92.34723663330078
17;1666166294.881025;46.9755349;7.1803561;-0.00800000037997961;1666166295.0391374;-0.274247944355011;-0.4664897918701172;92.4248275756836
18;1666166295.1006255;46.9755349;7.1803561;0.0010000000474974513;1666166295.2480037;-0.27780643105506897;-0.6646623015403748;92.49201965332031
19;1666166295.3007054;46.9755349;7.180356199999999;0.0010000000474974513;1666166295.4529634;-0.4773692190647125;-0.5079862475395203;92.44567108154297
20;1666166295.5056655;46.9755349;7.180356199999999;0.003000000026077032;1666166295.6721005;-0.05607594922184944;-0.41379496455192566;92.26824188232422
21;1666166295.7374926;46.9755349;7.180356199999999;0.006000000052154064;1666166295.8936527;-0.20923227071762085;-0.3212396502494812;92.31232452392578
22;1666166295.954167;46.9755349;7.180356199999999;0.005000000353902578;1666166296.1073987;-0.13867715001106262;-0.4391547441482544;92.37779235839844
23;1666166296.1620555;46.975535;7.180356199999999;0.0;1666166296.4333825;-0.029719112440943718;-0.3159899115562439;92.27144622802734
24;1666166296.4909647;46.975535;7.180356199999999;0.0020000000949949026;1666166296.67055;-0.012345125898718834;-0.37132853269577026;92.2919692993164
25;1666166296.7300875;46.9755349;7.180356199999999;0.004000000189989805;1666166296.9240928;0.09360702335834503;-0.18853038549423218;92.0562744140625
26;1666166296.972223;46.9755349;7.180356199999999;0.006000000052154064;1666166297.124992;1.0930382013320923;-2.1923882961273193;91.88748931884766
27;1666166297.1835504;46.9755348;7.180356199999999;0.02200000174343586;1666166297.328974;0.618124783039093;-0.8747209310531616;92.10272216796875
28;1666166297.3894887;46.9755347;7.1803561;0.0560000017285347;1666166297.5427184;1.8665742874145508;1.2353339195251465;91.90275573730469
29;1666166297.5944505;46.975534599999996;7.1803558;0.1120000034570694;1666166297.7340155;0.7377696633338928;1.070087194442749;91.32049560546875
30;1666166297.788673;46.9755344;7.1803555;0.18300001323223114;1666166297.9443705;-3.34189772605896;-0.9846148490905762;91.24376678466797
31;1666166298.0039048;46.9755342;7.1803554;0.2720000147819519;1666166298.1532345;-0.9525232911109924;-0.8252202868461609;91.03550720214844
32;1666166298.204966;46.9755341;7.1803554;0.38100001215934753;1666166298.3689303;3.809532642364502;-2.0912742614746094;90.49581146240234
33;1666166298.429441;46.9755341;7.1803554;0.5120000243186951;1666166298.5758412;0.11004862934350967;-0.8565425872802734;90.0307388305664
34;1666166298.6383064;46.9755342;7.1803555;0.659000039100647;1666166298.786658;-1.8160548210144043;0.6070046424865723;89.6995849609375
35;1666166298.8491218;46.9755343;7.1803554;0.831000030040741;1666166298.9964976;0.8591737747192383;-0.2271503061056137;89.518798828125
36;1666166299.054083;46.975534499999995;7.1803554;1.040000081062317;1666166299.2326922;-0.7519319653511047;-0.8376260995864868;89.12615966796875
37;1666166299.279539;46.975534499999995;7.1803555;1.2740000486373901;1666166299.4249628;0.43174123764038086;-0.446774423122406;88.56620788574219
38;1666166299.4727871;46.975534599999996;7.1803555999999995;1.5280001163482666;1666166299.6474972;3.1143388748168945;0.009239844046533108;89.13471221923828
39;1666166299.7021458;46.9755347;7.1803557;1.7980000972747803;1666166299.8485458;1.1773381233215332;-0.844150960445404;88.32795715332031
40;1666166299.900276;46.9755348;7.1803555999999995;2.0889999866485596;1666166300.0388677;-1.9976364374160767;0.1654016673564911;87.76004791259766
41;1666166300.0886452;46.9755349;7.1803555999999995;2.3960001468658447;1666166300.2516348;-0.4535483419895172;-0.31340283155441284;87.7550048828125
42;1666166300.303364;46.9755349;7.1803555;2.7150001525878906;1666166300.4605;0.40338531136512756;-0.5786993503570557;88.13435363769531
43;1666166300.5141847;46.975535;7.1803557;3.0310001373291016;1666166300.6722918;-1.02377188205719;-0.12783552706241608;88.33667755126953
44;1666166300.7201154;46.975535099999995;7.1803558;3.3460001945495605;1666166300.8909159;1.9497296810150146;-0.07026293128728867;88.46406555175781
45;1666166300.9533808;46.975535199999996;7.1803558999999995;3.6670000553131104;1666166301.0939243;0.021849920973181725;0.31013843417167664;88.34801483154297
46;1666166301.1437004;46.9755353;7.1803561;3.9870002269744873;1666166301.2959561;-1.2534807920455933;0.009179996326565742;87.83435821533203
47;1666166301.3467083;46.9755354;7.180356199999999;4.301000118255615;1666166301.4989629;2.886531352996826;-0.1397686004638672;88.17530059814453
48;1666166301.5487397;46.9755355;7.180356199999999;4.621000289916992;1666166301.6892836;3.1766769886016846;0.3888087272644043;88.22010040283203
49;1666166301.7410133;46.9755356;7.180356;4.943000316619873;1666166301.9069312;-1.7446627616882324;0.733353316783905;88.60853576660156
50;1666166301.98111;46.975535699999995;7.1803558999999995;5.270000457763672;1666166302.1333652;-2.140495777130127;0.8532113432884216;88.51947784423828
51;1666166302.1899717;46.975535799999996;7.180356;5.5970001220703125;1666166302.3812683;1.107780933380127;0.7687390446662903;88.48916625976562
52;1666166302.437876;46.975535799999996;7.180356199999999;5.9210004806518555;1666166302.6047733;1.4593796730041504;1.107515811920166;88.12557220458984
53;1666166302.6672394;46.975535699999995;7.1803563;6.241000175476074;1666166302.8136375;0.32193565368652344;-0.5507941246032715;88.12692260742188
54;1666166302.8595088;46.975535699999995;7.180356199999999;6.563000202178955;1666166303.0332391;-0.45681288838386536;0.510028064250946;88.00411224365234
55;1666166303.0869186;46.975535699999995;7.1803561;6.88200044631958;1666166303.2421024;-1.1653655767440796;1.6147918701171875;88.0638198852539
56;1666166303.3035886;46.975535699999995;7.1803563;7.195000171661377;1666166303.4685347;1.322900652885437;2.032000780105591;88.03356170654297
57;1666166303.5378304;46.9755356;7.1803564;7.514000415802002;1666166303.694967;2.666731119155884;0.4520834684371948;88.19718170166016
58;1666166303.7584045;46.9755355;7.1803564;7.836000442504883;1666166303.9174943;-1.0146641731262207;-0.8332906365394592;87.93987274169922
59;1666166303.9692235;46.9755354;7.180356499999999;8.151000022888184;1666166304.1234303;-0.39108797907829285;0.3084458112716675;87.58829498291016
60;1666166304.181013;46.975535199999996;7.1803566;8.470000267028809;1666166304.339128;2.9182729721069336;-0.7745080590248108;87.67644500732422
61;1666166304.3947592;46.975535099999995;7.1803566;8.792000770568848;1666166304.552877;1.2462849617004395;-1.6526153087615967;87.98834228515625
62;1666166304.6026454;46.975535;7.1803566;9.117000579833984;1666166304.758816;-1.0358229875564575;-0.5955140590667725;87.73416137695312
63;1666166304.8105333;46.975535099999995;7.180356499999999;9.442000389099121;1666166304.9627917;0.7169368267059326;0.45178940892219543;87.66852569580078
64;1666166305.0291593;46.975535199999996;7.1803564;9.765000343322754;1666166305.1960557;2.1546826362609863;0.22456979751586914;87.81027221679688
65;1666166305.2380252;46.9755353;7.1803563;10.085000038146973;1666166305.3932106;-1.2325466871261597;1.3088082075119019;87.84233856201172
66;1666166305.4420078;46.9755354;7.1803561;10.417000770568848;1666166305.6040254;0.9324040412902832;0.3345833122730255;88.3592758178711
67;1666166305.656729;46.9755353;7.1803558;10.856000900268555;1666166305.8060558;0.04451197013258934;1.596803069114685;88.50312805175781
68;1666166305.8655915;46.975535199999996;7.1803558;11.428000450134277;1666166306.015897;-1.7653441429138184;1.2540990114212036;88.175537109375
69;1666166306.0705502;46.975535099999995;7.1803558999999995;12.028000831604004;1666166306.2286646;0.22773924469947815;-0.9686153531074524;88.55593872070312
70;1666166306.2755132;46.975535;7.180356;12.624000549316406;1666166306.438504;2.013888359069824;-0.5967153310775757;88.37220764160156
71;1666166306.4912086;46.975535;7.1803563;13.224000930786133;1666166306.6395602;-0.10829359292984009;-0.6004496216773987;88.10796356201172
72;1666166306.6912885;46.975535099999995;7.1803564;13.818000793457031;1666166306.8464735;0.3685968816280365;0.02874855510890484;88.15040588378906
73;1666166306.899175;46.975535199999996;7.1803564;14.415000915527344;1666166307.0465515;0.4109688401222229;1.39972984790802;88.33274841308594
74;1666166307.1021852;46.9755353;7.1803564;15.01400089263916;1666166307.2524884;-1.9519829750061035;1.1602879762649536;88.02913665771484
75;1666166307.3051934;46.9755353;7.1803566;15.608000755310059;1666166307.4545217;0.8652918338775635;0.22794201970100403;87.77880096435547
76;1666166307.50625;46.9755353;7.1803569;16.201000213623047;1666166307.6682658;3.2208054065704346;0.4297511577606201;87.41856384277344
77;1666166307.719019;46.9755353;7.180357099999999;16.797000885009766;1666166307.8644402;-0.6984775066375732;0.4058739244937897;87.73184204101562
78;1666166307.9151943;46.9755353;7.1803571999999996;17.393001556396484;1666166308.0723298;-0.4361684322357178;-0.6800693869590759;87.98605346679688
79;1666166308.1221054;46.9755353;7.180357099999999;17.986000061035156;1666166308.2948582;2.2111825942993164;0.16122862696647644;87.60044860839844
80;1666166308.356345;46.9755354;7.180357;18.569000244140625;1666166308.505677;0.32246923446655273;0.8195751905441284;88.11453247070312
81;1666166308.5700881;46.9755355;7.180357;19.154001235961914;1666166308.7389398;0.476636677980423;0.8083543181419373;88.39088439941406
82;1666166308.7838326;46.9755356;7.1803569;19.73900032043457;1666166308.9517105;1.02204167842865;2.329474449157715;88.02913665771484
83;1666166308.9975772;46.9755356;7.180356799999999;20.317001342773438;1666166309.185945;-0.13597996532917023;1.772838830947876;88.16473388671875
84;1666166309.232793;46.9755356;7.1803569;20.893001556396484;1666166309.4123785;0.2755565643310547;0.144139364361763;88.65188598632812
85;1666166309.4582493;46.9755355;7.1803567;21.468000411987305;1666166309.6144106;0.9082920551300049;-0.7310273051261902;88.46578979492188
86;1666166309.6651642;46.9755354;7.180356499999999;22.041000366210938;1666166309.8232753;-1.362492322921753;0.014792500995099545;88.01408386230469
87;1666166309.8710976;46.9755353;7.180356499999999;22.61400032043457;1666166310.0340922;-2.1859817504882812;0.5296016335487366;88.11785125732422
88;1666166310.088748;46.9755354;7.1803567;23.18800163269043;1666166310.2400255;3.189333438873291;0.7444782853126526;88.21979522705078
89;1666166310.2858975;46.9755354;7.1803569;23.76500129699707;1666166310.433275;3.6451168060302734;1.0455511808395386;88.03941345214844
90;1666166310.486956;46.9755354;7.1803569;24.339000701904297;1666166310.6411633;-1.5026170015335083;1.0797779560089111;87.78466796875
91;1666166310.693869;46.9755354;7.180356799999999;24.916000366210938;1666166310.8392913;-0.9527308940887451;0.17097370326519012;87.94355773925781
92;1666166310.8939483;46.9755353;7.1803566;25.496000289916992;1666166311.0422988;0.49242764711380005;0.6775015592575073;87.7310791015625
93;1666166311.095005;46.9755353;7.1803567;26.073001861572266;1666166311.252141;0.6172406077384949;-0.6787116527557373;88.039306640625
94;1666166311.2980149;46.9755353;7.1803567;26.648000717163086;1666166311.4522214;0.1298988312482834;1.4339765310287476;87.56639099121094
95;1666166311.5049248;46.9755354;7.1803567;27.224000930786133;1666166311.6503472;-1.4790335893630981;1.0577006340026855;87.86326599121094
96;1666166311.7011015;46.9755354;7.1803569;27.8070011138916;1666166311.854333;-0.7444158792495728;0.2433064579963684;88.12947082519531
97;1666166311.9060616;46.9755355;7.1803571999999996;28.38800048828125;1666166312.051484;3.788264751434326;0.48945778608322144;88.0460433959961
98;1666166312.102235;46.9755354;7.1803571999999996;28.96200180053711;1666166312.2662034;4.053801536560059;0.9109859466552734;88.04237365722656
99;1666166312.3189077;46.9755354;7.180357;29.533000946044922;1666166312.4614046;-2.008610486984253;1.284031629562378;88.15777587890625
100;1666166312.515085;46.9755355;7.180356799999999;30.10300064086914;1666166312.6761253;-3.7325124740600586;-0.2856330871582031;88.14572143554688
101;1666166312.7268777;46.9755355;7.180356799999999;30.677001953125;1666166312.8879168;1.369841456413269;-0.2918325364589691;88.11077880859375
102;1666166313.04115;46.9755355;7.180357099999999;31.257001876831055;1666166313.1924288;2.6743507385253906;0.2494715303182602;88.2535629272461
103;1666166313.2480617;46.9755355;7.1803573;31.836002349853516;1666166313.4042208;1.5211591720581055;0.7113955020904541;88.19480895996094
104;1666166313.4598541;46.9755356;7.1803573;32.41200256347656;1666166313.6169908;1.4720478057861328;1.1764233112335205;88.02275085449219
105;1666166313.6677423;46.9755356;7.180357099999999;32.983001708984375;1666166313.8248777;-1.695639967918396;1.3689579963684082;87.9462661743164
106;1666166313.8775797;46.9755355;7.180357099999999;33.551002502441406;1666166314.0288637;-0.5369613766670227;0.4548916518688202;87.99174499511719
107;1666166314.077664;46.9755355;7.1803573;34.11300277709961;1666166314.2474873;3.368726968765259;-0.4232400953769684;88.0851821899414
108;1666166314.3138535;46.9755355;7.1803573;34.67399978637695;1666166314.472944;1.8124676942825317;1.1245348453521729;87.92784881591797
109;1666166314.5197911;46.9755355;7.1803571999999996;35.2400016784668;1666166314.6808317;-2.694532871246338;0.7265092730522156;88.03187561035156
110;1666166314.7374368;46.9755356;7.180357099999999;35.814002990722656;1666166314.8945732;0.3298202157020569;0.02086774818599224;88.50171661376953
111;1666166314.943375;46.9755355;7.180357;36.38600158691406;1666166315.0907514;1.6711879968643188;1.302283763885498;88.4820556640625
112;1666166315.1415014;46.9755355;7.180357;36.95800018310547;1666166315.288879;-0.9466654658317566;-0.006226780358701944;88.24375915527344
113;1666166315.3396316;46.9755354;7.180357;37.520999908447266;1666166315.4860308;-0.11979535967111588;0.03731894865632057;87.94866180419922
114;1666166315.5436153;46.9755354;7.180357;38.08300018310547;1666166315.6890397;2.096752166748047;0.5082995295524597;88.33650970458984
115;1666166315.7485757;46.9755355;7.180357099999999;38.64900207519531;1666166315.9037604;0.8040128350257874;1.0518879890441895;88.00540161132812
116;1666166315.968177;46.9755355;7.180357099999999;39.2140007019043;1666166316.1161063;-0.13748067617416382;1.1249758005142212;88.0360336303711
117;1666166316.1795468;46.9755354;7.1803569;39.78000259399414;1666166316.3298523;0.27116724848747253;1.5127689838409424;87.99029541015625
118;1666166316.3923154;46.9755353;7.1803567;40.35200119018555;1666166316.5435958;0.5496478080749512;1.0744355916976929;87.8947525024414
119;1666166316.5982552;46.975535199999996;7.1803567;40.928001403808594;1666166316.7552426;1.93171226978302;-1.099237084388733;88.09905242919922
120;1666166316.8264897;46.975535099999995;7.180356499999999;41.50600051879883;1666166316.9894826;0.6178348660469055;-0.7087211608886719;88.28453063964844
121;1666166317.0451179;46.975535099999995;7.1803564;42.08300018310547;1666166317.1915166;-2.529402732849121;1.4597392082214355;87.97356414794922
122;1666166317.2461731;46.975535199999996;7.1803564;42.663002014160156;1666166317.424778;-0.9172874093055725;1.259557843208313;87.6911849975586
123;1666166317.4774842;46.975535199999996;7.1803566;43.24500274658203;1666166317.6385238;3.8805601596832275;0.018455862998962402;88.60690307617188
124;1666166317.7019646;46.975535099999995;7.1803566;43.829002380371094;1666166317.8678856;0.9692162871360779;-0.6235466599464417;88.17134094238281
125;1666166317.9186366;46.975535099999995;7.180356499999999;44.40800094604492;1666166318.062112;-3.3089711666107178;0.4287113845348358;87.45958709716797
126;1666166318.1196904;46.975535199999996;7.180356499999999;44.98600387573242;1666166318.2709727;0.3383232653141022;1.4721659421920776;87.37071990966797
127;1666166318.3227007;46.975535199999996;7.1803567;45.56300354003906;1666166318.4690988;2.9463982582092285;1.9625139236450195;88.14361572265625
128;1666166318.5188758;46.975535199999996;7.180356799999999;46.13800048828125;1666166318.7697093;1.316274881362915;1.7884132862091064;87.94730377197266
129;1666166318.8253388;46.975535099999995;7.180356799999999;46.708003997802734;1666166318.9883325;-0.107867531478405;-0.7190902233123779;88.2634506225586
130;1666166319.0439637;46.975535;7.1803566;47.2760009765625;1666166319.2059793;-0.26921510696411133;-0.8783878684043884;88.27703857421875
131;1666166319.2645395;46.975535;7.1803564;47.85100173950195;1666166319.4167953;-1.1572109460830688;1.3719404935836792;88.07615661621094
132;1666166319.471451;46.975535;7.1803566;48.432003021240234;1666166319.6276128;0.8406290411949158;0.6526955366134644;87.77215576171875
133;1666166319.6764135;46.975535099999995;7.1803567;49.01700210571289;1666166319.8354998;2.8489675521850586;0.9573881030082703;87.49972534179688
134;1666166319.8999162;46.975535099999995;7.180356799999999;49.599002838134766;1666166320.0658386;0.964413046836853;1.0266504287719727;87.64653015136719
135;1666166320.1322067;46.975535099999995;7.180356799999999;50.18600082397461;1666166320.277631;-0.2956763803958893;-0.3977157175540924;88.04258728027344
136;1666166320.3332603;46.975535099999995;7.1803567;50.77300262451172;1666166320.4786856;0.5341262817382812;0.07816866040229797;87.7549819946289
137;1666166320.5284603;46.975535099999995;7.1803566;51.35400390625;1666166320.6729095;0.12737682461738586;1.842862844467163;87.85408020019531
138;1666166320.7383027;46.975535099999995;7.1803567;51.928001403808594;1666166320.878845;0.40641093254089355;0.8645910024642944;87.82759094238281
139;1666166321.0281777;46.975535099999995;7.1803567;52.500003814697266;1666166321.1775017;1.7593655586242676;0.5247536301612854;87.8340072631836
140;1666166321.2292292;46.975535099999995;7.1803566;53.07500076293945;1666166321.3766084;0.8585224747657776;0.4555288255214691;88.02838134765625
141;1666166321.4283364;46.975535;7.180356499999999;53.65300369262695;1666166321.5864453;-1.1674981117248535;0.8154672980308533;88.08699798583984
142;1666166321.6362212;46.975535;7.1803564;54.23800277709961;1666166321.7835968;0.6867431998252869;1.7217662334442139;88.23871612548828
143;1666166321.8411837;46.9755349;7.180356199999999;54.82600402832031;1666166321.9895353;0.3870440721511841;0.23942634463310242;88.46195220947266
144;1666166322.0510244;46.9755349;7.1803561;55.40900421142578;1666166322.2110853;-0.5908326506614685;-1.0949726104736328;88.19232177734375
145;1666166322.2628133;46.9755349;7.180356199999999;55.928001403808594;1666166322.4043334;1.3466782569885254;0.01841399259865284;87.70140075683594
146;1666166322.4589958;46.975535;7.180356199999999;56.37600326538086;1666166322.6092954;2.3121187686920166;-0.03225333243608475;87.82431030273438
147;1666166322.662001;46.975535;7.1803561;56.763004302978516;1666166322.8093739;-0.1963646113872528;0.04322448745369911;88.1295394897461
148;1666166322.861104;46.975535099999995;7.180356;57.09100341796875;1666166323.019216;0.21032263338565826;1.2364587783813477;88.04373931884766
149;1666166323.0719182;46.975535199999996;7.1803558999999995;57.37300109863281;1666166323.2251515;1.0365097522735596;1.5038073062896729;87.9947738647461
150;1666166323.2915213;46.975535199999996;7.1803558;57.62000274658203;1666166323.4418225;-1.987381935119629;0.8835932612419128;88.24627685546875
151;1666166323.4955046;46.975535199999996;7.1803558999999995;57.83000183105469;1666166323.6458101;-0.8426305055618286;1.4712916612625122;87.99109649658203
152;1666166323.7121754;46.975535099999995;7.180356;58.00800323486328;1666166323.8556476;2.280365228652954;1.0381361246109009;87.39419555664062
153;1666166323.9142108;46.975535099999995;7.1803561;58.1660041809082;1666166324.0674388;1.0154086351394653;-0.5646187663078308;87.60344696044922
154;1666166324.1250238;46.975535099999995;7.180356199999999;58.29900360107422;1666166324.3709755;3.4467053413391113;-6.754523754119873;83.8875961303711
155;1666166324.4256318;46.975535199999996;7.180356;58.42100143432617;1666166324.5817964;19.715585708618164;-22.232433319091797;71.57209014892578
156;1666166324.633521;46.975536;7.1803547;58.561004638671875;1666166324.7750394;23.640844345092773;-37.79356384277344;57.93482208251953
157;1666166324.8306715;46.9755378;7.1803513;58.695003509521484;1666166324.9819524;6.466159820556641;-40.28028869628906;52.27911376953125
158;1666166325.038559;46.9755409;7.1803453;58.79700469970703;1666166325.191794;-7.146021842956543;-37.25753402709961;42.8931884765625
159;1666166325.2474253;46.975545399999994;7.1803373;58.875003814697266;1666166325.411394;-13.965498924255371;-36.5368537902832;31.140422821044922
160;1666166325.468;46.9755514;7.1803279;58.92400360107422;1666166325.624163;-19.417407989501953;-33.145896911621094;20.75333595275879
161;1666166325.6758902;46.9755585;7.180317199999999;58.94900131225586;1666166325.819361;-22.877866744995117;-29.631906509399414;10.842159271240234
162;1666166325.8730435;46.9755666;7.180305199999999;58.95500183105469;1666166326.0233448;-27.36480140686035;-32.24207305908203;1.724934458732605
163;1666166326.0780022;46.9755756;7.180291899999999;58.9530029296875;1666166326.2156248;-31.650575637817383;-19.124828338623047;-7.714556694030762
164;1666166326.271252;46.9755855;7.1802774;58.958003997802734;1666166326.426435;-33.208431243896484;-14.165687561035156;-16.662715911865234
165;1666166326.4781654;46.9755961;7.180262;58.96400451660156;1666166326.624561;-34.71786117553711;-10.27085018157959;-22.56260108947754
166;1666166326.6792185;46.975607499999995;7.1802459999999995;58.965003967285156;1666166326.832449;-36.97686004638672;-3.187592029571533;-18.912967681884766
167;1666166326.8812516;46.9756195;7.1802299;58.965003967285156;1666166327.0354578;-35.31306838989258;-10.432948112487793;-2.4010417461395264
168;1666166327.089137;46.975632499999996;7.180213999999999;58.96200180053711;1666166327.240418;-34.41817092895508;-17.881086349487305;10.586119651794434
169;1666166327.2921503;46.975646399999995;7.1801984999999995;58.95600128173828;1666166327.4463542;-31.25544548034668;-21.92574691772461;20.024702072143555
170;1666166327.5049133;46.975661099999996;7.1801835;58.952003479003906;1666166327.6620588;-24.334854125976562;-29.36507225036621;18.210880279541016
171;1666166327.7176816;46.9756766;7.1801686;58.94900131225586;1666166327.86506;-23.61347007751465;-31.11598777770996;2.896623134613037
172;1666166327.9294763;46.9756924;7.180153;58.94600296020508;1666166328.0700183;-27.825031280517578;-24.162229537963867;-13.975668907165527
173;1666166328.120771;46.975707899999996;7.1801363;58.94200134277344;1666166328.264247;-32.006961822509766;-19.207752227783203;-26.119863510131836
174;1666166328.32378;46.975723099999996;7.180118299999999;58.94000244140625;1666166328.4848197;-36.42759704589844;-11.173033714294434;-36.30997085571289
175;1666166328.5384984;46.9757379;7.1800992;58.93700408935547;1666166328.685876;-37.208187103271484;0.44300442934036255;-46.46726989746094
176;1666166328.738579;46.9757527;7.1800795;58.93700408935547;1666166328.8927884;-36.06893539428711;5.375133991241455;-53.4748420715332
177;1666166328.9493942;46.975767499999996;7.1800592;58.941001892089844;1666166329.0928674;-37.72434997558594;9.722021102905273;-55.45073318481445
178;1666166329.1494768;46.9757825;7.180038499999999;58.948001861572266;1666166329.3114927;-37.62785339355469;12.509258270263672;-52.08530044555664
179;1666166329.3612695;46.975797899999996;7.1800177;58.952003479003906;1666166329.503765;-37.847660064697266;9.46363353729248;-47.87628173828125
180;1666166329.553539;46.9758138;7.179996999999999;58.952003479003906;1666166329.7048185;-38.74977111816406;8.97851276397705;-45.912567138671875
181;1666166329.7643592;46.9758302;7.1799764999999995;58.95000457763672;1666166329.918564;-37.79792404174805;8.118635177612305;-45.77593231201172
182;1666166329.970293;46.9758469;7.1799561;58.948001861572266;1666166330.132309;-39.63104248046875;5.70880651473999;-45.48275375366211
183;1666166330.186964;46.975864;7.1799357;58.94600296020508;1666166330.3333633;-39.704708099365234;7.597225666046143;-46.847869873046875
184;1666166330.3977816;46.9758814;7.179915299999999;58.948001861572266;1666166330.6427567;-38.390113830566406;6.034186363220215;-46.64775466918945
185;1666166330.6944835;46.975899;7.1798948;58.9530029296875;1666166330.8545475;-39.8424186706543;4.408290386199951;-46.310794830322266
186;1666166330.9053013;46.9759169;7.179874099999999;58.96200180053711;1666166331.0741527;-39.995201110839844;6.274816036224365;-47.43278884887695
187;1666166331.12978;46.9759349;7.1798532999999995;58.974002838134766;1666166331.28399;-39.78410720825195;3.516495704650879;-46.521400451660156
188;1666166331.3357186;46.975953;7.1798321;58.978004455566406;1666166331.4811437;-40.748355865478516;4.763319492340088;-46.20466232299805
189;1666166331.5299425;46.9759713;7.1798107;58.97700119018555;1666166331.6880522;-39.591651916503906;5.0022077560424805;-45.77322006225586
190;1666166331.7466125;46.9759898;7.1797889999999995;58.98200225830078;1666166331.907658;-40.16764831542969;1.060728669166565;-44.21354675292969
191;1666166331.9603589;46.9760084;7.1797672;58.98800277709961;1666166332.1009007;-40.445823669433594;4.690570831298828;-46.3543586730957
192;1666166332.1545835;46.9760269;7.179745199999999;58.993003845214844;1666166332.3107417;-39.872413635253906;3.432887077331543;-45.82490921020508
193;1666166332.3585682;46.9760455;7.1797229;58.99700164794922;1666166332.5127728;-40.970062255859375;2.177215814590454;-45.14021682739258
194;1666166332.566457;46.976064099999995;7.1797005;58.99500274658203;1666166332.721641;-40.39875411987305;4.016294002532959;-45.31122589111328
195;1666166332.7733657;46.9760828;7.1796779;58.9900016784668;1666166332.9207425;-40.17580795288086;1.4927966594696045;-44.25136184692383
196;1666166332.974426;46.9761015;7.1796549999999995;58.9890022277832;1666166333.1149652;-40.6359748840332;2.608276605606079;-44.35088348388672
197;1666166333.172553;46.9761203;7.179632;58.993003845214844;1666166333.3199265;-40.19200134277344;2.544179916381836;-44.46038818359375
198;1666166333.3755584;46.9761392;7.1796089;58.99500274658203;1666166333.536597;-40.89316940307617;1.352531909942627;-44.28464126586914
199;1666166333.5883281;46.976158;7.179585599999999;58.99500274658203;1666166333.7386303;-40.916324615478516;3.919645071029663;-45.472023010253906
200;1666166333.7854786;46.9761768;7.1795621;58.993003845214844;1666166333.927975;-40.598880767822266;2.233422040939331;-44.785797119140625
201;1666166333.983606;46.9761957;7.1795385;58.9900016784668;1666166334.139771;-41.55552291870117;2.6339781284332275;-44.58657455444336
202;1666166334.1934488;46.9762146;7.1795148;58.9890022277832;1666166334.3525362;-40.67011260986328;3.2524328231811523;-44.80567169189453
203;1666166334.403288;46.9762335;7.179491;58.99100112915039;1666166334.5516381;-40.79869079589844;1.3589415550231934;-44.57759094238281
204;1666166334.6102037;46.976252599999995;7.1794671;58.99400329589844;1666166334.7605057;-41.57912063598633;2.064772367477417;-44.643280029296875
205;1666166334.8122308;46.9762716;7.179443099999999;58.996002197265625;1666166334.971321;-40.79960632324219;1.2427538633346558;-43.91780090332031
206;1666166335.0220728;46.9762906;7.179418999999999;58.99700164794922;1666166335.1821363;-41.11531066894531;1.184360384941101;-44.24396896362305
207;1666166335.2358172;46.9763096;7.1793947;58.993003845214844;1666166335.3939292;-36.76961135864258;1.8905973434448242;-44.19572448730469
208;1666166335.4524882;46.9763285;7.1793705;58.978004455566406;1666166335.612553;-29.440698623657227;-0.37492528557777405;-43.55207061767578
209;1666166335.6711113;46.9763471;7.179346499999999;58.95500183105469;1666166335.8253212;-23.924352645874023;-0.6868738532066345;-42.860286712646484
210;1666166335.8760757;46.976365;7.1793232;58.92200469970703;1666166336.0244253;-16.74333953857422;1.7709367275238037;-43.47819900512695
211;1666166336.088841;46.976382099999995;7.179301;58.88600158691406;1666166336.232314;-8.20962905883789;1.1877139806747437;-42.959537506103516
212;1666166336.287944;46.9763982;7.1792801;58.84700393676758;1666166336.4431357;-3.065920829772949;-0.8508404493331909;-41.42690658569336
213;1666166336.4938827;46.976413;7.1792611;58.80900192260742;1666166336.64809;0.4296252131462097;-0.16423436999320984;-41.08185577392578
214;1666166336.7076266;46.9764263;7.179244;58.768001556396484;1666166336.858906;4.716245651245117;2.3686819076538086;-42.38439178466797
215;1666166336.9135644;46.9764382;7.1792289;58.733001708984375;1666166337.061914;3.3229386806488037;-6.337482452392578;-39.90475845336914
216;1666166337.120475;46.9764486;7.1792153999999995;58.71200180053711;1666166337.256138;1.0468568801879883;1.7526845932006836;-43.159210205078125
217;1666166337.308847;46.9764577;7.179203299999999;58.71000289916992;1666166337.456221;-1.52779221534729;-1.5688318014144897;-40.14402770996094
218;1666166337.5098984;46.9764657;7.1791925;58.720001220703125;1666166337.6631324;-1.5171878337860107;3.206359624862671;-41.040122985839844
219;1666166337.7129078;46.976472799999996;7.1791826;58.73800277709961;1666166337.8651621;-1.5305696725845337;0.5246108174324036;-39.118473052978516
220;1666166337.916891;46.9764793;7.1791737;58.75700378417969;1666166338.0701227;-1.6569246053695679;6.198268890380859;-40.11583709716797
221;1666166338.1228282;46.9764854;7.1791659;58.7760009765625;1666166338.2799628;2.020508289337158;5.365749359130859;-39.11370086669922
222;1666166338.3453581;46.976490899999995;7.1791592;58.7910041809082;1666166338.502491;5.87224817276001;3.7366626262664795;-39.5981330871582
223;1666166338.553241;46.9764957;7.179153599999999;58.80500411987305;1666166338.6908603;2.797194242477417;-0.37836283445358276;-39.80999755859375
224;1666166338.749421;46.976499999999994;7.179149;58.81900405883789;1666166338.8958209;2.6156234741210938;-0.20503544807434082;-40.65507507324219
225;1666166338.9582858;46.9765036;7.1791452;58.83000183105469;1666166339.1007788;7.000573635101318;-2.3665010929107666;-41.2990837097168
226;1666166339.2510827;46.9765065;7.179142;58.83900451660156;1666166339.400411;1.9741019010543823;-2.4947710037231445;-41.92947769165039
227;1666166339.4570184;46.9765089;7.1791392;58.85000228881836;1666166339.5965862;-0.7884076237678528;-0.7661493420600891;-42.61252975463867
228;1666166339.6502693;46.9765109;7.1791367;58.86600112915039;1666166339.8074038;4.8034892082214355;-0.2894411087036133;-43.08689880371094
229;1666166339.861082;46.9765125;7.1791345;58.88500213623047;1666166340.0182185;2.497201919555664;-3.32781720161438;-42.725135803222656
230;1666166340.0660427;46.9765138;7.179132699999999;58.90500259399414;1666166340.2280593;-0.7038522958755493;-1.993088960647583;-42.0123405456543
231;1666166340.2817395;46.9765148;7.179131;58.92200469970703;1666166340.4213126;3.637192487716675;-0.8502489328384399;-41.5772705078125
232;1666166340.4749868;46.9765156;7.179129499999999;58.939002990722656;1666166340.6252904;2.013052225112915;0.38832783699035645;-41.272708892822266
233;1666166340.677019;46.9765163;7.1791282;58.95500183105469;1666166340.831229;-2.384287118911743;5.840993404388428;-41.743595123291016
234;1666166340.8936942;46.9765169;7.1791272;58.96800231933594;1666166341.0508287;-18.54241371154785;3.8008053302764893;-47.010311126708984
235;1666166341.0996275;46.976517799999996;7.1791260999999995;58.99200439453125;1666166341.2538393;-39.883792877197266;-5.790452003479004;-50.763084411621094
236;1666166341.3202043;46.9765197;7.1791233;59.05000305175781;1666166341.4656281;-37.21167755126953;-12.780024528503418;-53.61240005493164
237;1666166341.5193076;46.976522499999994;7.179117799999999;59.10100173950195;1666166341.6627812;-29.923078536987305;-7.931554317474365;-54.52495574951172
238;1666166341.7213438;46.976525699999996;7.179109599999999;59.15200424194336;1666166341.8657877;-31.911901473999023;5.0685954093933105;-53.73994827270508
239;1666166341.922398;46.9765296;7.1790997;59.2030029296875;1666166342.0707502;-33.04487609863281;5.564035415649414;-49.97102737426758
240;1666166342.1244307;46.9765344;7.1790888;59.24400329589844;1666166342.2757115;-36.563751220703125;0.8101224303245544;-47.705162048339844
241;1666166342.3254879;46.976540299999996;7.179076599999999;59.2650032043457;1666166342.4738417;-38.62577819824219;2.9780242443084717;-48.388328552246094
242;1666166342.5304456;46.9765472;7.179063299999999;59.27300262451172;1666166342.6875856;-35.91659164428711;3.618105888366699;-49.088199615478516
243;1666166342.7363803;46.9765551;7.1790489;59.272003173828125;1666166342.8935177;-37.22179412841797;2.373493194580078;-49.32386016845703
244;1666166342.9471965;46.976563899999995;7.1790337;59.2660026550293;1666166343.090669;-37.120609283447266;5.575566291809082;-50.216217041015625
245;1666166343.1385005;46.9765734;7.1790178;59.259002685546875;1666166343.2848954;-34.96574401855469;3.3241055011749268;-49.8741455078125
246;1666166343.3375976;46.9765837;7.1790012;59.25200271606445;1666166343.490832;-38.143409729003906;3.2016894817352295;-50.59885787963867
247;1666166343.5406084;46.9765945;7.178984;59.2400016784668;1666166343.6938374;-37.119285583496094;3.1769280433654785;-51.276241302490234
248;1666166343.7475188;46.976605899999996;7.178966;59.22700119018555;1666166343.9124646;-36.41877365112305;-1.0110254287719727;-50.98432159423828
249;1666166343.9729733;46.9766177;7.1789473;59.21200180053711;1666166344.1242564;-38.201812744140625;-1.0051403045654297;-51.3411865234375
250;1666166344.1730626;46.9766298;7.178928;59.198001861572266;1666166344.325312;-37.195159912109375;1.9012387990951538;-52.35231399536133
251;1666166344.3780193;46.9766421;7.1789079;59.18300247192383;1666166344.5195382;-37.92983627319336;-1.00533127784729;-51.040042877197266
252;1666166344.5722373;46.976654599999996;7.178887199999999;59.169002532958984;1666166344.7137592;-38.826419830322266;2.164400100708008;-51.90041732788086
253;1666166344.7684147;46.9766674;7.178865999999999;59.15300369262695;1666166344.912864;-37.097259521484375;1.605422019958496;-51.715702056884766
254;1666166344.973383;46.9766804;7.1788444;59.138004302978516;1666166345.1285603;-38.400718688964844;-0.6859750151634216;-50.81581497192383
255;1666166345.188095;46.9766937;7.1788222;59.125003814697266;1666166345.3384013;-38.3187370300293;3.4647278785705566;-52.34648513793945
256;1666166345.3881793;46.9767071;7.1787997;59.112003326416016;1666166345.5414064;-38.126468658447266;2.0210275650024414;-51.6586799621582
257;1666166345.5999668;46.976720799999995;7.1787768;59.099002838134766;1666166345.740513;-39.81583786010742;3.211784601211548;-52.359764099121094
258;1666166345.8166416;46.9767346;7.178753599999999;59.08900451660156;1666166345.962065;-38.20362854003906;3.74007511138916;-52.52378463745117
259;1666166346.0147703;46.9767486;7.1787301;59.0780029296875;1666166346.1670256;-33.5191535949707;0.9775885939598083;-51.1411018371582
260;1666166346.2158248;46.976762699999995;7.1787065;59.05500411987305;1666166346.3758883;-29.41525650024414;2.751469373703003;-52.12935256958008
261;1666166346.4237123;46.976776699999995;7.1786831;59.02400207519531;1666166346.5769446;-24.07693099975586;1.3962604999542236;-51.7679328918457
262;1666166346.627697;46.9767904;7.1786601999999995;58.9900016784668;1666166346.7858095;-19.3919620513916;-0.7724063992500305;-51.680545806884766
263;1666166346.8424153;46.9768036;7.1786381;58.954002380371094;1666166347.0024817;-14.686039924621582;-0.9431295394897461;-51.47295379638672
264;1666166347.0512848;46.976816199999995;7.178617;58.91400146484375;1666166347.2035356;-7.4824042320251465;-0.7360215187072754;-51.815895080566406
265;1666166347.2513604;46.9768277;7.1785972;58.871002197265625;1666166347.510002;-2.7505922317504883;-0.7876519560813904;-52.044246673583984
266;1666166347.5597777;46.9768383;7.1785789;58.83400344848633;1666166347.7091076;-1.3848496675491333;0.3060537278652191;-51.469966888427734
267;1666166347.7637606;46.976848;7.1785622;58.80500411987305;1666166347.9238276;0.19941557943820953;-0.4062776267528534;-50.79171371459961
268;1666166347.9716506;46.9768566;7.178547099999999;58.781002044677734;1666166348.122932;3.1334376335144043;-1.2438791990280151;-50.374629974365234
269;1666166348.1727045;46.9768641;7.1785334999999995;58.75800323486328;1666166348.3142238;3.9147112369537354;-0.2007404863834381;-50.65369415283203
270;1666166348.3698592;46.9768708;7.178521399999999;58.74400329589844;1666166348.5191867;0.1778789907693863;3.4574289321899414;-50.395111083984375
271;1666166348.5738432;46.9768767;7.1785109;58.737003326416016;1666166348.733906;1.5406438112258911;4.237780570983887;-49.55646514892578
272;1666166348.788561;46.976881899999995;7.178501799999999;58.7390022277832;1666166348.9427688;4.640035152435303;-0.4997260272502899;-48.30369186401367
273;1666166348.9993773;46.9768864;7.178494;58.74400329589844;1666166349.156517;0.5025802850723267;1.4814890623092651;-49.20677185058594
274;1666166349.2072663;46.976890499999996;7.178487;58.75700378417969;1666166349.35757;-1.565359115600586;0.4339908957481384;-49.2579345703125
275;1666166349.4151623;46.9768942;7.178480899999999;58.77800369262695;1666166349.564485;5.03057336807251;0.21945780515670776;-49.069698333740234
276;1666166349.6113307;46.9768974;7.178475499999999;58.801002502441406;1666166349.7587063;7.260185718536377;0.8329251408576965;-48.43803024291992
277;1666166349.8123887;46.976900099999995;7.1784709;58.820003509521484;1666166349.9539077;3.3283345699310303;1.7583882808685303;-48.63617706298828
278;1666166350.0124688;46.9769023;7.178467299999999;58.833003997802734;1666166350.1617932;4.6478705406188965;1.1181203126907349;-48.62627410888672
279;1666166350.2144995;46.9769041;7.1784645;58.84400177001953;1666166350.3765163;2.6567416191101074;-4.864333629608154;-49.01114273071289
280;1666166350.430196;46.976905599999995;7.1784621;58.85200119018555;1666166350.5814764;1.8774844408035278;-5.001192569732666;-49.22850036621094
281;1666166350.638084;46.9769066;7.1784599;58.86000442504883;1666166350.7942429;7.372775554656982;2.3797607421875;-48.759521484375
282;1666166350.8498752;46.9769072;7.178458099999999;58.871002197265625;1666166350.9982266;0.1542399376630783;5.369906902313232;-47.42485427856445
283;1666166351.0577648;46.9769076;7.178456799999999;58.87800216674805;1666166351.2109945;-4.7439165115356445;4.136622428894043;-47.27744674682617
284;1666166351.2636986;46.9769082;7.1784558999999994;58.884002685546875;1666166351.3993652;5.890285015106201;-1.1959195137023926;-44.80723190307617
285;1666166351.451094;46.9769089;7.1784551;58.961002349853516;1666166351.5994444;6.376360893249512;1.424495816230774;-39.67048645019531
286;1666166351.650195;46.976909299999996;7.1784547;59.20700454711914;1666166351.801475;3.239469528198242;14.804327011108398;-35.12046432495117
287;1666166351.8541799;46.9769095;7.178455199999999;59.55500411987305;1666166352.0230274;-4.46100378036499;25.130701065063477;-33.04356384277344
288;1666166352.0747578;46.9769101;7.178457;59.913002014160156;1666166352.2279897;-14.102243423461914;26.517297744750977;-30.683923721313477
289;1666166352.2845988;46.976911799999996;7.178460299999999;60.298004150390625;1666166352.4427097;-13.633343696594238;23.920448303222656;-17.618194580078125
290;1666166352.501268;46.9769149;7.178465;60.711002349853516;1666166352.654501;-20.718345642089844;19.0217342376709;-2.161275863647461
291;1666166352.7081795;46.9769192;7.178471099999999;61.147003173828125;1666166352.8565338;-27.628032684326172;14.445531845092773;15.085346221923828
292;1666166352.9111905;46.976924499999996;7.1784786;61.586002349853516;1666166353.0546598;-33.007965087890625;6.363473415374756;32.68514633178711
293;1666166353.1102922;46.976930599999996;7.178487199999999;61.993003845214844;1666166353.2713323;-40.07495880126953;2.131574869155884;45.10677719116211
294;1666166353.322084;46.9769376;7.1784973;62.35700225830078;1666166353.471415;-37.84152603149414;1.7159833908081055;51.290069580078125
295;1666166353.520215;46.9769455;7.1785092;62.69000244140625;1666166353.6646605;-34.77827072143555;-0.5401084423065186;50.20427703857422
296;1666166353.7193198;46.9769541;7.1785226;63.01000213623047;1666166353.8735266;-37.76250457763672;1.4566208124160767;46.78098678588867
297;1666166353.9291584;46.9769633;7.1785374;63.31500244140625;1666166354.1048374;-35.64479446411133;-0.8845439553260803;44.428199768066406
298;1666166354.1634004;46.976973199999996;7.1785532;63.60900115966797;1666166354.3127255;-37.01420974731445;-1.9570441246032715;42.794166564941406
299;1666166354.3849506;46.9769839;7.1785697;63.88500213623047;1666166354.6211436;-37.76521682739258;-3.422983169555664;43.6223030090332
300;1666166354.680679;46.9769954;7.178586699999999;64.14900207519531;1666166354.8221989;-36.701698303222656;-0.10534195601940155;42.62411880493164
301;1666166354.8788097;46.9770075;7.1786042;64.4070053100586;1666166355.0398474;-36.69336700439453;3.5003199577331543;42.434425354003906
302;1666166355.0935297;46.9770202;7.1786223;64.65800476074219;1666166355.2516382;-35.99313735961914;3.754042148590088;43.02350997924805
303;1666166355.3043437;46.9770331;7.1786411;64.91300201416016;1666166355.4526958;-37.16801834106445;1.4615899324417114;43.25951385498047
304;1666166355.509303;46.9770464;7.1786604999999994;65.17100524902344;1666166355.659608;-37.622798919677734;-4.807054042816162;45.919246673583984
305;1666166355.7123132;46.9770602;7.1786805;65.4320068359375;1666166355.8606625;-37.94154739379883;-3.733987331390381;44.83781051635742
306;1666166355.9143443;46.9770743;7.1787008;65.68800354003906;1666166356.0646486;-39.06602478027344;1.435683012008667;43.458614349365234
307;1666166356.1183279;46.9770889;7.1787215;65.93500518798828;1666166356.3730624;-35.959754943847656;2.256516695022583;43.85984420776367
308;1666166356.432602;46.9771037;7.1787424;66.16900634765625;1666166356.587784;-30.9847412109375;1.4899827241897583;45.810550689697266
309;1666166356.6463437;46.977118499999996;7.178763399999999;66.38300323486328;1666166356.808362;-28.09035873413086;1.8934743404388428;46.436981201171875
310;1666166356.8552072;46.977132999999995;7.1787845;66.57300567626953;1666166357.012345;-21.08270263671875;1.6831345558166504;46.6021728515625
311;1666166357.0621192;46.977146999999995;7.1788051;66.74600219726562;1666166357.2143762;-12.497097969055176;3.0305862426757812;46.44742965698242
312;1666166357.2670796;46.977160399999995;7.178825;66.91200256347656;1666166357.432027;-7.8153076171875;-3.1923253536224365;48.795291900634766
313;1666166357.4935112;46.9771729;7.1788435999999995;67.08100128173828;1666166357.6467435;-3.3879125118255615;-2.8541085720062256;46.958091735839844
314;1666166357.7033544;46.9771844;7.178860599999999;67.24500274658203;1666166357.8507278;3.841902256011963;-1.8580952882766724;46.559940338134766
315;1666166357.9073362;46.9771948;7.178876;67.4000015258789;1666166358.056665;4.84320592880249;2.92637300491333;45.133766174316406
316;1666166358.1113222;46.977204099999994;7.1788896;67.54500579833984;1666166358.2586994;4.264904022216797;-1.9226959943771362;46.73334884643555
317;1666166358.3074992;46.9772122;7.1789013;67.68099975585938;1666166358.4685385;5.769259929656982;-2.3101768493652344;46.7330322265625
318;1666166358.5183122;46.977219299999994;7.178911299999999;67.81999969482422;1666166358.6656907;2.0459468364715576;-0.7458133697509766;46.58475112915039
319;1666166358.7135124;46.977225399999995;7.1789198999999995;67.95899963378906;1666166358.8745546;-3.6246726512908936;0.3673155605792999;46.82203674316406
320;1666166358.9262817;46.977230999999996;7.1789274999999995;68.09500122070312;1666166359.0775661;-0.14116403460502625;3.80478572845459;46.92300033569336
321;1666166359.137098;46.977236;7.178934399999999;68.21800231933594;1666166359.2795925;4.646728515625;1.5260077714920044;48.28772735595703
322;1666166359.336203;46.9772402;7.1789407;68.32400512695312;1666166359.481626;3.1656744480133057;6.83501672744751;47.05656814575195
323;1666166359.5587306;46.9772439;7.1789464;68.41100311279297;1666166359.7002501;3.310995101928711;2.4905507564544678;48.36033248901367
324;1666166359.755881;46.977246699999995;7.1789514;68.49100494384766;1666166359.9110665;5.549907684326172;-2.409550666809082;47.59187316894531
325;1666166359.9647465;46.977249099999995;7.1789556999999995;68.55599975585938;1666166360.10822;2.1642839908599854;-4.812743663787842;46.57738494873047
326;1666166360.1618989;46.9772512;7.178959;68.61400604248047;1666166360.3034174;4.1960129737854;-3.8771677017211914;45.264949798583984
327;1666166360.3551452;46.977253;7.1789615;68.66600036621094;1666166360.5113053;4.544397354125977;2.642657518386841;44.899253845214844
328;1666166360.5649862;46.977254599999995;7.1789634;68.71500396728516;1666166360.7074833;1.5407404899597168;5.6431803703308105;45.84049606323242
329;1666166360.7621396;46.977255799999995;7.1789651;68.76100158691406;1666166360.916346;2.0191903114318848;4.129929065704346;47.98970031738281
330;1666166360.973932;46.977256499999996;7.1789666;68.79800415039062;1666166361.1232715;0.649701714515686;-2.3443350791931152;50.073429107666016
331;1666166361.1857219;46.977257099999996;7.178967999999999;68.82200622558594;1666166361.3399322;-1.0147333145141602;1.109994888305664;49.15324401855469
332;1666166361.3916612;46.977257599999994;7.1789692;68.84000396728516;1666166361.5361083;1.0573148727416992;4.969493389129639;49.887203216552734
333;1666166361.588811;46.977258;7.1789704;68.86199951171875;1666166361.7342353;-3.473526954650879;15.546874046325684;55.934844970703125
334;1666166361.8006046;46.977258;7.178972;68.91900634765625;1666166361.9596913;-4.886411190032959;23.083126068115234;65.12896728515625
335;1666166362.0162985;46.9772572;7.1789743999999995;68.98900604248047;1666166362.1646526;-8.85582160949707;24.657535552978516;75.36903381347656
336;1666166362.2202828;46.977255299999996;7.1789776;69.06500244140625;1666166362.3657112;-21.668195724487305;25.25094985961914;84.64566802978516
337;1666166362.4184117;46.977252299999996;7.1789821;69.12600708007812;1666166362.5687175;-25.17641830444336;15.49256706237793;98.1340103149414
338;1666166362.619468;46.977248499999995;7.1789878;69.16600036621094;1666166362.7717247;-28.743122100830078;12.298633575439453;109.78427124023438
339;1666166362.8234534;46.9772438;7.178995;69.19499969482422;1666166362.9805906;-30.529861450195312;4.094030857086182;120.38504028320312
340;1666166363.033292;46.9772384;7.179003499999999;69.21400451660156;1666166363.1787157;-31.29983901977539;1.8480662107467651;128.37808227539062
341;1666166363.2343485;46.9772324;7.1790132;69.2229995727539;1666166363.3885586;-35.29594802856445;-3.7751708030700684;133.9334716796875
342;1666166363.447118;46.9772258;7.1790243;69.22000122070312;1666166363.6091335;-33.861690521240234;-4.346485614776611;133.17440795898438
343;1666166363.657935;46.9772186;7.1790366;69.21200561523438;1666166363.8062835;-36.68053436279297;-0.30021724104881287;129.57363891601562
344;1666166363.8619163;46.977211;7.1790502;69.19499969482422;1666166364.0190523;-36.97798538208008;-2.590118169784546;129.85360717773438
345;1666166364.0668766;46.977202899999995;7.1790651;69.17300415039062;1666166364.2113264;-35.20692443847656;-0.4345223605632782;129.74346923828125
346;1666166364.2689085;46.9771943;7.179081099999999;69.15400695800781;1666166364.4192145;-37.306243896484375;-1.5016884803771973;130.1506805419922
347;1666166364.4689887;46.9771851;7.1790978999999995;69.13300323486328;1666166364.621246;-36.80266571044922;-0.9244552850723267;129.5612030029297
348;1666166364.6739507;46.977175599999995;7.1791157;69.10900115966797;1666166364.8213253;-38.179752349853516;1.6795967817306519;128.93426513671875
349;1666166364.8847675;46.9771651;7.1791351;69.0790023803711;1666166365.0272632;-38.53170394897461;1.9504961967468262;129.0820770263672
350;1666166365.084845;46.977154999999996;7.1791537;69.0530014038086;1666166365.2380772;-37.789588928222656;2.462604522705078;129.53611755371094
351;1666166365.29664;46.977143899999994;7.1791737;69.0270004272461;1666166365.441087;-39.80885314941406;2.715998411178589;129.80718994140625
352;1666166365.4928133;46.977132399999995;7.1791943;69.0060043334961;1666166365.632384;-39.00672912597656;2.481448173522949;130.09938049316406
353;1666166365.6831353;46.977120299999996;7.1792153999999995;68.98800659179688;1666166365.842222;-38.70819091796875;2.187307834625244;130.15261840820312
354;1666166365.895904;46.9771078;7.179236899999999;68.97500610351562;1666166366.0559661;-41.59757995605469;1.7521798610687256;130.1493682861328
355;1666166366.1096458;46.9770949;7.1792589;68.96500396728516;1666166366.2589757;-40.21326446533203;1.6038620471954346;130.1566619873047
356;1666166366.31656;46.9770816;7.1792814;68.96100616455078;1666166366.473695;-41.24156951904297;1.1105295419692993;130.2358856201172
357;1666166366.5332322;46.977067899999994;7.1793043999999995;68.95899963378906;1666166366.6806083;-41.31143569946289;1.116681456565857;130.12921142578125
358;1666166366.7381918;46.9770539;7.1793279;68.95700073242188;1666166366.9939034;-40.43915557861328;1.3617457151412964;129.9307098388672
359;1666166367.05344;46.9770397;7.1793518999999995;68.9540023803711;1666166367.2056973;-39.04471206665039;1.7779924869537354;130.58804321289062
360;1666166367.2593744;46.9770252;7.1793762;68.94300079345703;1666166367.4096808;-32.89459991455078;1.1673598289489746;130.79588317871094
361;1666166367.4614081;46.9770107;7.179400299999999;68.92100524902344;1666166367.6126878;-26.55990982055664;0.7699041366577148;130.45384216308594
362;1666166367.665395;46.9769964;7.179424099999999;68.89200592041016;1666166367.8098388;-22.302881240844727;0.09956276416778564;130.3112335205078
363;1666166367.8596163;46.9769825;7.1794473;68.85900115966797;1666166368.0148008;-13.495420455932617;-0.7134462594985962;130.14297485351562
364;1666166368.0694573;46.9769693;7.1794693999999994;68.82500457763672;1666166368.2226875;-4.664587497711182;-1.355811357498169;129.98565673828125
365;1666166368.2724638;46.976957;7.1794902;68.78600311279297;1666166368.4256954;1.1352345943450928;-1.1807905435562134;129.79762268066406
366;1666166368.4784002;46.9769459;7.1795091;68.7490005493164;1666166368.623826;3.5901012420654297;0.9258269667625427;129.1089630126953
367;1666166368.6804316;46.9769362;7.1795257999999995;68.72200012207031;1666166368.8317132;4.408393383026123;1.148350477218628;129.77821350097656
368;1666166368.886371;46.9769278;7.1795405;68.7030029296875;1666166369.0464325;3.5098836421966553;2.256580114364624;130.0150604248047
369;1666166369.1069434;46.9769204;7.1795534;68.70600128173828;1666166369.252369;-0.8940824866294861;-0.5480306148529053;130.59715270996094
370;1666166369.3089774;46.9769137;7.1795649;68.72400665283203;1666166369.4680643;-3.1063485145568848;2.0770623683929443;129.92025756835938
371;1666166369.528577;46.9769077;7.179575;68.75;1666166369.6652179;1.212101697921753;2.401845932006836;129.39048767089844
372;1666166369.7208486;46.9769022;7.179583999999999;68.77799987792969;1666166369.8818922;2.7574989795684814;-5.053827285766602;130.1016082763672
373;1666166369.9511843;46.9768973;7.1795921;68.80400085449219;1666166370.0985615;2.697272777557373;1.1250966787338257;128.29869079589844
374;1666166370.1493132;46.9768931;7.1795991;68.82600402832031;1666166370.2957144;4.637644290924072;-1.1627671718597412;129.1002197265625
375;1666166370.347443;46.9768896;7.179605;68.84400177001953;1666166370.5045798;5.187211513519287;-2.185884475708008;129.23777770996094
376;1666166370.5650897;46.976886699999994;7.1796102;68.86500549316406;1666166370.7085636;1.6642820835113525;2.517664670944214;128.31057739257812
377;1666166370.7602916;46.9768842;7.1796146;68.88700103759766;1666166370.901809;2.294931650161743;-0.7445974349975586;129.5214385986328
378;1666166370.964273;46.976881999999996;7.179618199999999;68.906005859375;1666166371.1126285;4.823762893676758;-3.413405418395996;130.2474365234375
379;1666166371.1711857;46.9768802;7.179621399999999;68.92400360107422;1666166371.3253949;3.175112009048462;-0.4129987359046936;130.3735809326172
380;1666166371.3868818;46.976878799999994;7.179624199999999;68.93500518798828;1666166371.5371873;1.5725728273391724;3.1766326427459717;131.0139923095703
381;1666166371.5889142;46.976877699999996;7.1796263;68.94700622558594;1666166371.7421463;2.725844383239746;5.317594051361084;131.96090698242188
382;1666166371.8026588;46.9768767;7.1796280999999995;68.96000671386719;1666166371.9510102;2.0929110050201416;-0.9673100113868713;133.16529846191406
383;1666166372.0164022;46.9768757;7.1796294;68.97100067138672;1666166372.1754918;4.983088970184326;-4.568511486053467;133.3431396484375
384;1666166372.2350273;46.9768751;7.1796304;68.9800033569336;1666166372.3824024;2.0236904621124268;-6.5629425048828125;133.93971252441406
385;1666166372.445843;46.9768748;7.179631499999999;68.97700500488281;1666166372.5863879;5.286598205566406;2.379342555999756;136.39344787597656
386;1666166372.6361628;46.976874699999996;7.1796323;68.88600158691406;1666166372.7923229;5.2171807289123535;13.010921478271484;146.09274291992188
387;1666166372.8450267;46.976874699999996;7.1796327;68.7020034790039;1666166372.9943557;-1.4792921543121338;18.073272705078125;159.5604248046875
388;1666166373.0480366;46.9768744;7.1796321;68.52000427246094;1666166373.193461;-14.704194068908691;25.97917938232422;170.2467498779297
389;1666166373.2461631;46.976873499999996;7.179629899999999;68.38300323486328;1666166373.4013476;-23.34768295288086;24.663114547729492;-177.463623046875
390;1666166373.4608831;46.976871599999996;7.1796259;68.2770004272461;1666166373.6111887;-29.04043960571289;11.31109619140625;-165.7110137939453
391;1666166373.6746285;46.976868599999996;7.1796202;68.16699981689453;1666166373.8180993;-32.508323669433594;11.564698219299316;-156.32945251464844
392;1666166373.8717825;46.9768646;7.1796134;68.04199981689453;1666166374.0250118;-27.972238540649414;7.366199970245361;-146.05833435058594
393;1666166374.0816247;46.9768597;7.1796054;67.9020004272461;1666166374.255349;-23.86338233947754;1.2332278490066528;-137.83380126953125
394;1666166374.310981;46.9768541;7.1795965;67.7300033569336;1666166374.4603126;-23.054685592651367;-4.572812080383301;-131.07981872558594
395;1666166374.5139883;46.9768481;7.179587199999999;67.53500366210938;1666166374.666247;-21.314228057861328;-6.293610095977783;-130.2626953125
396;1666166374.7257838;46.976841799999995;7.1795779;67.33800506591797;1666166374.8819404;-19.842510223388672;-5.083404064178467;-133.7174530029297
397;1666166374.9317188;46.976835;7.1795686;67.13899993896484;1666166375.092757;-23.280437469482422;-3.2981317043304443;-134.97235107421875
398;1666166375.1415613;46.976827899999996;7.1795592;66.94700622558594;1666166375.3104076;-22.297861099243164;-1.2838482856750488;-135.27532958984375
399;1666166375.3640852;46.976820499999995;7.179549799999999;66.76000213623047;1666166375.5124376;-20.250469207763672;0.27895379066467285;-135.12860107421875
400;1666166375.576853;46.976813;7.1795401;66.57500457763672;1666166375.727158;-20.78232765197754;1.6898125410079956;-135.1283416748047
401;1666166375.7866936;46.976805399999996;7.179530199999999;66.38700103759766;1666166375.93407;-22.24992561340332;2.470864772796631;-135.09112548828125
402;1666166375.9945812;46.9767978;7.1795200999999995;66.19700622558594;1666166376.1419573;-19.692657470703125;2.425478219985962;-134.90765380859375
403;1666166376.2044213;46.976790199999996;7.1795097;66.0060043334961;1666166376.3635104;-17.62235450744629;2.0368969440460205;-134.99087524414062
404;1666166376.4171946;46.9767827;7.179499099999999;65.81400299072266;1666166376.5567575;-20.44098663330078;2.360430955886841;-135.3981170654297
405;1666166376.6133657;46.9767753;7.179488399999999;65.62300109863281;1666166376.7688303;-19.263986587524414;1.1884554624557495;-135.38148498535156
406;1666166376.837152;46.9767681;7.1794778;65.43600463867188;1666166376.9864786;-18.336130142211914;0.9762528538703918;-135.72930908203125
407;1666166377.037233;46.976760899999995;7.179467;65.24700164794922;1666166377.1972961;-20.43857192993164;-0.11050717532634735;-135.62110900878906
408;1666166377.2509782;46.976753599999995;7.1794562;65.0530014038086;1666166377.4022548;-20.46614646911621;-0.41798216104507446;-135.90260314941406
409;1666166377.4569123;46.976746299999995;7.1794454;64.85700225830078;1666166377.607215;-17.722166061401367;-0.35934382677078247;-136.05482482910156
410;1666166377.669251;46.9767389;7.1794347;64.66100311279297;1666166377.8502996;-19.873218536376953;-0.07503419369459152;-136.0743408203125
411;1666166377.902027;46.9767315;7.179424;64.46700286865234;1666166378.0572112;-21.806936264038086;0.14032955467700958;-136.01588439941406
412;1666166378.1099193;46.9767241;7.1794134;64.27300262451172;1666166378.2651012;-19.217069625854492;0.29451021552085876;-136.10182189941406
413;1666166378.3129244;46.9767167;7.1794028999999995;64.08100128173828;1666166378.4612772;-18.273483276367188;0.36017584800720215;-136.04925537109375
414;1666166378.512027;46.976709199999995;7.1793923;63.89200210571289;1666166378.6672127;-19.99320411682129;1.4132698774337769;-135.9177703857422
415;1666166378.7248;46.9767017;7.1793816999999995;63.7030029296875;1666166378.8809566;-21.069782257080078;1.837913990020752;-135.86337280273438
416;1666166378.937567;46.9766942;7.179371;63.51700210571289;1666166379.0829883;-19.23274040222168;-1.8023760318756104;-135.2693328857422
417;1666166379.1347187;46.976686699999995;7.1793603;63.3280029296875;1666166379.3084502;-20.229650497436523;-2.1395151615142822;-136.13128662109375
418;1666166379.3591976;46.9766791;7.1793496;63.13700485229492;1666166379.5075493;-19.19024658203125;-1.2281259298324585;-136.42633056640625
419;1666166379.5670848;46.976671499999995;7.179339;62.94400405883789;1666166379.7105563;-16.863035202026367;-2.099839687347412;-135.65936279296875
