;pos_time;latitude;longitude;altitude;alt_time;pitch;roll;yaw
0;1673297673.7412844;47.1306423;7.24062;-0.014000000432133675;1673297673.7403266;-0.00809636153280735;-0.32088908553123474;90.32051086425781
1;1673297673.9408154;47.1306423;7.2406201;-0.015000000596046448;1673297673.9388628;0.047436896711587906;-0.3585621118545532;90.28063201904297
2;1673297674.1335785;47.1306423;7.2406201999999995;-0.01600000075995922;1673297674.128701;-0.07248590886592865;-0.34747982025146484;90.47471618652344
3;1673297674.330805;47.1306423;7.2406203;-0.015000000596046448;1673297674.3259249;-0.1190791130065918;-0.24884891510009766;90.39344024658203
4;1673297674.5302162;47.1306423;7.2406201999999995;-0.017000000923871994;1673297674.5263104;-0.15416789054870605;-0.3356128931045532;90.49010467529297
5;1673297674.7325604;47.1306423;7.2406201999999995;-0.01600000075995922;1673297674.7286549;-0.16462525725364685;-0.25086888670921326;90.5199203491211
6;1673297674.9442215;47.1306423;7.2406201;-0.018000001087784767;1673297674.9403124;0.019123107194900513;-0.1747770458459854;90.45989990234375
7;1673297675.135308;47.1306423;7.24062;-0.020000001415610313;1673297675.1333477;0.2805182635784149;-0.26459765434265137;90.2949447631836
8;1673297675.3193626;47.1306423;7.24062;-0.020000001415610313;1673297675.314498;-0.041849810630083084;-0.2601354122161865;90.48653411865234
9;1673297675.505781;47.1306423;7.2406201;0.0020000000949949026;1673297675.500913;-0.15742814540863037;-0.24091407656669617;90.4958724975586
10;1673297675.6984072;47.1306423;7.2406201999999995;0.010000000707805157;1673297675.6954575;-0.28950801491737366;-0.2275904268026352;90.53108978271484
11;1673297675.898329;47.1306424;7.2406201;0.01600000075995922;1673297675.8938844;-0.2518576383590698;-0.17465747892856598;90.36982727050781
12;1673297676.1088052;47.1306424;7.24062;0.018000001087784767;1673297676.1058755;-0.06254689395427704;-0.33842042088508606;90.37339782714844
13;1673297676.3109357;47.1306424;7.2406198999999996;0.018000001087784767;1673297676.3060553;0.04125600308179855;0.008359338156878948;90.32368469238281
14;1673297676.5160413;47.1306424;7.2406198999999996;0.01900000125169754;1673297676.5101395;-0.10702622681856155;-0.3294640779495239;90.45687103271484
15;1673297676.7433035;47.1306424;7.2406198999999996;0.01600000075995922;1673297676.7401178;0.036468755453825;-0.19602788984775543;90.4868392944336
16;1673297676.9769225;47.1306424;7.24062;0.01600000075995922;1673297676.9727423;0.2033272683620453;-0.022113090381026268;90.50747680664062
17;1673297677.1639755;47.1306424;7.2406201;0.0010000000474974513;1673297677.1610053;-0.10845226049423218;-0.17217662930488586;90.49913787841797
18;1673297677.357281;47.1306424;7.2406201;0.003000000026077032;1673297677.354335;0.0057746111415326595;0.056789297610521317;90.40950775146484
19;1673297677.5709116;47.1306424;7.2406201999999995;0.004000000189989805;1673297677.5669632;-0.00502040795981884;-0.027992447838187218;90.57022094726562
20;1673297677.7619107;47.1306424;7.2406201999999995;0.006000000052154064;1673297677.757982;-0.012003563344478607;-0.21295732259750366;90.53545379638672
21;1673297677.9698904;47.1306424;7.2406201999999995;0.00800000037997961;1673297677.9669611;0.2531590461730957;-0.12419268488883972;90.4654769897461
22;1673297678.1521358;47.1306425;7.2406201999999995;0.007000000216066837;1673297678.1472158;0.31269630789756775;0.15691819787025452;90.40240478515625
23;1673297678.3439982;47.1306425;7.2406201999999995;0.009000000543892384;1673297678.3409748;0.48694100975990295;0.6180419325828552;89.94784545898438
24;1673297678.5499768;47.1306425;7.2406201;0.006000000052154064;1673297678.5460784;1.201993703842163;-0.03840521350502968;90.15459442138672
25;1673297678.757914;47.1306425;7.24062;0.01100000087171793;1673297678.750816;2.2632105350494385;-0.01365277823060751;90.12788391113281
26;1673297678.9560266;47.1306425;7.24062;0.013000000268220901;1673297678.949934;3.345651626586914;0.03868734836578369;90.14692687988281
27;1673297679.1532326;47.1306425;7.240619799999999;0.01100000087171793;1673297679.1496346;0.6787109971046448;-0.11913574486970901;89.50006103515625
28;1673297679.3399236;47.1306424;7.240619199999999;0.01900000125169754;1673297679.3350422;-5.812138557434082;-1.0299726724624634;90.24028015136719
29;1673297679.5239909;47.1306424;7.2406185;0.0430000014603138;1673297679.5198295;-9.642821311950684;-2.1401078701019287;91.0573959350586
30;1673297679.7032497;47.1306424;7.240617899999999;0.0950000062584877;1673297679.6991532;-10.245529174804688;3.00014591217041;90.2038803100586
31;1673297679.884897;47.1306425;7.240617599999999;0.15600000321865082;1673297679.8808687;-11.880565643310547;0.1977754831314087;90.05715942382812
32;1673297680.148853;47.1306425;7.2406175;0.22700001299381256;1673297680.1425946;-12.235383033752441;-3.4680778980255127;90.31400299072266
33;1673297680.3419917;47.130642599999995;7.240617599999999;0.30800002813339233;1673297680.336152;-11.28256607055664;1.774437665939331;89.40608978271484
34;1673297680.5276659;47.130642599999995;7.2406178;0.40800002217292786;1673297680.5227878;-11.101775169372559;1.1583890914916992;89.34461212158203
35;1673297680.7221768;47.1306425;7.2406181;0.5220000147819519;1673297680.7172937;-10.314593315124512;-4.222854137420654;90.28602600097656
36;1673297680.9178426;47.1306425;7.2406185999999995;0.6540000438690186;1673297680.9139397;-9.30867862701416;-0.34298229217529297;89.78980255126953
37;1673297681.1262193;47.130642599999995;7.240619;0.7940000295639038;1673297681.1223145;-8.523340225219727;2.3802971839904785;89.54733276367188
38;1673297681.329577;47.130642599999995;7.2406193;0.9470000267028809;1673297681.3266478;-8.503775596618652;-2.5016658306121826;90.4081802368164
39;1673297681.524277;47.130642699999996;7.2406196;1.1110000610351562;1673297681.52136;-8.082393646240234;-1.1145110130310059;90.52123260498047
40;1673297681.7405515;47.1306428;7.2406197;1.2920000553131104;1673297681.734701;-8.089789390563965;2.767002820968628;89.7945556640625
41;1673297681.945626;47.1306428;7.2406197;1.4890000820159912;1673297681.9417222;-8.577101707458496;-1.4057854413986206;90.13603210449219
42;1673297682.146324;47.130642699999996;7.2406197;1.683000087738037;1673297682.1424377;-8.53890609741211;-2.3985397815704346;90.35400390625
43;1673297682.3747149;47.130642599999995;7.240619499999999;1.8790000677108765;1673297682.3708196;-9.117816925048828;2.0077414512634277;89.80919647216797
44;1673297682.546452;47.130642599999995;7.2406194;2.0789999961853027;1673297682.542402;-9.264477729797363;-0.4126213490962982;90.33878326416016
45;1673297682.7582655;47.130642699999996;7.2406193;2.2740001678466797;1673297682.7350852;-9.552481651306152;-2.7807915210723877;90.8767318725586
46;1673297682.94011;47.130642699999996;7.240619199999999;2.4710001945495605;1673297682.935225;-9.599004745483398;2.5648906230926514;90.19012451171875
47;1673297683.1491015;47.130642699999996;7.240619199999999;2.6730000972747803;1673297683.1451986;-9.741272926330566;1.2654341459274292;89.96798706054688
48;1673297683.3365757;47.1306424;7.240619199999999;2.873000144958496;1673297683.3326786;-9.729622840881348;-4.095609664916992;90.55838012695312
49;1673297683.5499043;47.1306423;7.2406193;3.079000234603882;1673297683.5114849;-9.627690315246582;-0.13484039902687073;89.88378143310547
50;1673297683.7725642;47.1306423;7.2406194;3.2820000648498535;1673297683.7686589;-9.822586059570312;1.4203239679336548;90.00411224365234
51;1673297683.960288;47.1306422;7.240619499999999;3.4900002479553223;1673297683.9563856;-9.591270446777344;-3.5936615467071533;90.72425842285156
52;1673297684.1517131;47.1306422;7.2406197;3.690000057220459;1673297684.1485898;-9.23139476776123;-0.2837640047073364;89.99273681640625
53;1673297684.3688436;47.1306422;7.240619799999999;3.892000198364258;1673297684.3629818;-9.0955228805542;2.2895779609680176;89.66108703613281
54;1673297684.549008;47.130642099999996;7.24062;4.093000411987305;1673297684.5441246;-9.07440185546875;-3.596194267272949;90.5650405883789
55;1673297684.7296762;47.1306419;7.2406201;4.295000076293945;1673297684.7257879;-8.796865463256836;-1.8287254571914673;90.30055236816406
56;1673297684.9045637;47.130641999999995;7.2406201999999995;4.497000217437744;1673297684.9001234;-9.025674819946289;1.7877436876296997;89.60298156738281
57;1673297685.0937035;47.130642099999996;7.2406201999999995;4.701000213623047;1673297685.089785;-9.132342338562012;-2.230573892593384;90.36793518066406
58;1673297685.291311;47.1306422;7.2406201999999995;4.89900016784668;1673297685.2873404;-9.150879859924316;-1.468222737312317;90.4014663696289
59;1673297685.49429;47.1306423;7.2406201999999995;5.100000381469727;1673297685.489434;-9.205063819885254;2.987088203430176;89.75175476074219
60;1673297685.6974773;47.1306422;7.2406201999999995;5.306000232696533;1673297685.694564;-9.166181564331055;-1.4495137929916382;90.3043441772461
61;1673297685.9045334;47.130641999999995;7.2406201;5.511000156402588;1673297685.9015818;-9.364311218261719;-3.3338513374328613;90.55668640136719
62;1673297686.1220763;47.130641999999995;7.2406201;5.720000267028809;1673297686.117198;-9.4867525100708;1.6013274192810059;89.65191650390625
63;1673297686.305175;47.130642099999996;7.2406201;5.925000190734863;1673297686.3022466;-9.40655517578125;0.8076766133308411;89.80782318115234
64;1673297686.5015492;47.130642099999996;7.2406201;6.129000186920166;1673297686.4957118;-9.377054214477539;-3.2275583744049072;90.6733169555664
65;1673297686.7763855;47.130641999999995;7.2406201;6.329000473022461;1673297686.7724824;-9.396696090698242;0.3246031403541565;89.93567657470703
66;1673297687.0109868;47.130642099999996;7.2406201999999995;6.5370001792907715;1673297687.0090373;-9.435287475585938;1.3897254467010498;89.72605895996094
67;1673297687.1769845;47.130641999999995;7.2406201999999995;6.744000434875488;1673297687.1730807;-9.427288055419922;-3.563082695007324;90.59407043457031
68;1673297687.3831005;47.1306419;7.2406201999999995;6.952000141143799;1673297687.3801718;-9.363896369934082;-0.6029012203216553;90.1263656616211
69;1673297687.5759203;47.130641999999995;7.2406201999999995;7.158000469207764;1673297687.5739698;-9.474019050598145;2.034837245941162;89.83432006835938
70;1673297687.7930138;47.130642099999996;7.2406201999999995;7.366000175476074;1673297687.7900784;-9.352754592895508;-2.866243362426758;90.49481964111328
71;1673297687.9750388;47.130642099999996;7.2406201999999995;7.567000389099121;1673297687.9721103;-9.508042335510254;-0.5215431451797485;90.3467025756836
72;1673297688.1647592;47.1306422;7.2406201;7.766000270843506;1673297688.160843;-9.403763771057129;3.183234453201294;89.79051208496094
73;1673297688.3552635;47.130642099999996;7.2406201;7.967000484466553;1673297688.3513684;-9.509702682495117;-2.1476213932037354;90.31461334228516
74;1673297688.5694067;47.130641999999995;7.2406201;8.167000770568848;1673297688.56437;-9.610417366027832;-2.576730728149414;90.3698501586914
75;1673297688.7519257;47.1306419;7.2406201999999995;8.36500072479248;1673297688.7489786;-9.483939170837402;2.0633580684661865;89.81391906738281
76;1673297688.9438028;47.130641999999995;7.2406201999999995;8.559000015258789;1673297688.9399002;-9.459924697875977;-1.2529258728027344;90.30460357666016
77;1673297689.1536753;47.1306419;7.2406201999999995;8.760000228881836;1673297689.1497715;-9.470669746398926;-3.0698165893554688;90.63431549072266
78;1673297689.3435683;47.1306419;7.2406201999999995;8.960000038146973;1673297689.3406527;-9.555360794067383;1.455971121788025;89.76099395751953
79;1673297689.5351484;47.1306419;7.2406201999999995;9.164000511169434;1673297689.5293064;-9.565275192260742;-0.12096557766199112;89.9786148071289
80;1673297689.7339964;47.1306418;7.2406201999999995;9.362000465393066;1673297689.7301137;-9.504106521606445;-3.8171098232269287;90.55511474609375
81;1673297689.928062;47.1306419;7.2406203;9.563000679016113;1673297689.92416;-9.423858642578125;1.0699931383132935;89.84678649902344
82;1673297690.1204877;47.130641999999995;7.2406201999999995;9.760000228881836;1673297690.1165767;-9.566121101379395;0.9194676280021667;89.90748596191406
83;1673297690.3129184;47.130642099999996;7.2406201999999995;9.959000587463379;1673297690.3087823;-9.554708480834961;-3.4483065605163574;90.4555892944336
84;1673297690.52167;47.130642099999996;7.2406201999999995;10.16100025177002;1673297690.5103233;-9.647405624389648;0.36479783058166504;90.13201904296875
85;1673297690.725798;47.1306422;7.2406203;10.433000564575195;1673297690.7199576;-10.124979972839355;2.352673053741455;89.89644622802734
86;1673297690.9245882;47.130642099999996;7.2406206;10.790000915527344;1673297690.92247;-11.167789459228516;-2.223389148712158;90.29936981201172
87;1673297691.1666675;47.130641999999995;7.240621099999999;11.171000480651855;1673297691.1627746;-9.643917083740234;-2.4947311878204346;90.31380462646484
88;1673297691.3560567;47.130641999999995;7.2406215;11.565000534057617;1673297691.3521473;-8.625062942504883;1.9655203819274902;89.67813873291016
89;1673297691.5453897;47.1306422;7.2406219;11.961000442504883;1673297691.5414827;-7.952596187591553;-0.2886798083782196;89.98274230957031
90;1673297691.749115;47.1306422;7.2406220999999995;12.362000465393066;1673297691.7452075;-7.659183502197266;-2.954224109649658;90.54009246826172
91;1673297691.9712934;47.1306422;7.2406220999999995;12.762001037597656;1673297691.958618;-7.78102970123291;1.3897427320480347;89.87125396728516
92;1673297692.1757724;47.1306422;7.240622;13.16300106048584;1673297692.1718884;-8.050578117370605;0.7109209299087524;89.96891784667969
93;1673297692.3594558;47.130642099999996;7.2406217999999996;13.566000938415527;1673297692.354574;-8.361713409423828;-3.451677083969116;90.59925079345703
94;1673297692.5510654;47.130642099999996;7.2406215;13.968000411987305;1673297692.5432563;-8.884221076965332;-0.20343871414661407;90.061279296875
95;1673297692.746572;47.1306422;7.2406213;14.371000289916992;1673297692.74462;-9.074536323547363;1.7828407287597656;89.88446807861328
96;1673297692.9488676;47.1306423;7.240621099999999;14.771000862121582;1673297692.9439871;-9.41802978515625;-2.275681972503662;90.385009765625
97;1673297693.1509767;47.1306423;7.2406209;15.171000480651855;1673297693.147078;-9.698922157287598;-0.8118575811386108;90.2852554321289
98;1673297693.3492956;47.1306424;7.240620799999999;15.576001167297363;1673297693.3463736;-9.791365623474121;2.5970993041992188;89.60455322265625
99;1673297693.541939;47.1306423;7.240620799999999;15.984001159667969;1673297693.5388956;-9.65938663482666;-1.5524502992630005;90.32147979736328
100;1673297693.7460537;47.1306422;7.240620799999999;16.38800048828125;1673297693.7411814;-9.478726387023926;-2.5729148387908936;90.45123291015625
101;1673297693.9455087;47.130642099999996;7.240620799999999;16.79800033569336;1673297693.939651;-9.503636360168457;1.9570062160491943;89.81861877441406
102;1673297694.1450999;47.1306422;7.2406209;17.209001541137695;1673297694.1412058;-9.143845558166504;0.8161126971244812;90.03462219238281
103;1673297694.3327339;47.1306422;7.240621;17.618000030517578;1673297694.3288326;-9.025813102722168;-2.9127676486968994;90.58744812011719
104;1673297694.522348;47.1306422;7.240621;18.022001266479492;1673297694.5183983;-9.098997116088867;0.5970686078071594;89.92997741699219
105;1673297694.7003343;47.1306422;7.240621;18.433000564575195;1673297694.6974146;-8.973549842834473;1.6897441148757935;89.69220733642578
106;1673297694.8967965;47.130642099999996;7.240621;18.84600067138672;1673297694.8909566;-8.969605445861816;-3.1001124382019043;90.57272338867188
107;1673297695.113659;47.130642099999996;7.240621;19.256999969482422;1673297695.1107306;-9.154563903808594;-1.555485725402832;90.10416412353516
108;1673297695.2907212;47.1306422;7.240621;19.670000076293945;1673297695.2877944;-9.088072776794434;2.345114231109619;89.70674896240234
109;1673297695.509001;47.1306423;7.2406209;20.08300018310547;1673297695.5039904;-9.28435230255127;-1.318881630897522;90.34651184082031
110;1673297695.721557;47.1306424;7.240620799999999;20.490001678466797;1673297695.7166388;-9.333550453186035;-1.8778351545333862;90.5155029296875
111;1673297695.9230692;47.1306424;7.240620799999999;20.90300178527832;1673297695.9186227;-9.318191528320312;2.5235137939453125;89.76849365234375
112;1673297696.1369967;47.1306424;7.240620799999999;21.319000244140625;1673297696.1330824;-9.188486099243164;-0.1960684359073639;90.20718383789062
113;1673297696.3184721;47.1306423;7.240620799999999;21.731000900268555;1673297696.3145597;-9.104474067687988;-3.2047884464263916;90.45274353027344
114;1673297696.5195212;47.1306423;7.2406209;22.141000747680664;1673297696.5165927;-9.146276473999023;0.7381898164749146;90.00553131103516
115;1673297696.7214265;47.1306424;7.2406209;22.547000885009766;1673297696.7169824;-9.057343482971191;1.416543960571289;89.85765838623047
116;1673297696.920221;47.1306424;7.240620799999999;22.955001831054688;1673297696.9163043;-9.105740547180176;-2.82462477684021;90.62055969238281
117;1673297697.1321867;47.1306424;7.240620799999999;23.356000900268555;1673297697.12829;-9.187288284301758;0.4434596300125122;89.97325134277344
118;1673297697.3284647;47.1306424;7.2406207;23.761001586914062;1673297697.3236682;-9.07160472869873;2.3454666137695312;89.74327087402344
119;1673297697.5219781;47.1306423;7.2406207;24.16400146484375;1673297697.5180056;-9.198638916015625;-2.857116222381592;90.50273132324219
120;1673297697.7376962;47.1306422;7.2406207;24.57000160217285;1673297697.732816;-9.209955215454102;-1.4465622901916504;90.26350402832031
121;1673297697.9439597;47.1306422;7.2406206;24.98000144958496;1673297697.940057;-9.315367698669434;1.9286454916000366;89.7773666381836
122;1673297698.1445944;47.1306423;7.2406204999999995;25.38800048828125;1673297698.139704;-9.485722541809082;-1.465028166770935;90.22380828857422
123;1673297698.3312495;47.1306424;7.2406204;25.786001205444336;1673297698.3263721;-9.459128379821777;-1.9655816555023193;90.62666320800781
124;1673297698.5347295;47.1306425;7.2406203;26.187002182006836;1673297698.530825;-9.487332344055176;2.147185802459717;89.82207489013672
125;1673297698.7548285;47.1306425;7.2406201999999995;26.590002059936523;1673297698.7509239;-9.696246147155762;0.5352428555488586;90.01700592041016
126;1673297698.9767053;47.1306424;7.2406201999999995;26.98600196838379;1673297698.972803;-9.56484317779541;-2.9511513710021973;90.30695343017578
127;1673297699.1526113;47.1306423;7.2406201999999995;27.38500213623047;1673297699.148699;-9.566959381103516;1.3103910684585571;89.80984497070312
128;1673297699.3432877;47.1306424;7.2406203;27.781002044677734;1673297699.3403666;-9.370382308959961;1.1836143732070923;89.87318420410156
129;1673297699.5525246;47.1306424;7.2406203;28.181001663208008;1673297699.5486093;-9.177250862121582;-2.958916187286377;90.68450927734375
130;1673297699.7944279;47.1306424;7.2406204;28.577001571655273;1673297699.7924755;-9.037581443786621;0.22225899994373322;90.1370620727539
131;1673297700.0326886;47.1306424;7.2406204;28.977001190185547;1673297699.9920895;-9.085494041442871;2.4354195594787598;89.78937530517578
132;1673297700.1885903;47.1306423;7.2406204;29.378002166748047;1673297700.185662;-9.280438423156738;-2.2792599201202393;90.42998504638672
133;1673297700.3586667;47.1306422;7.2406203;29.786001205444336;1673297700.3547664;-9.275718688964844;-1.19556725025177;90.12848663330078
134;1673297700.540551;47.1306422;7.2406203;30.19700050354004;1673297700.5366468;-9.550820350646973;2.3054933547973633;89.6253433227539
135;1673297700.7302113;47.1306423;7.2406203;30.601001739501953;1673297700.7257638;-9.103218078613281;-1.06101393699646;90.17047882080078
136;1673297700.9588256;47.1306424;7.2406201999999995;30.996002197265625;1673297700.956874;-9.39743423461914;-2.475182056427002;90.61274719238281
137;1673297701.1549394;47.1306425;7.2406201999999995;31.394001007080078;1673297701.1500525;-9.301037788391113;2.655463933944702;89.70158386230469
138;1673297701.3436239;47.1306425;7.2406201999999995;31.79400062561035;1673297701.3397074;-9.302806854248047;0.32594484090805054;90.2638931274414
139;1673297701.5801842;47.1306423;7.2406201999999995;32.19300079345703;1673297701.5772526;-9.473036766052246;-2.874337911605835;90.66603088378906
140;1673297701.844762;47.1306422;7.2406201999999995;32.595001220703125;1673297701.8437848;-9.28000259399414;1.368835210800171;90.05443572998047
141;1673297701.990517;47.1306422;7.2406201999999995;32.992000579833984;1673297701.985638;-9.385825157165527;1.395544171333313;89.84245300292969
142;1673297702.1587791;47.1306422;7.2406201;33.39200210571289;1673297702.1568155;-9.333978652954102;-3.1406192779541016;90.46392059326172
143;1673297702.373707;47.1306422;7.2406201;33.78600311279297;1673297702.3688245;-9.590438842773438;0.8177850246429443;89.86966705322266
144;1673297702.5657048;47.1306422;7.2406201;34.185001373291016;1673297702.562777;-9.45979118347168;2.035454750061035;89.79927825927734
145;1673297702.7752867;47.1306422;7.2406201999999995;34.59000015258789;1673297702.773333;-9.396815299987793;-2.496028423309326;90.50067901611328
146;1673297702.964438;47.130642099999996;7.2406201999999995;34.99300003051758;1673297702.9605317;-9.253131866455078;-1.62582528591156;90.32685852050781
147;1673297703.1530764;47.1306422;7.2406201999999995;35.39500045776367;1673297703.150159;-9.285539627075195;2.8628451824188232;89.83805084228516
148;1673297703.3902228;47.1306423;7.2406201999999995;35.797000885009766;1673297703.3853354;-9.395492553710938;-1.2248915433883667;90.35774993896484
149;1673297703.5962794;47.1306423;7.2406201999999995;36.19200134277344;1673297703.5923753;-9.527789115905762;-2.124415159225464;90.51781463623047
150;1673297703.8064458;47.1306424;7.2406201999999995;36.5880012512207;1673297703.8025432;-9.350817680358887;2.988046646118164;89.53852081298828
151;1673297703.9954803;47.1306424;7.2406201999999995;36.9890022277832;1673297703.9925363;-9.250738143920898;-0.3525552451610565;89.97032928466797
152;1673297704.194166;47.1306423;7.2406201999999995;37.3910026550293;1673297704.1902616;-9.36528205871582;-2.884748697280884;90.44396209716797
153;1673297704.3646085;47.1306423;7.2406201999999995;37.80000305175781;1673297704.3616774;-9.384336471557617;1.7284263372421265;89.8625717163086
154;1673297704.555368;47.1306423;7.2406201999999995;38.204002380371094;1673297704.5504274;-9.406855583190918;0.5401167273521423;90.00904083251953
155;1673297704.7477612;47.1306424;7.2406201999999995;38.60600280761719;1673297704.743858;-9.508966445922852;-2.6650166511535645;90.65296173095703
156;1673297704.9498158;47.1306424;7.2406201999999995;39.0;1673297704.9459107;-9.30163860321045;1.1582612991333008;90.05374145507812
157;1673297705.1522262;47.1306424;7.2406201999999995;39.402000427246094;1673297705.1493065;-9.32227897644043;1.9561119079589844;89.73036193847656
158;1673297705.3380141;47.1306423;7.2406203;39.803001403808594;1673297705.3335478;-9.353094100952148;-2.6806118488311768;90.47860717773438
159;1673297705.5331337;47.1306423;7.2406203;40.21000289916992;1673297705.528253;-9.306567192077637;-0.8666982650756836;90.0675048828125
160;1673297705.7486932;47.1306423;7.2406203;40.61600112915039;1673297705.7437706;-9.399837493896484;2.5994479656219482;89.72766876220703
161;1673297705.9422953;47.1306424;7.2406203;41.01900100708008;1673297705.9383936;-9.33060073852539;-1.7195714712142944;90.39214324951172
162;1673297706.1367075;47.1306425;7.2406203;41.41100311279297;1673297706.133243;-9.455846786499023;-1.0368932485580444;90.44065856933594
163;1673297706.3273885;47.1306425;7.2406203;41.80600357055664;1673297706.3225112;-9.324506759643555;2.7663121223449707;89.72909545898438
164;1673297706.5279977;47.1306425;7.2406203;42.20600128173828;1673297706.5250509;-9.377863883972168;-0.6529822945594788;90.24726867675781
165;1673297706.72456;47.1306424;7.2406203;42.60100173950195;1673297706.719667;-9.268244743347168;-2.3568577766418457;90.42027282714844
166;1673297706.9402711;47.1306424;7.2406204;43.00100326538086;1673297706.9348037;-9.289022445678711;1.8848339319229126;89.77799224853516
167;1673297707.145338;47.1306425;7.2406204;43.402000427246094;1673297707.1394842;-9.200141906738281;1.1191147565841675;89.9981689453125
168;1673297707.3516412;47.1306425;7.2406204;43.803001403808594;1673297707.347716;-9.275196075439453;-2.770721197128296;90.60701751708984
169;1673297707.5520082;47.1306424;7.2406203;44.19700241088867;1673297707.5461507;-9.44311237335205;1.3707510232925415;89.98963928222656
170;1673297707.7472053;47.1306424;7.2406203;44.59400177001953;1673297707.7432675;-9.436685562133789;1.6960015296936035;89.90520477294922
171;1673297708.0165575;47.1306423;7.2406201999999995;44.99100112915039;1673297708.0116897;-9.447630882263184;-3.0717854499816895;90.65953063964844
172;1673297708.1916192;47.1306423;7.2406201999999995;45.39500045776367;1673297708.1886914;-9.329590797424316;-0.19755056500434875;90.06184387207031
173;1673297708.3876321;47.1306423;7.2406201999999995;45.79900360107422;1673297708.3837569;-9.547216415405273;2.317790985107422;89.7616958618164
174;1673297708.5893087;47.1306424;7.2406201999999995;46.202003479003906;1673297708.5853813;-9.282429695129395;-2.092581272125244;90.30767059326172
175;1673297708.7697535;47.1306425;7.2406201;46.595001220703125;1673297708.764873;-9.576913833618164;-0.821674644947052;90.27991485595703
176;1673297708.9726572;47.1306425;7.2406201;46.9890022277832;1673297708.9687462;-9.400450706481934;2.715765953063965;89.6332015991211
177;1673297709.1588979;47.1306425;7.2406201;47.38300323486328;1673297709.1559734;-9.472515106201172;-0.7457057237625122;90.27930450439453
178;1673297709.349376;47.1306424;7.2406201;47.77800369262695;1673297709.3445132;-9.325843811035156;-2.514437198638916;90.4630126953125
179;1673297709.5488546;47.1306424;7.2406201;48.16100311279297;1673297709.5449526;-9.668534278869629;1.305494785308838;89.90690612792969
180;1673297709.7445493;47.1306425;7.24062;48.49800109863281;1673297709.7401018;-9.65046501159668;0.42942145466804504;90.00274658203125
181;1673297709.929695;47.1306424;7.2406198999999996;48.785003662109375;1673297709.9257894;-9.888131141662598;-2.230652093887329;90.5812759399414
182;1673297710.12151;47.1306424;7.2406197;49.0150032043457;1673297710.1166368;-9.891829490661621;2.502596616744995;89.82899475097656
183;1673297710.316993;47.1306423;7.240619499999999;49.20900344848633;1673297710.3121123;-10.220420837402344;-0.6010674238204956;90.22882843017578
184;1673297710.5067544;47.1306423;7.2406193;49.36900329589844;1673297710.501881;-5.035696983337402;0.009125564247369766;89.90640258789062
185;1673297710.7001925;47.1306422;7.2406185999999995;49.474002838134766;1673297710.695313;4.408577919006348;11.406355857849121;83.50169372558594
186;1673297710.8978462;47.1306418;7.240617299999999;49.50400161743164;1673297710.8939433;-4.311389446258545;12.508686065673828;71.3833236694336
187;1673297711.1002126;47.1306411;7.2406159;49.547000885009766;1673297711.0953217;-6.662172794342041;5.728114128112793;60.88916015625
188;1673297711.306693;47.130640299999996;7.240614399999999;49.586002349853516;1673297711.3018134;-3.49349308013916;9.083863258361816;51.643226623535156
189;1673297711.5061622;47.1306393;7.2406128999999995;49.624000549316406;1673297711.5007663;-5.292438983917236;8.11350154876709;42.886085510253906
190;1673297711.7007143;47.130638399999995;7.2406115;49.663002014160156;1673297711.6967175;-6.186873912811279;5.6226806640625;33.93414306640625
191;1673297711.901763;47.1306376;7.2406102;49.698001861572266;1673297711.8967726;-5.492206573486328;6.209360599517822;24.58831787109375
192;1673297712.0987442;47.1306369;7.2406089;49.72800064086914;1673297712.0948322;-3.647756576538086;8.388092994689941;15.90601921081543
193;1673297712.309983;47.1306364;7.240607799999999;49.75400161743164;1673297712.305549;-1.1412663459777832;12.4350004196167;7.244384288787842
194;1673297712.5222254;47.130635999999996;7.240606799999999;49.77800369262695;1673297712.5189576;-0.1934673935174942;14.505887031555176;-1.050917625427246
195;1673297712.7449203;47.1306357;7.240606199999999;49.7920036315918;1673297712.741977;-0.23076750338077545;13.241339683532715;-9.115640640258789
196;1673297712.9519386;47.1306355;7.2406058;49.80500411987305;1673297712.9487443;1.56753671169281;10.48891830444336;-17.46321678161621
197;1673297713.159706;47.130635399999996;7.2406055;49.82400131225586;1673297713.1557662;4.894999027252197;7.143362045288086;-26.634944915771484
198;1673297713.359677;47.1306352;7.2406052;49.840003967285156;1673297713.3567061;8.747937202453613;6.062612056732178;-35.456241607666016
199;1673297713.540976;47.130635;7.240604899999999;49.85600280761719;1673297713.5365198;9.343147277832031;8.51630973815918;-44.875614166259766
200;1673297713.7249506;47.130634799999996;7.2406047;49.87000274658203;1673297713.7220333;8.900421142578125;10.085843086242676;-51.89154052734375
201;1673297713.9223776;47.1306345;7.2406048;49.874000549316406;1673297713.9174974;6.879237174987793;8.30751895904541;-51.7868766784668
202;1673297714.1192083;47.1306344;7.2406048;49.880001068115234;1673297714.113338;5.537030220031738;5.744533061981201;-48.75824737548828
203;1673297714.3139164;47.130634199999996;7.240604599999999;49.88500213623047;1673297714.3100195;7.023073673248291;3.749143123626709;-46.769535064697266
204;1673297714.5101066;47.130634099999995;7.240604299999999;49.88800048828125;1673297714.5051954;8.04513931274414;6.444278717041016;-46.0727424621582
205;1673297714.7113724;47.1306339;7.240603999999999;49.89400100708008;1673297714.7074678;7.67384672164917;9.42910099029541;-46.41121292114258
206;1673297714.9116974;47.1306337;7.2406038;49.90300369262695;1673297714.9077983;5.919929027557373;9.62328052520752;-46.716670989990234
207;1673297715.122164;47.130633499999995;7.240603699999999;49.913002014160156;1673297715.118261;4.773547649383545;8.940265655517578;-46.30323791503906
208;1673297715.3293736;47.1306334;7.2406036;49.91400146484375;1673297715.3254704;5.074070453643799;6.595776081085205;-46.0394287109375
209;1673297715.5384398;47.1306334;7.2406033999999995;49.91800308227539;1673297715.532584;7.461326599121094;6.035337924957275;-46.2340087890625
210;1673297715.744554;47.130633599999996;7.2406029;49.91800308227539;1673297715.739681;-15.055340766906738;9.17740249633789;-49.065521240234375
211;1673297715.9487302;47.130634699999995;7.240601;49.90900421142578;1673297715.9458127;-43.962772369384766;12.171257972717285;-50.77793884277344
212;1673297716.1546586;47.1306375;7.2405965;49.8640022277832;1673297716.1497936;-46.06105422973633;6.686022758483887;-47.74236297607422
213;1673297716.350536;47.130641999999995;7.2405889;49.801002502441406;1673297716.3466127;-40.28959274291992;-0.2200763076543808;-45.27064895629883
214;1673297716.54158;47.130647599999996;7.240578299999999;49.75400161743164;1673297716.5375204;-40.53800582885742;-4.419753551483154;-44.12443923950195
215;1673297716.7222133;47.130654299999996;7.2405650999999995;49.73200225830078;1673297716.717334;-41.251991271972656;-0.744461178779602;-44.789344787597656
216;1673297716.9175992;47.1306623;7.240549499999999;49.74100112915039;1673297716.9122765;-46.7189826965332;4.226888179779053;-45.233646392822266
217;1673297717.1102803;47.130671799999995;7.2405314999999995;49.78000259399414;1673297717.1063757;-55.21847152709961;7.189939975738525;-45.312721252441406
218;1673297717.309346;47.130683499999996;7.240510899999999;49.83500289916992;1673297717.306417;-59.67831039428711;8.335637092590332;-44.52473449707031
219;1673297717.5092208;47.1306973;7.240488099999999;49.88200378417969;1673297717.505319;-60.02128219604492;9.213388442993164;-44.60056686401367
220;1673297717.7112033;47.130713199999995;7.2404635;49.90500259399414;1673297717.7065918;-58.073333740234375;9.066739082336426;-42.89908218383789
221;1673297717.9102597;47.1307306;7.240437699999999;49.90900421142578;1673297717.9073179;-53.48831558227539;7.489396095275879;-41.97187042236328
222;1673297718.1104994;47.130748999999994;7.2404113;49.90500259399414;1673297718.1065884;-35.443634033203125;11.627212524414062;-42.989707946777344
223;1673297718.3088353;47.1307671;7.2403859;49.88800048828125;1673297718.3044426;10.215784072875977;10.87385368347168;-41.758785247802734
224;1673297718.516238;47.1307833;7.240363299999999;49.7760009765625;1673297718.5132277;35.977882385253906;5.109224796295166;-40.67158508300781
225;1673297718.7231936;47.130797099999995;7.2403436;49.509002685546875;1673297718.7173383;20.64727020263672;-0.6854506134986877;-44.00458526611328
226;1673297718.9332411;47.1308079;7.2403268999999995;49.27000045776367;1673297718.9283717;16.524866104125977;-1.0719972848892212;-45.75931930541992
227;1673297719.13951;47.1308157;7.2403132999999995;49.19000244140625;1673297719.1352496;21.39120864868164;-0.36791735887527466;-45.60399627685547
228;1673297719.3325412;47.130820799999995;7.2403033;49.26900100708008;1673297719.3286448;53.234161376953125;1.4353692531585693;-45.71086883544922
229;1673297719.536392;47.1308222;7.2402982;49.38600158691406;1673297719.5312767;53.79001235961914;2.281003713607788;-46.561344146728516
230;1673297719.7473664;47.130820299999996;7.2402979;49.518001556396484;1673297719.7403235;57.318058013916016;4.152780055999756;-47.216575622558594
231;1673297719.9532526;47.1308158;7.2403018999999995;49.62300109863281;1673297719.9503248;53.25869369506836;5.218858242034912;-46.89198684692383
232;1673297720.1622298;47.1308094;7.2403092;49.70900344848633;1673297720.15418;44.802391052246094;7.359378814697266;-46.6380615234375
233;1673297720.3784282;47.1308022;7.240318299999999;49.76100158691406;1673297720.373186;31.181758880615234;8.227517127990723;-47.18912124633789
234;1673297720.5602987;47.1307949;7.2403279;49.78700256347656;1673297720.5563948;14.130577087402344;10.216401100158691;-46.488162994384766
235;1673297720.7493489;47.1307882;7.2403372;49.79600143432617;1673297720.745436;-2.7832863330841064;10.861084938049316;-46.491031646728516
236;1673297720.9460406;47.1307824;7.240345199999999;49.78900146484375;1673297720.943112;-16.99059295654297;8.700056076049805;-46.963008880615234
237;1673297721.1326058;47.130778199999995;7.2403509999999995;49.768001556396484;1673297721.1287107;-24.375268936157227;9.009086608886719;-44.718963623046875
238;1673297721.3260512;47.130775899999996;7.2403543;49.76100158691406;1673297721.3215802;-18.316423416137695;8.301982879638672;-43.53079605102539
239;1673297721.5190847;47.1307748;7.2403555;49.76100158691406;1673297721.515194;-5.625268459320068;-3.197690725326538;-44.925315856933594
240;1673297721.7275336;47.1307742;7.2403549;49.7760009765625;1673297721.7245698;0.3259025514125824;0.8988193273544312;-44.79335021972656
241;1673297721.9326243;47.1307737;7.2403537;49.80600357055664;1673297721.929695;7.2269673347473145;-0.5966822504997253;-44.73110580444336
242;1673297722.1341228;47.130773;7.2403524;49.84300231933594;1673297722.130218;12.092523574829102;2.830017328262329;-44.96479415893555
243;1673297722.3497553;47.1307719;7.2403512999999995;49.88100051879883;1673297722.3448768;14.696276664733887;3.9927144050598145;-44.879154205322266
244;1673297722.5618362;47.1307705;7.2403505;49.906002044677734;1673297722.55696;23.778465270996094;2.915759801864624;-44.95322036743164
245;1673297722.8241515;47.1307689;7.2403498;49.63500213623047;1673297722.8212218;43.664894104003906;1.1584694385528564;-44.7825813293457
246;1673297723.0610747;47.130767299999995;7.2403490999999995;49.005001068115234;1673297723.0569208;57.27845001220703;-3.7250843048095703;-45.975311279296875
247;1673297723.2179894;47.1307658;7.2403482;47.98600387573242;1673297723.2121234;61.99543762207031;-10.73849105834961;-47.69599914550781
248;1673297723.3964977;47.130764199999994;7.2403471999999995;46.6140022277832;1673297723.392593;55.579566955566406;-14.677574157714844;-44.49094009399414
249;1673297723.5860858;47.1307628;7.240346199999999;44.875003814697266;1673297723.5821416;36.383670806884766;-16.036840438842773;-36.50663375854492
250;1673297723.7739606;47.1307615;7.240345199999999;42.762001037597656;1673297723.7690806;5.5093994140625;-18.03913688659668;-26.10652732849121
251;1673297723.9624;47.1307602;7.2403442;40.25700378417969;1673297723.9594727;-28.63751220703125;-22.335241317749023;-13.503153800964355
252;1673297724.1599302;47.1307589;7.2403433999999995;37.36900329589844;1673297724.15507;-52.75325012207031;-27.31386375427246;0.6273459196090698
253;1673297724.354378;47.1307573;7.2403425;34.105003356933594;1673297724.3485203;-57.17494201660156;-20.537015914916992;4.031744003295898
254;1673297724.552045;47.1307556;7.2403417999999995;30.49300193786621;1673297724.5489483;-38.442264556884766;-3.583263874053955;-1.6676307916641235
255;1673297724.744721;47.1307536;7.240341;26.511001586914062;1673297724.7417963;-0.9994525909423828;6.405875205993652;-1.0040897130966187
256;1673297724.9494476;47.130751599999996;7.24034;22.135000228881836;1673297724.9445894;33.985565185546875;8.908834457397461;3.0096654891967773
257;1673297725.1472547;47.1307499;7.2403388;17.395999908447266;1673297725.1423886;45.66440963745117;1.4077274799346924;3.5277249813079834
258;1673297725.34213;47.1307487;7.240337599999999;12.304000854492188;1673297725.3372495;25.75393295288086;-10.021040916442871;5.07961368560791
259;1673297725.5386012;47.1307477;7.2403365;6.831000328063965;1673297725.5337048;-13.401597023010254;-17.543119430541992;13.931604385375977
260;1673297725.7368996;47.1307465;7.240335399999999;0.9580000638961792;1673297725.7314734;-41.11490249633789;-18.065750122070312;22.515668869018555
261;1673297725.936171;47.1307609;7.240322099999999;-0.44200003147125244;1673297725.9317224;-4.334183216094971;-12.5945405960083;7.025108337402344
262;1673297726.154933;47.1307834;7.240304699999999;-1.1410000324249268;1673297726.1500509;13.6745023727417;-17.670331954956055;4.591126918792725
263;1673297726.3599749;47.130807399999995;7.2402871;-1.9250000715255737;1673297726.3550959;12.818511009216309;-17.885866165161133;4.277590274810791
264;1673297726.5660405;47.1308339;7.2402679;-2.7400002479553223;1673297726.5621586;0.43339529633522034;-17.568017959594727;7.43190860748291
265;1673297726.7614858;47.1308623;7.2402476;-3.635000228881836;1673297726.7575905;-27.403194427490234;-20.43785858154297;15.556467056274414
266;1673297726.9629157;47.1308909;7.240225499999999;-4.39300012588501;1673297726.9590206;-21.631195068359375;-20.985300064086914;13.676434516906738
267;1673297727.1524694;47.1309196;7.2402029;-4.920000076293945;1673297727.147574;-21.804851531982422;-23.08317756652832;13.36329460144043
268;1673297727.3726223;47.1309483;7.2401791;-5.24500036239624;1673297727.369063;-21.500568389892578;-23.832014083862305;12.91195011138916
269;1673297727.545397;47.1309775;7.2401541;-0.9280000329017639;1673297727.5411596;-21.346126556396484;-23.65797233581543;12.559738159179688
270;1673297727.7313886;47.1310086;7.2401271;-0.41600000858306885;1673297727.7273886;-21.406631469726562;-23.419960021972656;12.292506217956543
271;1673297727.9283497;47.1310414;7.2400983;-0.17900000512599945;1673297727.9244425;-21.39284896850586;-23.092744827270508;12.034403800964355
272;1673297728.1423178;47.131075599999996;7.2400679;-0.08900000154972076;1673297728.1363766;-21.377561569213867;-22.645870208740234;11.793952941894531
273;1673297728.3624218;47.1311113;7.240036;-0.10400000214576721;1673297728.3574219;-21.39974594116211;-22.270498275756836;11.63270378112793
274;1673297728.5542722;47.1311482;7.2400027;-0.13300000131130219;1673297728.5503304;-21.379497528076172;-21.989620208740234;11.52314567565918
275;1673297728.7504709;47.131186299999996;7.239967999999999;-0.15900000929832458;1673297728.7465374;-21.39822769165039;-21.82528305053711;11.452582359313965
276;1673297728.9392743;47.131225699999995;7.239932;-0.18200001120567322;1673297728.9343936;-21.31843376159668;-21.44925308227539;11.351998329162598
277;1673297729.1451814;47.1312662;7.2398948;-0.19500000774860382;1673297729.1432424;-21.25885772705078;-21.026689529418945;11.247892379760742
278;1673297729.3532016;47.131308;7.2398563;-0.2110000103712082;1673297729.3502197;-21.247034072875977;-20.678638458251953;11.159756660461426
279;1673297729.5532026;47.131350999999995;7.2398165;-0.27400001883506775;1673297729.54922;-21.170894622802734;-20.25458526611328;11.076996803283691
280;1673297729.7534757;47.131395;7.2397756;-0.2970000207424164;1673297729.749253;-21.091156005859375;-19.863309860229492;10.983805656433105
281;1673297729.9652586;47.1314402;7.2397333999999995;-0.29600000381469727;1673297729.9623284;-21.011560440063477;-19.507953643798828;10.908077239990234
282;1673297730.2222874;47.131486599999995;7.2396901;-0.2939999997615814;1673297730.214764;-20.96135711669922;-19.113880157470703;10.845224380493164
283;1673297730.4492457;47.131534099999996;7.239645599999999;-0.289000004529953;1673297730.4443693;-20.900419235229492;-18.762855529785156;10.793347358703613
284;1673297730.6138144;47.131582699999996;7.2395999;-0.29100000858306885;1673297730.610233;-20.762664794921875;-18.456768035888672;10.717679977416992
285;1673297730.8364644;47.1316324;7.239553;-0.29200002551078796;1673297730.8333752;-20.69091033935547;-18.08719825744629;10.658411979675293
286;1673297731.0492718;47.1316834;7.2395048;-0.34800001978874207;1673297731.0453663;-20.612443923950195;-17.8194522857666;10.629999160766602
287;1673297731.2563446;47.1317354;7.2394557;-0.359000027179718;1673297731.2534156;-20.526119232177734;-17.502573013305664;10.56954288482666
288;1673297733.1592388;47.1307701;7.2403227;-0.28200000524520874;1673297731.4526403;-20.421966552734375;-17.228273391723633;10.541714668273926
289;1673297733.3686647;47.1307561;7.2403277;-0.18400001525878906;1673297731.603392;-20.33487319946289;-16.98754119873047;10.492558479309082
290;;;;;1673297731.8174176;-20.227842330932617;-16.709321975708008;10.444572448730469
291;;;;;1673297732.0177007;-20.22159767150879;-16.471031188964844;10.406306266784668
292;;;;;1673297732.201554;-20.184059143066406;-16.349790573120117;10.406399726867676
293;;;;;1673297732.391193;-20.033395767211914;-16.163362503051758;10.40298843383789
294;;;;;1673297732.56337;-19.958507537841797;-15.711995124816895;10.395499229431152
295;;;;;1673297732.7390988;-19.85299301147461;-15.426254272460938;10.38492202758789
296;;;;;1673297732.927406;-19.766624450683594;-15.188469886779785;10.24329948425293
297;;;;;1673297733.1285589;-19.70975112915039;-14.994791984558105;9.997264862060547
298;;;;;1673297733.3402495;-19.67073631286621;-14.830901145935059;9.774053573608398
