;pos_time;latitude;longitude;altitude;alt_time;pitch;roll;yaw
0;1673294865.065056;47.1306424;7.240619799999999;-0.01900000125169754;1673294865.1119661;0.4152343273162842;-0.7240522503852844;89.98948669433594
1;1673294865.2740169;47.1306424;7.2406197;-0.021000001579523087;1673294865.3105178;0.13740871846675873;-0.6654789447784424;90.02851104736328
2;1673294865.471566;47.1306424;7.2406196;-0.02200000174343586;1673294865.5125563;0.3232150971889496;-0.5659487247467041;89.94712829589844
3;1673294865.6712468;47.1306424;7.2406197;-0.024000000208616257;1673294865.7097094;-0.16050885617733002;-0.8231149911880493;90.06671142578125
4;1673294865.8711505;47.1306424;7.240619799999999;-0.024000000208616257;1673294865.9092255;-0.1863773614168167;-0.20075228810310364;90.12687683105469
5;1673294866.0861895;47.1306424;7.2406198999999996;-0.024000000208616257;1673294866.1247919;-0.08569476753473282;0.14910632371902466;90.06839752197266
6;1673294866.272943;47.1306424;7.2406198999999996;-0.026000000536441803;1673294866.317173;-0.06374648213386536;-0.16412395238876343;90.09063720703125
7;1673294866.4679687;47.1306424;7.2406198999999996;-0.030000001192092896;1673294866.5092072;-0.09010960161685944;0.06404213607311249;90.06448364257812
8;1673294866.6674013;47.1306424;7.2406198999999996;-0.029000001028180122;1673294866.7132914;-0.1137322187423706;-0.24372312426567078;90.23509216308594
9;1673294866.8845365;47.1306424;7.2406198999999996;0.0;1673294866.9177303;0.06710007041692734;-0.43991410732269287;90.0499267578125
10;1673294867.1201684;47.1306425;7.2406198999999996;0.0;1673294867.1573415;-0.1398364007472992;-0.43367666006088257;90.20899200439453
11;1673294867.314436;47.1306425;7.2406198999999996;-0.004000000189989805;1673294867.3505912;-0.0655287653207779;-0.4948282241821289;90.34005737304688
12;1673294867.500624;47.1306425;7.2406198999999996;-0.00800000037997961;1673294867.5372844;-0.29666757583618164;-0.33281630277633667;90.1176986694336
13;1673294867.693248;47.1306425;7.2406198999999996;-0.009000000543892384;1673294867.7331357;-0.11919334530830383;-0.5064163208007812;90.18109893798828
14;1673294867.8889728;47.130642599999995;7.2406198999999996;-0.009000000543892384;1673294867.9332502;-0.18287459015846252;-0.48780179023742676;90.0869140625
15;1673294868.0903158;47.1306425;7.240619799999999;-0.00800000037997961;1673294868.1292224;0.018931683152914047;-0.30312657356262207;90.136474609375
16;1673294868.2782993;47.1306425;7.240619799999999;0.0;1673294868.3212032;-0.20486661791801453;-0.8926613330841064;90.05696105957031
17;1673294868.4731104;47.1306425;7.240619799999999;-0.0010000000474974513;1673294868.5153978;0.008826284669339657;-0.6854100227355957;90.0244369506836
18;1673294868.6732652;47.130642599999995;7.2406197;-0.0020000000949949026;1673294868.7164671;-0.2581227719783783;-0.7092911005020142;90.06786346435547
19;1673294868.8752527;47.1306425;7.240619799999999;-0.0020000000949949026;1673294868.9135053;-0.2473459541797638;-0.10550788044929504;90.06886291503906
20;1673294869.1192558;47.1306425;7.2406198999999996;-0.003000000026077032;1673294869.1610868;-0.14306165277957916;-0.5193610191345215;89.99425506591797
21;1673294869.3145082;47.130642599999995;7.2406198999999996;-0.004000000189989805;1673294869.3572724;-0.19923396408557892;-0.626977264881134;90.20683288574219
22;1673294869.5162668;47.130642599999995;7.2406198999999996;-0.0020000000949949026;1673294869.5544188;-0.2292550951242447;-0.13675041496753693;90.33110809326172
23;1673294869.7510738;47.130642599999995;7.2406198999999996;0.0020000000949949026;1673294869.7916627;-0.2885585129261017;-0.2831534147262573;90.17015075683594
24;1673294869.9282782;47.130642599999995;7.2406198999999996;0.005000000353902578;1673294869.9662924;-0.3125881850719452;-0.3168952167034149;90.29291534423828
25;1673294870.111154;47.130642699999996;7.2406198999999996;0.005000000353902578;1673294870.1551106;-0.4352908432483673;-0.2631210684776306;90.521240234375
26;1673294870.3222423;47.130642699999996;7.2406198999999996;0.005000000353902578;1673294870.3710861;-0.35272520780563354;-0.1253322809934616;91.87049865722656
27;1673294870.521551;47.1306428;7.2406201;0.010000000707805157;1673294870.571283;0.8304704427719116;0.6711006760597229;94.79804992675781
28;1673294870.7042477;47.1306429;7.2406204;0.026000000536441803;1673294870.744463;3.625720739364624;3.4596939086914062;94.05255889892578
29;1673294870.8843584;47.130643;7.2406207;0.04800000041723251;1673294870.9221957;9.067553520202637;8.048574447631836;93.33650970458984
30;1673294871.0853798;47.130643;7.240621;0.08700000494718552;1673294871.128437;8.456737518310547;10.574101448059082;92.6340560913086
31;1673294871.2853272;47.130643;7.240621;0.14600001275539398;1673294871.3245506;6.152282238006592;5.06553840637207;92.0441665649414
32;1673294871.4903407;47.1306429;7.240621;0.2200000137090683;1673294871.533358;7.2307820320129395;4.354555130004883;91.80492401123047
33;1673294871.694546;47.1306429;7.2406209;0.3050000071525574;1673294871.730709;7.8785810470581055;8.229914665222168;91.75586700439453
34;1673294871.8911998;47.1306429;7.240620799999999;0.4000000059604645;1673294871.9372122;8.928546905517578;7.749721050262451;91.24314880371094
35;1673294872.103141;47.130643;7.2406206;0.5120000243186951;1673294872.1431627;8.544119834899902;4.381838798522949;90.3138656616211
36;1673294872.2984195;47.130643;7.2406204;0.6390000581741333;1673294872.3405383;7.988162994384766;7.554356098175049;89.35743713378906
37;1673294872.484604;47.1306429;7.2406201999999995;0.7740000486373901;1673294872.520094;7.163177490234375;8.357547760009766;88.53559112548828
38;1673294872.683173;47.1306428;7.24062;0.9230000376701355;1673294872.7256708;6.1131181716918945;3.663682460784912;88.02599334716797
39;1673294872.8834555;47.130642599999995;7.2406197;1.0910000801086426;1673294872.925956;6.486611366271973;4.117104530334473;88.26752471923828
40;1673294873.085827;47.130642599999995;7.2406196;1.2720000743865967;1673294873.1296785;7.301809787750244;8.292492866516113;88.59505462646484
41;1673294873.290587;47.130642599999995;7.240619499999999;1.4590001106262207;1673294873.3327315;7.847315788269043;5.316657066345215;88.12061309814453
42;1673294873.4864728;47.130642699999996;7.2406194;1.6500000953674316;1673294873.5280466;7.277998924255371;4.471358776092529;89.20301055908203
43;1673294873.6648185;47.1306428;7.2406194;1.842000126838684;1673294873.704431;6.84503698348999;8.825095176696777;88.08074188232422
44;1673294873.890125;47.1306428;7.2406194;2.0290000438690186;1673294873.9254162;7.022869110107422;5.392817497253418;87.3346176147461
45;1673294874.0999203;47.130642699999996;7.2406194;2.2220001220703125;1673294874.1418796;7.048206806182861;3.7167086601257324;86.69510650634766
46;1673294874.288181;47.130642599999995;7.2406194;2.4160001277923584;1673294874.32536;7.798995494842529;7.45108699798584;86.8284912109375
47;1673294874.4764898;47.130642599999995;7.2406194;2.615000009536743;1673294874.5206394;8.55276107788086;6.933990001678467;86.6549072265625
48;1673294874.6671686;47.130642699999996;7.2406194;2.817000150680542;1673294874.7234235;8.321229934692383;4.065168857574463;85.98583221435547
49;1673294874.8896074;47.1306428;7.2406194;3.0160000324249268;1673294874.931613;7.472685813903809;7.485003471374512;85.61796569824219
50;1673294875.0958488;47.130642599999995;7.240619499999999;3.2140002250671387;1673294875.131997;7.242469310760498;6.2199788093566895;85.77500915527344
51;1673294875.2890291;47.1306425;7.2406196;3.4100000858306885;1673294875.3295796;7.404489994049072;2.4589383602142334;86.17314147949219
52;1673294875.4814267;47.1306424;7.2406196;3.6060001850128174;1673294875.5251987;7.513199329376221;5.464261531829834;86.79889678955078
53;1673294875.677547;47.1306424;7.240619499999999;3.8020002841949463;1673294875.7251124;7.961671829223633;7.595460891723633;87.02217102050781
54;1673294875.8938253;47.1306425;7.2406194;4.004000186920166;1673294875.9318986;7.86431360244751;4.334120273590088;86.60030364990234
55;1673294876.0760334;47.130642599999995;7.2406194;4.206000328063965;1673294876.1148376;7.464369297027588;5.720780372619629;86.20709991455078
56;1673294876.2859638;47.130642599999995;7.2406194;4.409000396728516;1673294876.3291194;7.1800737380981445;8.029962539672852;86.22431182861328
57;1673294876.4920497;47.1306425;7.240619499999999;4.6060004234313965;1673294876.5399418;7.1186909675598145;4.012789726257324;86.10787963867188
58;1673294876.6994898;47.1306424;7.240619499999999;4.802000045776367;1673294876.746372;7.181707859039307;4.115152359008789;86.42218780517578
59;1673294876.902842;47.1306424;7.240619499999999;4.997000217437744;1673294876.9439037;7.899201393127441;7.957520961761475;86.8874740600586
60;1673294877.101472;47.130642599999995;7.2406196;5.196000099182129;1673294877.1453776;8.31488037109375;5.241489410400391;86.62718200683594
61;1673294877.3018544;47.130642699999996;7.2406196;5.396000385284424;1673294877.348702;8.006387710571289;4.342162132263184;86.31726837158203
62;1673294877.510162;47.1306428;7.2406197;5.6010003089904785;1673294877.549325;7.799952030181885;8.622686386108398;86.21334838867188
63;1673294877.7083805;47.130642699999996;7.2406197;5.806000232696533;1673294877.7474701;7.415186882019043;6.284590244293213;86.20575714111328
64;1673294877.8963196;47.130642699999996;7.2406197;6.008000373840332;1673294877.9392662;7.132643222808838;3.081752300262451;86.21072387695312
65;1673294878.0964797;47.130642599999995;7.2406196;6.213000297546387;1673294878.1425161;7.374950885772705;7.161281585693359;86.67515563964844
66;1673294878.32101;47.130642699999996;7.2406196;6.420000076293945;1673294878.3600566;8.045272827148438;7.507299423217773;86.63916778564453
67;1673294878.5068889;47.1306428;7.240619499999999;6.627000331878662;1673294878.5449402;7.938443183898926;3.9723336696624756;86.23670196533203
68;1673294878.6945038;47.1306429;7.240619499999999;6.830000400543213;1673294878.732125;7.94056510925293;7.077767848968506;86.30541229248047
69;1673294878.8790703;47.1306429;7.240619499999999;7.032000541687012;1673294878.9178345;7.263497829437256;7.8985209465026855;86.59256744384766
70;1673294879.0719202;47.1306428;7.240619499999999;7.232000350952148;1673294879.1115458;6.86270809173584;3.968641519546509;86.70243072509766
71;1673294879.275161;47.130642699999996;7.240619499999999;7.433000564575195;1673294879.3177023;6.814091205596924;6.028349876403809;86.78353118896484
72;1673294879.4775674;47.130642599999995;7.240619499999999;7.637000560760498;1673294879.520822;7.632614612579346;8.458690643310547;86.6410903930664
73;1673294879.6760578;47.130642599999995;7.240619499999999;7.840000152587891;1673294879.7159584;7.942290306091309;4.215055465698242;86.11202239990234
74;1673294879.882336;47.130642599999995;7.240619499999999;8.042000770568848;1673294879.924507;8.091451644897461;4.604345321655273;85.90380859375
75;1673294880.089763;47.130642599999995;7.2406197;8.24000072479248;1673294880.1332648;7.965960502624512;8.19344425201416;86.3078842163086
76;1673294880.282169;47.1306425;7.240619799999999;8.440999984741211;1673294880.3217683;7.6304545402526855;4.727473258972168;86.49964904785156
77;1673294880.4815366;47.1306425;7.2406198999999996;8.640000343322754;1673294880.5266263;7.099385738372803;3.620490550994873;86.6411361694336
78;1673294880.6830177;47.1306425;7.2406198999999996;8.846000671386719;1673294880.7238235;7.5209641456604;7.7356181144714355;86.72866821289062
79;1673294880.8787422;47.130642599999995;7.2406198999999996;9.051000595092773;1673294880.9184532;8.199210166931152;6.937318801879883;86.37651062011719
80;1673294881.067435;47.130642699999996;7.2406198999999996;9.256999969482422;1673294881.1187499;8.512457847595215;3.9256980419158936;85.85160064697266
81;1673294881.3016262;47.1306428;7.24062;9.463000297546387;1673294881.348093;8.303482055664062;7.324161052703857;85.93855285644531
82;1673294881.486592;47.130642699999996;7.24062;9.664000511169434;1673294881.5310614;7.610933303833008;7.0912885665893555;86.36426544189453
83;1673294881.6829655;47.130642699999996;7.24062;9.862000465393066;1673294881.7206342;7.176486015319824;3.538405656814575;86.68806457519531
84;1673294881.8734334;47.130642599999995;7.24062;10.062000274658203;1673294881.914003;7.06876277923584;6.391625881195068;86.98339080810547
85;1673294882.067048;47.130642599999995;7.2406198999999996;10.28700065612793;1673294882.1115198;7.516178131103516;8.997239112854004;86.7388916015625
86;1673294882.2937908;47.1306425;7.2406198999999996;10.612000465393066;1673294882.3326676;9.160036087036133;7.406614780426025;86.22081756591797
87;1673294882.4854286;47.1306424;7.240619799999999;10.984000205993652;1673294882.5240698;8.939123153686523;5.622288703918457;86.15526580810547
88;1673294882.676885;47.130641999999995;7.2406196;11.373000144958496;1673294882.7193942;7.848234176635742;7.920939922332764;86.63896179199219
89;1673294882.8838189;47.1306416;7.240619499999999;11.767000198364258;1673294882.9284918;7.012842178344727;4.849369049072266;86.75559997558594
90;1673294883.089101;47.1306413;7.2406193;12.164000511169434;1673294883.130847;6.210402011871338;1.9675052165985107;86.58207702636719
91;1673294883.2925167;47.1306411;7.240619199999999;12.566000938415527;1673294883.3331466;6.299782752990723;5.353620529174805;86.54438018798828
92;1673294883.494844;47.1306411;7.240619199999999;12.971000671386719;1673294883.5379593;6.851577281951904;4.510140895843506;86.4040298461914
93;1673294883.7019415;47.1306413;7.2406193;13.379000663757324;1673294883.7439775;7.135255813598633;2.4454214572906494;86.3407211303711
94;1673294883.9130895;47.130641499999996;7.2406194;13.78600025177002;1673294883.95705;7.442324161529541;6.718631744384766;86.66542053222656
95;1673294884.1124392;47.1306418;7.240619499999999;14.187000274658203;1673294884.1535707;7.7112603187561035;7.1782636642456055;86.73912811279297
96;1673294884.3019273;47.1306419;7.2406197;14.588000297546387;1673294884.3455613;7.675049781799316;4.063343048095703;86.73625946044922
97;1673294884.4970284;47.130641999999995;7.2406197;14.994000434875488;1673294884.5416281;7.536107540130615;6.603603363037109;86.57686614990234
98;1673294884.692729;47.130642099999996;7.240619799999999;15.4010009765625;1673294884.7352853;7.342325687408447;8.370789527893066;86.3974838256836
99;1673294884.892416;47.1306422;7.240619799999999;15.81100082397461;1673294884.9316528;7.739677906036377;4.300342559814453;86.38648986816406
100;1673294885.0915012;47.1306423;7.240619799999999;16.225000381469727;1673294885.1325457;7.759950160980225;5.726508617401123;86.60408782958984
101;1673294885.300668;47.1306423;7.240619799999999;16.63800048828125;1673294885.3417797;7.883254528045654;8.35096263885498;86.67195892333984
102;1673294885.5125718;47.1306422;7.240619799999999;17.04800033569336;1673294885.5566006;7.723785877227783;4.30995512008667;86.50933074951172
103;1673294885.6989422;47.1306422;7.2406197;17.452001571655273;1673294885.7414553;7.3793182373046875;4.588124752044678;86.46945190429688
104;1673294885.9049983;47.130642099999996;7.2406197;17.856000900268555;1673294885.9465299;7.182120323181152;7.674034595489502;86.36894989013672
105;1673294886.0905426;47.1306422;7.2406197;18.26500129699707;1673294886.1321156;7.245870590209961;5.334926605224609;86.33183288574219
106;1673294886.2849972;47.1306423;7.2406197;18.679000854492188;1673294886.3317041;7.358835220336914;4.049920082092285;86.49097442626953
107;1673294886.5042515;47.1306423;7.2406197;19.09200096130371;1673294886.5458345;7.460226058959961;8.108064651489258;86.75106811523438
108;1673294886.7165685;47.1306423;7.2406197;19.50800132751465;1673294886.755629;7.739950180053711;6.201937198638916;86.55875396728516
109;1673294886.9486547;47.1306422;7.240619799999999;19.91900062561035;1673294886.9818387;7.642946243286133;3.4258852005004883;86.42251586914062
110;1673294887.133358;47.1306422;7.240619799999999;20.334001541137695;1673294887.1733742;7.48505973815918;5.999628067016602;86.45962524414062
111;1673294887.3258204;47.1306422;7.240619799999999;20.746000289916992;1673294887.359994;7.429055690765381;7.349018573760986;86.5165023803711
112;1673294887.5141857;47.1306424;7.2406198999999996;21.15300178527832;1673294887.5455663;7.4514875411987305;3.8159120082855225;86.400634765625
113;1673294887.7052186;47.1306425;7.2406198999999996;21.564001083374023;1673294887.7453225;7.406306743621826;5.835143089294434;86.58958435058594
114;1673294887.8969595;47.1306425;7.24062;21.96900177001953;1673294887.9407904;7.640047550201416;8.398544311523438;86.6534194946289
115;1673294888.124172;47.1306425;7.2406198999999996;22.374000549316406;1673294888.1651626;7.711341381072998;4.618424892425537;86.43695068359375
116;1673294888.329199;47.1306424;7.2406198999999996;22.7710018157959;1673294888.3770235;7.744258403778076;4.63628625869751;86.32120513916016
117;1673294888.5284348;47.1306424;7.2406198999999996;23.174001693725586;1673294888.565641;7.603085041046143;7.9185590744018555;86.55274963378906
118;1673294888.7141147;47.1306425;7.240619799999999;23.580001831054688;1673294888.753138;7.571048259735107;5.444393157958984;86.52452087402344
119;1673294888.9008434;47.130642599999995;7.240619799999999;23.988000869750977;1673294888.9371145;7.314011096954346;4.375072002410889;86.38723754882812
120;1673294889.085054;47.130642599999995;7.240619799999999;24.391000747680664;1673294889.1295094;7.371685981750488;8.000866889953613;86.56968688964844
121;1673294889.2901301;47.130642599999995;7.2406197;24.791000366210938;1673294889.3336287;7.303222179412842;6.6980814933776855;86.62789916992188
122;1673294889.4962537;47.1306425;7.2406197;25.185001373291016;1673294889.5398986;7.437932968139648;3.319112539291382;86.45893096923828
123;1673294889.713752;47.1306425;7.2406196;25.57900047302246;1673294889.7596362;7.378715515136719;6.303707599639893;86.41578674316406
124;1673294889.9413643;47.130642599999995;7.2406196;25.976001739501953;1673294889.981362;7.422058582305908;8.206398010253906;86.65873718261719
125;1673294890.1052508;47.130642699999996;7.240619499999999;26.37700080871582;1673294890.1439219;7.340520858764648;4.135444641113281;86.58737182617188
126;1673294890.307851;47.1306428;7.240619499999999;26.779001235961914;1673294890.3588383;7.275448799133301;6.404821872711182;86.50959777832031
127;1673294890.5276346;47.1306428;7.240619499999999;27.179000854492188;1673294890.5738056;7.319796562194824;8.161410331726074;86.51615142822266
128;1673294890.7368457;47.1306428;7.240619499999999;27.577001571655273;1673294890.77795;7.245912551879883;4.61011266708374;86.5042724609375
129;1673294890.9254596;47.1306428;7.240619499999999;27.96700096130371;1673294890.962544;7.426699161529541;4.931484699249268;86.48234558105469
130;1673294891.1085997;47.1306428;7.2406196;28.360000610351562;1673294891.1462364;7.7537522315979;8.376044273376465;86.43370819091797
131;1673294891.2951412;47.1306429;7.2406196;28.755001068115234;1673294891.3367498;7.582907199859619;5.618091106414795;86.48979949951172
132;1673294891.503436;47.1306429;7.240619499999999;29.147001266479492;1673294891.546975;7.382242202758789;4.2739152908325195;86.51964569091797
133;1673294891.7009723;47.1306429;7.240619499999999;29.543001174926758;1673294891.7415366;7.150557518005371;8.542659759521484;86.3923110961914
134;1673294891.9004653;47.1306428;7.240619499999999;29.935001373291016;1673294891.942047;7.294199466705322;6.632538318634033;86.35423278808594
135;1673294892.100076;47.130642699999996;7.2406196;30.321001052856445;1673294892.1441088;7.3312225341796875;3.557967185974121;86.44364929199219
136;1673294892.3069708;47.130642599999995;7.2406196;30.707000732421875;1673294892.3466341;7.313889026641846;6.906526565551758;86.58808135986328
137;1673294892.5119917;47.130642599999995;7.2406196;31.09800148010254;1673294892.5569735;7.878032684326172;7.2441253662109375;86.55138397216797
138;1673294892.714656;47.130642599999995;7.2406196;31.490001678466797;1673294892.7533274;7.69317102432251;3.660217523574829;86.366943359375
139;1673294892.9111915;47.130642699999996;7.2406196;31.88300132751465;1673294892.9528213;7.404429912567139;6.764111042022705;86.47006225585938
140;1673294893.1246643;47.130642699999996;7.2406196;32.27400207519531;1673294893.1648347;7.326507091522217;8.139477729797363;86.59343719482422
141;1673294893.3609;47.130642699999996;7.2406196;32.66600036621094;1673294893.421148;7.398371696472168;4.226269245147705;86.3993148803711
142;1673294893.5967245;47.130642699999996;7.2406196;33.053001403808594;1673294893.6289885;7.409926891326904;5.646517276763916;86.58444213867188
143;1673294893.8272815;47.130642699999996;7.2406196;33.44200134277344;1673294893.8555932;7.214428901672363;8.793922424316406;86.73262023925781
144;1673294894.0154011;47.1306428;7.2406196;33.83700180053711;1673294894.0560527;7.537140846252441;5.1045379638671875;86.37976837158203
145;1673294894.220358;47.1306428;7.2406196;34.23500061035156;1673294894.2438843;7.458839416503906;4.792911052703857;86.30267333984375
146;1673294894.3949301;47.130642699999996;7.2406196;34.62900161743164;1673294894.439952;7.409177303314209;8.612728118896484;86.55000305175781
147;1673294894.570498;47.130642699999996;7.2406196;35.020999908447266;1673294894.6085637;7.322185039520264;5.910122871398926;86.5606689453125
148;1673294894.7543285;47.1306425;7.2406196;35.40800094604492;1673294894.793443;7.351463794708252;3.8993687629699707;86.47135925292969
149;1673294894.945017;47.1306425;7.2406196;35.802001953125;1673294894.9869838;7.243541717529297;7.6282639503479;86.59565734863281
150;1673294895.1434894;47.1306425;7.2406196;36.20100021362305;1673294895.1856658;7.549010753631592;6.4137492179870605;86.60874938964844
151;1673294895.356516;47.1306425;7.2406197;36.60000228881836;1673294895.397519;7.564269542694092;3.696218252182007;86.39765930175781
152;1673294895.5981565;47.1306425;7.2406197;36.99800109863281;1673294895.6611636;7.501097679138184;7.032698154449463;86.43009948730469
153;1673294895.7975702;47.1306425;7.2406197;37.39400100708008;1673294895.8323014;7.423358917236328;7.180540084838867;86.59136962890625
154;1673294895.979606;47.1306425;7.240619799999999;37.79100036621094;1673294896.0225897;7.2305121421813965;4.04578161239624;86.50391387939453
155;1673294896.150514;47.1306425;7.240619799999999;38.18100357055664;1673294896.1836987;7.325013637542725;5.934011936187744;86.53223419189453
156;1673294896.3413672;47.130642599999995;7.240619799999999;38.57500076293945;1673294896.3862748;7.366164684295654;8.359885215759277;86.55673217773438
157;1673294896.556304;47.130642699999996;7.2406197;38.97300338745117;1673294896.5963192;7.389498233795166;4.969146251678467;86.54450988769531
158;1673294896.7643552;47.1306428;7.2406197;39.37000274658203;1673294896.7994993;7.485362529754639;5.109580039978027;86.41793823242188
159;1673294896.9560633;47.1306428;7.240619799999999;39.76900100708008;1673294897.0078537;7.593795299530029;8.535171508789062;86.47528076171875
160;1673294897.1573286;47.1306428;7.240619799999999;40.165000915527344;1673294897.1963675;7.697439193725586;5.983370304107666;86.59608459472656
161;1673294897.3702624;47.130642699999996;7.2406198999999996;40.553001403808594;1673294897.4145648;7.5064005851745605;4.317026615142822;86.50282287597656
162;1673294897.5776093;47.130642599999995;7.2406198999999996;40.945003509521484;1673294897.6146991;7.420551776885986;7.910000801086426;86.33861541748047
163;1673294897.775071;47.130642599999995;7.2406198999999996;41.34000015258789;1673294897.8219223;7.3830132484436035;6.5727314949035645;86.35813903808594
164;1673294897.9663472;47.130642699999996;7.2406198999999996;41.73500061035156;1673294898.0079925;7.271084308624268;3.944338083267212;86.57904052734375
165;1673294898.1443505;47.130642699999996;7.2406198999999996;42.12700271606445;1673294898.1904697;7.52915096282959;7.337910175323486;86.67523956298828
166;1673294898.3421643;47.130642599999995;7.2406198999999996;42.52300262451172;1673294898.3812048;7.746030807495117;7.231549263000488;86.57659912109375
167;1673294898.5332053;47.130642699999996;7.2406198999999996;42.92100143432617;1673294898.578104;7.856016635894775;4.012363433837891;86.50404357910156
168;1673294898.7478979;47.130642699999996;7.2406198999999996;43.3120002746582;1673294898.7889328;7.453909873962402;6.1608452796936035;86.50521087646484
169;1673294898.9648993;47.130642699999996;7.2406198999999996;43.70900344848633;1673294899.004103;7.374821186065674;8.381080627441406;86.4674301147461
170;1673294899.156716;47.1306428;7.240619799999999;44.11100387573242;1673294899.1909997;7.366228103637695;4.838001251220703;86.48486328125
171;1673294899.3451629;47.1306429;7.240619799999999;44.51000213623047;1673294899.382435;7.300831317901611;5.572175025939941;86.54158782958984
172;1673294899.5188353;47.1306428;7.2406198999999996;44.906002044677734;1673294899.562326;7.361017227172852;8.520024299621582;86.54464721679688
173;1673294899.7251916;47.130642699999996;7.2406198999999996;45.29900360107422;1673294899.768668;7.5866594314575195;5.042710304260254;86.34156036376953
174;1673294899.9117866;47.130642599999995;7.2406198999999996;45.68400192260742;1673294899.952373;7.636784553527832;4.297050952911377;86.42809295654297
175;1673294900.1034698;47.130642599999995;7.2406198999999996;46.073001861572266;1673294900.1606882;7.4168620109558105;7.930390357971191;86.64537048339844
176;1673294900.315812;47.130642599999995;7.2406198999999996;46.4630012512207;1673294900.3568435;7.46625280380249;6.179376602172852;86.62744140625
177;1673294900.521941;47.130642699999996;7.240619799999999;46.85400390625;1673294900.5688286;7.4406514167785645;3.9196135997772217;86.48047637939453
178;1673294900.7339776;47.130642699999996;7.240619799999999;47.25200271606445;1673294900.777081;7.3199262619018555;7.952692985534668;86.57365417480469
179;1673294900.9372573;47.130642699999996;7.240619799999999;47.64800262451172;1673294900.9792254;7.491962432861328;7.098288059234619;86.5544204711914
180;1673294901.1424463;47.130642699999996;7.240619799999999;48.044002532958984;1673294901.188334;7.359480381011963;4.4235429763793945;86.20651245117188
181;1673294901.3438225;47.130642699999996;7.240619799999999;48.39400100708008;1673294901.3878956;7.319504261016846;6.794920444488525;85.99232482910156
182;1673294901.5311396;47.130642699999996;7.240619799999999;48.69900131225586;1673294901.5717216;7.512430667877197;7.495304107666016;86.10710144042969
183;1673294901.7167144;47.1306428;7.2406198999999996;48.95600128173828;1673294901.7573085;7.375365257263184;3.575676679611206;85.97029113769531
184;1673294901.9199343;47.1306429;7.2406198999999996;49.16800308227539;1673294901.9771788;7.3273725509643555;5.970529079437256;86.15596771240234
185;1673294902.1383238;47.130643;7.24062;49.342002868652344;1673294902.1773663;11.005437850952148;9.2621431350708;86.19660949707031
186;1673294902.3358388;47.1306431;7.2406198999999996;49.47500228881836;1673294902.3769183;18.135868072509766;12.582789421081543;82.28350067138672
187;1673294902.5402455;47.1306429;7.2406194;49.535003662109375;1673294902.5812688;20.760833740234375;11.549301147460938;69.43721008300781
188;1673294902.7315755;47.130642099999996;7.2406184;49.582000732421875;1673294902.7757368;11.567773818969727;0.5445169806480408;58.657135009765625
189;1673294902.938633;47.1306412;7.2406174;49.624000549316406;1673294902.9886155;17.718599319458008;0.702735424041748;50.09929275512695
190;1673294903.1359558;47.1306401;7.2406162;49.66200256347656;1673294903.1771555;14.204477310180664;0.6120911240577698;41.85000991821289
191;1673294903.345669;47.130638999999995;7.2406149;49.69400405883789;1673294903.395621;11.506391525268555;0.9317209720611572;33.42388916015625
192;1673294903.5574913;47.130637799999995;7.2406137;49.72200393676758;1673294903.6005554;8.317721366882324;0.20456714928150177;24.25481414794922
193;1673294903.7289987;47.1306368;7.2406125999999995;49.749000549316406;1673294903.7734323;5.48980712890625;-2.4668686389923096;14.849921226501465
194;1673294903.928504;47.130635899999994;7.240611899999999;49.768001556396484;1673294903.9736161;3.731649398803711;-6.252927780151367;5.305233478546143
195;1673294904.1345935;47.130635299999994;7.2406117;49.78700256347656;1673294904.1766195;3.5106170177459717;-9.681001663208008;-3.7504403591156006
196;1673294904.325624;47.1306349;7.2406115;49.80900192260742;1673294904.3675811;3.770542860031128;-6.602618217468262;-12.273284912109375
197;1673294904.5340102;47.1306349;7.2406114;49.827003479003906;1673294904.577217;2.674659013748169;-6.5842156410217285;-21.5633487701416
198;1673294904.7349534;47.130635;7.2406112;49.845001220703125;1673294904.779519;0.8477436900138855;-6.58635950088501;-30.117218017578125
199;1673294904.9332685;47.130635299999994;7.2406109999999995;49.86300277709961;1673294904.977545;-1.1083264350891113;-8.868536949157715;-38.09223937988281
200;1673294905.1276913;47.1306356;7.2406108;49.87200164794922;1673294905.1735384;-1.3931831121444702;-12.017826080322266;-47.11930465698242
201;1673294905.338882;47.1306358;7.2406106999999995;49.88100051879883;1673294905.385729;-1.4928380250930786;-13.140807151794434;-53.149681091308594
202;1673294905.5500154;47.130635999999996;7.2406106999999995;49.89200210571289;1673294905.5910082;-0.759976863861084;-12.625999450683594;-52.20576858520508
203;1673294905.7413259;47.1306361;7.2406105;49.89900207519531;1673294905.7813427;0.2860223948955536;-9.424985885620117;-48.742916107177734
204;1673294905.9662101;47.1306362;7.240610299999999;49.906002044677734;1673294906.0052495;-0.7578721046447754;-8.6334228515625;-46.489524841308594
205;1673294906.1576583;47.1306362;7.240609999999999;49.91100311279297;1673294906.1968045;-1.6924281120300293;-10.664833068847656;-45.94652557373047
206;1673294906.3458421;47.130635999999996;7.2406098;49.9160041809082;1673294906.3848815;-1.5942058563232422;-12.440152168273926;-46.01215362548828
207;1673294906.5303936;47.1306358;7.2406095;49.91400146484375;1673294906.5705101;-0.11166512221097946;-13.072431564331055;-46.41860580444336
208;1673294906.715603;47.1306357;7.2406093;49.91800308227539;1673294906.760105;1.1038042306900024;-13.348665237426758;-46.37085723876953
209;1673294906.9217846;47.1306355;7.2406090999999995;49.923004150390625;1673294906.9652596;1.592687964439392;-11.339578628540039;-46.1750373840332
210;1673294907.1222804;47.130635399999996;7.2406089;49.927001953125;1673294907.16479;1.141480803489685;-9.199764251708984;-45.883243560791016
211;1673294907.3205347;47.130635299999994;7.240608699999999;49.93100357055664;1673294907.3630602;-10.946916580200195;-8.361194610595703;-44.95002365112305
212;1673294907.5268617;47.1306355;7.240608;49.93600082397461;1673294907.5691407;-35.96973419189453;-6.352906703948975;-44.315834045410156
213;1673294907.7180643;47.1306369;7.240605599999999;49.928001403808594;1673294907.7631774;-53.05653762817383;-5.378135681152344;-45.995479583740234
214;1673294907.925075;47.1306404;7.240600799999999;49.8900032043457;1673294907.9701934;-47.71662139892578;-5.7718048095703125;-46.85453414916992
215;1673294908.12901;47.130645699999995;7.2405935999999995;49.84300231933594;1673294908.171087;-42.020721435546875;-7.474096298217773;-46.86609649658203
216;1673294908.357967;47.1306525;7.2405843999999995;49.80800247192383;1673294908.399912;-41.53079605102539;-6.255985736846924;-46.723995208740234
217;1673294908.5621884;47.1306606;7.2405732;49.80900192260742;1673294908.5970378;-51.1740837097168;-5.094493389129639;-46.945289611816406
218;1673294908.75333;47.1306703;7.2405593999999995;49.84100341796875;1673294908.790259;-60.033836364746094;-3.9845430850982666;-49.36822509765625
219;1673294908.9521754;47.1306818;7.2405424;49.871002197265625;1673294908.9912198;-59.86601638793945;-3.423729181289673;-50.67724609375
220;1673294909.135713;47.130694999999996;7.2405227;49.87900161743164;1673294909.180987;-53.9180793762207;-4.518917083740234;-49.86720657348633
221;1673294909.3466508;47.1307092;7.240501;49.88100051879883;1673294909.388891;-53.491878509521484;-6.639888763427734;-49.870025634765625
222;1673294909.5521817;47.130724099999995;7.240477599999999;49.88200378417969;1673294909.5920951;-54.51082992553711;-4.068665027618408;-51.76059341430664
223;1673294909.7433612;47.1307397;7.240452899999999;49.87800216674805;1673294909.7851157;-52.18159484863281;-5.038097381591797;-51.45911407470703
224;1673294909.9330971;47.1307556;7.2404269999999995;49.87200164794922;1673294909.973183;-43.81566619873047;-8.969172477722168;-51.23760986328125
225;1673294910.1301548;47.1307714;7.2404008;49.88300323486328;1673294910.1759725;-6.109658241271973;-9.237628936767578;-53.57597351074219
226;1673294910.334084;47.1307858;7.240377;49.86900329589844;1673294910.3770876;34.86843490600586;-2.2486188411712646;-51.62940216064453
227;1673294910.5423346;47.1307987;7.240356599999999;49.65900421142578;1673294910.5818243;20.581031799316406;-0.6928607821464539;-50.49677276611328
228;1673294910.7348232;47.1308096;7.2403406;49.38100051879883;1673294910.7769794;16.04041290283203;-2.123887777328491;-49.533729553222656
229;1673294910.9622402;47.1308185;7.2403289;49.18100357055664;1673294911.0172956;14.575431823730469;-2.4249017238616943;-50.00217056274414
230;1673294911.1612628;47.130825599999994;7.2403211999999995;49.165000915527344;1673294911.1993806;36.87376403808594;-7.5613555908203125;-50.849342346191406
231;1673294911.3402188;47.1308304;7.2403175;49.246002197265625;1673294911.380634;44.73881149291992;-7.360055923461914;-47.67831039428711
232;1673294911.5442533;47.1308321;7.2403182;49.368003845214844;1673294911.5941856;51.85000228881836;-7.057892799377441;-45.745182037353516
233;1673294911.7402163;47.1308309;7.2403227999999995;49.4630012512207;1673294911.7806656;47.88671875;-10.456306457519531;-45.9454231262207
234;1673294911.9380782;47.130827;7.2403303999999995;49.557003021240234;1673294911.9814208;44.406394958496094;-16.55672836303711;-46.60486602783203
235;1673294912.1389623;47.130821;7.2403398;49.63900375366211;1673294912.1816168;28.13179588317871;-18.884544372558594;-46.343563079833984
236;1673294912.332703;47.1308138;7.2403496999999994;49.7030029296875;1673294912.375963;6.4364237785339355;-18.872419357299805;-46.53370666503906
237;1673294912.5374405;47.1308065;7.2403588;49.746002197265625;1673294912.584397;-11.62505054473877;-12.310575485229492;-48.33302688598633
238;1673294912.7348692;47.130800099999995;7.2403663;49.77400207519531;1673294912.776847;-24.155132293701172;-8.693628311157227;-50.45469284057617
239;1673294912.9340324;47.130795299999996;7.240371499999999;49.77800369262695;1673294912.9789317;-17.265119552612305;-4.234655380249023;-51.597373962402344
240;1673294913.1428938;47.130791599999995;7.2403752;49.77300262451172;1673294913.184438;4.145200729370117;-0.7593368887901306;-50.50751495361328
241;1673294913.3542368;47.130788599999995;7.240379;49.7910041809082;1673294913.3967626;3.2082667350769043;-10.518742561340332;-50.2764778137207
242;1673294913.5521762;47.1307859;7.2403827;49.82500076293945;1673294913.5923986;-3.2174925804138184;-3.3129723072052;-50.05985641479492
243;1673294913.748209;47.130783799999996;7.2403862;49.86300277709961;1673294913.7839432;-0.4269620478153229;-12.776130676269531;-51.44062423706055
244;1673294913.9515853;47.130781999999996;7.2403892999999995;49.89400100708008;1673294913.9966283;9.213472366333008;-6.383248805999756;-50.348228454589844
245;1673294914.157255;47.1307804;7.240392399999999;49.92400360107422;1673294914.197808;9.15105152130127;-8.156684875488281;-49.72532653808594
246;1673294914.3369985;47.130778799999995;7.240395599999999;49.858001708984375;1673294914.3834207;15.686986923217773;-24.495641708374023;-51.577613830566406
247;1673294914.5367966;47.1307773;7.2403987999999995;49.445003509521484;1673294914.5777884;18.43402671813965;-35.28684616088867;-53.37382125854492
248;1673294914.731731;47.130775899999996;7.240402;48.6660041809082;1673294914.7737298;17.927656173706055;-37.86969757080078;-53.17616271972656
249;1673294914.953571;47.130774599999995;7.2404052;47.518001556396484;1673294914.9923348;13.391061782836914;-30.03352928161621;-50.364566802978516
250;1673294915.176407;47.130773399999995;7.2404085;45.99500274658203;1673294915.2208657;3.9335339069366455;-11.945176124572754;-47.035118103027344
251;1673294915.3789532;47.1307724;7.2404119;44.082000732421875;1673294915.42066;-9.047314643859863;12.977099418640137;-47.19155502319336
252;1673294915.5737245;47.1307714;7.2404152999999996;41.75600051879883;1673294915.6091962;-19.62060546875;37.33454895019531;-51.680633544921875
253;1673294915.7595758;47.130770299999995;7.240418699999999;39.057003021240234;1673294915.7972581;-23.992097854614258;49.34803009033203;-54.594295501708984
254;1673294915.9553134;47.130769;7.240422;35.99800109863281;1673294915.9968548;-21.91221046447754;40.8369026184082;-50.5758056640625
255;1673294916.1541867;47.130767399999996;7.2404253;32.56999969482422;1673294916.1903524;-10.947800636291504;15.088691711425781;-42.932456970214844
256;1673294916.3408036;47.1307657;7.240428499999999;28.757001876831055;1673294916.388234;5.680502414703369;-13.234607696533203;-40.96279525756836
257;1673294916.5450528;47.1307641;7.2404318;24.553001403808594;1673294916.5860345;16.240028381347656;-28.28993034362793;-42.682987213134766
258;1673294916.7503428;47.1307629;7.240435199999999;19.974000930786133;1673294916.793066;14.50390911102295;-19.251483917236328;-39.77904510498047
259;1673294916.9343767;47.1307621;7.2404388;15.010001182556152;1673294916.9765365;-0.25404030084609985;7.095709323883057;-36.5805549621582
260;1673294917.1338017;47.130761199999995;7.2404423;9.657999992370605;1673294917.176943;-16.601234436035156;29.962177276611328;-39.78250503540039
261;1673294917.345988;47.130760099999996;7.2404456999999995;3.934000253677368;1673294917.3897874;-21.93994140625;29.13734245300293;-39.689170837402344
262;1673294917.5444753;47.1307629;7.2404492;-0.052000001072883606;1673294917.585504;-14.263970375061035;9.91904067993164;-36.036312103271484
263;1673294917.7428622;47.1307761;7.2404524;-0.12800000607967377;1673294917.7880845;-8.594051361083984;14.11040210723877;-40.04841613769531
264;1673294917.9480264;47.1307895;7.2404557;-0.17000000178813934;1673294917.990579;-7.91134786605835;13.995833396911621;-39.86550521850586
265;1673294918.1493032;47.1308034;7.2404592999999995;-0.22600001096725464;1673294918.1908157;-7.700549602508545;13.503209114074707;-39.53567123413086
266;1673294918.3390849;47.130816599999996;7.2404629;-0.26600000262260437;1673294918.382078;-7.4971022605896;13.597857475280762;-39.304718017578125
267;1673294918.5476995;47.130831199999996;7.2404671;-0.30300000309944153;1673294918.5927446;-7.466940879821777;13.261067390441895;-39.05522918701172
268;1673294918.7447796;47.1308466;7.240471899999999;-0.3400000035762787;1673294918.7877312;-7.4078240394592285;13.00578784942627;-38.761756896972656
269;1673294918.946194;47.130863;7.2404771;-0.38600000739097595;1673294918.9936275;-7.344751358032227;12.764214515686035;-38.57847213745117
270;1673294919.151338;47.1308801;7.240482699999999;-0.4300000071525574;1673294919.1939569;-7.2577738761901855;12.33421516418457;-38.39358901977539
271;1673294919.3528;47.130897999999995;7.2404888;-0.4740000367164612;1673294919.39407;-7.246769905090332;11.979557991027832;-38.20790100097656
272;1673294919.5499148;47.1309167;7.2404953;-0.5530000329017639;1673294919.5909028;-7.137279033660889;11.663776397705078;-38.021240234375
273;1673294919.7526636;47.1309359;7.240501999999999;-0.612000048160553;1673294919.7966537;-7.066072463989258;11.416169166564941;-37.88072967529297
274;1673294919.953846;47.1309556;7.2405091;-0.6600000262260437;1673294920.0018578;-7.004157543182373;11.285449981689453;-37.74100875854492
275;1673294920.1588118;47.130975799999995;7.240516599999999;-0.7040000557899475;1673294920.2012608;-6.933809757232666;11.060160636901855;-37.55543899536133
276;1673294920.3668296;47.130996599999996;7.2405243;-0.7450000643730164;1673294920.4097185;-6.854696750640869;11.0118408203125;-37.42356491088867
277;1673294920.5648718;47.131017799999995;7.2405323;-0.7830000519752502;1673294920.6017728;-6.75835657119751;10.925793647766113;-37.28231430053711
278;1673294920.7558641;47.1310401;7.2405409;-0.8600000143051147;1673294920.8029647;-6.7300615310668945;10.886058807373047;-37.14678955078125
279;1673294920.9710371;47.1310625;7.2405496;-0.9080000519752502;1673294921.017003;-6.649593830108643;10.844390869140625;-37.031227111816406
280;1673294921.1789017;47.131085399999996;7.2405586;-0.9470000267028809;1673294921.2207284;-6.604747772216797;10.830385208129883;-36.91732406616211
281;1673294921.3880365;47.1311086;7.2405678;-0.9760000705718994;1673294921.4317389;-6.575719833374023;10.84775161743164;-36.80020523071289
282;1673294921.5918255;47.1311323;7.2405772;-0.9980000257492065;1673294921.6289067;-6.464892387390137;10.873948097229004;-36.70084762573242
283;1673294921.7809222;47.1311563;7.2405868;-1.0160000324249268;1673294921.856917;-6.443283557891846;10.914619445800781;-36.60380554199219
284;1673294922.056345;47.131180799999996;7.240596699999999;-1.0320000648498535;1673294922.0869722;-6.409183025360107;10.937886238098145;-36.48169708251953
285;1673294922.2127414;47.1312066;7.240607499999999;-1.093000054359436;1673294922.253877;-6.337357997894287;10.95942497253418;-36.369998931884766
286;1673294922.4269845;47.131232399999995;7.2406182;-1.1290000677108765;1673294922.4659169;-6.24484395980835;10.975364685058594;-36.320281982421875
287;1673294922.60257;47.131258599999995;7.2406291;-1.152999997138977;1673294922.6437504;-6.203599452972412;10.971039772033691;-36.224430084228516
288;1673294922.82106;47.131285;7.240640099999999;-1.1630001068115234;1673294922.857333;-6.167232513427734;10.966778755187988;-36.16663360595703
289;1673294922.993862;47.1313118;7.2406513;-1.165000081062317;1673294923.0301309;-6.106128692626953;10.933642387390137;-36.103729248046875
290;1673294923.1870368;47.1313344;7.2406612;-1.2060000896453857;1673294923.228309;-6.020927906036377;10.930810928344727;-36.01497268676758
291;;;;;1673294923.4338038;-5.99302339553833;10.869940757751465;-35.96634292602539
292;;;;;1673294923.6251373;-5.995572566986084;10.836024284362793;-35.95305633544922
293;;;;;1673294923.8098826;-5.905575275421143;10.771267890930176;-35.870540618896484
294;;;;;1673294924.015579;-5.851738452911377;10.720874786376953;-35.818416595458984
295;;;;;1673294924.2249966;-5.905775547027588;10.627358436584473;-35.80248260498047
296;;;;;1673294924.4248781;-5.82112979888916;10.336274147033691;-35.769989013671875
297;;;;;1673294924.6418326;-5.767172336578369;10.28432559967041;-35.78114318847656
