;pos_time;latitude;longitude;altitude;alt_time;pitch;roll;yaw
0;1673297510.0656846;47.1306425;7.240619799999999;-0.03800000250339508;1673297510.23807;-0.0054069082252681255;-0.23747822642326355;90.01115417480469
1;1673297510.2980638;47.1306425;7.2406198999999996;-0.03800000250339508;1673297510.511838;-0.008225908502936363;-0.3126732110977173;89.84817504882812
2;1673297510.5641472;47.1306425;7.2406198999999996;-0.03800000250339508;1673297510.7081916;0.10987164080142975;-0.09042870253324509;89.93538665771484
3;1673297510.7501915;47.1306425;7.2406198999999996;-0.04100000113248825;1673297510.8910446;0.002503197407349944;-0.35263678431510925;89.85459899902344
4;1673297510.92643;47.1306424;7.240619799999999;-0.0430000014603138;1673297511.0702152;0.0022832306567579508;-0.4511432647705078;90.04966735839844
5;1673297511.105334;47.1306424;7.240619799999999;-0.04400000348687172;1673297511.2465413;-0.22137407958507538;-0.2132357656955719;89.86851501464844
6;1673297511.2909915;47.1306424;7.2406197;-0.04700000211596489;1673297511.4462287;-0.1186184510588646;-0.419559508562088;89.88249969482422
7;1673297511.4854667;47.1306424;7.2406197;-0.05000000074505806;1673297511.6402433;-0.10185329616069794;-0.39703401923179626;90.0322494506836
8;1673297511.680902;47.1306424;7.2406197;-0.052000001072883606;1673297511.8259149;0.0006327662849798799;-0.390601247549057;89.92985534667969
9;1673297511.8664653;47.1306424;7.2406197;-0.05100000277161598;1673297512.0328708;0.05620768293738365;-0.3632572889328003;89.9862060546875
10;1673297512.0853734;47.1306424;7.240619799999999;-0.05000000074505806;1673297512.245142;-0.20439980924129486;-0.32067447900772095;89.82487487792969
11;1673297512.2827692;47.1306424;7.240619799999999;-0.052000001072883606;1673297512.4329526;-0.3422045409679413;-0.36183595657348633;89.7728500366211
12;1673297512.473011;47.1306424;7.240619799999999;-0.0560000017285347;1673297512.6296375;-0.23524083197116852;-0.2484205812215805;89.75303649902344
13;1673297512.6791258;47.1306424;7.240619799999999;-0.05900000408291817;1673297512.8407938;-0.18010279536247253;-0.3232276737689972;89.77159118652344
14;1673297512.8869164;47.1306424;7.2406197;-0.058000002056360245;1673297513.0413332;0.039868734776973724;-0.30683743953704834;89.73046112060547
15;1673297513.0873332;47.1306424;7.240619799999999;0.004000000189989805;1673297513.2325006;0.001045058947056532;-0.37255141139030457;89.9065170288086
16;1673297513.281969;47.1306424;7.240619799999999;0.006000000052154064;1673297513.4727912;-0.20013484358787537;-0.29068219661712646;89.8135757446289
17;1673297513.512934;47.1306425;7.240619799999999;0.00800000037997961;1673297513.6695335;-0.3099888265132904;-0.3383045494556427;89.74666595458984
18;1673297513.7084112;47.1306425;7.240619799999999;0.00800000037997961;1673297513.848039;-0.2912667989730835;-0.3990913927555084;89.86612701416016
19;1673297513.8814037;47.130642599999995;7.2406197;0.010000000707805157;1673297514.0304873;0.04259985685348511;-0.2313040792942047;89.80067443847656
20;1673297514.06423;47.1306425;7.2406197;0.00800000037997961;1673297514.2284822;-0.02421988546848297;-0.0916207879781723;89.84684753417969
21;1673297514.280873;47.1306425;7.2406198999999996;0.006000000052154064;1673297514.4567003;0.039328765124082565;-0.22248722612857819;89.9334945678711
22;1673297514.4937966;47.1306425;7.2406198999999996;0.004000000189989805;1673297514.6485062;0.036884456872940063;-0.17730635404586792;89.96463775634766
23;1673297514.6908464;47.1306425;7.2406198999999996;-0.0010000000474974513;1673297514.829563;0.18960219621658325;-0.40055322647094727;89.9296875
24;1673297514.8776064;47.1306425;7.2406198999999996;0.0;1673297515.0315022;0.3726992607116699;0.13530360162258148;89.8074951171875
25;1673297515.074427;47.130642599999995;7.2406198999999996;-0.0020000000949949026;1673297515.230436;0.23075048625469208;-0.27786991000175476;89.98973846435547
26;1673297515.2724564;47.130642599999995;7.2406198999999996;-0.003000000026077032;1673297515.4596157;-0.014752713963389397;-0.2430407702922821;89.87576293945312
27;1673297515.5034254;47.130642599999995;7.2406198999999996;-0.0020000000949949026;1673297515.650427;0.1572902649641037;-0.10243002325296402;89.77145385742188
28;1673297515.683431;47.130642599999995;7.2406198999999996;-0.004000000189989805;1673297515.8367558;0.14125525951385498;0.01983530819416046;89.8340835571289
29;1673297515.8918982;47.130642599999995;7.240619799999999;-0.006000000052154064;1673297516.053393;0.30955615639686584;-0.18442201614379883;89.8598403930664
30;1673297516.0938196;47.1306425;7.240619799999999;-0.006000000052154064;1673297516.25649;0.4049515426158905;-0.1083374097943306;89.93383026123047
31;1673297516.2976754;47.1306425;7.240619799999999;-0.00800000037997961;1673297516.4466145;1.1630373001098633;-0.16838371753692627;89.97080993652344
32;1673297516.4834614;47.1306425;7.240619799999999;-0.006000000052154064;1673297516.6305377;0.2861517071723938;-0.07048311829566956;90.25753021240234
33;1673297516.671459;47.1306425;7.2406196;-0.004000000189989805;1673297516.8264496;-6.3050456047058105;-0.42854806780815125;91.27613830566406
34;1673297516.8706248;47.1306425;7.2406191;0.014000000432133675;1673297517.035258;-10.369339942932129;-0.9788255095481873;91.57366180419922
35;1673297517.0695758;47.1306425;7.2406184;0.052000001072883606;1673297517.227661;-11.59145450592041;1.5976061820983887;90.5458984375
36;1673297517.2664602;47.1306424;7.2406178;0.10600000619888306;1673297517.4366584;-11.889751434326172;-3.1760237216949463;90.86274719238281
37;1673297517.4794443;47.1306423;7.2406175;0.17400000989437103;1673297517.6434388;-11.64831256866455;-3.218233346939087;90.7457275390625
38;1673297517.683533;47.1306423;7.2406175;0.25300002098083496;1673297517.8375833;-11.380905151367188;1.4126914739608765;90.04051208496094
39;1673297517.8787477;47.1306423;7.2406177;0.3440000116825104;1673297518.0440438;-10.63109302520752;0.1055339053273201;89.81903839111328
40;1673297518.0840647;47.1306424;7.2406179999999996;0.44700002670288086;1673297518.2360873;-9.93729305267334;-3.2057878971099854;90.32340240478516
41;1673297518.276119;47.130642599999995;7.2406184;0.5649999976158142;1673297518.4333766;-9.160309791564941;0.28981778025627136;89.96184539794922
42;1673297518.4734278;47.1306429;7.2406188;0.6970000267028809;1673297518.6367815;-8.68760871887207;3.100623607635498;89.31526947021484
43;1673297518.6777763;47.130643;7.240619199999999;0.8400000333786011;1673297518.8429105;-8.506742477416992;-0.9306792616844177;89.80101013183594
44;1673297518.883905;47.1306429;7.2406194;0.9940000176429749;1673297519.0564926;-8.409043312072754;-2.703374147415161;90.08406829833984
45;1673297519.0995579;47.130643;7.2406196;1.1710000038146973;1673297519.2416794;-8.482283592224121;1.1322602033615112;89.29344177246094
46;1673297519.2758253;47.1306429;7.2406197;1.3560000658035278;1673297519.4389505;-8.546658515930176;1.7893476486206055;89.21309661865234
47;1673297519.483037;47.1306428;7.2406197;1.5490000247955322;1673297519.6412814;-8.776317596435547;-2.2637863159179688;89.39198303222656
48;1673297519.6893592;47.1306428;7.2406196;1.7470000982284546;1673297519.837266;-9.040218353271484;-1.1999659538269043;89.30976104736328
49;1673297519.8763056;47.130643;7.2406196;1.9450000524520874;1673297520.0355434;-9.096123695373535;2.469094753265381;88.93363189697266
50;1673297520.0775137;47.130643;7.240619499999999;2.142000198364258;1673297520.244625;-9.346932411193848;-0.26243433356285095;89.16282653808594
51;1673297520.2827;47.1306429;7.2406194;2.3360002040863037;1673297520.4352386;-9.562511444091797;-3.3030338287353516;89.67662048339844
52;1673297520.4753087;47.1306429;7.2406194;2.5310001373291016;1673297520.6274195;-9.626360893249512;0.7088419795036316;89.35111999511719
53;1673297520.6684306;47.1306428;7.2406194;2.7320001125335693;1673297520.8478587;-9.882894515991211;1.3072556257247925;88.93049621582031
54;1673297520.8840532;47.130642699999996;7.2406193;2.940000057220459;1673297521.0403526;-9.973048210144043;-2.5651047229766846;89.5074462890625
55;1673297521.0814636;47.130642699999996;7.2406193;3.1440000534057617;1673297521.2319863;-9.714273452758789;-1.517298936843872;89.55999755859375
56;1673297521.276335;47.1306428;7.2406194;3.3440001010894775;1673297521.4381504;-9.544230461120605;3.178828477859497;88.58345794677734
57;1673297521.486041;47.1306429;7.240619499999999;3.5400002002716064;1673297521.6441948;-9.542405128479004;1.0381546020507812;88.98382568359375
58;1673297521.6854293;47.1306429;7.240619499999999;3.741000175476074;1673297521.848425;-9.536702156066895;-2.601100444793701;89.59185791015625
59;1673297521.889611;47.130643;7.2406196;3.943000078201294;1673297522.0453284;-9.574150085449219;1.0475863218307495;88.94214630126953
60;1673297522.0882702;47.1306429;7.2406197;4.146000385284424;1673297522.2689176;-9.260531425476074;1.793614387512207;88.839111328125
61;1673297522.3094866;47.1306425;7.240619799999999;4.3460001945495605;1673297522.505853;-9.267847061157227;-3.3527374267578125;89.49345397949219
62;1673297522.5376194;47.1306423;7.240619799999999;4.548000335693359;1673297522.665306;-9.439465522766113;-2.0226187705993652;89.33828735351562
63;1673297522.7118645;47.1306423;7.2406198999999996;4.75100040435791;1673297522.8578434;-9.285042762756348;2.478771209716797;88.99917602539062
64;1673297522.894955;47.1306423;7.240619799999999;4.950000286102295;1673297523.0649834;-9.378024101257324;0.23662938177585602;89.23368072509766
65;1673297523.1006556;47.1306424;7.240619799999999;5.154000282287598;1673297523.2554548;-9.39648723602295;-2.877347469329834;89.50580596923828
66;1673297523.2906187;47.1306424;7.240619799999999;5.354000091552734;1673297523.4498448;-9.517668724060059;1.1217176914215088;89.06822967529297
67;1673297523.4869466;47.1306424;7.240619799999999;5.561000347137451;1673297523.6355515;-9.68558120727539;1.8202846050262451;88.767333984375
68;1673297523.6765435;47.1306422;7.240619799999999;5.767000198364258;1673297523.8434656;-9.483372688293457;-2.41135573387146;89.36383819580078
69;1673297523.8914778;47.130641999999995;7.2406198999999996;5.978000164031982;1673297524.055691;-9.469639778137207;-2.835343360900879;89.60777282714844
70;1673297524.1072357;47.130641999999995;7.2406198999999996;6.182000160217285;1673297524.2998643;-9.611845016479492;1.6066187620162964;88.99263000488281
71;1673297524.3389044;47.1306418;7.2406198999999996;6.380000114440918;1673297524.500124;-9.445978164672852;-0.1077832281589508;89.03366088867188
72;1673297524.5431218;47.1306418;7.24062;6.578000545501709;1673297524.6803432;-9.366748809814453;-3.567789316177368;89.68912506103516
73;1673297524.7111876;47.1306419;7.24062;6.775000095367432;1673297524.8559678;-9.511401176452637;0.07747916877269745;89.16983032226562
74;1673297524.8940408;47.130642099999996;7.24062;6.975000381469727;1673297525.0452192;-9.552420616149902;1.9926714897155762;88.77657318115234
75;1673297525.0901892;47.130642099999996;7.2406198999999996;7.175000190734863;1673297525.241795;-9.60693073272705;-2.411464214324951;89.5043716430664
76;1673297525.2790985;47.130642099999996;7.2406198999999996;7.375000476837158;1673297525.4369469;-9.674886703491211;-2.0477452278137207;89.50471496582031
77;1673297525.475012;47.130642099999996;7.2406198999999996;7.573000431060791;1673297525.629588;-9.685831069946289;2.1016597747802734;88.85186004638672
78;1673297525.6669123;47.130642099999996;7.2406198999999996;7.77400016784668;1673297525.8349848;-9.645999908447266;0.2640579044818878;89.16470336914062
79;1673297525.8730483;47.130642099999996;7.2406198999999996;7.975000381469727;1673297526.035552;-9.498075485229492;-3.238926887512207;89.62999725341797
80;1673297526.075956;47.1306423;7.2406198999999996;8.177000045776367;1673297526.225894;-9.587555885314941;0.4477253258228302;89.21468353271484
81;1673297526.268952;47.1306424;7.2406198999999996;8.37700080871582;1673297526.4297388;-9.660412788391113;2.332610845565796;88.97505187988281
82;1673297526.4786713;47.1306423;7.2406198999999996;8.57800006866455;1673297526.6350696;-9.647188186645508;-2.249800205230713;89.42127990722656
83;1673297526.674179;47.1306423;7.2406198999999996;8.776000022888184;1673297526.8363822;-9.757107734680176;-2.0186383724212646;89.5029067993164
84;1673297526.8765645;47.1306423;7.2406198999999996;8.975000381469727;1673297527.0380783;-9.849379539489746;2.1582579612731934;88.82295989990234
85;1673297527.0822756;47.130642099999996;7.2406198999999996;9.167000770568848;1673297527.2450535;-9.611308097839355;-1.010134220123291;89.02210235595703
86;1673297527.2862325;47.130642099999996;7.24062;9.36500072479248;1673297527.440028;-9.558281898498535;-3.502006769180298;89.63272094726562
87;1673297527.481021;47.1306423;7.24062;9.564000129699707;1673297527.630646;-9.639578819274902;0.3019716143608093;89.12419891357422
88;1673297527.668711;47.1306424;7.2406201;9.76300048828125;1673297527.8250542;-9.47547435760498;2.292752265930176;88.73939514160156
89;1673297527.867226;47.1306424;7.2406201;9.961000442504883;1673297528.0450654;-9.455577850341797;-1.4072000980377197;89.3976821899414
90;1673297528.090621;47.1306424;7.2406201;10.16100025177002;1673297528.2554805;-9.894547462463379;-2.812581777572632;89.61903381347656
91;1673297528.2925797;47.1306425;7.2406201999999995;10.421000480651855;1673297528.441376;-11.08574104309082;0.8386101126670837;88.91498565673828
92;1673297528.486324;47.1306424;7.2406204999999995;10.770000457763672;1673297528.6416972;-10.043852806091309;1.6900147199630737;88.76805114746094
93;1673297528.6820915;47.1306424;7.2406209;11.148000717163086;1673297528.8350363;-9.005914688110352;-2.3596529960632324;89.47721099853516
94;1673297528.8740752;47.1306424;7.2406213;11.541000366210938;1673297529.0504682;-8.323164939880371;-1.7112946510314941;89.43067932128906
95;1673297529.0945227;47.130642599999995;7.2406216;11.938000679016113;1673297529.261113;-7.920460224151611;2.147845983505249;88.85879516601562
96;1673297529.2963655;47.130642699999996;7.240621699999999;12.334000587463379;1673297529.4637837;-7.927001953125;1.2481510639190674;89.01232147216797
97;1673297529.5216162;47.1306428;7.240621699999999;12.732000350952148;1673297529.6823266;-8.200810432434082;-1.6901744604110718;89.5727767944336
98;1673297529.7269464;47.1306429;7.240621699999999;13.133000373840332;1673297529.8845513;-8.41829776763916;-0.3120881915092468;89.5093002319336
99;1673297529.9261408;47.1306429;7.2406215;13.53700065612793;1673297530.0663857;-8.85920524597168;2.5158183574676514;88.87469482421875
100;1673297530.1163647;47.130642699999996;7.240621399999999;13.944000244140625;1673297530.2604222;-8.972171783447266;-0.9015486240386963;89.13301086425781
101;1673297530.2975109;47.1306425;7.2406212;14.35400104522705;1673297530.461858;-9.340953826904297;-3.3135087490081787;89.55613708496094
102;1673297530.5018842;47.1306424;7.240621;14.761000633239746;1673297530.6498194;-9.49292278289795;0.6522994637489319;88.97671508789062
103;1673297530.6956987;47.1306424;7.240620799999999;15.160000801086426;1673297530.904486;-9.503201484680176;1.9738560914993286;88.84487915039062
104;1673297530.9441018;47.1306424;7.240620799999999;15.566000938415527;1673297531.0963008;-9.552250862121582;-1.8953595161437988;89.43132781982422
105;1673297531.1711843;47.1306424;7.2406207;15.969000816345215;1673297531.3370438;-9.446084976196289;-2.1701316833496094;89.54910278320312
106;1673297531.3958597;47.1306425;7.2406207;16.373001098632812;1673297531.525621;-9.537827491760254;1.8796764612197876;89.032470703125
107;1673297531.5617394;47.1306425;7.240620799999999;16.777999877929688;1673297531.7048535;-9.17782211303711;0.6386452317237854;88.98977661132812
108;1673297531.7405798;47.1306424;7.240620799999999;17.17500114440918;1673297531.9134026;-9.23202133178711;-2.354926109313965;89.4215087890625
109;1673297531.9495268;47.1306423;7.240620799999999;17.56599998474121;1673297532.0978553;-9.333398818969727;-1.8973228931427002;89.45289611816406
110;1673297532.1389172;47.1306423;7.240620799999999;17.963001251220703;1673297532.2957451;-9.077177047729492;1.8767977952957153;88.73282623291016
111;1673297532.3402145;47.1306422;7.240620799999999;18.361000061035156;1673297532.486293;-9.139333724975586;-0.23554041981697083;89.00788879394531
112;1673297532.5405684;47.1306422;7.240620799999999;18.762001037597656;1673297532.683735;-9.152076721191406;-3.3875720500946045;89.62503814697266
113;1673297532.726349;47.1306423;7.240620799999999;19.16200065612793;1673297532.8733552;-9.180366516113281;-0.011757656000554562;89.25494384765625
114;1673297532.9129653;47.1306425;7.240620799999999;19.56599998474121;1673297533.060975;-9.11413288116455;2.78747820854187;88.8148422241211
115;1673297533.1060054;47.130642599999995;7.240620799999999;19.972000122070312;1673297533.2764442;-8.958081245422363;-1.305269479751587;89.39158630371094
116;1673297533.326212;47.130642599999995;7.2406207;20.368000030517578;1673297533.476635;-9.22986125946045;-2.2771546840667725;89.54965209960938
117;1673297533.5230663;47.130642599999995;7.2406206;20.76500129699707;1673297533.6740673;-9.3181734085083;2.0229761600494385;88.9986343383789
118;1673297533.7157378;47.130642599999995;7.2406206;21.155000686645508;1673297533.8697248;-9.222471237182617;1.8280479907989502;88.81517791748047
119;1673297533.9108582;47.1306425;7.2406204999999995;21.55000114440918;1673297534.0620513;-9.154862403869629;-2.708754777908325;89.46127319335938
120;1673297534.1021392;47.1306425;7.2406204999999995;21.942001342773438;1673297534.2630649;-9.481440544128418;-0.7109022736549377;89.4377670288086
121;1673297534.3030891;47.130642599999995;7.2406204;22.33300018310547;1673297534.4711227;-9.317793846130371;2.452579975128174;88.8514404296875
122;1673297534.5121336;47.130642699999996;7.2406203;22.71900177001953;1673297534.6685238;-9.604126930236816;-0.3090028464794159;89.13774108886719
123;1673297534.716652;47.1306428;7.2406201999999995;23.113000869750977;1673297534.8647206;-9.423222541809082;-2.3132193088531494;89.636474609375
124;1673297534.9057143;47.1306429;7.2406201999999995;23.50400161743164;1673297535.0580595;-9.618545532226562;1.6677641868591309;89.10942077636719
125;1673297535.1049383;47.1306428;7.2406201;23.899002075195312;1673297535.2690768;-9.602890014648438;1.6734521389007568;88.8763656616211
126;1673297535.309082;47.130642699999996;7.2406201;24.296001434326172;1673297535.4995525;-9.485381126403809;-2.427131175994873;89.5777587890625
127;1673297535.540162;47.130642599999995;7.24062;24.689001083374023;1673297535.7191954;-9.51209831237793;-0.8250874280929565;89.39066314697266
128;1673297535.754331;47.130642699999996;7.24062;25.082000732421875;1673297535.9116173;-9.381596565246582;2.645570755004883;88.8908920288086
129;1673297535.9463098;47.130642699999996;7.24062;25.46900177001953;1673297536.0972426;-9.573925018310547;-0.43839460611343384;89.27925872802734
130;1673297536.1378238;47.130642699999996;7.24062;25.865001678466797;1673297536.304269;-9.45821762084961;-2.3012218475341797;89.51925659179688
131;1673297536.3435528;47.1306428;7.24062;26.266000747680664;1673297536.5417194;-9.423810005187988;0.853445827960968;89.1064224243164
132;1673297536.5749037;47.130642699999996;7.24062;26.666000366210938;1673297536.7072606;-9.368541717529297;2.319699764251709;88.80296325683594
133;1673297536.7448978;47.1306425;7.24062;27.06100082397461;1673297536.8879719;-9.415553092956543;-1.9654754400253296;89.37907409667969
134;1673297536.9393249;47.1306424;7.24062;27.457000732421875;1673297537.0922444;-9.461350440979004;-2.478987455368042;89.52220916748047
135;1673297537.128897;47.1306423;7.24062;27.845001220703125;1673297537.284963;-9.417141914367676;1.6248773336410522;88.84143829345703
136;1673297537.3197062;47.1306422;7.24062;28.2450008392334;1673297537.462816;-9.499070167541504;0.47407183051109314;89.03136444091797
137;1673297537.5029042;47.1306422;7.24062;28.64200210571289;1673297537.6554928;-9.394009590148926;-2.618253231048584;89.55403137207031
138;1673297537.697508;47.1306424;7.24062;29.038002014160156;1673297537.8636343;-9.18906307220459;-0.013608771376311779;89.19802856445312
139;1673297537.902727;47.1306424;7.24062;29.43600082397461;1673297538.0534143;-9.316232681274414;2.9516401290893555;88.72884368896484
140;1673297538.090501;47.1306424;7.24062;29.834001541137695;1673297538.259309;-9.408997535705566;-1.6077368259429932;89.40007019042969
141;1673297538.3153849;47.1306423;7.24062;30.231000900268555;1673297538.4653125;-9.422804832458496;-2.7510077953338623;89.46952819824219
142;1673297538.505602;47.1306422;7.24062;30.621002197265625;1673297538.6690779;-9.444642066955566;1.3922170400619507;89.13249206542969
143;1673297538.7271311;47.130642099999996;7.24062;31.014001846313477;1673297538.8879886;-9.328553199768066;1.2645856142044067;88.97329711914062
144;1673297538.934259;47.130642099999996;7.24062;31.415000915527344;1673297539.080437;-9.656065940856934;-2.2932169437408447;89.48673248291016
145;1673297539.1225588;47.1306422;7.24062;31.817001342773438;1673297539.2620258;-9.541497230529785;-0.767845869064331;89.32263946533203
146;1673297539.3011296;47.1306424;7.24062;32.21800231933594;1673297539.4595985;-9.4232759475708;2.871225357055664;88.81571197509766
147;1673297539.4967842;47.1306425;7.24062;32.617000579833984;1673297539.6609209;-9.295842170715332;0.20343174040317535;89.16106414794922
148;1673297539.6980388;47.1306425;7.24062;33.009002685546875;1673297539.8654249;-9.358333587646484;-2.4626452922821045;89.60392761230469
149;1673297539.9054928;47.1306425;7.24062;33.40700149536133;1673297540.0563521;-9.591710090637207;0.7101731300354004;89.18925476074219
150;1673297540.0954568;47.1306425;7.24062;33.80800247192383;1673297540.2554002;-9.48217487335205;2.2439327239990234;88.72811126708984
151;1673297540.2925541;47.1306425;7.24062;34.207000732421875;1673297540.4485314;-9.424761772155762;-1.7220211029052734;89.43194580078125
152;1673297540.5045671;47.1306425;7.24062;34.60600280761719;1673297540.662077;-9.435976028442383;-1.837738275527954;89.44216918945312
153;1673297540.7027247;47.130642699999996;7.24062;35.005001068115234;1673297540.85638;-9.334686279296875;2.350055694580078;88.93790435791016
154;1673297540.8994489;47.130642699999996;7.24062;35.40800094604492;1673297541.0480468;-9.258301734924316;1.1777396202087402;88.99687194824219
155;1673297541.0890217;47.130642699999996;7.24062;35.80000305175781;1673297541.2567232;-9.507156372070312;-2.3247148990631104;89.56132507324219
156;1673297541.2997773;47.1306428;7.24062;36.19900131225586;1673297541.4947972;-9.546343803405762;-0.4562462568283081;89.36222076416016
157;1673297541.538365;47.1306428;7.24062;36.60000228881836;1673297541.6906066;-9.396398544311523;2.7113919258117676;88.68135070800781
158;1673297541.7299094;47.130642599999995;7.24062;36.99800109863281;1673297541.8838875;-9.452254295349121;-0.6940615773200989;89.4066162109375
159;1673297541.927535;47.130642599999995;7.2406201;37.393001556396484;1673297542.0893555;-9.353815078735352;-2.757967233657837;89.50965118408203
160;1673297542.1300206;47.130642599999995;7.2406201;37.788002014160156;1673297542.2887468;-9.535796165466309;1.9273053407669067;89.08317565917969
161;1673297542.3244066;47.130642699999996;7.24062;38.17400360107422;1673297542.5086281;-9.503033638000488;1.8887412548065186;88.94346618652344
162;1673297542.5523512;47.130642699999996;7.24062;38.564002990722656;1673297542.743807;-9.479125022888184;-1.8519134521484375;89.3952407836914
163;1673297542.7761471;47.1306428;7.24062;38.954002380371094;1673297542.9064407;-9.454338073730469;-0.3565150797367096;89.23702239990234
164;1673297542.946181;47.1306429;7.24062;39.34400177001953;1673297543.0886176;-9.472335815429688;2.902881145477295;88.89864349365234
165;1673297543.1311953;47.1306428;7.24062;39.73400115966797;1673297543.2892122;-9.405420303344727;0.013126502744853497;89.24325561523438
166;1673297543.3307917;47.130642699999996;7.24062;40.12700271606445;1673297543.473876;-9.34030532836914;-2.9096291065216064;89.57192993164062
167;1673297543.5097816;47.130642599999995;7.2406201;40.52100372314453;1673297543.6710901;-9.51466178894043;1.488385558128357;89.09703826904297
168;1673297543.7166157;47.130642599999995;7.24062;40.90700149536133;1673297543.8773088;-9.346169471740723;1.8022332191467285;88.8392105102539
169;1673297543.9222996;47.130642599999995;7.24062;41.30000305175781;1673297544.0716035;-9.362634658813477;-1.700064778327942;89.43827056884766
170;1673297544.1205246;47.130642599999995;7.24062;41.69200134277344;1673297544.2827792;-9.538680076599121;-1.1264700889587402;89.25917053222656
171;1673297544.3229606;47.130642699999996;7.2406198999999996;42.08700180053711;1673297544.4734976;-9.54072093963623;2.271294116973877;88.83721160888672
172;1673297544.5127122;47.130642599999995;7.2406198999999996;42.47900390625;1673297544.6770012;-9.396626472473145;0.13289131224155426;89.188720703125
173;1673297544.7200568;47.1306425;7.2406198999999996;42.874000549316406;1673297544.8852334;-9.538481712341309;-2.986316442489624;89.63475036621094
174;1673297544.9807706;47.1306424;7.240619799999999;43.26400375366211;1673297545.113606;-9.635684967041016;0.8530256748199463;88.96521759033203
175;1673297545.1483088;47.1306423;7.240619799999999;43.66100311279297;1673297545.2846863;-9.40926456451416;2.2561702728271484;88.86772155761719
176;1673297545.321773;47.1306423;7.240619799999999;44.060001373291016;1673297545.4645329;-9.494229316711426;-2.27827787399292;89.57807159423828
177;1673297545.5047398;47.1306424;7.240619799999999;44.45900344848633;1673297545.6830444;-9.414652824401855;-1.3448762893676758;89.39032745361328
178;1673297545.732953;47.130642599999995;7.240619799999999;44.85700225830078;1673297545.8923116;-9.475075721740723;2.681706666946411;88.90564727783203
179;1673297545.9419127;47.130642599999995;7.240619799999999;45.25300216674805;1673297546.091885;-9.511106491088867;1.197792410850525;89.09309387207031
180;1673297546.1403847;47.130642599999995;7.2406197;45.650001525878906;1673297546.292629;-9.4967679977417;-2.6605064868927;89.5331039428711
181;1673297546.3361185;47.1306425;7.2406197;46.03900146484375;1673297546.4880679;-9.700455665588379;-0.3600286841392517;89.28661346435547
182;1673297546.5521188;47.1306425;7.2406197;46.432003021240234;1673297546.7127588;-9.413336753845215;2.829580068588257;88.7561264038086
183;1673297546.755259;47.1306424;7.2406197;46.832000732421875;1673297546.899379;-9.734627723693848;-0.35613128542900085;89.2046127319336
184;1673297546.9336057;47.1306424;7.2406197;47.23200225830078;1673297547.0895894;-9.677507400512695;-2.6327757835388184;89.61248779296875
185;1673297547.1385622;47.130642599999995;7.2406197;47.63100051879883;1673297547.2995932;-9.574431419372559;1.5017763376235962;89.09539794921875
186;1673297547.335981;47.130642699999996;7.2406197;48.027000427246094;1673297547.480115;-9.795937538146973;1.6806163787841797;89.04209899902344
187;1673297547.5211546;47.1306428;7.2406196;48.37000274658203;1673297547.6883738;-9.7534818649292;-0.6168842911720276;89.47966766357422
188;1673297547.7577899;47.1306429;7.240619499999999;48.66800308227539;1673297547.8929803;-9.872989654541016;0.5046998262405396;89.12211608886719
189;1673297547.9232357;47.1306428;7.2406194;48.923004150390625;1673297548.0894299;-10.080901145935059;2.5854716300964355;88.85556030273438
190;1673297548.1364255;47.130642699999996;7.2406193;49.13800048828125;1673297548.2847288;-10.135738372802734;-2.2890617847442627;89.66423034667969
191;1673297548.3307388;47.130642699999996;7.240619199999999;49.320003509521484;1673297548.4860637;-1.959449052810669;1.14181387424469;88.39311218261719
192;1673297548.52221;47.130642599999995;7.2406188;49.457000732421875;1673297548.6847064;2.7770020961761475;14.691410064697266;79.80475616455078
193;1673297548.7217956;47.1306423;7.240617899999999;49.52100372314453;1673297548.892803;-8.312355995178223;4.8339338302612305;67.66653442382812
194;1673297548.926822;47.1306413;7.2406163999999995;49.570003509521484;1673297549.0837173;-4.412872314453125;7.283863544464111;57.21202850341797
195;1673297549.13377;47.1306404;7.2406149;49.617000579833984;1673297549.3045883;-4.2775726318359375;10.11754322052002;48.255027770996094
196;1673297549.3404806;47.1306395;7.2406134;49.65400314331055;1673297549.5005212;-6.400928020477295;9.577177047729492;39.31562042236328
197;1673297549.5442064;47.1306386;7.240611899999999;49.689002990722656;1673297549.6847606;-6.890921592712402;9.454285621643066;30.866323471069336
198;1673297549.7326703;47.130637799999995;7.2406105;49.72700119018555;1673297549.901609;-6.387042999267578;8.658368110656738;22.63998031616211
199;1673297549.9459558;47.130637199999995;7.2406092;49.76000213623047;1673297550.113654;-4.499541759490967;8.057941436767578;14.439425468444824
200;1673297550.1847794;47.1306367;7.2406082;49.78400421142578;1673297550.3677204;-1.71722412109375;8.27806282043457;5.799774169921875
201;1673297550.4046981;47.1306361;7.2406074;49.80900192260742;1673297550.538528;1.124708890914917;8.94894027709961;-3.2377688884735107
202;1673297550.5737064;47.1306357;7.2406067;49.836002349853516;1673297550.708071;3.519040107727051;10.675345420837402;-12.220131874084473
203;1673297550.7457256;47.130635399999996;7.2406061;49.858001708984375;1673297550.8848398;5.110674858093262;11.277088165283203;-21.44870948791504
204;1673297550.9238565;47.1306352;7.2406055;49.871002197265625;1673297551.1116521;5.515448093414307;10.567313194274902;-30.988706588745117
205;1673297551.1526067;47.1306351;7.240604899999999;49.88200378417969;1673297551.3192792;6.527502059936523;10.491280555725098;-40.66535186767578
206;1673297551.3622599;47.130635;7.240604299999999;49.89200210571289;1673297551.5133674;7.841163635253906;5.845127582550049;-49.06988525390625
207;1673297551.5517647;47.1306349;7.2406041;49.89500427246094;1673297551.6980238;8.693140029907227;5.961348533630371;-52.30577850341797
208;1673297551.7372491;47.1306346;7.2406041;49.90300369262695;1673297551.9004264;9.90870475769043;5.0808892250061035;-50.835453033447266
209;1673297551.9404294;47.1306344;7.2406042;49.910003662109375;1673297552.1000881;8.158262252807617;6.860258102416992;-48.26716995239258
210;1673297552.1432166;47.130634199999996;7.2406041;49.919002532958984;1673297552.3043659;7.0970330238342285;7.915433406829834;-46.90327072143555
211;1673297552.339572;47.130634099999995;7.240603999999999;49.927001953125;1673297552.5240662;5.140968322753906;7.343986988067627;-46.47901916503906
212;1673297552.564285;47.130634099999995;7.240603699999999;49.935001373291016;1673297552.7530165;4.763907432556152;8.452914237976074;-46.534446716308594
213;1673297552.7951415;47.130634;7.2406035;49.93400192260742;1673297552.9394622;5.826254844665527;5.744559288024902;-46.719078063964844
214;1673297552.9810545;47.1306338;7.2406033;49.93700408935547;1673297553.120726;7.734843730926514;5.666647434234619;-46.75908660888672
215;1673297553.1549256;47.1306337;7.2406030999999995;49.939002990722656;1673297553.3069293;8.82839584350586;8.262784957885742;-46.44074249267578
216;1673297553.347705;47.130633599999996;7.2406029;49.941001892089844;1673297553.5020905;7.317883014678955;8.130769729614258;-46.84435272216797
217;1673297553.5438023;47.130633599999996;7.2406028;49.941001892089844;1673297553.6872382;-20.71445655822754;10.609878540039062;-48.949546813964844
218;1673297553.7253897;47.130634099999995;7.2406022;49.94200134277344;1673297553.8764877;-47.48298263549805;10.568011283874512;-49.514793395996094
219;1673297553.9234693;47.1306357;7.2405995;49.919002532958984;1673297554.084736;-42.931488037109375;3.3508520126342773;-47.009212493896484
220;1673297554.12521;47.130639099999996;7.2405938999999995;49.840003967285156;1673297554.296246;-34.8537712097168;-4.298624038696289;-45.49046325683594
221;1673297554.3360233;47.1306436;7.240585599999999;49.7650032043457;1673297554.496688;-33.50632095336914;-4.802200794219971;-45.46092224121094
222;1673297554.5441577;47.130648699999995;7.2405748;49.724002838134766;1673297554.7092357;-35.1646842956543;0.44776102900505066;-45.232906341552734
223;1673297554.7590342;47.1306546;7.240561899999999;49.70500183105469;1673297554.9021096;-38.449764251708984;4.545126438140869;-45.13854217529297
224;1673297554.9461946;47.130661499999995;7.2405472;49.702003479003906;1673297555.0920463;-44.69253158569336;6.132186412811279;-44.727081298828125
225;1673297555.1310368;47.130669499999996;7.240530799999999;49.71600341796875;1673297555.2941382;-50.87472915649414;7.222668647766113;-44.34840393066406
226;1673297555.3359296;47.130679099999995;7.2405129;49.750003814697266;1673297555.4914007;-56.820743560791016;10.190749168395996;-44.759342193603516
227;1673297555.5371118;47.1306905;7.2404929;49.81300354003906;1673297555.696216;-59.35496139526367;9.965747833251953;-42.96159362792969
228;1673297555.736117;47.1307042;7.2404706999999995;49.875003814697266;1673297555.8902419;-57.66212844848633;9.265647888183594;-42.572025299072266
229;1673297555.9282222;47.130719899999995;7.240446899999999;49.92400360107422;1673297556.0802178;-50.21064376831055;11.765345573425293;-43.31812286376953
230;1673297556.12437;47.1307372;7.240422199999999;49.94900131225586;1673297556.302139;-26.731422424316406;13.552165031433105;-42.734615325927734
231;1673297556.346898;47.130755;7.240397499999999;49.941001892089844;1673297556.523576;16.561800003051758;7.0264787673950195;-41.43046188354492
232;1673297556.562126;47.130772;7.2403748;49.90900421142578;1673297556.7073972;27.703718185424805;0.08511766046285629;-43.19179153442383
233;1673297556.7501962;47.1307864;7.2403550999999995;49.75600051879883;1673297556.9032245;17.747928619384766;-0.8270667195320129;-44.36033248901367
234;1673297556.9412746;47.1307981;7.2403382999999994;49.566001892089844;1673297557.0971863;22.540346145629883;1.3389071226119995;-45.80675506591797
235;1673297557.1403265;47.130807;7.2403243999999995;49.48600387573242;1673297557.2849364;39.97825241088867;2.321077823638916;-46.96278762817383
236;1673297557.3239698;47.1308134;7.240313899999999;49.47700119018555;1673297557.4901488;50.25239562988281;1.1621370315551758;-47.33513259887695
237;1673297557.5320501;47.1308167;7.2403078;49.51700210571289;1673297557.740249;47.43010711669922;1.2000725269317627;-47.20792770385742
238;1673297557.7767603;47.1308173;7.240305599999999;49.553001403808594;1673297557.9311051;50.81346130371094;5.857820987701416;-45.33248519897461
239;1673297557.9846268;47.130815299999995;7.240307199999999;49.59800338745117;1673297558.121095;52.53361129760742;8.155046463012695;-45.8787841796875
240;1673297558.1634204;47.1308114;7.240312299999999;49.63900375366211;1673297558.3359914;44.31089782714844;9.917970657348633;-46.76953125
241;1673297558.3730571;47.1308059;7.2403205999999996;49.68800354003906;1673297558.5372398;29.41632843017578;12.41102409362793;-46.6173210144043
242;1673297558.5929737;47.1307997;7.2403306;49.72600173950195;1673297558.7400768;11.305627822875977;14.002967834472656;-46.220069885253906
243;1673297558.7762372;47.130793399999995;7.2403409;49.743003845214844;1673297558.9199429;-3.450258255004883;12.501131057739258;-47.12517547607422
244;1673297558.9541044;47.1307879;7.2403505;49.75600051879883;1673297559.0988111;1.960300087928772;10.8984956741333;-45.40807342529297
245;1673297559.1368763;47.1307833;7.2403588999999995;49.76400375366211;1673297559.2885287;17.7320556640625;6.743228435516357;-43.81671142578125
246;1673297559.3287046;47.130779499999996;7.240366099999999;49.77900314331055;1673297559.4885404;27.013324737548828;9.250955581665039;-44.61821365356445
247;1673297559.5348027;47.1307757;7.2403732;49.803001403808594;1673297559.6817665;30.37906837463379;8.63442611694336;-46.50137710571289
248;1673297559.7179399;47.1307717;7.240380699999999;49.82600402832031;1673297559.8722205;29.489999771118164;7.38242244720459;-46.85991287231445
249;1673297559.916376;47.130767399999996;7.240388899999999;49.84400177001953;1673297560.1050482;25.952871322631836;1.6087324619293213;-46.99422836303711
250;1673297560.1413236;47.1307629;7.240397499999999;49.85400390625;1673297560.3123095;13.789841651916504;-3.099489688873291;-46.03240203857422
251;1673297560.356257;47.130758;7.2404058;49.85600280761719;1673297560.510403;-6.245373725891113;-3.665863513946533;-43.3098258972168
252;1673297560.5569775;47.130753299999995;7.240412699999999;49.82400131225586;1673297560.722082;-48.233604431152344;9.433398246765137;-38.31503677368164
253;1673297560.764044;47.130748399999995;7.2404195;49.4530029296875;1673297560.9246356;-86.16594696044922;129.91091918945312;-150.47816467285156
254;1673297560.9744759;47.1307435;7.240425999999999;48.720001220703125;1673297561.1186438;-53.21502685546875;-172.25877380371094;151.9261474609375
255;1673297561.1549041;47.1307386;7.2404323999999995;47.625003814697266;1673297561.3099322;-32.56215286254883;-173.1122283935547;146.17974853515625
256;1673297561.3470204;47.1307337;7.2404383999999995;46.16600036621094;1673297561.5017416;-27.28443145751953;-179.65206909179688;140.74746704101562
257;1673297561.5375798;47.130728999999995;7.2404440999999995;44.33000183105469;1673297561.693443;-38.16010665893555;169.68475341796875;136.85459899902344
258;1673297561.730518;47.1307245;7.2404494999999995;42.117000579833984;1673297561.8849595;-64.27423858642578;134.63064575195312;156.4454803466797
259;1673297561.9261746;47.1307201;7.240454499999999;39.53000259399414;1673297562.089013;-50.17993927001953;15.862464904785156;-104.27323913574219
260;1673297562.1280525;47.130715699999996;7.240459599999999;36.60200119018555;1673297562.285401;11.984772682189941;-19.690176010131836;-96.97919464111328
261;1673297562.3283699;47.130711399999996;7.2404651;33.27400207519531;1673297562.4924173;60.29073715209961;-48.52684020996094;-116.55413818359375
262;1673297562.5329876;47.130707199999996;7.2404702;29.571001052856445;1673297562.6948009;78.95425415039062;-69.68232727050781;-139.83738708496094
263;1673297562.7496755;47.1307032;7.240475;25.538002014160156;1673297562.9099045;65.87637329101562;5.480443000793457;-74.00299835205078
264;1673297562.9640472;47.130699199999995;7.2404796;21.184001922607422;1673297563.1202092;6.683902263641357;19.56205940246582;-72.71952056884766
265;1673297563.1594415;47.1306953;7.240483599999999;16.47300148010254;1673297563.3124206;-58.50005340576172;25.710002899169922;-87.75220489501953
266;1673297563.3563404;47.1306911;7.2404874999999995;11.37700080871582;1673297563.5213904;-85.2480697631836;152.35231018066406;134.36126708984375
267;1673297563.5633905;47.1306869;7.2404918;5.962000370025635;1673297563.71203;-78.06818389892578;-29.702722549438477;-53.14798355102539
268;1673297563.7491233;47.1306829;7.2404964;0.42000001668930054;1673297563.899865;50.555694580078125;-155.53114318847656;90.91159057617188
269;1673297563.9418042;47.130675;7.240502299999999;0.593000054359436;1673297564.1107988;-48.045433044433594;-16.141084671020508;-89.57933807373047
270;1673297564.1539016;47.1306648;7.2405013;0.7260000109672546;1673297564.3099527;58.065956115722656;-156.37677001953125;88.18084716796875
271;1673297564.3578653;47.1306553;7.2405002;0.4000000059604645;1673297564.5188968;-0.8229392170906067;-166.6490936279297;61.48484802246094
272;1673297564.5588374;47.130644;7.2404934;0.1900000125169754;1673297564.7169704;-0.7848554849624634;-166.7496795654297;61.714996337890625
273;1673297564.760268;47.1306328;7.240485499999999;0.06300000101327896;1673297564.9168983;-1.4336820840835571;-166.86451721191406;62.42634963989258
274;1673297564.955975;47.1306235;7.2404801999999995;-0.012000000104308128;1673297565.0998945;-0.34648820757865906;-168.4503173828125;62.77355194091797
275;1673297565.1359994;47.130612299999996;7.2404739;-0.07200000435113907;1673297565.2903056;-0.17442449927330017;-166.84230041503906;62.93525314331055
276;1673297565.3307788;47.1305996;7.2404671;-0.12300000339746475;1673297565.4884918;-0.8255320191383362;-166.5792999267578;63.03984069824219
277;1673297565.5281844;47.130586;7.2404604;-0.16200000047683716;1673297565.6886754;-0.4119497239589691;-166.8354034423828;63.32313919067383
278;1673297565.7327678;47.1305714;7.2404537;-0.21400001645088196;1673297565.8925073;-0.905387282371521;-165.95802307128906;63.253143310546875
279;1673297565.93861;47.1305561;7.2404473;-0.27400001883506775;1673297566.0989966;0.30647844076156616;-166.47337341308594;63.94417953491211
280;1673297566.142826;47.1305402;7.240441199999999;-0.30800002813339233;1673297566.3169127;1.0168230533599854;-166.421630859375;64.09601593017578
281;1673297566.3558147;47.1305239;7.2404356;-0.32500001788139343;1673297566.5169346;0.5348124504089355;-166.13565063476562;64.03123474121094
282;1673297566.5569978;47.130506999999994;7.240430399999999;-0.3410000205039978;1673297566.7128675;-0.45749005675315857;-166.30665588378906;63.51837158203125
283;1673297566.75465;47.130489499999996;7.2404255;-0.36000001430511475;1673297566.9111903;-1.2328228950500488;-166.68499755859375;63.16786575317383
284;1673297566.9479268;47.130471299999996;7.2404209999999996;-0.3920000195503235;1673297567.0977583;-1.2468045949935913;-166.76498413085938;63.08368682861328
285;1673297567.1370683;47.130452299999995;7.2404167;-0.45600003004074097;1673297567.2978683;-0.7728315591812134;-166.38926696777344;63.56327438354492
286;1673297567.3417563;47.130433;7.2404128;-0.5;1673297567.5098848;0.8022715449333191;-166.39596557617188;64.41143798828125
287;1673297567.5559351;47.1304133;7.240409199999999;-0.5410000085830688;1673297567.7077417;0.9057407975196838;-165.17822265625;64.33140563964844
288;1673297567.7509038;47.130393;7.2404062;-0.5680000185966492;1673297567.8939886;1.5450466871261597;-165.00462341308594;64.65287780761719
289;1673297567.936082;47.130372099999995;7.240403499999999;-0.6000000238418579;1673297568.0969057;2.145233392715454;-166.0332489013672;65.09355163574219
290;1673297568.1398373;47.1303505;7.240401299999999;-0.6340000033378601;1673297568.308888;2.688607692718506;-165.44570922851562;65.34061431884766
291;1673297568.3681052;47.130327799999996;7.2403996;-0.7080000042915344;1673297568.5288134;4.243984222412109;-165.6602020263672;65.92461395263672
292;1673297568.5646386;47.1303048;7.2403982;-0.76500004529953;1673297568.732422;4.026294231414795;-165.19187927246094;65.75741577148438
293;1673297568.769704;47.1302813;7.240397199999999;-0.8050000667572021;1673297568.9198463;3.824989080429077;-163.3861846923828;66.24507141113281
294;1673297568.9578848;47.1302575;7.2403964;-0.831000030040741;1673297569.109704;3.2478866577148438;-162.8198699951172;66.06311798095703
295;1673297569.1500666;47.1302325;7.240396;-0.8770000338554382;1673297569.2970798;4.214766502380371;-162.8085479736328;66.17716979980469
296;1673297569.3402274;47.1302071;7.2403958;-0.9230000376701355;1673297569.4948003;3.845548152923584;-162.55291748046875;66.079833984375
297;1673297569.5369918;47.1301815;7.2403958;-0.9550000429153442;1673297569.704858;3.7638232707977295;-164.1999053955078;66.36917877197266
298;1673297569.7488267;47.130154;7.240396499999999;-1.0410000085830688;1673297569.906843;3.867838144302368;-163.04476928710938;66.57881927490234
299;1673297569.946858;47.130153;7.240396499999999;-1.0850000381469727;1673297570.1018896;1.9583299160003662;-163.8603973388672;66.00540924072266
300;;;;;1673297570.3248625;2.8290491104125977;-164.0615692138672;66.26708221435547
301;;;;;1673297570.5248275;2.9494822025299072;-164.0259552001953;66.30521392822266
302;;;;;1673297570.7089086;2.644568681716919;-164.57479858398438;66.25023651123047
303;;;;;1673297570.908445;2.4135026931762695;-163.97390747070312;66.21234130859375
