;pos_time;latitude;longitude;altitude;alt_time;pitch;roll;yaw
0;1673295746.489681;47.1306424;7.2406201;0.00800000037997961;1673295746.483824;-0.02836182527244091;-0.11095438152551651;90.025634765625
1;1673295746.7158825;47.1306424;7.2406201;0.007000000216066837;1673295746.7090511;0.29452991485595703;-0.3361142575740814;90.01518249511719
2;1673295746.9151766;47.1306424;7.2406201;0.005000000353902578;1673295746.910297;-0.05923527851700783;-0.16131071746349335;89.92144775390625
3;1673295747.100902;47.1306424;7.24062;0.0020000000949949026;1673295747.096007;0.1791420727968216;-0.24488382041454315;89.87470245361328
4;1673295747.295405;47.1306424;7.24062;0.0;1673295747.290535;0.10494272410869598;-0.22555311024188995;89.95622253417969
5;1673295747.502577;47.1306424;7.2406198999999996;-0.004000000189989805;1673295747.498669;0.33321356773376465;-0.2032429426908493;90.13334655761719
6;1673295747.705706;47.1306424;7.2406198999999996;-0.009000000543892384;1673295747.6998513;0.029220402240753174;-0.22911842167377472;89.84431457519531
7;1673295747.9089336;47.1306424;7.2406198999999996;-0.012000000104308128;1673295747.9050343;-0.160777747631073;-0.1941184550523758;89.78279113769531
8;1673295748.1074107;47.1306424;7.24062;-0.014000000432133675;1673295748.102531;-0.20201373100280762;-0.40967750549316406;90.0141830444336
9;1673295748.298009;47.1306424;7.2406201;-0.013000000268220901;1673295748.293128;-0.12106636166572571;-0.05414065346121788;89.82329559326172
10;1673295748.4866526;47.1306424;7.2406201;-0.012000000104308128;1673295748.4827383;-0.029637709259986877;-0.306773841381073;89.93708038330078
11;1673295748.6849704;47.1306425;7.2406201;-0.014000000432133675;1673295748.6810782;-0.07624738663434982;-0.19954240322113037;89.93344116210938
12;1673295748.9002838;47.1306425;7.2406201;-0.015000000596046448;1673295748.8973563;-0.24155829846858978;-0.2081749141216278;89.87062072753906
13;1673295749.07247;47.1306425;7.2406201;-0.013000000268220901;1673295749.0695415;-0.04750021547079086;-0.12827841937541962;89.78053283691406
14;1673295749.2905111;47.1306425;7.2406201;0.0020000000949949026;1673295749.2846582;-0.08514569699764252;-0.6433002948760986;89.81775665283203
15;1673295749.4855633;47.1306425;7.24062;0.004000000189989805;1673295749.4806862;0.0735238790512085;-0.556111216545105;89.74627685546875
16;1673295749.670364;47.1306425;7.24062;0.006000000052154064;1673295749.6664453;0.044332105666399;-0.4669787883758545;89.66323852539062
17;1673295749.8784769;47.1306425;7.24062;0.009000000543892384;1673295749.8745906;-0.024251306429505348;-0.5642160773277283;89.70153045654297
18;1673295750.0652363;47.1306425;7.2406201;0.010000000707805157;1673295750.0602257;-0.05179639533162117;-0.5507623553276062;89.86746215820312
19;1673295750.2821062;47.1306425;7.2406201;0.013000000268220901;1673295750.2780938;0.2506662607192993;-0.5499299764633179;89.70160675048828
20;1673295750.4862401;47.1306425;7.2406201999999995;0.013000000268220901;1673295750.4801776;0.042562104761600494;-0.2617511749267578;89.74357604980469
21;1673295750.6833508;47.1306425;7.2406201999999995;0.010000000707805157;1673295750.6800246;0.1898728460073471;-0.872651219367981;89.75160217285156
22;1673295750.8951085;47.1306425;7.2406201999999995;-0.0010000000474974513;1673295750.8921704;0.3366817533969879;-0.7016252279281616;90.05250549316406
23;1673295751.0950143;47.1306425;7.2406201999999995;0.0;1673295751.0899;-0.09598015993833542;-0.22632844746112823;89.729248046875
24;1673295751.2862976;47.1306425;7.2406201999999995;0.0010000000474974513;1673295751.2823946;0.0018447645707055926;-0.5048982501029968;89.67039489746094
25;1673295751.482003;47.1306425;7.2406201999999995;0.003000000026077032;1673295751.4780495;0.11701224744319916;-0.20442554354667664;89.47932434082031
26;1673295751.6933308;47.1306425;7.2406201999999995;0.006000000052154064;1673295751.6888652;0.09292197227478027;-0.47393158078193665;89.5770034790039
27;1673295751.8942387;47.1306425;7.2406201999999995;0.006000000052154064;1673295751.8909829;0.38656944036483765;-0.02744341641664505;89.48737335205078
28;1673295752.0981817;47.1306425;7.2406201999999995;0.006000000052154064;1673295752.095254;0.25248995423316956;-0.35006609559059143;89.37408447265625
29;1673295752.285099;47.130642599999995;7.2406201999999995;0.007000000216066837;1673295752.281142;0.31230786442756653;-0.2626359462738037;88.81332397460938
30;1673295752.486076;47.130642599999995;7.2406201;0.009000000543892384;1673295752.481148;0.9605278372764587;-0.46129292249679565;88.29581451416016
31;1673295752.6771898;47.130642599999995;7.24062;0.013000000268220901;1673295752.6732857;1.7456715106964111;-0.4323282837867737;86.91353607177734
32;1673295752.8820744;47.130642699999996;7.240619799999999;0.012000000104308128;1673295752.8780794;0.09932630509138107;1.1711524724960327;81.26985168457031
33;1673295753.0800524;47.1306429;7.2406194;0.017000000923871994;1673295753.0761292;-1.860391616821289;4.823452472686768;82.36650848388672
34;1673295753.2894342;47.1306431;7.240619;0.03200000151991844;1673295753.2855287;-6.915533542633057;9.419769287109375;83.79267883300781
35;1673295753.5022674;47.130643199999994;7.2406185999999995;0.06700000166893005;1673295753.4992476;-8.117815971374512;10.345829010009766;84.87176513671875
36;1673295753.7033372;47.130643299999996;7.2406184;0.12200000882148743;1673295753.6993334;-8.07754898071289;4.372805595397949;86.06034088134766
37;1673295753.9270902;47.130643199999994;7.2406184;0.19300000369548798;1673295753.9231846;-8.357349395751953;8.803030967712402;85.86278533935547
38;1673295754.1156826;47.130643;7.2406185;0.2840000092983246;1673295754.1117668;-7.413578033447266;9.067646980285645;85.97824096679688
39;1673295754.2984934;47.130643;7.2406187;0.3920000195503235;1673295754.2936027;-6.813620567321777;4.39232063293457;86.83688354492188
40;1673295754.4948971;47.1306429;7.240619;0.5190000534057617;1673295754.4910002;-6.451779365539551;6.700588226318359;86.80814361572266
41;1673295754.696809;47.1306429;7.2406193;0.6550000309944153;1673295754.6929042;-5.720322132110596;10.27735424041748;86.68987274169922
42;1673295754.8876848;47.130643;7.240619499999999;0.8040000200271606;1673295754.883782;-5.69918155670166;5.098724842071533;87.47078704833984
43;1673295755.082874;47.1306428;7.2406197;0.9740000367164612;1673295755.0789855;-6.100964069366455;5.6450982093811035;87.62113952636719
44;1673295755.2880297;47.130642599999995;7.2406198999999996;1.159000039100647;1673295755.2851014;-5.625852108001709;8.886926651000977;87.30104064941406
45;1673295755.4834194;47.1306425;7.24062;1.3550000190734863;1673295755.47854;-5.897884845733643;5.20218563079834;87.95198059082031
46;1673295755.6865864;47.1306425;7.24062;1.5540000200271606;1673295755.682682;-5.852797031402588;4.211874961853027;87.900634765625
47;1673295755.9012597;47.1306425;7.24062;1.7530001401901245;1673295755.8983324;-5.9207658767700195;9.246041297912598;87.52047729492188
48;1673295756.0977025;47.130642599999995;7.24062;1.9530000686645508;1673295756.092823;-5.863264083862305;6.40517520904541;87.93318176269531
49;1673295756.2899017;47.130642599999995;7.2406198999999996;2.1550002098083496;1673295756.2860115;-6.11531925201416;4.218891620635986;88.20893096923828
50;1673295756.490254;47.1306425;7.2406198999999996;2.3570001125335693;1673295756.4863608;-6.496802806854248;8.020505905151367;87.64009857177734
51;1673295756.6927936;47.1306424;7.2406198999999996;2.56000018119812;1673295756.6888907;-6.762387275695801;6.5651774406433105;87.76656341552734
52;1673295756.8971446;47.1306425;7.2406198999999996;2.765000104904175;1673295756.8931842;-6.619775772094727;4.3220319747924805;88.00308990478516
53;1673295757.0996816;47.1306425;7.240619799999999;2.9670002460479736;1673295757.0967503;-6.612162113189697;8.742973327636719;87.4325942993164
54;1673295757.2979677;47.130642599999995;7.240619799999999;3.1690001487731934;1673295757.2940643;-6.4178547859191895;8.307123184204102;87.47894287109375
55;1673295757.4796696;47.130642699999996;7.240619799999999;3.375000238418579;1673295757.4747894;-6.3706231117248535;4.595460414886475;87.96664428710938
56;1673295757.6998885;47.130642599999995;7.240619799999999;3.577000141143799;1673295757.6950076;-6.280834197998047;7.830102920532227;87.65977478027344
57;1673295757.971646;47.1306424;7.240619799999999;3.7780001163482666;1673295757.9687178;-6.603930950164795;8.087925910949707;87.4904556274414
58;1673295758.1274948;47.1306423;7.240619799999999;3.9790000915527344;1673295758.123569;-6.771154403686523;3.90334153175354;87.98143005371094
59;1673295758.3142016;47.1306423;7.240619799999999;4.177999973297119;1673295758.3103156;-6.809205055236816;6.436929225921631;87.5854263305664
60;1673295758.5103145;47.1306424;7.240619799999999;4.37600040435791;1673295758.5034938;-6.475797176361084;9.499210357666016;87.19512176513672
61;1673295758.7136211;47.1306425;7.240619799999999;4.577000141143799;1673295758.7087398;-6.3155198097229;5.214268207550049;87.6697006225586
62;1673295758.9131937;47.1306424;7.240619799999999;4.781000137329102;1673295758.9092906;-6.3093791007995605;5.693358421325684;87.70673370361328
63;1673295759.0970006;47.1306423;7.240619799999999;4.988000392913818;1673295759.0930445;-6.367367744445801;9.432188034057617;87.2521743774414
64;1673295759.3180342;47.1306423;7.240619799999999;5.195000171661377;1673295759.3131835;-6.282125473022461;5.830974578857422;87.7142562866211
65;1673295759.509084;47.1306423;7.240619799999999;5.400000095367432;1673295759.5051794;-6.708266735076904;4.643405437469482;87.881591796875
66;1673295759.693862;47.1306423;7.2406198999999996;5.6060004234313965;1673295759.6880066;-6.77462911605835;9.550529479980469;87.13153839111328
67;1673295759.8923056;47.1306424;7.2406198999999996;5.808000087738037;1673295759.8884022;-6.4435319900512695;6.3598527908325195;87.5634536743164
68;1673295760.106286;47.1306423;7.2406198999999996;6.00700044631958;1673295760.1023808;-6.4814982414245605;4.710811138153076;88.09259796142578
69;1673295760.286788;47.1306422;7.2406198999999996;6.207000255584717;1673295760.2828712;-6.131485462188721;9.016681671142578;87.46682739257812
70;1673295760.485124;47.1306422;7.2406198999999996;6.410000324249268;1673295760.4821966;-6.259722709655762;7.429847717285156;87.60053253173828
71;1673295760.7193608;47.1306422;7.24062;6.6110005378723145;1673295760.7174146;-6.761712551116943;3.726393938064575;88.03873443603516
72;1673295760.9484742;47.1306423;7.24062;6.809000492095947;1673295760.9445684;-6.787988185882568;8.157628059387207;87.52986145019531
73;1673295761.1294482;47.1306424;7.24062;7.008000373840332;1673295761.1245673;-6.480749130249023;8.230911254882812;87.4349365234375
74;1673295761.3259554;47.1306424;7.24062;7.208000183105469;1673295761.3210783;-6.5236496925354;4.347190856933594;87.82452392578125
75;1673295761.5256004;47.1306423;7.24062;7.407000541687012;1673295761.5207243;-6.344396114349365;7.823491096496582;87.47501373291016
76;1673295761.7596745;47.1306422;7.24062;7.6050004959106445;1673295761.7571843;-6.074728488922119;8.325669288635254;87.23296356201172
77;1673295761.9252603;47.1306423;7.24062;7.805000305175781;1673295761.9223332;-6.2823286056518555;3.978217840194702;87.83714294433594
78;1673295762.1012912;47.1306424;7.2406201;8.006000518798828;1673295762.0983632;-6.522616386413574;7.184756755828857;87.4426040649414
79;1673295762.304795;47.1306424;7.2406201;8.204999923706055;1673295762.302843;-6.766988277435303;9.319347381591797;87.25755310058594
80;1673295762.535351;47.1306423;7.24062;8.401000022888184;1673295762.5324237;-6.83827543258667;4.47327995300293;88.01285552978516
81;1673295762.7106717;47.1306422;7.24062;8.597000122070312;1673295762.706767;-6.39165735244751;6.718674659729004;87.80145263671875
82;1673295762.8973083;47.130642099999996;7.24062;8.797000885009766;1673295762.891453;-6.560163497924805;8.83290958404541;87.34320068359375
83;1673295763.1024635;47.1306422;7.24062;8.998000144958496;1673295763.0966213;-6.530928134918213;5.0160346031188965;87.80310821533203
84;1673295763.2834156;47.1306423;7.24062;9.194000244140625;1673295763.2795103;-6.595911502838135;5.350836277008057;87.89197540283203
85;1673295763.4906816;47.1306423;7.2406201;9.390000343322754;1673295763.4867778;-6.575546741485596;9.808900833129883;87.32535552978516
86;1673295763.7021277;47.1306424;7.2406201;9.59000015258789;1673295763.697239;-6.473830699920654;6.395707130432129;87.64400482177734
87;1673295763.8937373;47.1306424;7.2406201;9.788000106811523;1673295763.890811;-6.901907920837402;4.662154197692871;87.9072036743164
88;1673295764.0872962;47.1306424;7.2406201;9.99000072479248;1673295764.083381;-6.5155744552612305;9.013242721557617;87.18978881835938
89;1673295764.2810013;47.1306425;7.2406201999999995;10.200000762939453;1673295764.2770972;-5.961647033691406;6.606540679931641;87.4159927368164
90;1673295764.496901;47.130642599999995;7.2406201999999995;10.483000755310059;1673295764.4939125;-6.470282077789307;5.2733306884765625;87.96112060546875
91;1673295764.68144;47.1306425;7.2406204;10.844000816345215;1673295764.6765518;-7.273665428161621;9.434523582458496;87.76883697509766
92;1673295764.8718026;47.1306423;7.2406207;11.226000785827637;1673295764.8679025;-6.061464786529541;9.712282180786133;87.49147033691406
93;1673295765.0740855;47.130642099999996;7.2406209;11.620000839233398;1673295765.0691967;-6.287344455718994;4.180490493774414;87.94193267822266
94;1673295765.269623;47.1306418;7.240621099999999;12.021000862121582;1673295765.2657163;-5.957834243774414;5.457676410675049;87.68047332763672
95;1673295765.4819882;47.1306417;7.2406212;12.426000595092773;1673295765.4712422;-5.318008899688721;7.832932949066162;87.20343780517578
96;1673295765.6804605;47.1306417;7.2406212;12.831000328063965;1673295765.6755807;-5.319498062133789;3.634962558746338;87.7079849243164
97;1673295765.8848732;47.1306418;7.240621099999999;13.235000610351562;1673295765.8799677;-5.416425704956055;4.808752059936523;87.87468719482422
98;1673295766.1222737;47.1306419;7.240621;13.63900089263916;1673295766.11837;-5.807069301605225;8.999739646911621;87.40963745117188
99;1673295766.2980635;47.130641999999995;7.2406209;14.045001029968262;1673295766.2931745;-5.980430603027344;5.483152866363525;87.67044830322266
100;1673295766.4884312;47.130642099999996;7.2406207;14.452000617980957;1673295766.4855008;-6.635329246520996;5.037311553955078;87.72406768798828
101;1673295766.6771302;47.130642099999996;7.2406206;14.861001014709473;1673295766.6732256;-6.617290496826172;8.887307167053223;87.40032196044922
102;1673295766.9057028;47.1306422;7.2406206;15.274001121520996;1673295766.9017959;-6.44889497756958;7.261476039886475;87.63729095458984
103;1673295767.1020315;47.1306424;7.2406206;15.683000564575195;1673295767.098128;-6.33845853805542;4.735057830810547;87.96160125732422
104;1673295767.2896805;47.1306425;7.2406207;16.089000701904297;1673295767.2867663;-6.27105188369751;8.647884368896484;87.39720153808594
105;1673295767.5020254;47.1306425;7.2406207;16.496000289916992;1673295767.4971368;-6.032423496246338;8.926618576049805;87.32981872558594
106;1673295767.7207227;47.1306424;7.2406207;16.900001525878906;1673295767.71586;-6.1574177742004395;4.5650835037231445;87.9511489868164
107;1673295767.9229052;47.1306423;7.2406207;17.304000854492188;1673295767.91803;-6.3074164390563965;6.724035263061523;87.65814208984375
108;1673295768.1305482;47.1306422;7.2406207;17.713001251220703;1673295768.125655;-6.049557685852051;9.147139549255371;87.4079818725586
109;1673295768.3513908;47.1306423;7.2406207;18.12700080871582;1673295768.3484836;-6.277741432189941;4.803101062774658;87.78146362304688
110;1673295768.5341623;47.1306423;7.2406207;18.542001724243164;1673295768.529276;-6.297290802001953;5.317658424377441;87.71826171875
111;1673295768.7059822;47.1306423;7.2406207;18.955001831054688;1673295768.7020774;-6.085057258605957;9.551308631896973;87.21244049072266
112;1673295768.9011202;47.1306424;7.2406207;19.365001678466797;1673295768.8962412;-6.090308666229248;5.912506103515625;87.57701110839844
113;1673295769.0948575;47.1306424;7.2406207;19.777000427246094;1673295769.0899692;-6.365433692932129;4.838735580444336;88.00743103027344
114;1673295769.2944288;47.1306424;7.2406206;20.192001342773438;1673295769.2905197;-6.152730941772461;8.435161590576172;87.45162200927734
115;1673295769.4980547;47.1306424;7.2406204999999995;20.60700035095215;1673295769.4941504;-6.050783157348633;7.624295711517334;87.30498504638672
116;1673295769.7046952;47.130642599999995;7.2406204999999995;21.020000457763672;1673295769.6998155;-6.266264915466309;4.5574727058410645;87.82508850097656
117;1673295769.9097967;47.130642599999995;7.2406204;21.429000854492188;1673295769.9039419;-6.316874027252197;8.047710418701172;87.5796890258789
118;1673295770.1064036;47.130642599999995;7.2406204;21.830001831054688;1673295770.1024847;-6.245860576629639;8.980731010437012;87.43678283691406
119;1673295770.3048618;47.1306425;7.2406203;22.227001190185547;1673295770.2999961;-6.575135231018066;4.625293731689453;87.92981719970703
120;1673295770.5101843;47.1306425;7.2406201999999995;22.625001907348633;1673295770.5062637;-6.659479141235352;6.0846991539001465;87.61475372314453
121;1673295770.7026947;47.1306424;7.2406201999999995;23.02800178527832;1673295770.699766;-6.287378787994385;8.86151123046875;87.08931732177734
122;1673295770.8925314;47.1306425;7.2406201;23.4320011138916;1673295770.8876703;-6.319998741149902;4.668064594268799;87.71495056152344
123;1673295771.0871181;47.130642599999995;7.2406201;23.83100128173828;1673295771.082218;-6.276679039001465;6.359953880310059;87.8878173828125
124;1673295771.305162;47.130642599999995;7.2406201;24.227001190185547;1673295771.301117;-6.260542392730713;9.741775512695312;87.5552978515625
125;1673295771.4974368;47.130642699999996;7.2406201;24.623001098632812;1673295771.4925368;-6.282952308654785;5.6985626220703125;87.75878143310547
126;1673295771.6938775;47.130642699999996;7.2406201;25.024002075195312;1673295771.6898885;-6.472392559051514;5.509242534637451;87.69667053222656
127;1673295771.8981762;47.130642699999996;7.2406201;25.426000595092773;1673295771.8933144;-6.293524265289307;9.297513008117676;87.27518463134766
128;1673295772.0975163;47.130642699999996;7.2406201;25.830001831054688;1673295772.0926418;-6.410971164703369;6.990377426147461;87.63067626953125
129;1673295772.3040354;47.1306428;7.2406201;26.237001419067383;1673295772.3009777;-6.519021987915039;4.966177463531494;87.89439392089844
130;1673295772.5295842;47.1306428;7.24062;26.643001556396484;1673295772.5246923;-6.2361836433410645;9.506648063659668;87.27323913574219
131;1673295772.7379477;47.130642699999996;7.24062;27.041000366210938;1673295772.7350209;-6.0456461906433105;8.117531776428223;87.40045928955078
132;1673295772.9198177;47.130642599999995;7.24062;27.433000564575195;1673295772.9159288;-6.316107273101807;4.068182945251465;88.00829315185547
133;1673295773.105747;47.1306425;7.2406198999999996;27.82600212097168;1673295773.1018505;-6.416210651397705;7.6873884201049805;87.6229248046875
134;1673295773.3100812;47.1306424;7.24062;28.224000930786133;1673295773.305222;-6.436985015869141;8.601014137268066;87.4296875
135;1673295773.5459716;47.1306425;7.24062;28.628002166748047;1673295773.5193646;-6.476069450378418;4.4674177169799805;87.93045806884766
136;1673295773.759435;47.130642599999995;7.24062;29.029001235961914;1673295773.7565062;-6.803577423095703;6.736082077026367;87.45703887939453
137;1673295773.96489;47.1306425;7.24062;29.428001403808594;1673295773.9619257;-6.326616287231445;9.557927131652832;87.19401550292969
138;1673295774.167122;47.1306425;7.2406201;29.82200050354004;1673295774.1651726;-6.286899089813232;5.013443946838379;87.87063598632812
139;1673295774.3279722;47.1306424;7.2406201;30.21700096130371;1673295774.3240638;-6.417516708374023;5.7766923904418945;87.77764892578125
140;1673295774.5052183;47.1306424;7.2406201;30.61600112915039;1673295774.50133;-5.898504734039307;9.380992889404297;87.28680419921875
141;1673295774.6976566;47.1306425;7.2406201;31.01700210571289;1673295774.6927767;-6.287853717803955;5.749081134796143;87.66746520996094
142;1673295774.8954165;47.130642599999995;7.2406201999999995;31.41900062561035;1673295774.8915265;-6.369093894958496;5.465316295623779;87.81720733642578
143;1673295775.0869474;47.130642599999995;7.2406201;31.821001052856445;1673295775.0834763;-6.4790472984313965;9.919858932495117;87.25797271728516
144;1673295775.2989953;47.1306425;7.2406201;32.22100067138672;1673295775.295091;-6.371324062347412;7.156383514404297;87.53366088867188
145;1673295775.5016413;47.1306425;7.2406201;32.61800003051758;1673295775.4977386;-6.540305137634277;4.428657054901123;87.95941162109375
146;1673295775.7049248;47.1306424;7.2406201;33.01700210571289;1673295775.7010202;-6.269062042236328;8.31220531463623;87.36524963378906
147;1673295775.9023306;47.1306424;7.2406201;33.419002532958984;1673295775.897439;-6.227992534637451;7.857298851013184;87.48546600341797
148;1673295776.1025553;47.1306425;7.2406201;33.819000244140625;1673295776.097661;-6.409123420715332;4.461877346038818;88.02262878417969
149;1673295776.299951;47.130642599999995;7.2406201;34.217002868652344;1673295776.2950726;-6.4045538902282715;8.39515495300293;87.63162231445312
150;1673295776.4965923;47.130642599999995;7.2406201999999995;34.61600112915039;1673295776.4917262;-6.11131477355957;8.48384952545166;87.32682037353516
151;1673295776.7010515;47.1306425;7.2406201999999995;35.01300048828125;1673295776.6961708;-6.279030799865723;4.373894691467285;87.71273040771484
152;1673295776.9033163;47.1306425;7.2406201999999995;35.41400146484375;1673295776.899385;-6.432902812957764;6.933417797088623;87.56459045410156
153;1673295777.137532;47.1306425;7.2406201999999995;35.819000244140625;1673295777.1336343;-6.34308385848999;9.242570877075195;87.18989562988281
154;1673295777.3259647;47.130642699999996;7.2406201999999995;36.22700119018555;1673295777.32206;-6.417238235473633;5.022237300872803;87.86292266845703
155;1673295777.5271597;47.1306428;7.2406201999999995;36.634002685546875;1673295777.5242674;-6.387116432189941;6.423450469970703;87.76795959472656
156;1673295777.7269375;47.1306428;7.2406201999999995;37.03900146484375;1673295777.7230337;-6.183206081390381;9.80565357208252;87.2721176147461
157;1673295777.9895663;47.1306428;7.2406201999999995;37.439002990722656;1673295777.986639;-6.222907066345215;6.0474534034729;87.75340270996094
158;1673295778.2159173;47.1306428;7.2406201999999995;37.83500289916992;1673295778.2129898;-6.536505222320557;5.399061679840088;87.84435272216797
159;1673295778.3766525;47.1306428;7.2406201999999995;38.237003326416016;1673295778.3737311;-6.189364910125732;9.413299560546875;87.23982238769531
160;1673295778.5879743;47.1306429;7.2406201999999995;38.6410026550293;1673295778.585044;-6.083319187164307;6.900304794311523;87.51203155517578
161;1673295778.8246167;47.130643;7.2406201999999995;39.044002532958984;1673295778.7997258;-6.215275287628174;4.829102516174316;87.88591766357422
162;1673295778.9973478;47.130643;7.2406201999999995;39.441001892089844;1673295778.9944205;-6.271730899810791;9.214221954345703;87.43989562988281
163;1673295779.1838288;47.1306429;7.2406201999999995;39.83700180053711;1673295779.1809137;-6.3868513107299805;8.129508018493652;87.6231689453125
164;1673295779.366601;47.1306429;7.2406201999999995;40.23200225830078;1673295779.3646472;-6.697378635406494;4.642766952514648;88.0164794921875
165;1673295779.54967;47.1306428;7.2406201;40.63100051879883;1673295779.5477111;-6.470261096954346;7.756129264831543;87.44706726074219
166;1673295779.7193673;47.1306428;7.2406201;41.034000396728516;1673295779.7154524;-6.238839149475098;8.63144302368164;87.14444732666016
167;1673295779.9119902;47.1306429;7.2406201;41.43800354003906;1673295779.9080873;-6.191988945007324;5.0730814933776855;87.78592681884766
168;1673295780.110416;47.1306429;7.2406201;41.84100341796875;1673295780.105536;-6.358663082122803;6.933488368988037;87.63744354248047
169;1673295780.3177986;47.1306429;7.2406201;42.24100112915039;1673295780.3138962;-6.247409343719482;9.80745792388916;87.45294952392578
170;1673295780.547938;47.1306428;7.2406201;42.63800048828125;1673295780.537201;-6.343012809753418;5.37617826461792;87.88809967041016
171;1673295780.7887285;47.130642699999996;7.24062;43.02800369262695;1673295780.7857997;-6.608561992645264;5.116514682769775;87.71342468261719
172;1673295780.9528992;47.130642699999996;7.24062;43.42100143432617;1673295780.9489958;-6.39165735244751;9.310422897338867;87.19977569580078
173;1673295781.129782;47.130642699999996;7.24062;43.819000244140625;1673295781.1249006;-6.574887752532959;6.4357500076293945;87.62794494628906
174;1673295781.3136759;47.1306428;7.24062;44.217002868652344;1673295781.308792;-6.411541938781738;4.849177837371826;88.06909942626953
175;1673295781.516975;47.1306429;7.24062;44.61300277709961;1673295781.5120952;-6.169335842132568;9.58804702758789;87.4494400024414
176;1673295781.7205105;47.1306428;7.24062;45.00300216674805;1673295781.7156322;-6.048559665679932;8.091021537780762;87.37759399414062
177;1673295781.9217916;47.1306428;7.24062;45.393001556396484;1673295781.918862;-6.516815185546875;4.259183406829834;87.72471618652344
178;1673295782.1282287;47.130642699999996;7.24062;45.788002014160156;1673295782.1243095;-6.501370906829834;7.754100799560547;87.36913299560547
179;1673295782.3159716;47.1306428;7.24062;46.18400192260742;1673295782.311091;-6.492657661437988;9.281822204589844;87.34852600097656
180;1673295782.5262523;47.1306429;7.24062;46.58100128173828;1673295782.5213563;-6.5150017738342285;5.065384387969971;87.94715118408203
181;1673295782.738059;47.1306429;7.24062;46.97900390625;1673295782.734154;-6.572708606719971;7.213967800140381;87.61930847167969
182;1673295782.9473114;47.1306429;7.24062;47.37700271606445;1673295782.9443817;-6.079078674316406;9.854960441589355;87.2488784790039
183;1673295783.1381893;47.1306429;7.24062;47.772003173828125;1673295783.1352613;-6.274903297424316;5.320143699645996;87.78508758544922
184;1673295783.3373384;47.1306428;7.24062;48.14800262451172;1673295783.3344133;-6.436380386352539;6.55245304107666;87.83404541015625
185;1673295783.5424337;47.1306428;7.2406198999999996;48.480003356933594;1673295783.5395055;-6.604320526123047;10.440710067749023;87.35421752929688
186;1673295783.7289891;47.1306429;7.2406198999999996;48.7650032043457;1673295783.7241094;-6.66248083114624;4.68278694152832;87.92520904541016
187;1673295783.9416866;47.130643;7.240619799999999;49.00300216674805;1673295783.9377825;-6.698042869567871;7.164342880249023;87.76702117919922
188;1673295784.1390378;47.1306431;7.2406197;49.198001861572266;1673295784.1351392;-6.6480536460876465;9.452765464782715;87.42040252685547
189;1673295784.3315222;47.1306431;7.2406196;49.358001708984375;1673295784.3276258;-2.5155599117279053;10.522671699523926;87.43856048583984
190;1673295784.5425293;47.1306431;7.2406193;49.45100402832031;1673295784.539601;-5.443479537963867;9.074240684509277;85.0710220336914
191;1673295784.7344887;47.1306429;7.2406187;49.46200180053711;1673295784.7315602;5.955456733703613;15.467438697814941;74.4871597290039
192;1673295784.9318154;47.1306423;7.240617599999999;49.50400161743164;1673295784.9249814;7.328275203704834;12.371833801269531;61.57728576660156
193;1673295785.1313565;47.130641399999995;7.2406160999999996;49.551002502441406;1673295785.127453;-0.7186908721923828;11.841733932495117;51.78997039794922
194;1673295785.3263965;47.1306406;7.2406144999999995;49.59700393676758;1673295785.322432;4.609795093536377;14.128647804260254;43.57176208496094
195;1673295785.5351353;47.130639599999995;7.240613;49.63200378417969;1673295785.5316489;2.3390660285949707;12.636773109436035;34.53744888305664
196;1673295785.7443235;47.1306387;7.2406115;49.660003662109375;1673295785.7404196;2.7297110557556152;11.378376960754395;26.106290817260742
197;1673295785.947822;47.130637799999995;7.2406104;49.68600082397461;1673295785.9443612;3.487362861633301;8.491555213928223;17.590476989746094
198;1673295786.1333952;47.1306371;7.240609699999999;49.7140007019043;1673295786.1285183;5.436059951782227;6.645962715148926;9.276698112487793
199;1673295786.3334835;47.1306365;7.2406092;49.74400329589844;1673295786.3295786;6.87334680557251;7.503072738647461;1.6721763610839844
200;1673295786.5375888;47.1306362;7.2406087999999995;49.76900100708008;1673295786.5345042;6.585623741149902;10.084699630737305;-6.753756999969482
201;1673295786.735301;47.1306361;7.240608399999999;49.790000915527344;1673295786.7333338;5.804128646850586;7.81942892074585;-15.991710662841797
202;1673295786.9563444;47.130635999999996;7.240608;49.80600357055664;1673295786.9523642;6.65195894241333;4.276418209075928;-25.556428909301758
203;1673295787.1512694;47.130635999999996;7.2406077;49.81700134277344;1673295787.149318;9.216039657592773;0.28498396277427673;-35.496646881103516
204;1673295787.3415034;47.1306361;7.240607499999999;49.827003479003906;1673295787.3395514;11.603538513183594;-2.0088741779327393;-44.77564239501953
205;1673295787.5415816;47.1306362;7.2406071999999995;49.83400344848633;1673295787.5367002;11.507575988769531;0.60395747423172;-51.61912536621094
206;1673295787.7467203;47.1306362;7.2406068999999995;49.84100341796875;1673295787.7428036;9.046000480651855;0.256216824054718;-53.04768371582031
207;1673295787.936323;47.1306362;7.240606499999999;49.84800338745117;1673295787.9289598;7.793737888336182;-1.295303463935852;-51.02605056762695
208;1673295788.1252453;47.130635999999996;7.2406061;49.85600280761719;1673295788.1213374;8.514217376708984;-2.017885684967041;-48.97145462036133
209;1673295788.3370166;47.1306358;7.2406058;49.86000061035156;1673295788.3316126;10.296015739440918;-2.5152571201324463;-47.17222595214844
210;1673295788.5308437;47.1306356;7.2406054;49.86300277709961;1673295788.5259907;12.576430320739746;-0.07297706604003906;-45.605133056640625
211;1673295788.7232568;47.1306357;7.2406052;49.86900329589844;1673295788.7183757;12.459360122680664;1.0759071111679077;-45.09725570678711
212;1673295788.9218495;47.1306357;7.2406049999999995;49.87600326538086;1673295788.9169693;10.883460998535156;2.401264190673828;-45.33364486694336
213;1673295789.1329434;47.1306356;7.2406048;49.88100051879883;1673295789.1309915;8.945327758789062;1.9766672849655151;-45.514739990234375
214;1673295789.3376274;47.1306355;7.2406047;49.88300323486328;1673295789.3346987;9.263923645019531;-0.10440261662006378;-45.72917556762695
215;1673295789.5201366;47.130635299999994;7.2406047;49.87900161743164;1673295789.5152552;-1.161665678024292;-2.5502519607543945;-46.92826843261719
216;1673295789.726186;47.1306358;7.2406038;49.8640022277832;1673295789.7222931;-33.01893615722656;1.63214111328125;-48.40562438964844
217;1673295789.934725;47.130637799999995;7.2406007;49.807003021240234;1673295789.92887;-41.6546745300293;4.625317096710205;-48.028507232666016
218;1673295790.1847186;47.1306417;7.2405947;49.72900390625;1673295790.1817899;-34.01508331298828;2.0279910564422607;-46.49102783203125
219;1673295790.3945956;47.1306468;7.2405867;49.650001525878906;1673295790.390693;-28.912260055541992;-1.0120046138763428;-45.895660400390625
220;1673295790.5797668;47.1306526;7.2405769;49.590003967285156;1673295790.5768087;-27.626169204711914;-2.262014389038086;-46.07284164428711
221;1673295790.7616842;47.1306592;7.240565699999999;49.56800079345703;1673295790.7574906;-31.58826446533203;-3.2250075340270996;-45.46998977661133
222;1673295790.9475803;47.1306667;7.2405529;49.57600402832031;1673295790.9455163;-37.11320495605469;-3.3998374938964844;-44.986419677734375
223;1673295791.1467507;47.1306754;7.2405383;49.60000228881836;1673295791.1417153;-43.06389617919922;-1.8473398685455322;-45.356571197509766
224;1673295791.3897705;47.1306856;7.2405213999999996;49.63900375366211;1673295791.385781;-49.096839904785156;0.8396634459495544;-46.56182098388672
225;1673295791.57759;47.130697399999995;7.2405019;49.698001861572266;1673295791.5750394;-56.90943908691406;2.27158522605896;-46.779205322265625
226;1673295791.7751918;47.1307111;7.2404797;49.77100372314453;1673295791.7712872;-59.84757614135742;3.1961870193481445;-47.062129974365234
227;1673295791.9739704;47.1307267;7.2404549;49.83100128173828;1673295791.9690866;-55.22831344604492;3.3820526599884033;-46.95242691040039
228;1673295792.2005942;47.130743599999995;7.2404287;49.86100387573242;1673295792.1677394;-42.750614166259766;3.459811210632324;-46.33345031738281
229;1673295792.4040048;47.130760599999995;7.2404025;49.85300064086914;1673295792.4001076;-10.669963836669922;2.9832212924957275;-45.96847152709961
230;1673295792.5915911;47.130776499999996;7.2403783;49.80800247192383;1673295792.5896397;35.46810531616211;3.8857243061065674;-46.52620315551758
231;1673295792.791834;47.1307903;7.2403574;49.625003814697266;1673295792.787932;22.301467895507812;1.2145570516586304;-46.197025299072266
232;1673295792.968451;47.1308015;7.2403406;49.509002685546875;1673295792.964502;22.711111068725586;0.8311064839363098;-46.59731674194336
233;1673295793.1454318;47.1308101;7.240328099999999;49.509002685546875;1673295793.1415334;44.32948303222656;1.3969630002975464;-48.16907501220703
234;1673295793.34543;47.1308155;7.2403208999999995;49.570003509521484;1673295793.3425083;52.95506286621094;0.9331899285316467;-48.21091842651367
235;1673295793.5464842;47.130817699999994;7.2403189999999995;49.647003173828125;1673295793.5425415;57.02284622192383;1.1596550941467285;-48.342159271240234
236;1673295793.757555;47.130817;7.240322;49.71800231933594;1673295793.7535412;53.077022552490234;0.7965149283409119;-47.04219436645508
237;1673295793.96154;47.1308143;7.2403281999999995;49.768001556396484;1673295793.9566417;46.60403823852539;-0.46540024876594543;-47.12853240966797
238;1673295794.174452;47.1308102;7.2403363999999995;49.803001403808594;1673295794.1705375;38.19475173950195;-0.8286280632019043;-46.715965270996094
239;1673295794.3645563;47.1308054;7.2403452999999995;49.820003509521484;1673295794.3596776;22.478113174438477;-3.3102564811706543;-46.758785247802734
240;1673295794.5636806;47.1308004;7.2403539;49.81700134277344;1673295794.5607424;8.146944046020508;-3.481576681137085;-46.89091110229492
241;1673295794.757244;47.130795899999995;7.2403612;49.80500411987305;1673295794.75334;-4.34822416305542;-3.7394895553588867;-47.05976104736328
242;1673295794.9352756;47.1307924;7.2403666;49.78300094604492;1673295794.931367;-12.0542573928833;5.567556858062744;-47.209228515625
243;1673295795.1244972;47.1307901;7.2403701;49.7400016784668;1673295795.120593;-23.275741577148438;-0.6880003213882446;-47.649898529052734
244;1673295795.3683414;47.1307891;7.2403713;49.67100143432617;1673295795.3644288;-15.788166046142578;-0.9008376598358154;-47.22474670410156
245;1673295795.5621748;47.130789;7.240370899999999;49.60300064086914;1673295795.558285;0.7829777598381042;5.605190277099609;-45.44741439819336
246;1673295795.7506554;47.1307895;7.2403702999999995;49.557003021240234;1673295795.744762;12.052106857299805;-0.3467712700366974;-45.20165252685547
247;1673295795.9479089;47.1307901;7.2403699999999995;49.5420036315918;1673295795.9449642;23.611494064331055;2.453089952468872;-45.76215744018555
248;1673295796.138358;47.130790399999995;7.2403705;49.547000885009766;1673295796.1334753;26.82101058959961;4.797318935394287;-45.65578079223633
249;1673295796.334749;47.13079;7.240372;49.5780029296875;1673295796.3308318;25.964841842651367;3.728651762008667;-45.43522262573242
250;1673295796.5602896;47.1307891;7.2403739;49.49800109863281;1673295796.5573559;21.382709503173828;-23.880239486694336;-46.78220748901367
251;1673295796.7423766;47.1307883;7.2403756999999995;49.044002532958984;1673295796.7375095;9.756930351257324;-51.980159759521484;-41.257591247558594
252;1673295796.9278286;47.1307876;7.2403775999999995;48.21800231933594;1673295796.9229646;-0.5516402125358582;-75.3905029296875;-26.74651527404785
253;1673295797.1215682;47.130787;7.2403794999999995;47.01900100708008;1673295797.116647;-5.765185832977295;-93.056396484375;-4.349625587463379
254;1673295797.3305626;47.1307865;7.2403813999999995;45.448001861572266;1673295797.325669;-6.82002592086792;-97.74993896484375;21.04931640625
255;1673295797.5331445;47.130786099999995;7.240383199999999;43.512001037597656;1673295797.5292444;-11.065266609191895;-84.6856918334961;46.36064147949219
256;1673295797.7333913;47.130785499999995;7.2403851999999995;41.22600173950195;1673295797.7304566;-20.260345458984375;-53.60787582397461;63.15025329589844
257;1673295797.9359694;47.1307847;7.2403870999999995;38.569000244140625;1673295797.9320672;-28.178022384643555;-6.274098873138428;67.8705825805664
258;1673295798.1460698;47.1307839;7.2403887;35.52799987792969;1673295798.1421642;-23.458194732666016;38.412635803222656;69.41460418701172
259;1673295798.349085;47.1307833;7.240389899999999;32.125;1673295798.3442075;-10.2744779586792;57.63028335571289;82.79669952392578
260;1673295798.5475016;47.130783;7.240391;28.37700080871582;1673295798.5436141;6.874919891357422;48.01907730102539;103.73843383789062
261;1673295798.7429223;47.130783099999995;7.240392099999999;24.262001037597656;1673295798.7380466;29.506032943725586;13.803674697875977;119.99969482421875
262;1673295798.961757;47.130783199999996;7.240393699999999;19.761001586914062;1673295798.9578538;44.216094970703125;-32.94769287109375;120.97061920166016
263;1673295799.1460288;47.1307829;7.2403954;14.916000366210938;1673295799.1411483;39.831207275390625;-54.18948745727539;130.93798828125
264;1673295799.3413227;47.1307823;7.2403968;9.749000549316406;1673295799.336433;18.580554962158203;-35.93000411987305;157.92173767089844
265;1673295799.5593355;47.1307815;7.2403977;4.220000267028809;1673295799.5563972;-18.78400230407715;0.166089728474617;172.2923126220703
266;1673295799.7742374;47.1307791;7.240392399999999;-0.2930000126361847;1673295799.7693584;-26.555789947509766;26.92504119873047;-178.68531799316406
267;1673295799.966736;47.130763099999996;7.2403588;-1.6320000886917114;1673295799.964731;-31.64592170715332;27.7598934173584;-174.45484924316406
268;1673295800.1653643;47.1307458;7.2403239;-3.0930001735687256;1673295800.1605012;-32.56821823120117;25.831741333007812;-173.0070037841797
269;1673295800.3628356;47.130727;7.240286599999999;-4.551000118255615;1673295800.3589208;-32.37364959716797;27.21085548400879;-173.14720153808594
270;1673295800.5896804;47.1307068;7.2402465;-5.955000400543213;1673295800.5857956;-32.210479736328125;27.706546783447266;-173.31007385253906
271;1673295800.7526271;47.1306857;7.2402047;-7.154000282287598;1673295800.74873;-31.918394088745117;28.596460342407227;-173.3151092529297
272;1673295800.941962;47.130663399999996;7.2401607;-0.9860000610351562;1673295800.9390566;-31.683578491210938;29.294740676879883;-173.3770751953125
273;1673295801.1494708;47.1306393;7.2401138;-0.5139999985694885;1673295801.1445897;-31.609813690185547;29.93414306640625;-173.5423583984375
274;1673295801.3498278;47.130613499999995;7.2400641;-0.36000001430511475;1673295801.3449342;-31.536272048950195;30.239328384399414;-173.6876220703125
275;1673295801.5367477;47.130586099999995;7.2400117999999996;-0.3760000169277191;1673295801.532349;-31.471406936645508;30.34809684753418;-173.8184051513672
276;1673295801.7411735;47.1305572;7.2399569999999995;-0.4270000159740448;1673295801.7382457;-31.451356887817383;30.24551010131836;-173.8831024169922
277;1673295801.9431067;47.1305268;7.2398997;-0.4740000367164612;1673295801.9401314;-31.410078048706055;30.12005043029785;-173.95240783691406
278;1673295802.1492517;47.130494899999995;7.2398399;-0.5120000243186951;1673295802.1443188;-31.364166259765625;29.962726593017578;-173.98590087890625
279;1673295802.3532522;47.1304616;7.239777699999999;-0.5450000166893005;1673295802.3487947;-31.324317932128906;29.7266788482666;-173.99176025390625
280;1673295802.5555282;47.130426799999995;7.239713;-0.5980000495910645;1673295802.551289;-31.285776138305664;29.49216079711914;-174.0289764404297
281;1673295802.8194444;47.1303906;7.239645899999999;-0.6910000443458557;1673295802.8165317;-31.35735321044922;29.346004486083984;-174.0721435546875
282;1673295803.0354474;47.130353;7.2395765;-0.7090000510215759;1673295803.0334969;-31.305011749267578;28.9050350189209;-173.9860076904297
283;1673295803.1884706;47.1303141;7.2395046;-0.6940000057220459;1673295803.1845655;-31.350296020507812;28.646160125732422;-174.00856018066406
284;1673295803.3554041;47.1302737;7.2394302999999995;-0.6690000295639038;1673295803.3514144;-31.291912078857422;28.42201805114746;-173.95921325683594
285;1673295803.5516293;47.1302319;7.239353599999999;-0.6460000276565552;1673295803.5477417;-31.267385482788086;28.180261611938477;-173.99807739257812
286;1673295803.7508178;47.1301886;7.2392745;-0.628000020980835;1673295803.744259;-31.25102424621582;27.96578598022461;-173.96697998046875
287;1673295803.941323;47.1301439;7.2391928;-0.6430000066757202;1673295803.9374256;-31.231399536132812;27.76546287536621;-173.9696044921875
288;1673295804.1401896;47.1300976;7.2391087;-0.7220000624656677;1673295804.136285;-31.198177337646484;27.54543685913086;-173.947265625
289;1673295804.336399;47.1300502;7.239022299999999;-0.7330000400543213;1673295804.3323357;-31.154878616333008;27.362804412841797;-173.9263916015625
290;1673295804.52533;47.130001299999996;7.238933599999999;-0.7140000462532043;1673295804.5211458;-31.106298446655273;27.17086410522461;-173.91180419921875
291;1673295804.7334602;47.1299511;7.238842399999999;-0.6840000152587891;1673295804.7275567;-31.080101013183594;26.98505973815918;-173.88864135742188
292;1673295804.942218;47.1298994;7.2387488;-0.659000039100647;1673295804.93926;-31.04281234741211;26.840423583984375;-173.8767852783203
293;1673295805.144291;47.1298677;7.2386913999999996;-0.675000011920929;1673295805.139306;-31.029390335083008;26.65592384338379;-173.84109497070312
294;1673295807.0973907;47.1307605;7.240348099999999;29.189001083374023;1673295805.3444881;-31.058107376098633;26.527130126953125;-173.8905792236328
295;;;;;1673295805.5375657;-31.07985496520996;26.266368865966797;-173.87466430664062
296;;;;;1673295805.7373695;-31.108135223388672;26.00052833557129;-173.8712158203125
297;;;;;1673295805.9333386;-31.080890655517578;25.814157485961914;-173.82005310058594
298;;;;;1673295806.1263201;-31.051389694213867;25.673152923583984;-173.77630615234375
299;;;;;1673295806.3174312;-31.03847885131836;25.549406051635742;-173.7412109375
300;;;;;1673295806.5180893;-31.04307746887207;25.210174560546875;-173.72067260742188
301;;;;;1673295806.7292306;-31.038591384887695;25.057538986206055;-173.71063232421875
302;;;;;1673295806.9363387;-30.990352630615234;24.920711517333984;-173.84317016601562
303;;;;;1673295807.14454;-30.911518096923828;24.81693458557129;-174.05166625976562
