;pos_time;latitude;longitude;altitude;alt_time;pitch;roll;yaw
0;1673295194.8719223;47.1306425;7.240619799999999;0.01100000087171793;1673295194.9049077;0.04281935840845108;-0.07804804295301437;90.372802734375
1;1673295195.091834;47.1306425;7.2406197;0.010000000707805157;1673295195.128875;0.17842762172222137;-0.6156792044639587;90.44359588623047
2;1673295195.2748365;47.1306425;7.2406197;0.010000000707805157;1673295195.3066428;0.227357879281044;-0.3535350561141968;90.22563934326172
3;1673295195.4697978;47.1306424;7.2406197;0.003000000026077032;1673295195.5018935;0.06590160727500916;-0.48324915766716003;90.23966979980469
4;1673295195.6558447;47.1306424;7.2406197;0.0;1673295195.6857865;0.1114211156964302;-0.46200665831565857;90.43765258789062
5;1673295195.8367624;47.1306424;7.240619799999999;0.0020000000949949026;1673295195.873809;-0.05279029533267021;-0.34109342098236084;90.26179504394531
6;1673295196.0550447;47.1306423;7.2406198999999996;0.003000000026077032;1673295196.086745;-0.17180070281028748;-0.3990461230278015;90.21996307373047
7;1673295196.253957;47.1306423;7.2406198999999996;0.0020000000949949026;1673295196.2920904;-0.10998006165027618;-0.49799519777297974;90.41461944580078
8;1673295196.4866214;47.1306423;7.240619799999999;-0.0010000000474974513;1673295196.5185952;-0.09176069498062134;-0.3162992000579834;90.25194549560547
9;1673295196.714733;47.1306424;7.240619799999999;0.0;1673295196.7448716;-0.18102528154850006;-1.8589701652526855;90.3795166015625
10;1673295196.907891;47.1306424;7.240619799999999;0.0020000000949949026;1673295196.9488304;0.03560508415102959;-1.2692759037017822;90.32674407958984
11;1673295197.113886;47.1306424;7.2406197;0.0010000000474974513;1673295197.1386178;0.26592642068862915;-1.4394313097000122;90.35728454589844
12;1673295197.3209896;47.1306424;7.240619799999999;0.0;1673295197.3458805;-0.07297968119382858;-1.2553585767745972;90.23597717285156
13;1673295197.4798243;47.1306424;7.240619799999999;0.0;1673295197.5097718;-0.17918437719345093;-1.1535415649414062;90.32182312011719
14;1673295197.6568742;47.1306423;7.2406198999999996;0.0;1673295197.6888437;-0.2030920833349228;-1.6594884395599365;90.30900573730469
15;1673295197.8567224;47.1306423;7.240619799999999;0.0;1673295197.887915;-0.3648521900177002;-1.7817659378051758;90.435302734375
16;1673295198.0338817;47.1306424;7.2406197;0.003000000026077032;1673295198.064759;-0.38275858759880066;-1.3437992334365845;90.33967590332031
17;1673295198.2328324;47.1306424;7.2406197;-0.0010000000474974513;1673295198.2688136;-0.46248212456703186;-1.463575839996338;90.62784576416016
18;1673295198.4387639;47.1306424;7.240619799999999;0.005000000353902578;1673295198.4737737;-0.4096681475639343;-0.9489083290100098;90.57872009277344
19;1673295198.673336;47.1306425;7.240619799999999;0.005000000353902578;1673295198.7027802;-0.6117066144943237;-0.8053206205368042;90.88540649414062
20;1673295198.8628964;47.1306425;7.2406198999999996;0.01100000087171793;1673295198.8956697;-0.7835436463356018;-0.839888870716095;91.27450561523438
21;1673295199.045899;47.130642599999995;7.2406198999999996;0.015000000596046448;1673295199.073933;-0.6034261584281921;-1.013594627380371;91.4456787109375
22;1673295199.2289002;47.130642699999996;7.2406198999999996;0.013000000268220901;1673295199.2589014;-0.9445443749427795;-0.9231512546539307;92.07000732421875
23;1673295199.419976;47.1306429;7.24062;0.013000000268220901;1673295199.453704;-0.5522746443748474;-0.5125797390937805;94.53620147705078
24;1673295199.635009;47.130643199999994;7.2406203;0.010000000707805157;1673295199.666785;-0.24177001416683197;-0.39238154888153076;103.64512634277344
25;1673295199.8399754;47.130643899999995;7.2406213;0.01100000087171793;1673295199.8749924;0.09955046325922012;0.3143184185028076;112.27251434326172
26;1673295200.0348954;47.130645099999995;7.240622999999999;0.021000001579523087;1673295200.0710132;0.7828657031059265;3.444337844848633;106.47880554199219
27;1673295200.238711;47.1306467;7.240625499999999;0.03400000184774399;1673295200.2736783;3.8888425827026367;5.872480869293213;99.24894714355469
28;1673295200.4347532;47.130648699999995;7.2406286;0.0430000014603138;1673295200.4647868;7.795541286468506;9.336403846740723;97.08880615234375
29;1673295200.6411235;47.1306509;7.2406323;0.05900000408291817;1673295200.6769507;10.497234344482422;13.416674613952637;97.86181640625
30;1673295200.838659;47.1306533;7.2406364;0.09000000357627869;1673295200.8787532;11.129842758178711;15.061941146850586;98.52913665771484
31;1673295201.0709863;47.1306559;7.240640699999999;0.13600000739097595;1673295201.0978303;12.141152381896973;15.69275188446045;99.00257110595703
32;1673295201.24581;47.130658499999996;7.2406451999999994;0.19700001180171967;1673295201.2778578;13.198074340820312;17.333866119384766;99.50248718261719
33;1673295201.4687388;47.1306611;7.2406497;0.2720000147819519;1673295201.502155;14.372882843017578;18.631025314331055;99.77888488769531
34;1673295201.663977;47.1306636;7.2406540999999995;0.3530000150203705;1673295201.7049823;15.770926475524902;19.594314575195312;99.96501159667969
35;1673295201.8998199;47.1306659;7.2406583;0.4280000329017639;1673295201.929809;17.084239959716797;21.24327278137207;100.1572265625
36;1673295202.08203;47.130668;7.2406621;0.4960000216960907;1673295202.1159785;18.600427627563477;22.642839431762695;100.23748779296875
37;1673295202.3090122;47.1306699;7.2406656;0.5610000491142273;1673295202.3389106;20.19295883178711;23.975419998168945;100.24860382080078
38;1673295202.4838028;47.1306715;7.2406685;0.6150000095367432;1673295202.514652;21.77707290649414;25.414358139038086;100.22843933105469
39;1673295202.6669018;47.1306728;7.2406707;0.6570000052452087;1673295202.6977856;23.514070510864258;26.742542266845703;100.10481262207031
40;1673295202.8888154;47.130673599999994;7.240672099999999;0.6910000443458557;1673295202.9258192;25.1901912689209;28.294355392456055;99.88401794433594
41;1673295203.1150017;47.130674;7.240672699999999;0.7240000367164612;1673295203.155889;27.106382369995117;29.593616485595703;99.56527709960938
42;1673295203.336746;47.1306738;7.2406725;0.753000020980835;1673295203.3639753;29.22179412841797;30.68053436279297;99.03527069091797
43;1673295203.515843;47.130673099999996;7.2406711999999995;0.7820000648498535;1673295203.5437484;31.324377059936523;32.04643630981445;98.46839904785156
44;1673295203.7459652;47.1306717;7.240668899999999;0.8020000457763672;1673295203.7700074;33.55036544799805;33.15892028808594;97.76698303222656
45;1673295203.9289205;47.1306697;7.240665399999999;0.8230000138282776;1673295203.98007;36.02445602416992;34.01573181152344;96.91210174560547
46;1673295204.181048;47.130666999999995;7.2406608;0.843000054359436;1673295204.2068057;35.03903579711914;31.518484115600586;95.12246704101562
47;1673295204.3229733;47.1306637;7.2406554;0.8540000319480896;1673295204.3489127;31.343538284301758;27.665145874023438;93.28707885742188
48;1673295204.4989214;47.1306602;7.240649599999999;0.8600000143051147;1673295204.529853;27.47526741027832;23.841739654541016;92.33613586425781
49;1673295204.67531;47.130656699999996;7.2406437;0.89000004529953;1673295204.7026124;22.76483917236328;20.60066032409668;92.24264526367188
50;1673295204.8438613;47.1306533;7.2406381;0.9750000238418579;1673295204.8777776;20.86134910583496;18.680768966674805;92.20201873779297
51;1673295205.0429268;47.1306503;7.2406331999999995;1.0750000476837158;1673295205.073947;16.08820152282715;15.592864990234375;92.13251495361328
52;1673295205.220827;47.1306478;7.2406291;1.1890000104904175;1673295205.2539015;14.058842658996582;13.412344932556152;92.13851165771484
53;1673295205.42535;47.1306461;7.2406261;1.3060001134872437;1673295205.4619355;13.424766540527344;13.204864501953125;92.27178192138672
54;1673295205.6347206;47.1306449;7.2406241;1.436000108718872;1673295205.6665194;13.711798667907715;15.059329986572266;92.76852416992188
55;1673295205.8450198;47.1306442;7.2406229;1.5790001153945923;1673295205.8822455;14.926172256469727;15.082317352294922;99.80672454833984
56;1673295206.0372138;47.1306438;7.2406223999999995;1.724000096321106;1673295206.0699062;16.61783218383789;15.434436798095703;99.16415405273438
57;1673295206.2298434;47.1306438;7.2406223999999995;1.883000135421753;1673295206.2648997;18.18759536743164;19.465065002441406;99.51313781738281
58;1673295206.436852;47.130643899999995;7.2406225;2.0510001182556152;1673295206.4735851;19.563135147094727;20.163373947143555;99.32911682128906
59;1673295206.641146;47.130644;7.240622699999999;2.2310001850128174;1673295206.6809266;20.956878662109375;19.614225387573242;99.10218048095703
60;1673295206.8603003;47.130644;7.2406229;2.4200000762939453;1673295206.8999243;21.628070831298828;22.071334838867188;99.44622802734375
61;1673295207.0658255;47.130643899999995;7.2406229;2.6090002059936523;1673295207.0998867;21.90830421447754;21.052377700805664;99.36991882324219
62;1673295207.27184;47.1306438;7.2406228;2.808000087738037;1673295207.3026361;21.8369197845459;19.802133560180664;99.178955078125
63;1673295207.4466896;47.1306436;7.2406225;3.005000114440918;1673295207.4823637;21.5555477142334;21.43853187561035;99.48466491699219
64;1673295207.6573477;47.1306435;7.2406222;3.202000141143799;1673295207.6901104;20.999650955200195;20.511871337890625;99.40343475341797
65;1673295207.8684614;47.130643199999994;7.2406217999999996;3.3950002193450928;1673295207.899252;20.824951171875;18.460342407226562;99.14501190185547
66;1673295208.058099;47.130643;7.240621399999999;3.5890002250671387;1673295208.0937989;20.20927619934082;20.201366424560547;99.511962890625
67;1673295208.2715478;47.130642699999996;7.240621;3.7800002098083496;1673295208.3013906;19.76140022277832;19.609590530395508;99.51714324951172
68;1673295208.4582047;47.1306425;7.2406207;3.9730002880096436;1673295208.4900572;19.760190963745117;18.009729385375977;99.25921630859375
69;1673295208.656603;47.1306425;7.2406204;4.1670002937316895;1673295208.6893616;19.513364791870117;19.77981185913086;99.5421371459961
70;1673295208.8543737;47.1306424;7.2406201999999995;4.361000061035156;1673295208.8885944;19.39140510559082;20.250612258911133;99.6640396118164
71;1673295209.050419;47.1306424;7.2406201;4.553000450134277;1673295209.08609;19.47235870361328;18.233051300048828;99.15184020996094
72;1673295209.2654767;47.1306424;7.2406201;4.746000289916992;1673295209.3021345;19.648637771606445;19.612215042114258;99.30602264404297
73;1673295209.4580147;47.1306424;7.2406201;4.940000057220459;1673295209.4868777;19.645587921142578;20.583782196044922;99.55987548828125
74;1673295209.6393075;47.1306424;7.2406201;5.13200044631958;1673295209.6746335;19.73736572265625;18.501855850219727;99.11730194091797
75;1673295209.8362405;47.1306424;7.2406201999999995;5.326000213623047;1673295209.8685112;19.923925399780273;20.42265510559082;99.6124038696289
76;1673295210.0734835;47.1306425;7.2406201999999995;5.51800012588501;1673295210.1105354;19.672534942626953;21.117246627807617;99.744384765625
77;1673295210.259841;47.1306425;7.2406201999999995;5.709000110626221;1673295210.2925897;19.837467193603516;18.8728084564209;99.24787139892578
78;1673295210.4526737;47.1306425;7.2406201999999995;5.903000354766846;1673295210.4883592;19.903409957885742;20.23813247680664;99.47136688232422
79;1673295210.6573834;47.1306425;7.2406201999999995;6.098000526428223;1673295210.690668;19.647294998168945;20.9409122467041;99.58502197265625
80;1673295210.8854043;47.130642599999995;7.2406201999999995;6.298000335693359;1673295210.9137142;20.059640884399414;19.02131462097168;99.31352996826172
81;1673295211.0578094;47.130642599999995;7.2406203;6.503000259399414;1673295211.092589;20.052886962890625;20.664119720458984;99.58204650878906
82;1673295211.2613559;47.130642599999995;7.2406203;6.702000141143799;1673295211.2980485;19.772216796875;21.080883026123047;99.65894317626953
83;1673295211.453873;47.130642599999995;7.2406203;6.898000240325928;1673295211.488763;19.883737564086914;18.628767013549805;99.31118774414062
84;1673295211.6459956;47.1306425;7.2406203;7.095000267028809;1673295211.681681;19.915071487426758;20.23199462890625;99.4649658203125
85;1673295211.8491385;47.130642599999995;7.2406204;7.2920002937316895;1673295211.8848696;19.949302673339844;20.873668670654297;99.6047134399414
86;1673295212.0622993;47.130642599999995;7.2406204;7.48900032043457;1673295212.096032;19.863170623779297;19.182235717773438;99.34245300292969
87;1673295212.2510543;47.130642599999995;7.2406204;7.688000202178955;1673295212.282833;19.974531173706055;19.719327926635742;99.49009704589844
88;1673295212.455742;47.130642599999995;7.2406204999999995;7.891000270843506;1673295212.4875314;19.98126983642578;21.427133560180664;99.60064697265625
89;1673295212.645202;47.130642599999995;7.2406204999999995;8.088000297546387;1673295212.6813362;20.0549373626709;19.048818588256836;99.24916076660156
90;1673295212.8931139;47.130642599999995;7.2406206;8.285000801086426;1673295212.924338;20.209735870361328;19.957021713256836;99.4322509765625
91;1673295213.0733993;47.130642599999995;7.2406207;8.482000350952148;1673295213.1110752;20.156831741333008;21.442813873291016;99.73289489746094
92;1673295213.279583;47.130642599999995;7.2406207;8.678000450134277;1673295213.3133106;20.124969482421875;19.281299591064453;99.2636489868164
93;1673295213.474037;47.130642599999995;7.2406207;8.874000549316406;1673295213.503396;20.204856872558594;19.981245040893555;99.39350891113281
94;1673295213.655447;47.130642599999995;7.2406207;9.070000648498535;1673295213.6891818;19.985374450683594;21.533470153808594;99.72225189208984
95;1673295213.8422985;47.1306425;7.2406207;9.266000747680664;1673295213.875551;20.138057708740234;19.288511276245117;99.42656707763672
96;1673295214.0322003;47.1306424;7.2406207;9.46500015258789;1673295214.065487;20.190031051635742;19.562288284301758;99.37439727783203
97;1673295214.246321;47.1306424;7.2406207;9.666000366210938;1673295214.2825978;20.078933715820312;21.21927261352539;99.66329956054688
98;1673295214.4497445;47.1306424;7.2406206;9.86500072479248;1673295214.4850602;19.88246726989746;19.343454360961914;99.29682159423828
99;1673295214.6459403;47.1306423;7.2406204999999995;10.062000274658203;1673295214.6813524;20.147024154663086;19.340007781982422;99.31150817871094
100;1673295214.8611329;47.1306423;7.2406204;10.29800033569336;1673295214.8894725;18.905485153198242;19.34375762939453;99.40756225585938
101;1673295215.0538394;47.130642099999996;7.2406201;10.642000198364258;1673295215.089028;20.501440048217773;19.985485076904297;99.70986938476562
102;1673295215.2627532;47.1306419;7.2406197;11.033000946044922;1673295215.296487;19.7259521484375;20.20038414001465;99.13431549072266
103;1673295215.4687731;47.1306418;7.2406193;11.427000999450684;1673295215.5049238;18.86369514465332;20.07484245300293;99.63590240478516
104;1673295215.687542;47.1306416;7.240618899999999;11.826000213623047;1673295215.7218773;18.614164352416992;18.38458251953125;99.55904388427734
105;1673295215.896329;47.130641399999995;7.2406185999999995;12.225000381469727;1673295215.9305265;18.02672576904297;17.780134201049805;99.42402648925781
106;1673295216.1452954;47.130641399999995;7.2406184;12.630001068115234;1673295216.1736;18.10894203186035;19.50037384033203;99.7994155883789
107;1673295216.317705;47.1306413;7.2406184;13.03600025177002;1673295216.3618004;18.166749954223633;18.168489456176758;99.4773178100586
108;1673295216.5168343;47.130641399999995;7.2406184;13.443000793457031;1673295216.5441625;18.538015365600586;17.90494728088379;99.42727661132812
109;1673295216.6888278;47.1306416;7.2406185999999995;13.85200023651123;1673295216.7181525;18.570749282836914;19.99805450439453;99.66771697998047
110;1673295216.875961;47.1306417;7.2406187;14.265000343322754;1673295216.9106953;18.8603458404541;19.384525299072266;99.48111724853516
111;1673295217.076641;47.1306418;7.240618899999999;14.676000595092773;1673295217.1206086;19.094810485839844;18.513572692871094;99.33109283447266
112;1673295217.2774806;47.1306419;7.240619;15.080000877380371;1673295217.3073013;19.236902236938477;20.38592529296875;99.6166763305664
113;1673295217.4622457;47.130641999999995;7.2406191;15.487000465393066;1673295217.50099;19.173349380493164;19.745637893676758;99.45967864990234
114;1673295217.667609;47.130641999999995;7.2406191;15.896000862121582;1673295217.7072232;19.371444702148438;18.657745361328125;99.15425872802734
115;1673295217.881014;47.130642099999996;7.240619199999999;16.310001373291016;1673295217.9191358;19.30430793762207;20.564058303833008;99.58699035644531
116;1673295218.076874;47.1306422;7.2406193;16.72300148010254;1673295218.118418;19.13541030883789;20.36155891418457;99.64993286132812
117;1673295218.2812212;47.1306423;7.2406193;17.131999969482422;1673295218.314956;19.211156845092773;18.60826301574707;99.32106018066406
118;1673295218.4846153;47.1306423;7.2406193;17.532001495361328;1673295218.512499;19.30947494506836;20.04888153076172;99.51067352294922
119;1673295218.6707397;47.1306423;7.2406193;17.937000274658203;1673295218.7108443;19.066059112548828;20.260324478149414;99.583740234375
120;1673295218.87334;47.1306423;7.2406193;18.338001251220703;1673295218.9051158;19.169883728027344;18.562156677246094;99.33878326416016
121;1673295219.0578475;47.1306423;7.2406193;18.743000030517578;1673295219.0956576;19.161338806152344;19.805784225463867;99.48209381103516
122;1673295219.266269;47.1306424;7.2406193;19.150001525878906;1673295219.3016145;19.035696029663086;20.469165802001953;99.62982177734375
123;1673295219.454028;47.1306424;7.2406193;19.55500030517578;1673295219.4968636;19.07513427734375;18.59861183166504;99.24970245361328
124;1673295219.6574745;47.1306424;7.2406193;19.95800018310547;1673295219.6896856;19.094606399536133;19.6800479888916;99.44189453125
125;1673295219.8625782;47.1306424;7.2406193;20.352001190185547;1673295219.897959;18.923423767089844;20.495941162109375;99.50887298583984
126;1673295220.0976305;47.1306424;7.2406193;20.756000518798828;1673295220.1399047;19.105878829956055;18.592453002929688;99.2931900024414
127;1673295220.290543;47.1306424;7.2406194;21.159000396728516;1673295220.3218055;19.261905670166016;19.891878128051758;99.51344299316406
128;1673295220.4679265;47.1306424;7.2406194;21.564001083374023;1673295220.504669;19.056781768798828;20.535219192504883;99.64397430419922
129;1673295220.7175224;47.1306424;7.2406194;21.96700096130371;1673295220.7537231;19.18116569519043;18.516809463500977;99.24313354492188
130;1673295220.9053218;47.1306425;7.2406194;22.37200164794922;1673295220.9375741;19.12894058227539;19.66495132446289;99.40461730957031
131;1673295221.117182;47.1306424;7.2406194;22.767000198364258;1673295221.1514065;19.04498863220215;20.494319915771484;99.61846160888672
132;1673295221.3051631;47.1306424;7.2406194;23.167001724243164;1673295221.3403103;19.091899871826172;18.74675941467285;99.33216857910156
133;1673295221.4933205;47.1306425;7.2406194;23.573001861572266;1673295221.5260925;19.090776443481445;19.800962448120117;99.4134521484375
134;1673295221.686787;47.1306425;7.2406194;23.97800064086914;1673295221.7253857;19.04221534729004;20.909448623657227;99.6467514038086
135;1673295221.8822644;47.1306425;7.2406194;24.38300132751465;1673295221.9169655;19.011098861694336;18.992483139038086;99.34586334228516
136;1673295222.066066;47.1306425;7.240619499999999;24.786001205444336;1673295222.1003451;19.186656951904297;19.67947006225586;99.49746704101562
137;1673295222.261056;47.130642599999995;7.2406196;25.189001083374023;1673295222.29334;19.288721084594727;20.877134323120117;99.69210052490234
138;1673295222.4498262;47.1306425;7.2406196;25.5830020904541;1673295222.4849713;19.159194946289062;18.802528381347656;99.26332092285156
139;1673295222.65565;47.130642599999995;7.2406196;25.976001739501953;1673295222.6947923;19.213449478149414;19.7504940032959;99.3836669921875
140;1673295222.861689;47.130642599999995;7.2406196;26.3700008392334;1673295222.895892;19.10034942626953;20.89833641052246;99.63875579833984
141;1673295223.052272;47.1306425;7.2406196;26.76700210571289;1673295223.0845163;19.21868324279785;18.805870056152344;99.3160629272461
142;1673295223.252501;47.1306425;7.2406196;27.16200065612793;1673295223.291542;19.246639251708984;19.726646423339844;99.4411849975586
143;1673295223.450546;47.1306425;7.2406196;27.5570011138916;1673295223.4866984;18.938037872314453;20.779296875;99.66040802001953
144;1673295223.6513429;47.1306425;7.2406196;27.948001861572266;1673295223.686485;19.061513900756836;18.939626693725586;99.32189178466797
145;1673295223.8511941;47.1306425;7.2406196;28.34800148010254;1673295223.885373;19.10394859313965;19.58537483215332;99.38034057617188
146;1673295224.0652275;47.1306424;7.2406196;28.749000549316406;1673295224.1018808;19.20400619506836;20.696311950683594;99.62255859375
147;1673295224.2500553;47.1306424;7.2406196;29.1510009765625;1673295224.2851908;18.9937744140625;18.939037322998047;99.2911148071289
148;1673295224.4639084;47.1306423;7.2406196;29.553001403808594;1673295224.5035694;19.276945114135742;19.369733810424805;99.41605377197266
149;1673295224.6781206;47.1306423;7.2406196;29.953001022338867;1673295224.7147756;19.06676483154297;20.731077194213867;99.6788330078125
150;1673295224.8824666;47.1306423;7.2406196;30.351001739501953;1673295224.9170375;19.11579132080078;18.8948917388916;99.45095825195312
151;1673295225.0995343;47.1306423;7.2406196;30.74300193786621;1673295225.1327367;19.1041259765625;19.09261703491211;99.35910034179688
152;1673295225.2836716;47.1306423;7.2406196;31.145002365112305;1673295225.3203266;19.074953079223633;20.5601749420166;99.49502563476562
153;1673295225.5376499;47.1306423;7.2406196;31.549001693725586;1673295225.5899322;19.019641876220703;19.047191619873047;99.37154388427734
154;1673295225.718085;47.1306423;7.2406196;31.953001022338867;1673295225.746388;18.997976303100586;19.117841720581055;99.34525299072266
155;1673295225.8750086;47.1306424;7.2406196;32.36000061035156;1673295225.9050953;19.095420837402344;20.912694931030273;99.65545654296875
156;1673295226.0636625;47.1306424;7.2406196;32.7660026550293;1673295226.1003277;18.920652389526367;19.538803100585938;99.52757263183594
157;1673295226.251698;47.1306425;7.2406196;33.16200256347656;1673295226.2850413;18.950345993041992;19.123685836791992;99.30138397216797
158;1673295226.448646;47.1306425;7.2406196;33.55800247192383;1673295226.4837806;19.007671356201172;21.0107479095459;99.67292785644531
159;1673295226.6583269;47.1306425;7.2406196;33.96200180053711;1673295226.6935074;18.8676700592041;19.83457374572754;99.42474365234375
160;1673295226.8570976;47.1306425;7.2406197;34.36600112915039;1673295226.8922682;19.177143096923828;19.02285385131836;99.24356079101562
161;1673295227.0670981;47.1306425;7.2406197;34.77000045776367;1673295227.1003551;19.068199157714844;20.91505241394043;99.6468505859375
162;1673295227.2803094;47.1306425;7.240619799999999;35.169002532958984;1673295227.311863;18.976139068603516;20.212392807006836;99.58895111083984
163;1673295227.471763;47.1306425;7.2406198999999996;35.569000244140625;1673295227.5040169;19.265308380126953;19.02851104736328;99.36198425292969
164;1673295227.6704242;47.1306425;7.2406198999999996;35.95800018310547;1673295227.703608;19.175989151000977;20.391826629638672;99.60233306884766
165;1673295227.8576264;47.1306424;7.2406198999999996;36.35100173950195;1673295227.8933306;19.19678497314453;20.05326271057129;99.59464263916016
166;1673295228.0601506;47.1306424;7.2406198999999996;36.75100326538086;1673295228.093345;19.313932418823242;18.713014602661133;99.31362915039062
167;1673295228.2507918;47.1306425;7.2406198999999996;37.1510009765625;1673295228.284021;19.246479034423828;20.55929946899414;99.57746887207031
168;1673295228.4429524;47.1306425;7.2406198999999996;37.55500030517578;1673295228.4761364;18.9384822845459;20.3670654296875;99.45852661132812
169;1673295228.6521256;47.1306425;7.240619799999999;37.954002380371094;1673295228.69019;19.12154769897461;18.763408660888672;99.21736145019531
170;1673295228.8554087;47.1306425;7.240619799999999;38.34400177001953;1673295228.8895602;19.065183639526367;20.310422897338867;99.5740966796875
171;1673295229.056776;47.1306425;7.2406197;38.742000579833984;1673295229.0939145;18.892154693603516;20.31023597717285;99.53724670410156
172;1673295229.2650442;47.1306424;7.2406197;39.143001556396484;1673295229.3012917;19.002134323120117;18.659086227416992;99.29102325439453
173;1673295229.458975;47.1306425;7.2406197;39.54500198364258;1673295229.4931223;19.085289001464844;20.19134521484375;99.48676300048828
174;1673295229.666496;47.1306425;7.2406197;39.948001861572266;1673295229.6997743;18.986665725708008;20.5419979095459;99.5476303100586
175;1673295229.8737009;47.1306425;7.2406197;40.34700012207031;1673295229.909893;19.026649475097656;18.887908935546875;99.3387451171875
176;1673295230.0727844;47.1306425;7.2406197;40.74400329589844;1673295230.1051242;19.11964988708496;19.921716690063477;99.54335021972656
177;1673295230.2664664;47.1306425;7.2406197;41.13100051879883;1673295230.3007622;18.937650680541992;20.688539505004883;99.65663146972656
178;1673295230.466328;47.1306425;7.2406197;41.52800369262695;1673295230.5006382;19.005840301513672;19.026094436645508;99.2924575805664
179;1673295230.679071;47.1306425;7.2406197;41.92500305175781;1673295230.7178674;19.14873504638672;19.781700134277344;99.39839935302734
180;1673295230.894744;47.130642599999995;7.2406197;42.320003509521484;1673295230.9251342;18.970273971557617;21.007539749145508;99.66352844238281
181;1673295231.1008594;47.130642599999995;7.2406197;42.71900177001953;1673295231.1340625;18.944021224975586;18.88467788696289;99.1888656616211
182;1673295231.2891805;47.130642599999995;7.2406197;43.118003845214844;1673295231.326508;18.983930587768555;19.946611404418945;99.36548614501953
183;1673295231.4746258;47.130642599999995;7.2406197;43.50600051879883;1673295231.50977;18.987106323242188;20.829530715942383;99.64547729492188
184;1673295231.67345;47.1306425;7.2406197;43.90300369262695;1673295231.7095637;18.94355583190918;18.81995964050293;99.32965087890625
185;1673295231.869343;47.1306425;7.2406197;44.29900360107422;1673295231.905496;19.03055191040039;19.788846969604492;99.54766082763672
186;1673295232.0642934;47.130642599999995;7.2406197;44.69600296020508;1673295232.0974772;18.838397979736328;20.84117317199707;99.65376281738281
187;1673295232.2625356;47.1306425;7.2406197;45.09600067138672;1673295232.2961123;18.986064910888672;19.044267654418945;99.41519165039062
188;1673295232.4603236;47.1306425;7.2406197;45.499000549316406;1673295232.4935036;19.0699405670166;19.547109603881836;99.4004135131836
189;1673295232.672743;47.130642599999995;7.2406197;45.900001525878906;1673295232.708861;18.97397804260254;20.922515869140625;99.64824676513672
190;1673295232.8783987;47.130642599999995;7.2406197;46.28900146484375;1673295232.9146147;18.978981018066406;19.318078994750977;99.4294662475586
191;1673295233.0732002;47.130642599999995;7.2406197;46.68100357055664;1673295233.1108615;19.11520004272461;19.480491638183594;99.3934097290039
192;1673295233.2801857;47.130642599999995;7.240619799999999;47.07400131225586;1673295233.3106575;18.99871826171875;21.00124740600586;99.61695098876953
193;1673295233.473466;47.130642599999995;7.240619799999999;47.47200393676758;1673295233.5407093;19.07944679260254;19.469486236572266;99.3800048828125
194;1673295233.6828787;47.130642599999995;7.240619799999999;47.867000579833984;1673295233.713146;19.053955078125;19.35797882080078;99.34365844726562
195;1673295233.8704493;47.130642699999996;7.240619799999999;48.24700164794922;1673295233.9143977;19.124780654907227;21.62792205810547;99.80323791503906
196;1673295234.103984;47.130642699999996;7.2406198999999996;48.56700134277344;1673295234.13576;19.172500610351562;19.46347427368164;99.3956069946289
197;1673295234.2885723;47.1306428;7.2406201999999995;48.840003967285156;1673295234.325245;19.426128387451172;20.05287742614746;99.51280975341797
198;1673295234.498824;47.130643;7.2406204;49.07400131225586;1673295234.5297968;19.591960906982422;21.634489059448242;99.7410659790039
199;1673295234.6970248;47.130643199999994;7.2406207;49.27400207519531;1673295234.7278173;19.84552001953125;20.37348175048828;99.45361328125
200;1673295234.8807049;47.1306434;7.2406209;49.44700241088867;1673295234.916825;31.2416934967041;19.834524154663086;96.94123840332031
201;1673295235.0742564;47.1306435;7.240620799999999;49.55800247192383;1673295235.1084335;24.448469161987305;20.050256729125977;86.05060577392578
202;1673295235.2758334;47.1306435;7.2406207;49.5780029296875;1673295235.3121927;22.050737380981445;17.575790405273438;74.6149673461914
203;1673295235.4764295;47.130643299999996;7.240621099999999;49.58100128173828;1673295235.5085416;39.133934020996094;11.894100189208984;65.46700286865234
204;1673295235.6822274;47.1306425;7.240620799999999;49.60900115966797;1673295235.7152393;35.55522537231445;3.825432062149048;55.71310043334961
205;1673295235.8773525;47.130641399999995;7.2406201;49.65700149536133;1673295235.9133172;29.3455753326416;-3.19789981842041;46.73151397705078
206;1673295236.0855215;47.130640299999996;7.2406194;49.702003479003906;1673295236.124401;31.355777740478516;-8.45927906036377;38.231170654296875
207;1673295236.2842562;47.1306393;7.2406185;49.74100112915039;1673295236.322707;27.787582397460938;-12.926136016845703;29.323707580566406
208;1673295236.4833617;47.1306383;7.2406175;49.77400207519531;1673295236.520458;24.76953887939453;-15.785770416259766;20.50222396850586
209;1673295236.6733687;47.1306375;7.2406165;49.7910041809082;1673295236.710367;21.236684799194336;-17.833600997924805;11.307415962219238
210;1673295236.877534;47.1306368;7.240615699999999;49.81100082397461;1673295236.909445;17.107847213745117;-20.476409912109375;1.6921629905700684
211;1673295237.0765004;47.1306363;7.240615099999999;49.833003997802734;1673295237.1133738;13.251605987548828;-23.45423126220703;-7.6174211502075195
212;1673295237.2685492;47.130635899999994;7.2406144999999995;49.85600280761719;1673295237.305451;9.321483612060547;-25.995773315429688;-17.066701889038086
213;1673295237.4727104;47.1306357;7.240614099999999;49.87800216674805;1673295237.5084565;5.248386383056641;-27.999073028564453;-26.38394546508789
214;1673295237.6835148;47.1306356;7.240613799999999;49.897003173828125;1673295237.717477;0.7197210788726807;-29.004335403442383;-35.589229583740234
215;1673295237.88639;47.1306356;7.2406134;49.91400146484375;1673295237.92153;-4.012840270996094;-28.459150314331055;-44.52843475341797
216;1673295238.081916;47.1306357;7.240613;49.9160041809082;1673295238.1241167;-8.873753547668457;-26.456336975097656;-52.22388458251953
217;1673295238.2853174;47.130635899999994;7.2406128;49.932003021240234;1673295238.3194752;-8.699832916259766;-25.469661712646484;-51.50698471069336
218;1673295238.4876397;47.1306363;7.240612499999999;49.95100402832031;1673295238.5218072;-5.8951497077941895;-26.70722198486328;-47.747161865234375
219;1673295238.689846;47.1306367;7.2406123;49.96800231933594;1673295238.7536526;-3.603853464126587;-29.266948699951172;-45.86481857299805
220;1673295238.9036121;47.1306369;7.2406121;49.98100280761719;1673295238.937963;-2.067751407623291;-31.12723731994629;-45.48367691040039
221;1673295239.090477;47.1306371;7.240611899999999;49.9890022277832;1673295239.128522;-1.785288691520691;-31.53032684326172;-45.18914794921875
222;1673295239.3052988;47.130637;7.240611599999999;49.980003356933594;1673295239.3375146;-1.9806591272354126;-30.271854400634766;-45.18413543701172
223;1673295239.5063457;47.130637;7.2406115;49.980003356933594;1673295239.540668;-2.5373189449310303;-29.048519134521484;-45.11058807373047
224;1673295239.689808;47.1306368;7.2406114;49.98400115966797;1673295239.7239745;-3.1996803283691406;-27.824665069580078;-45.093658447265625
225;1673295239.8813732;47.130636599999995;7.2406114;49.99500274658203;1673295239.9106524;-3.381347179412842;-27.72698402404785;-44.99109649658203
226;1673295240.0876992;47.1306364;7.240611299999999;50.005001068115234;1673295240.1220183;-19.17804718017578;-27.370641708374023;-45.504302978515625
227;1673295240.2702558;47.130636599999995;7.2406104;50.0160026550293;1673295240.3015177;-38.05789566040039;-22.85381317138672;-46.72037887573242
228;1673295240.4689314;47.1306382;7.2406077;50.02000427246094;1673295240.5048606;-51.28680419921875;-18.602184295654297;-47.051456451416016
229;1673295240.6793773;47.1306422;7.2406022;50.00300216674805;1673295240.7180464;-57.63703918457031;-14.639451026916504;-47.74483871459961
230;1673295240.8839579;47.1306483;7.2405937;49.97100067138672;1673295240.9159112;-52.5362434387207;-10.642255783081055;-49.69404602050781
231;1673295241.0699034;47.1306564;7.2405827;49.94400405883789;1673295241.1040769;-52.33329391479492;-10.196395874023438;-52.36015701293945
232;1673295241.2639625;47.1306661;7.2405693;49.923004150390625;1673295241.2981532;-53.74163818359375;-10.456001281738281;-51.88689041137695
233;1673295241.4591217;47.130677299999995;7.2405541;49.893001556396484;1673295241.4962897;-52.02145767211914;-11.118853569030762;-51.35334777832031
234;1673295241.667114;47.1306896;7.2405373;49.858001708984375;1673295241.70507;-49.47332763671875;-13.358242988586426;-50.29734802246094
235;1673295241.8811646;47.130703;7.2405197;49.82400131225586;1673295241.9111478;-48.85477828979492;-13.953758239746094;-50.02773666381836
236;1673295242.1009603;47.1307171;7.2405009;49.802001953125;1673295242.1371248;-47.567440032958984;-16.534828186035156;-52.141170501708984
237;1673295242.2870889;47.130731399999995;7.240481;49.797000885009766;1673295242.321146;-48.43655014038086;-17.24423599243164;-53.01889419555664
238;1673295242.4848804;47.1307458;7.2404604;49.7910041809082;1673295242.5209055;-45.95903778076172;-19.78927230834961;-52.39333724975586
239;1673295242.6710422;47.1307602;7.2404392;49.79300308227539;1673295242.709085;-43.83772277832031;-26.15449333190918;-52.14289093017578
240;1673295242.884854;47.130773999999995;7.2404171999999996;49.80600357055664;1673295242.9210794;-37.789302825927734;-34.43671417236328;-53.787010192871094
241;1673295243.0780103;47.1307865;7.2403951;49.81500244140625;1673295243.1130526;-5.0987677574157715;-30.767637252807617;-60.748565673828125
242;1673295243.2821114;47.1307975;7.2403754;49.76700210571289;1673295243.3168046;19.482589721679688;-17.789213180541992;-60.809547424316406
243;1673295243.486318;47.1308071;7.2403594;49.64200210571289;1673295243.5228453;14.43486499786377;-5.605996131896973;-50.77515411376953
244;1673295243.6810267;47.1308157;7.240348399999999;49.56500244140625;1673295243.7215452;24.111305236816406;-8.795806884765625;-45.459617614746094
245;1673295243.8899364;47.1308231;7.2403420999999994;49.55500411987305;1673295243.9243052;36.23848342895508;-13.865899085998535;-46.371700286865234
246;1673295244.0980506;47.130828799999996;7.2403403;49.583003997802734;1673295244.1349545;41.19983673095703;-17.616466522216797;-45.86048126220703
247;1673295244.3068829;47.130832399999996;7.240342699999999;49.63300323486328;1673295244.3400884;43.07645797729492;-22.671640396118164;-44.91004943847656
248;1673295244.498512;47.1308335;7.2403485;49.689002990722656;1673295244.5341818;45.0859375;-29.563720703125;-45.32475662231445
249;1673295244.707089;47.1308321;7.2403569;49.7660026550293;1673295244.739954;41.60385513305664;-37.06209945678711;-43.87568664550781
250;1673295244.916991;47.130828199999996;7.2403666;49.8390007019043;1673295244.953887;30.41738510131836;-42.81439971923828;-45.028289794921875
251;1673295245.1171489;47.130822699999996;7.2403759999999995;49.89200210571289;1673295245.1522872;15.260076522827148;-44.02680969238281;-45.86784362792969
252;1673295245.313937;47.1308162;7.240384199999999;49.92900085449219;1673295245.3477886;2.7859604358673096;-41.11711120605469;-48.69465255737305
253;1673295245.5119917;47.1308094;7.240391;49.94400405883789;1673295245.5447786;-0.35187989473342896;-37.31928253173828;-50.64850616455078
254;1673295245.7104683;47.130802599999996;7.240396499999999;49.952003479003906;1673295245.7451699;3.3347723484039307;-33.92517852783203;-51.20968246459961
255;1673295245.909885;47.1307961;7.2404011;49.95600128173828;1673295245.9455595;4.602306842803955;-31.95577621459961;-50.713008880615234
256;1673295246.1102598;47.130789799999995;7.240405399999999;49.952003479003906;1673295246.1469195;2.7549867630004883;-27.47795867919922;-50.336036682128906
257;1673295246.2976182;47.130783799999996;7.2404097;49.94600296020508;1673295246.328074;0.2869049906730652;-17.704301834106445;-50.113094329833984
258;1673295246.4789557;47.130778799999995;7.2404141;49.94200134277344;1673295246.5140986;-15.642317771911621;-0.5597463846206665;-50.27030944824219
259;1673295246.6827633;47.1307755;7.2404188;49.93600082397461;1673295246.7205763;-21.502365112304688;-9.080802917480469;-50.364990234375
260;1673295246.8806221;47.1307741;7.2404228999999996;49.93400192260742;1673295246.9280877;-14.046185493469238;-21.043983459472656;-51.07661437988281
261;1673295247.0928319;47.1307739;7.2404264;49.79900360107422;1673295247.126166;-15.560172080993652;-33.19545364379883;-52.83413314819336
262;1673295247.301479;47.1307738;7.240430099999999;49.310001373291016;1673295247.3381336;-16.39213752746582;-31.710186004638672;-55.35598373413086
263;1673295247.5140276;47.1307738;7.240433899999999;48.46200180053711;1673295247.5501816;-14.60968017578125;-15.515779495239258;-59.016990661621094
264;1673295247.720106;47.130773999999995;7.240437999999999;47.24100112915039;1673295247.7573833;-7.891307353973389;14.77840805053711;-61.93902587890625
265;1673295247.9255438;47.1307743;7.2404421999999995;45.63200378417969;1673295247.95391;2.076148509979248;51.303096771240234;-59.14363098144531
266;1673295248.1019723;47.130774599999995;7.2404464;43.637001037597656;1673295248.138636;9.21851921081543;80.23027801513672;-50.712589263916016
267;1673295248.29924;47.1307749;7.2404506;41.28200149536133;1673295248.3943253;12.657777786254883;89.62683868408203;-44.014434814453125
268;1673295248.538154;47.130775299999996;7.2404547;38.56300354003906;1673295248.5703576;14.93432903289795;73.47869873046875;-43.86528396606445
269;1673295248.7203066;47.1307756;7.240458599999999;35.496002197265625;1673295248.753036;13.393969535827637;33.86210250854492;-50.23823928833008
270;1673295248.9031723;47.130775799999995;7.240462399999999;32.053001403808594;1673295248.935955;2.991882801055908;-11.35455322265625;-57.08681869506836
271;1673295249.0897682;47.1307763;7.2404663;28.218000411987305;1673295249.124554;-9.42832088470459;-36.382415771484375;-56.630313873291016
272;1673295249.29193;47.130776999999995;7.2404706;24.019001007080078;1673295249.3296132;-15.545890808105469;-27.517953872680664;-58.387969970703125
273;1673295249.4901848;47.1307781;7.240475399999999;19.455001831054688;1673295249.5262387;-9.416596412658691;10.896202087402344;-64.521240234375
274;1673295249.7010527;47.1307792;7.2404804;14.484001159667969;1673295249.7430866;6.208096504211426;48.91188430786133;-61.87532043457031
275;1673295249.9284334;47.130779999999994;7.240485199999999;9.157000541687012;1673295249.962592;17.11775016784668;57.73401641845703;-55.46901321411133
276;1673295250.1186602;47.1307806;7.2404898;3.502000093460083;1673295250.1494594;19.529146194458008;27.282133102416992;-59.674705505371094
277;1673295250.3153763;47.1307821;7.2404962;0.07500000298023224;1673295250.3500752;-0.6055740714073181;5.276430606842041;-65.80413818359375
278;1673295250.5090392;47.1307852;7.240509299999999;0.16700001060962677;1673295250.54083;4.2033305168151855;9.453497886657715;-52.67983627319336
279;1673295250.7260747;47.1307878;7.240524199999999;0.18000000715255737;1673295250.7592616;4.98408317565918;9.654593467712402;-53.51659393310547
280;1673295250.9332976;47.130790399999995;7.2405389;0.19300000369548798;1673295250.9764414;5.104212760925293;9.96643352508545;-53.658634185791016
281;1673295251.126829;47.1307932;7.240554599999999;0.20000000298023224;1673295251.1590405;5.110129356384277;10.231066703796387;-53.810768127441406
282;1673295251.3189554;47.1307957;7.2405678;0.20500001311302185;1673295251.3538353;5.063765525817871;10.022355079650879;-53.944881439208984
283;1673295251.520651;47.130797799999996;7.2405788;0.21000000834465027;1673295251.5584347;4.94954776763916;9.789271354675293;-54.0732421875
284;1673295251.7173874;47.1308005;7.2405925;0.2070000171661377;1673295251.7487667;5.034165382385254;9.69375991821289;-54.12275314331055
285;1673295251.9093494;47.1308036;7.2406083;0.20100000500679016;1673295251.9430764;5.056565284729004;9.555802345275879;-54.219425201416016
286;1673295252.1048236;47.1308071;7.240625499999999;0.18800000846385956;1673295252.146435;5.109679222106934;9.45644474029541;-54.26974105834961
287;1673295252.3207622;47.1308107;7.2406437;0.17000000178813934;1673295252.360482;5.1414313316345215;9.3732328414917;-54.32207107543945
288;1673295252.5362637;47.1308146;7.2406627;0.15000000596046448;1673295252.5920448;5.2032151222229;9.264591217041016;-54.374794006347656
289;1673295252.774601;47.1308186;7.240682499999999;0.12800000607967377;1673295252.8128073;5.233510971069336;9.182111740112305;-54.46662521362305
290;1673295252.9565473;47.130822699999996;7.240703;0.10600000619888306;1673295252.991746;5.254096984863281;9.115044593811035;-54.51865768432617
291;1673295253.1606836;47.130827;7.2407240999999996;0.0820000022649765;1673295253.1926868;5.282260894775391;9.033296585083008;-54.56779479980469
292;1673295253.3716528;47.1308314;7.2407457;0.05900000408291817;1673295253.4126213;5.3031325340271;8.974696159362793;-54.637786865234375
293;1673295253.597175;47.1308359;7.240768;0.036000002175569534;1673295253.6487348;5.277801513671875;8.920696258544922;-54.66379165649414
294;1673295253.7808511;47.1308405;7.240791;0.004000000189989805;1673295253.8088043;5.312962532043457;8.872758865356445;-54.70072937011719
295;1673295253.9655766;47.130845199999996;7.2408145;-0.02500000037252903;1673295253.9966433;5.297339916229248;8.779397010803223;-54.725425720214844
296;1673295254.159616;47.130849999999995;7.2408385;-0.052000001072883606;1673295254.1885517;5.278108596801758;8.653340339660645;-54.7460823059082
297;1673295254.3453133;47.130854799999994;7.240863;-0.07800000160932541;1673295254.3785572;5.271350383758545;8.551329612731934;-54.74717330932617
298;1673295254.5252926;47.130859799999996;7.240888099999999;-0.10200000554323196;1673295254.5560055;5.2394256591796875;8.44437026977539;-54.75519561767578
299;1673295254.7258613;47.1308649;7.240913699999999;-0.12400000542402267;1673295254.761527;5.2403130531311035;8.303221702575684;-54.75259017944336
300;1673295254.9165237;47.130870099999996;7.2409400999999995;-0.15800000727176666;1673295254.944583;5.213030815124512;8.252084732055664;-54.74967575073242
301;1673295255.0996356;47.1308754;7.2409668;-0.18300001323223114;1673295255.1334255;5.172127723693848;8.164372444152832;-54.776405334472656
302;1673295255.2972782;47.1308807;7.240993899999999;-0.20100000500679016;1673295255.3344824;5.108590602874756;8.053707122802734;-54.750572204589844
303;1673295255.50607;47.1308861;7.2410214999999996;-0.21900001168251038;1673295255.5421267;5.069205284118652;8.060163497924805;-54.71905517578125
304;1673295255.7057428;47.1308916;7.241049599999999;-0.23600001633167267;1673295255.744837;4.978779315948486;7.854763984680176;-54.616432189941406
305;1673295255.919595;47.1308972;7.2410782;-0.25300002098083496;1673295255.9529572;4.9790143966674805;7.485318183898926;-54.51984405517578
306;1673295256.1136901;47.130902899999995;7.2411072999999995;-0.2680000066757202;1673295256.1495607;4.976987838745117;7.338766574859619;-54.42853927612305
307;1673295256.3057265;47.1309087;7.2411372;-0.2990000247955322;1673295256.337467;5.013184070587158;7.216164588928223;-54.34575271606445
308;1673295256.4948149;47.130908899999994;7.2411384;-0.320000022649765;1673295256.5298355;5.000425815582275;7.11212682723999;-54.27056884765625
309;;;;;1673295256.7445977;4.933887958526611;7.024784088134766;-54.20669937133789
310;;;;;1673295256.945731;4.9179368019104;6.686816215515137;-54.16572570800781
311;;;;;1673295257.146566;4.878232479095459;5.987967014312744;-54.09769821166992
312;;;;;1673295257.3798919;4.864566326141357;5.670296669006348;-54.04877471923828
