;pos_time;latitude;longitude;altitude;alt_time;pitch;roll;yaw
0;1673295828.5680122;47.1306425;7.24062;-0.003000000026077032;1673295828.697398;0.6036790609359741;-0.08111966401338577;90.03639221191406
1;1673295828.769205;47.1306425;7.24062;-0.003000000026077032;1673295828.8850565;0.1213981881737709;-0.30026066303253174;90.28362274169922
2;1673295828.962016;47.1306425;7.240619799999999;-0.0010000000474974513;1673295829.0826845;-0.0360715426504612;-0.14229026436805725;90.1163330078125
3;1673295829.1593494;47.1306425;7.2406197;0.0010000000474974513;1673295829.286837;0.08843421190977097;-0.17872609198093414;90.1004867553711
4;1673295829.3703794;47.1306425;7.2406196;0.0020000000949949026;1673295829.4861557;0.21342189610004425;-0.2148054540157318;90.04180145263672
5;1673295829.5648372;47.1306425;7.240619499999999;0.0020000000949949026;1673295829.6936345;-0.018181798979640007;-0.12909890711307526;90.11140441894531
6;1673295829.7709422;47.1306424;7.2406193;0.0;1673295829.8903685;-0.021052168682217598;-0.217560276389122;90.06005859375
7;1673295829.9785604;47.1306424;7.2406193;-0.0020000000949949026;1673295830.0884426;-0.05502361059188843;-0.21772471070289612;90.01651000976562
8;1673295830.1624136;47.1306424;7.2406194;-0.0020000000949949026;1673295830.2810688;-0.044237907975912094;-0.3320176601409912;90.18107604980469
9;1673295830.363669;47.1306424;7.240619499999999;-0.0010000000474974513;1673295830.4884746;-0.21080315113067627;-0.11117085814476013;90.12223815917969
10;1673295830.566679;47.1306424;7.2406196;0.0020000000949949026;1673295830.6775112;-0.11632344871759415;-0.15007086098194122;90.00025939941406
11;1673295830.7473514;47.1306424;7.2406197;0.006000000052154064;1673295830.8711433;0.009167787618935108;-0.22014611959457397;90.17610168457031
12;1673295830.9481952;47.1306424;7.240619799999999;0.00800000037997961;1673295831.066064;-0.23136618733406067;-0.19488224387168884;90.23613739013672
13;1673295831.1492672;47.1306424;7.240619799999999;0.00800000037997961;1673295831.2893403;0.08806176483631134;-0.04084067791700363;89.99163055419922
14;1673295831.3660386;47.1306424;7.2406198999999996;0.0;1673295831.4995322;0.0534159392118454;-0.4505699574947357;90.15412902832031
15;1673295831.573471;47.1306423;7.2406198999999996;-0.003000000026077032;1673295831.688364;0.2186826914548874;-0.4986586272716522;90.23458099365234
16;1673295831.7599049;47.1306423;7.24062;-0.006000000052154064;1673295831.883141;0.046618591994047165;-0.36641925573349;90.06080627441406
17;1673295831.9653847;47.1306424;7.24062;-0.009000000543892384;1673295832.0979064;-0.03697226941585541;-0.46731996536254883;90.06786346435547
18;1673295832.1755352;47.1306424;7.24062;-0.010000000707805157;1673295832.2962515;-0.07876896858215332;-0.3782082498073578;90.1568603515625
19;1673295832.3669505;47.1306424;7.24062;-0.01100000087171793;1673295832.496025;-0.14609591662883759;-0.6021438837051392;90.29952239990234
20;1673295832.582038;47.1306424;7.2406201;-0.013000000268220901;1673295832.709186;-0.1143537163734436;-0.5744313597679138;90.29159545898438
21;1673295832.780081;47.1306424;7.2406201;-0.015000000596046448;1673295832.9053373;-0.1438712775707245;-0.9004002213478088;90.25778198242188
22;1673295832.98217;47.1306425;7.2406201999999995;-0.018000001087784767;1673295833.1006086;0.05465798079967499;-0.05382738262414932;90.050537109375
23;1673295833.172964;47.1306425;7.2406201999999995;0.0;1673295833.2862089;0.07211923599243164;-0.6949045062065125;90.30623626708984
24;1673295833.3542864;47.1306425;7.2406201999999995;-0.004000000189989805;1673295833.483974;-0.008394395001232624;-0.25052177906036377;90.21611785888672
25;1673295833.5582132;47.1306425;7.2406201999999995;-0.007000000216066837;1673295833.6882434;0.1966407746076584;-0.21479621529579163;90.35758972167969
26;1673295833.766329;47.1306425;7.2406201;-0.009000000543892384;1673295833.8943613;0.3894069194793701;-0.5405737161636353;90.26068878173828
27;1673295833.9733093;47.1306425;7.2406201;-0.01100000087171793;1673295834.1062508;0.283599853515625;-0.4208759367465973;90.23695373535156
28;1673295834.1771019;47.1306425;7.2406201;-0.013000000268220901;1673295834.2952003;0.17842638492584229;-0.33589836955070496;90.0796890258789
29;1673295834.3622987;47.1306425;7.2406201;-0.013000000268220901;1673295834.4851031;0.17132559418678284;-0.4329436421394348;89.86949157714844
30;1673295834.5622048;47.1306425;7.2406201;-0.012000000104308128;1673295834.698008;0.5902776718139648;-0.3626951277256012;89.05770111083984
31;1673295834.7711124;47.130642599999995;7.24062;-0.010000000707805157;1673295834.8923957;0.11762004345655441;0.4183826446533203;85.72898864746094
32;1673295834.965201;47.130642699999996;7.2406198999999996;-0.014000000432133675;1673295835.103019;-0.6001754999160767;1.4408432245254517;81.6831283569336
33;1673295835.172174;47.1306429;7.2406196;-0.01100000087171793;1673295835.2987986;-2.9790382385253906;6.77735710144043;82.73419189453125
34;1673295835.3731096;47.130643;7.240619199999999;0.005000000353902578;1673295835.4943862;-6.822573184967041;11.604475021362305;83.51305389404297
35;1673295835.5731595;47.1306431;7.240618899999999;0.04000000283122063;1673295835.6991694;-6.378777980804443;5.82889461517334;84.81792449951172
36;1673295835.7780282;47.130643;7.2406188;0.09700000286102295;1673295835.9211073;-7.365406513214111;5.871814250946045;85.19910430908203
37;1673295835.9932446;47.1306429;7.2406188;0.16700001060962677;1673295836.153217;-7.372632026672363;9.967117309570312;85.2148208618164
38;1673295836.2440882;47.1306428;7.2406188;0.25;1673295836.3742373;-7.426046848297119;6.322362422943115;86.0348129272461
39;1673295836.4344795;47.130642599999995;7.240618899999999;0.34300002455711365;1673295836.5341368;-7.080003261566162;4.620758056640625;86.68707275390625
40;1673295836.6030478;47.1306424;7.2406191;0.45500001311302185;1673295836.7523057;-6.230836391448975;8.283556938171387;86.20597839355469
41;1673295836.8404431;47.1306423;7.2406193;0.5840000510215759;1673295836.9670534;-6.088839054107666;6.674619197845459;86.68187713623047
42;1673295837.033461;47.1306423;7.240619499999999;0.7250000238418579;1673295837.173651;-6.358580589294434;4.2713117599487305;87.1954345703125
43;1673295837.255547;47.1306423;7.2406196;0.878000020980835;1673295837.355788;-6.620212554931641;8.178853034973145;86.80363464355469
44;1673295837.4195056;47.1306422;7.2406197;1.0480000972747803;1673295837.530712;-6.483134746551514;7.527580738067627;87.08125305175781
45;1673295837.6049678;47.130642099999996;7.2406197;1.2260000705718994;1673295837.7218208;-6.572772979736328;3.305649995803833;87.79643249511719
46;1673295837.8006377;47.130641999999995;7.240619799999999;1.415000081062317;1673295837.922558;-6.212844371795654;6.308518886566162;86.93460845947266
47;1673295837.9969325;47.130641999999995;7.24062;1.6150001287460327;1673295838.138292;-5.854012489318848;8.293499946594238;86.53561401367188
48;1673295838.2140493;47.1306422;7.2406201;1.818000078201294;1673295838.3322248;-5.727331638336182;4.66274356842041;87.1964111328125
49;1673295838.4076095;47.1306424;7.2406201;2.0230000019073486;1673295838.5254116;-6.116485595703125;6.983216285705566;87.00780487060547
50;1673295838.5933032;47.1306425;7.2406201999999995;2.2260000705718994;1673295838.7168696;-6.111656665802002;8.671001434326172;86.66973876953125
51;1673295838.8133836;47.1306425;7.2406201999999995;2.432000160217285;1673295838.9450781;-6.158808708190918;4.900626182556152;87.42256164550781
52;1673295839.023922;47.130642599999995;7.2406201999999995;2.634000062942505;1673295839.1538382;-6.256242275238037;6.4529829025268555;87.2651596069336
53;1673295839.2222092;47.130642599999995;7.2406201999999995;2.8370001316070557;1673295839.3374696;-6.235158920288086;9.728409767150879;86.6995849609375
54;1673295839.4164765;47.130642699999996;7.2406201999999995;3.0420000553131104;1673295839.5330036;-6.209134578704834;5.6016645431518555;87.17620086669922
55;1673295839.5994496;47.130642699999996;7.2406201999999995;3.246000051498413;1673295839.7103543;-6.28399658203125;6.075038909912109;87.0452880859375
56;1673295839.7813995;47.130642699999996;7.2406203;3.453000068664551;1673295839.898414;-6.024961471557617;9.166879653930664;86.44963073730469
57;1673295839.9771855;47.130642599999995;7.2406203;3.6610002517700195;1673295840.1202555;-6.01370906829834;5.902071952819824;86.75101470947266
58;1673295840.248234;47.130642599999995;7.2406203;3.8630001544952393;1673295840.384377;-6.162638187408447;4.809957504272461;87.111328125
59;1673295840.4756823;47.1306425;7.2406201999999995;4.067000389099121;1673295840.6177385;-6.091760158538818;9.443418502807617;86.636474609375
60;1673295840.6825433;47.1306425;7.2406201;4.276000022888184;1673295840.8042967;-6.217510223388672;6.44767951965332;86.9525375366211
61;1673295840.898765;47.130642599999995;7.24062;4.486000061035156;1673295841.0048351;-6.860700607299805;4.664722919464111;87.23511505126953
62;1673295841.0923736;47.1306425;7.2406198999999996;4.696000099182129;1673295841.204226;-6.8341288566589355;9.068236351013184;86.62265014648438
63;1673295841.2692277;47.1306425;7.240619799999999;4.90500020980835;1673295841.3783832;-6.859404563903809;7.892461776733398;86.82853698730469
64;1673295841.442806;47.1306425;7.240619799999999;5.11400032043457;1673295841.5550382;-6.8288116455078125;4.1556782722473145;87.46183776855469
65;1673295841.6235464;47.1306425;7.240619799999999;5.317000389099121;1673295841.7470894;-6.659400463104248;8.554513931274414;86.99482727050781
66;1673295841.8170338;47.130642599999995;7.240619799999999;5.528000354766846;1673295841.9207613;-6.460603713989258;9.677093505859375;86.76201629638672
67;1673295841.999872;47.130642699999996;7.2406198999999996;5.73900032043457;1673295842.1126616;-6.4519734382629395;5.080983638763428;87.18828582763672
68;1673295842.1912966;47.130642599999995;7.2406198999999996;5.950000286102295;1673295842.3091528;-6.612321853637695;7.180392265319824;86.8675537109375
69;1673295842.3858395;47.1306425;7.2406198999999996;6.158000469207764;1673295842.5143518;-6.3944549560546875;8.964086532592773;86.48455047607422
70;1673295842.5901284;47.1306424;7.2406198999999996;6.368000507354736;1673295842.7166998;-6.3434367179870605;4.560993194580078;87.08080291748047
71;1673295842.785678;47.1306424;7.2406198999999996;6.572000503540039;1673295842.933141;-6.565098285675049;6.068265914916992;86.8902359008789
72;1673295843.0052707;47.1306423;7.2406198999999996;6.777000427246094;1673295843.125057;-6.392484188079834;9.703341484069824;86.50113677978516
73;1673295843.1968489;47.1306424;7.2406198999999996;6.982000350952148;1673295843.3089442;-6.251907825469971;5.509225368499756;86.93274688720703
74;1673295843.3789642;47.1306424;7.2406198999999996;7.187000274658203;1673295843.5012467;-6.603391647338867;5.589053153991699;87.0028076171875
75;1673295843.5801182;47.1306423;7.24062;7.386000156402588;1673295843.71022;-6.459575653076172;9.66729736328125;86.60381317138672
76;1673295843.7898955;47.1306423;7.24062;7.588000297546387;1673295843.914523;-6.485527992248535;5.962225914001465;86.91917419433594
77;1673295843.9911973;47.1306423;7.24062;7.7920002937316895;1673295844.1187942;-6.861724853515625;4.675297737121582;87.19607543945312
78;1673295844.1877365;47.1306423;7.24062;7.994000434875488;1673295844.3337235;-6.522803783416748;9.465790748596191;86.72769927978516
79;1673295844.401645;47.1306424;7.24062;8.200000762939453;1673295844.5311341;-6.512781620025635;7.275111675262451;86.9322509765625
80;1673295844.605047;47.1306425;7.24062;8.402000427246094;1673295844.7326193;-6.436038017272949;4.8396077156066895;87.23822784423828
81;1673295844.8015442;47.1306425;7.24062;8.605000495910645;1673295844.916165;-6.36842679977417;9.110895156860352;86.82901763916016
82;1673295845.0106163;47.1306424;7.24062;8.806000709533691;1673295845.133465;-6.441346645355225;8.124907493591309;86.91273498535156
83;1673295845.2001662;47.1306423;7.24062;9.008000373840332;1673295845.3202443;-6.645911693572998;4.0976691246032715;87.42131042480469
84;1673295845.3937757;47.1306423;7.24062;9.209000587463379;1673295845.517944;-6.868038177490234;7.808509826660156;86.77847290039062
85;1673295845.5978024;47.1306424;7.2406201;9.413000106811523;1673295845.728482;-6.514657020568848;8.80573558807373;86.49217224121094
86;1673295845.8118625;47.1306425;7.2406201;9.617000579833984;1673295845.9350898;-6.450098037719727;4.665585041046143;87.10572052001953
87;1673295846.0118053;47.1306425;7.2406201;9.817000389099121;1673295846.1230407;-6.475228786468506;7.459917068481445;86.9587173461914
88;1673295846.2022166;47.1306424;7.2406201999999995;10.016000747680664;1673295846.3248253;-6.013601303100586;8.931485176086426;86.52912139892578
89;1673295846.3977885;47.1306423;7.2406201999999995;10.22700023651123;1673295846.5314891;-6.4931769371032715;5.399224281311035;86.95571899414062
90;1673295846.6041257;47.1306423;7.2406203;10.529000282287598;1673295846.72107;-7.206079006195068;6.912893772125244;87.28694152832031
91;1673295846.7974975;47.1306422;7.2406204;10.9010009765625;1673295846.9240363;-6.366096019744873;10.06942081451416;86.82256317138672
92;1673295846.9930873;47.1306422;7.2406207;11.292000770568848;1673295847.1168888;-5.756344795227051;6.8004302978515625;87.15335845947266
93;1673295847.1878548;47.130642099999996;7.2406209;11.690000534057617;1673295847.3087058;-5.942344665527344;4.0848541259765625;87.17876434326172
94;1673295847.392237;47.1306418;7.240621099999999;12.089000701904297;1673295847.5295398;-5.638752460479736;7.761600494384766;86.49890899658203
95;1673295847.628898;47.1306416;7.2406212;12.491000175476074;1673295847.7434042;-5.325089454650879;5.705265998840332;86.75939178466797
96;1673295847.821239;47.1306416;7.240621099999999;12.893000602722168;1673295847.9234407;-5.6301188468933105;3.57338809967041;87.29345703125
97;1673295848.004106;47.1306417;7.240621;13.291000366210938;1673295848.1306577;-5.671059608459473;7.992522239685059;86.93223571777344
98;1673295848.2489746;47.1306418;7.2406209;13.693000793457031;1673295848.4046326;-6.038507461547852;7.53940486907959;86.81756591796875
99;1673295848.4634483;47.1306419;7.240620799999999;14.094000816345215;1673295848.5677102;-6.269047737121582;4.2934699058532715;87.17738342285156
100;1673295848.6526856;47.1306419;7.2406206;14.49100112915039;1673295848.76081;-6.6358723640441895;7.2656378746032715;86.67105102539062
101;1673295848.8333278;47.1306419;7.2406204999999995;14.887001037597656;1673295848.960316;-6.536138534545898;8.557095527648926;86.5584945678711
102;1673295849.0338352;47.130641999999995;7.2406204999999995;15.284000396728516;1673295849.1494768;-6.596141815185547;4.543902397155762;87.34584045410156
103;1673295849.232028;47.130641999999995;7.2406204999999995;15.678000450134277;1673295849.3510084;-6.535775184631348;6.3771772384643555;87.08264923095703
104;1673295849.4140184;47.130642099999996;7.2406204999999995;16.065000534057617;1673295849.5199327;-5.996044635772705;10.032575607299805;86.62515258789062
105;1673295849.5937157;47.1306423;7.2406204999999995;16.45600128173828;1673295849.733102;-6.2171101570129395;5.803553581237793;87.00080108642578
106;1673295849.7991958;47.1306423;7.2406204999999995;16.850000381469727;1673295849.9226406;-6.2672553062438965;5.836911201477051;87.0210189819336
107;1673295849.9939797;47.1306422;7.2406206;17.24100112915039;1673295850.108192;-6.209556579589844;8.958109855651855;86.5931167602539
108;1673295850.1877892;47.130642099999996;7.2406206;17.636001586914062;1673295850.3164365;-6.162632465362549;6.440153121948242;87.03496551513672
109;1673295850.402957;47.130642099999996;7.2406206;18.0310001373291;1673295850.5598807;-6.588718414306641;4.1311259269714355;87.28150939941406
110;1673295850.6365645;47.130642099999996;7.2406204999999995;18.420000076293945;1673295850.749416;-6.4125447273254395;8.378523826599121;86.58016204833984
111;1673295850.8231723;47.1306422;7.2406204999999995;18.81599998474121;1673295850.9352186;-6.162180423736572;8.094328880310059;86.61486053466797
112;1673295851.0100975;47.1306422;7.2406204999999995;19.213001251220703;1673295851.134739;-6.099023342132568;4.350363731384277;87.09363555908203
113;1673295851.210481;47.1306422;7.2406204999999995;19.60700035095215;1673295851.333218;-6.301181316375732;6.745934009552002;86.90760040283203
114;1673295851.4099412;47.130642099999996;7.2406204999999995;20.00200080871582;1673295851.5246806;-5.9324517250061035;8.629640579223633;86.74809265136719
115;1673295851.6063673;47.1306422;7.2406204999999995;20.398000717163086;1673295851.729702;-6.29266357421875;4.419108867645264;87.28441619873047
116;1673295851.802765;47.1306422;7.2406204999999995;20.791000366210938;1673295851.9413548;-6.523287296295166;5.896568775177002;87.0151596069336
117;1673295852.028798;47.1306423;7.2406204;21.177001953125;1673295852.156918;-6.106142044067383;9.621105194091797;86.49815368652344
118;1673295852.229701;47.1306424;7.2406204;21.56800079345703;1673295852.3437212;-6.033139705657959;5.988378047943115;86.97174835205078
119;1673295852.4215238;47.1306424;7.2406204;21.95600128173828;1673295852.5444996;-6.401867389678955;5.5608086585998535;87.2773666381836
120;1673295852.6222923;47.1306423;7.2406203;22.345001220703125;1673295852.748499;-6.079472064971924;9.137151718139648;86.66873931884766
121;1673295852.8261685;47.1306423;7.2406201999999995;22.74300193786621;1673295852.9402444;-6.097809314727783;5.859475612640381;86.94231414794922
122;1673295853.0169384;47.1306423;7.2406201;23.144001007080078;1673295853.1268628;-6.559562683105469;4.92974328994751;87.09786224365234
123;1673295853.2016077;47.1306423;7.2406201;23.538002014160156;1673295853.325236;-6.474066257476807;9.378670692443848;86.71630096435547
124;1673295853.4000306;47.1306424;7.2406198999999996;23.935001373291016;1673295853.5360937;-6.563288688659668;7.107576847076416;86.9506607055664
125;1673295853.610833;47.1306425;7.2406198999999996;24.332000732421875;1673295853.75116;-6.802750587463379;4.740216255187988;87.30850219726562
126;1673295853.8224857;47.1306424;7.2406198999999996;24.726001739501953;1673295853.9272907;-6.510315895080566;8.345484733581543;86.6811752319336
127;1673295854.009076;47.1306424;7.2406198999999996;25.12200164794922;1673295854.1452794;-6.038200378417969;8.458511352539062;86.49971771240234
128;1673295854.222167;47.1306424;7.2406198999999996;25.518001556396484;1673295854.3447926;-6.021810531616211;4.533714771270752;87.17912292480469
129;1673295854.4205425;47.1306425;7.24062;25.916000366210938;1673295854.573845;-6.041910171508789;7.10273551940918;86.96145629882812
130;1673295854.6336274;47.1306425;7.2406201;26.31100082397461;1673295854.7552671;-5.931184768676758;9.572713851928711;86.78816223144531
131;1673295854.8358617;47.130642599999995;7.2406201;26.709001541137695;1673295854.9653397;-6.067384243011475;5.386024475097656;87.1883316040039
132;1673295855.0436003;47.130642599999995;7.2406201;27.10900115966797;1673295855.1639385;-6.381165027618408;6.304025650024414;86.87451934814453
133;1673295855.2402096;47.1306424;7.24062;27.511001586914062;1673295855.362621;-6.134500026702881;9.32679271697998;86.51728057861328
134;1673295855.4389262;47.1306424;7.24062;27.920001983642578;1673295855.552453;-6.243707656860352;5.373007297515869;87.1884536743164
135;1673295855.6249223;47.1306424;7.2406198999999996;28.323001861572266;1673295855.7523928;-6.327545642852783;5.308638572692871;87.18072509765625
136;1673295855.8301787;47.1306425;7.2406198999999996;28.718000411987305;1673295855.9573998;-6.253610134124756;9.959840774536133;86.56748962402344
137;1673295856.0274124;47.1306425;7.2406198999999996;29.114002227783203;1673295856.140478;-5.9825568199157715;6.593302249908447;86.86204528808594
138;1673295856.2103772;47.130642599999995;7.2406198999999996;29.511001586914062;1673295856.3288856;-6.456869125366211;5.2097320556640625;87.12213897705078
139;1673295856.4232814;47.1306424;7.2406198999999996;29.906002044677734;1673295856.5536458;-6.452601909637451;8.892924308776855;86.67362213134766
140;1673295856.6353261;47.1306423;7.2406198999999996;30.304000854492188;1673295856.7668655;-6.2664289474487305;7.191490650177002;86.83584594726562
141;1673295856.8417962;47.1306423;7.2406198999999996;30.70100212097168;1673295857.0038805;-6.598220348358154;4.103570938110352;87.20585632324219
142;1673295857.0654843;47.1306422;7.2406198999999996;31.095001220703125;1673295857.184134;-6.3407111167907715;8.274280548095703;86.5934829711914
143;1673295857.2912378;47.1306423;7.24062;31.487001419067383;1673295857.4120004;-6.186520576477051;8.147603988647461;86.55951690673828
144;1673295857.4736693;47.1306423;7.24062;31.884000778198242;1673295857.5815754;-6.255171298980713;5.114202499389648;87.23309326171875
145;1673295857.6592827;47.1306423;7.24062;32.28499984741211;1673295857.772171;-6.252847671508789;7.417706489562988;87.04084014892578
146;1673295857.8599246;47.1306422;7.24062;32.6879997253418;1673295857.9821584;-5.949378490447998;8.70011043548584;86.71719360351562
147;1673295858.0549674;47.1306423;7.24062;33.08700180053711;1673295858.1900585;-6.393372058868408;4.669821739196777;87.19351959228516
148;1673295858.2654428;47.1306423;7.24062;33.487003326416016;1673295858.3823175;-6.660874843597412;6.701938152313232;86.83423614501953
149;1673295858.445347;47.1306423;7.24062;33.88300323486328;1673295858.5583382;-6.408060073852539;9.488875389099121;86.50228881835938
150;1673295858.6283975;47.1306424;7.2406198999999996;34.28000259399414;1673295858.7505212;-6.3385114669799805;5.490513324737549;87.14995574951172
151;1673295858.8269038;47.1306425;7.2406198999999996;34.678001403808594;1673295858.951714;-6.519166946411133;5.919039249420166;87.23027801513672
152;1673295859.0339012;47.1306424;7.2406198999999996;35.079002380371094;1673295859.1433554;-6.118091106414795;9.474968910217285;86.54596710205078
153;1673295859.2183936;47.1306424;7.2406198999999996;35.486000061035156;1673295859.3380194;-6.12441873550415;5.697037220001221;86.96746826171875
154;1673295859.412733;47.1306425;7.2406198999999996;35.893001556396484;1673295859.5284886;-6.521946430206299;5.115533351898193;87.23346710205078
155;1673295859.5958087;47.1306425;7.2406198999999996;36.294002532958984;1673295859.718583;-6.305559158325195;9.63752269744873;86.80145263671875
156;1673295859.8052087;47.1306425;7.2406198999999996;36.689002990722656;1673295859.943701;-6.11521577835083;7.3977789878845215;86.76664733886719
157;1673295860.019424;47.1306425;7.2406198999999996;37.086002349853516;1673295860.1488783;-6.381246089935303;4.901205062866211;87.1407699584961
158;1673295860.2341664;47.1306425;7.24062;37.48400115966797;1673295860.39112;-6.3041181564331055;7.547454357147217;86.71017456054688
159;1673295860.4604342;47.1306424;7.24062;37.88600158691406;1673295860.5742579;-6.293139934539795;8.192606925964355;86.69497680664062
160;1673295860.65092;47.1306425;7.24062;38.28900146484375;1673295860.7667203;-6.460781574249268;4.52977991104126;87.41361236572266
161;1673295860.8442578;47.130642599999995;7.2406198999999996;38.689002990722656;1673295860.9669626;-6.513617038726807;7.669751167297363;87.00721740722656
162;1673295861.0428588;47.130642599999995;7.2406198999999996;39.08000183105469;1673295861.154859;-6.094446182250977;9.227557182312012;86.68485260009766
163;1673295861.2298117;47.130642699999996;7.2406198999999996;39.470001220703125;1673295861.353384;-6.087926387786865;5.067106246948242;86.99681854248047
164;1673295861.4310212;47.130642699999996;7.24062;39.86600112915039;1673295861.5516975;-6.428969860076904;6.959574222564697;86.83489990234375
165;1673295861.6138318;47.130642599999995;7.24062;40.259002685546875;1673295861.72679;-6.125560760498047;9.325525283813477;86.54004669189453
166;1673295861.7954555;47.130642599999995;7.24062;40.65400314331055;1673295861.9345613;-6.389801025390625;4.871072292327881;87.21925354003906
167;1673295862.0125942;47.130642699999996;7.24062;41.051002502441406;1673295862.156411;-6.356837749481201;6.293191432952881;87.03541564941406
168;1673295862.2523715;47.130642699999996;7.24062;41.448001861572266;1673295862.3791223;-6.240105628967285;9.824316024780273;86.51272583007812
169;1673295862.4901125;47.130642599999995;7.24062;41.84000015258789;1673295862.612702;-6.117048740386963;5.621227264404297;87.0403823852539
170;1673295862.6842906;47.130642599999995;7.24062;42.22800064086914;1673295862.8469932;-6.343531608581543;4.834089756011963;87.28683471679688
171;1673295862.9007676;47.1306424;7.24062;42.61600112915039;1673295863.0030308;-6.30426549911499;8.93310260772705;86.57920837402344
172;1673295863.0704894;47.1306424;7.2406198999999996;43.0150032043457;1673295863.1813886;-6.191136360168457;6.4281182289123535;86.78892517089844
173;1673295863.248491;47.1306425;7.2406198999999996;43.41800308227539;1673295863.3495665;-6.476751804351807;4.591535568237305;87.02224731445312
174;1673295863.419399;47.130642599999995;7.2406198999999996;43.820003509521484;1673295863.5344973;-6.314334392547607;9.72216796875;86.61932373046875
175;1673295863.6034274;47.130642599999995;7.2406198999999996;44.2140007019043;1673295863.7328408;-6.231014728546143;7.431601524353027;86.8773422241211
176;1673295863.8175526;47.130642699999996;7.2406198999999996;44.608001708984375;1673295863.942988;-6.447039604187012;4.629136562347412;87.35859680175781
177;1673295864.0186813;47.130642599999995;7.2406198999999996;45.000003814697266;1673295864.129803;-6.423187255859375;8.213175773620605;86.8100357055664
178;1673295864.2047281;47.130642599999995;7.2406198999999996;45.39400100708008;1673295864.3273184;-6.121696472167969;8.449116706848145;86.63008880615234
179;1673295864.402162;47.130642699999996;7.240619799999999;45.79100036621094;1673295864.5205948;-6.250308036804199;4.54379415512085;87.09921264648438
180;1673295864.5959458;47.130642699999996;7.240619799999999;46.18600082397461;1673295864.7260516;-6.4249114990234375;8.088356971740723;86.85741424560547
181;1673295864.8055613;47.130642699999996;7.240619799999999;46.582000732421875;1673295864.9291403;-6.327437400817871;8.999300956726074;86.73062896728516
182;1673295865.0047488;47.130642699999996;7.240619799999999;46.97300338745117;1673295865.1420221;-6.499162197113037;4.744126319885254;87.13138580322266
183;1673295865.215615;47.1306425;7.2406197;47.3640022277832;1673295865.351391;-6.714763641357422;6.187117099761963;86.9832763671875
184;1673295865.4266171;47.1306425;7.2406197;47.75700378417969;1673295865.5636046;-6.297906398773193;9.40665054321289;86.4755859375
185;1673295865.644326;47.130642599999995;7.2406197;48.143001556396484;1673295865.7747693;-6.64675760269165;5.024052619934082;87.12275695800781
186;1673295865.8628106;47.130642699999996;7.2406197;48.48100280761719;1673295865.9773738;-6.680627822875977;7.231528282165527;87.0646743774414
187;1673295866.0562701;47.130642699999996;7.2406196;48.768001556396484;1673295866.1844876;-6.373016357421875;9.459222793579102;86.78555297851562
188;1673295866.2499948;47.1306428;7.2406196;49.00300216674805;1673295866.39774;-6.530135631561279;5.197957992553711;87.0798110961914
189;1673295866.465012;47.1306428;7.240619499999999;49.20100402832031;1673295866.5768917;-6.851292133331299;6.528621673583984;86.89110565185547
190;1673295866.6662502;47.1306428;7.2406194;49.371002197265625;1673295866.7826955;5.685920238494873;11.039453506469727;85.38462829589844
191;1673295866.8559086;47.1306429;7.240619;49.50100326538086;1673295866.972688;-7.583901882171631;9.717899322509766;77.357421875
192;1673295867.0341666;47.1306429;7.2406182;49.55400085449219;1673295867.1501632;-5.4601263999938965;14.477198600769043;66.55335998535156
193;1673295867.224897;47.1306428;7.2406177;49.56500244140625;1673295867.3564317;16.321483612060547;8.772555351257324;56.67448425292969
194;1673295867.4416194;47.1306423;7.2406168;49.582000732421875;1673295867.5802517;-0.7642034292221069;8.697470664978027;45.122283935546875
195;1673295867.648461;47.130641399999995;7.2406152;49.61300277709961;1673295867.7764106;5.097347259521484;8.009363174438477;37.63294219970703
196;1673295867.8555453;47.1306405;7.240613799999999;49.64400100708008;1673295867.9834704;6.7332072257995605;9.194127082824707;28.851261138916016
197;1673295868.0646968;47.130639699999996;7.2406124;49.67900085449219;1673295868.184335;5.69426965713501;11.231220245361328;20.433387756347656
198;1673295868.2544847;47.1306389;7.2406112;49.70900344848633;1673295868.3754642;5.740509986877441;10.8494873046875;12.292853355407715
199;1673295868.4503071;47.1306381;7.240609999999999;49.73600387573242;1673295868.5724692;3.9753341674804688;10.201441764831543;3.4988577365875244
200;1673295868.6603389;47.1306374;7.240609;49.762001037597656;1673295868.7944577;4.314742565155029;7.613399505615234;-5.548663139343262
201;1673295868.8684418;47.1306368;7.2406083;49.77900314331055;1673295868.9888072;6.862122535705566;4.558551788330078;-15.067212104797363
202;1673295869.062355;47.1306365;7.240607799999999;49.794002532958984;1673295869.199781;9.533912658691406;3.624666690826416;-23.95012664794922
203;1673295869.2883823;47.1306364;7.240607499999999;49.807003021240234;1673295869.4134178;11.319988250732422;4.014904975891113;-31.345474243164062
204;1673295869.4773476;47.1306364;7.2406071999999995;49.816001892089844;1673295869.61574;10.49885368347168;3.5148024559020996;-39.426876068115234
205;1673295869.6793995;47.1306364;7.240606799999999;49.82500076293945;1673295869.8136933;8.537893295288086;1.92633056640625;-47.744266510009766
206;1673295869.8964515;47.1306363;7.2406066;49.836002349853516;1673295870.0168955;8.083404541015625;-2.355930805206299;-52.358055114746094
207;1673295870.085766;47.1306361;7.240606499999999;49.849002838134766;1673295870.2084188;8.75379753112793;-3.2955946922302246;-51.64146041870117
208;1673295870.2891011;47.130635899999994;7.2406064;49.855003356933594;1673295870.4206028;9.72022533416748;-3.216275453567505;-49.197914123535156
209;1673295870.4944742;47.1306358;7.240606199999999;49.86000061035156;1673295870.6242437;11.927640914916992;-0.813446581363678;-47.263126373291016
210;1673295870.691621;47.130635899999994;7.240605899999999;49.867000579833984;1673295870.8182385;11.221296310424805;1.4352036714553833;-45.861141204833984
211;1673295870.8890798;47.1306358;7.240605599999999;49.874000549316406;1673295871.0214148;8.833086967468262;2.230742931365967;-45.558414459228516
212;1673295871.097176;47.1306357;7.2406052999999995;49.880001068115234;1673295871.2257211;8.397541046142578;0.06605886667966843;-45.842987060546875
213;1673295871.3057697;47.1306355;7.2406052;49.88200378417969;1673295871.420204;9.68529224395752;-1.6395046710968018;-45.83265686035156
214;1673295871.4830024;47.130635299999994;7.2406052;49.87800216674805;1673295871.6069942;11.799633026123047;-0.7674405574798584;-45.42891311645508
215;1673295871.678847;47.1306352;7.2406051;49.87700271606445;1673295871.7936244;10.567521095275879;0.6763184070587158;-45.60247039794922
216;1673295871.8723917;47.1306352;7.2406049999999995;49.87900161743164;1673295872.0017657;-20.209625244140625;4.138662338256836;-47.388916015625
217;1673295872.0859349;47.1306357;7.2406042;49.875003814697266;1673295872.195888;-46.374359130859375;4.752182483673096;-49.42607498168945
218;1673295872.2679803;47.1306375;7.2406013;49.829002380371094;1673295872.38709;-38.89509963989258;0.6558211445808411;-47.443199157714844
219;1673295872.456501;47.1306411;7.2405957;49.75800323486328;1673295872.5812986;-35.70844268798828;-3.5118234157562256;-45.6561393737793
220;1673295872.651236;47.1306462;7.2405876;49.69900131225586;1673295872.7852292;-34.64250564575195;-5.618743896484375;-45.114410400390625
221;1673295872.8871405;47.1306525;7.2405772;49.65500259399414;1673295873.0431988;-35.98030090332031;-3.431462287902832;-45.46017074584961
222;1673295873.14014;47.1306599;7.240564699999999;49.63200378417969;1673295873.248218;-40.703575134277344;-0.7324131727218628;-45.82368087768555
223;1673295873.3269572;47.1306685;7.24055;49.634002685546875;1673295873.4342742;-47.092742919921875;1.120566487312317;-46.37822341918945
224;1673295873.5099077;47.1306783;7.240533;49.663002014160156;1673295873.6413019;-54.449832916259766;1.8038703203201294;-46.78391647338867
225;1673295873.7327466;47.1306898;7.2405136;49.72300338745117;1673295873.8745751;-59.488582611083984;3.6523098945617676;-47.202388763427734
226;1673295873.9311185;47.130703499999996;7.2404912999999995;49.801002502441406;1673295874.0518515;-58.91633987426758;3.8577094078063965;-47.30894088745117
227;1673295874.1473973;47.130719199999994;7.2404665999999995;49.85900115966797;1673295874.2381685;-52.418792724609375;3.4866602420806885;-46.69960403442383
228;1673295874.302069;47.1307362;7.2404402;49.893001556396484;1673295874.4182057;-36.3602180480957;4.0785908699035645;-46.43693923950195
229;1673295874.4882126;47.1307538;7.2404132;49.8910026550293;1673295874.6240714;2.6628315448760986;3.1529998779296875;-45.89445114135742
230;1673295874.695085;47.1307708;7.2403876;49.868003845214844;1673295874.8441992;38.36231231689453;2.0343451499938965;-46.954010009765625
231;1673295874.904384;47.1307859;7.2403651;49.724002838134766;1673295875.009611;21.254032135009766;-1.1822987794876099;-46.50613784790039
232;1673295875.0931282;47.1307986;7.240346199999999;49.52100372314453;1673295875.2170231;22.947057723999023;-0.7055371403694153;-46.567779541015625
233;1673295875.298184;47.130808599999995;7.2403312;49.4630012512207;1673295875.4171996;48.004451751708984;-0.7870851755142212;-48.44388961791992
234;1673295875.4863632;47.130815399999996;7.2403211;49.49700164794922;1673295875.6328807;54.54291534423828;-1.188839077949524;-48.47455978393555
235;1673295875.6950495;47.1308186;7.2403166;49.58100128173828;1673295875.7960672;56.2809944152832;0.008234435692429543;-47.44190216064453
236;1673295875.864521;47.1308187;7.240317;49.66200256347656;1673295875.972974;53.400482177734375;-0.5114706158638;-47.196556091308594
237;1673295876.0422149;47.1308162;7.2403213;49.72500228881836;1673295876.1569695;46.10834884643555;-1.3715022802352905;-46.82168960571289
238;1673295876.2321858;47.1308119;7.2403284;49.77300262451172;1673295876.352383;36.00212478637695;-0.8297330141067505;-46.7754020690918
239;1673295876.4332957;47.1308065;7.240336999999999;49.79900360107422;1673295876.6151795;19.228723526000977;-2.612577199935913;-47.38838195800781
240;1673295876.6960213;47.130800799999996;7.2403457;49.80000305175781;1673295876.812337;5.4954047203063965;-2.1246745586395264;-47.23168182373047
241;1673295876.8790665;47.1307954;7.240353799999999;49.797000885009766;1673295877.0154107;3.2082712650299072;-0.9732322096824646;-47.1320915222168
242;1673295877.133496;47.1307907;7.2403607;49.79500198364258;1673295877.2679412;16.662477493286133;-3.8404810428619385;-47.133216857910156
243;1673295877.3304074;47.1307864;7.2403667;49.80000305175781;1673295877.4732084;20.125228881835938;1.3237460851669312;-45.824974060058594
244;1673295877.53371;47.1307821;7.2403723;49.80600357055664;1673295877.6607833;14.489690780639648;0.391185462474823;-46.44685745239258
245;1673295877.737085;47.1307779;7.2403777;49.81100082397461;1673295877.8611271;5.808652877807617;-2.917419910430908;-46.610599517822266
246;1673295877.92923;47.1307741;7.240382599999999;49.814002990722656;1673295878.0778244;5.926084995269775;1.992595911026001;-46.09495544433594
247;1673295878.1405168;47.130770999999996;7.2403865;49.81500244140625;1673295878.2564788;15.946194648742676;0.06129194796085358;-46.69269943237305
248;1673295878.3258264;47.1307684;7.2403898;49.82500076293945;1673295878.441178;14.555500984191895;2.3760316371917725;-46.51224136352539
249;1673295878.5244687;47.1307659;7.2403932;49.832000732421875;1673295878.6815805;11.708320617675781;2.868715763092041;-46.71122741699219
250;1673295878.7514732;47.1307635;7.2403964;49.83700180053711;1673295878.9141815;-0.49654725193977356;12.693869590759277;-45.82839584350586
251;1673295878.965491;47.130761299999996;7.240399399999999;49.672000885009766;1673295879.0565784;-24.434181213378906;34.851715087890625;-51.475589752197266
252;1673295879.1209943;47.1307593;7.2404022999999995;49.130001068115234;1673295879.252987;-46.296897888183594;63.561744689941406;-72.51596069335938
253;1673295879.348473;47.1307572;7.2404049;48.198001861572266;1673295879.474215;-55.18190002441406;100.51152038574219;-110.66647338867188
254;1673295879.5662148;47.130755199999996;7.2404074;46.9010009765625;1673295879.6706932;-54.185115814208984;118.93746185302734;-138.72811889648438
255;1673295879.745417;47.1307532;7.2404098999999995;45.25300216674805;1673295879.881769;-56.22945785522461;109.33271026611328;-146.87232971191406
256;1673295879.9572787;47.1307513;7.2404122;43.24800109863281;1673295880.0743012;-58.4921989440918;62.927513122558594;-124.70918273925781
257;1673295880.1301038;47.1307494;7.240414599999999;40.89200210571289;1673295880.2773333;-37.316226959228516;5.4183220863342285;-97.20512390136719
258;1673295880.345258;47.1307475;7.2404173;38.169002532958984;1673295880.4628441;0.6577633619308472;-28.37211036682129;-96.8337173461914
259;1673295880.538249;47.1307457;7.240419999999999;35.05000305175781;1673295880.6444848;31.79093360900879;-44.79362869262695;-108.83110046386719
260;1673295880.739336;47.1307441;7.2404224;31.547000885009766;1673295880.880201;46.672279357910156;-34.17279052734375;-112.12025451660156
261;1673295880.9546847;47.1307429;7.2404245;27.703001022338867;1673295881.0832288;36.510353088378906;6.668694496154785;-98.02925872802734
262;1673295881.1567733;47.130741699999994;7.2404261;23.50800132751465;1673295881.289365;1.2117879390716553;37.63489532470703;-103.28790283203125
263;1673295881.3533523;47.1307403;7.2404274;18.93400001525879;1673295881.4730437;-30.84190559387207;53.89175796508789;-123.97807312011719
264;1673295881.544944;47.130738699999995;7.2404288999999995;14.007000923156738;1673295881.6609235;-47.40241241455078;39.62789535522461;-131.29457092285156
265;1673295881.7563498;47.130736899999995;7.2404307999999995;8.75100040435791;1673295881.8854847;-33.13386154174805;-6.997969627380371;-113.50786590576172
266;1673295881.9812024;47.1307353;7.240433299999999;3.139000177383423;1673295882.0726862;4.260190486907959;-2.2666831016540527;-118.23222351074219
267;1673295882.1451287;47.1307331;7.2404391;0.18000000715255737;1673295882.2724254;8.762664794921875;-4.6458821296691895;-119.28694915771484
268;1673295882.3378189;47.1307276;7.2404500999999994;0.19500000774860382;1673295882.4877188;5.691757678985596;-7.722219944000244;-117.49561309814453
269;1673295882.5492501;47.130721;7.240462;0.18300001323223114;1673295882.6524718;5.860145092010498;-5.849143981933594;-117.21196746826172
270;1673295882.7614837;47.130714499999996;7.240473799999999;0.19100001454353333;1673295882.8733842;5.806811809539795;-4.748661518096924;-116.94380187988281
271;1673295882.9675894;47.1307087;7.240485;0.19100001454353333;1673295883.1146395;5.76042366027832;-3.9627654552459717;-116.69093322753906
272;1673295883.2030003;47.1307038;7.2404950999999995;0.19200000166893005;1673295883.3055615;5.7960896492004395;-3.3215115070343018;-116.49470520019531
273;1673295883.3819494;47.1306985;7.2405064999999995;0.1860000044107437;1673295883.5133042;5.709682464599609;-2.998758554458618;-116.32471466064453
274;1673295883.5738657;47.130694899999995;7.2405151;0.18800000846385956;1673295883.6996331;5.617834091186523;-2.7325382232666016;-116.17350769042969
275;1673295883.7655742;47.1306902;7.240526;0.18300001323223114;1673295883.8767953;5.637310028076172;-2.7278594970703125;-116.0504379272461
276;1673295883.9496677;47.130684599999995;7.2405390999999995;0.1730000078678131;1673295884.110732;5.625506401062012;-2.7171168327331543;-115.93779754638672
277;1673295884.1988955;47.1306783;7.240553599999999;0.15900000929832458;1673295884.3242254;5.660620212554932;-2.7908926010131836;-115.83838653564453
278;1673295884.4144502;47.1306717;7.2405693;0.1420000046491623;1673295884.527065;5.640393257141113;-2.7897751331329346;-115.77298736572266
279;1673295884.588613;47.1306648;7.2405858;0.11800000816583633;1673295884.7089121;5.607177257537842;-2.8450558185577393;-115.67713928222656
280;1673295884.7749383;47.1306577;7.240602999999999;0.09600000083446503;1673295884.901855;5.604005336761475;-2.8673367500305176;-115.59909057617188
281;1673295885.0027788;47.130650499999994;7.240620799999999;0.07400000095367432;1673295885.13982;5.583752155303955;-2.905374765396118;-115.52511596679688
282;1673295885.222142;47.1306431;7.2406391999999995;0.052000001072883606;1673295885.320917;5.584630012512207;-2.968550682067871;-115.42321014404297
283;1673295885.4192243;47.1306356;7.2406581999999995;0.030000001192092896;1673295885.5267773;5.5312724113464355;-3.0205397605895996;-115.36583709716797
284;1673295885.5891545;47.130627999999994;7.240677799999999;0.005000000353902578;1673295885.7217262;5.605377197265625;-3.094046115875244;-115.29686737060547
285;1673295885.778941;47.1306203;7.2406979;-0.01900000125169754;1673295885.9003236;5.560645580291748;-3.183342218399048;-115.25054168701172
286;1673295885.9937935;47.1306124;7.2407186;-0.049000002443790436;1673295886.1202753;5.541319847106934;-3.2403976917266846;-115.19641876220703
287;1673295886.1900177;47.1306045;7.2407398;-0.07600000500679016;1673295886.295858;5.417147636413574;-3.3699042797088623;-115.15541076660156
288;1673295886.3657532;47.130596499999996;7.2407615;-0.0990000069141388;1673295886.4818308;5.412025451660156;-3.431460380554199;-115.0848388671875
289;1673295886.5457885;47.1305884;7.2407838;-0.12200000882148743;1673295886.660575;5.366726875305176;-3.508348226547241;-115.03653717041016
290;1673295886.742735;47.1305802;7.2408065;-0.14500001072883606;1673295886.8889055;5.287689208984375;-3.5255818367004395;-114.9800796508789
291;1673295886.9955058;47.1305719;7.2408297;-0.16500000655651093;1673295887.0979238;5.312699317932129;-3.5607264041900635;-114.9522933959961
292;1673295887.19008;47.1305635;7.2408535999999994;-0.1940000057220459;1673295887.2939203;5.2236328125;-3.611907958984375;-114.89682006835938
293;1673295887.3628328;47.130555;7.2408779;-0.21900001168251038;1673295887.5091295;5.220292091369629;-3.629485845565796;-114.82451629638672
294;1673295887.5846663;47.1305464;7.2409026999999995;-0.2370000183582306;1673295887.71533;5.220286846160889;-3.6864984035491943;-114.78952026367188
295;1673295887.7830367;47.1305378;7.2409279;-0.2540000081062317;1673295887.9059699;5.189774036407471;-3.7243316173553467;-114.73052215576172
296;1673295887.9909263;47.1305291;7.2409536;-0.2680000066757202;1673295888.094047;5.158807277679443;-3.7794952392578125;-114.6725845336914
297;1673295888.1827152;47.1305203;7.2409797;-0.27800002694129944;1673295888.2977734;5.128968715667725;-3.8234026432037354;-114.62201690673828
298;1673295888.3721817;47.1305115;7.241006199999999;-0.28600001335144043;1673295888.477991;5.091952323913574;-3.8541009426116943;-114.56958770751953
299;1673295888.5439396;47.130510099999995;7.2410105;-0.3050000071525574;1673295888.6790197;5.046187877655029;-3.925440549850464;-114.51619720458984
300;;;;;1673295888.8656516;4.981083393096924;-4.201414108276367;-114.43801879882812
301;;;;;1673295889.0689187;4.912959098815918;-4.20977258682251;-114.39437103271484
302;;;;;1673295889.2677646;4.861065864562988;-4.239410400390625;-114.35575866699219
