;pos_time;latitude;longitude;altitude;alt_time;pitch;roll;yaw
0;1673294457.096995;47.1306424;7.240619799999999;-0.02200000174343586;1673294457.2371185;-0.13067714869976044;-0.14727938175201416;90.05043029785156
1;1673294457.29352;47.1306424;7.2406197;-0.02200000174343586;1673294457.4449;-0.11918801814317703;-0.3767388164997101;90.14653015136719
2;1673294457.5025606;47.1306424;7.2406197;-0.020000001415610313;1673294457.640018;-0.11300162971019745;-0.05306054651737213;90.13569641113281
3;1673294457.699134;47.1306424;7.2406197;-0.018000001087784767;1673294457.8564272;-0.08098794519901276;-0.23129881918430328;90.07897186279297
4;1673294457.9160018;47.1306424;7.2406196;-0.017000000923871994;1673294458.0611246;0.13219726085662842;-0.2422974556684494;90.02290344238281
5;1673294458.1212385;47.1306424;7.2406196;-0.017000000923871994;1673294458.2644436;0.0011393208988010883;-0.18390442430973053;90.19277954101562
6;1673294458.3267603;47.1306423;7.2406196;-0.017000000923871994;1673294458.4637885;-0.009542521089315414;-0.34362515807151794;90.23392486572266
7;1673294458.5150712;47.1306423;7.2406196;-0.017000000923871994;1673294458.649348;-0.21633657813072205;-0.16351540386676788;90.00682830810547
8;1673294458.6997013;47.1306423;7.240619499999999;0.0010000000474974513;1673294458.8340056;-0.20866790413856506;-0.22710084915161133;89.92577362060547
9;1673294458.8903582;47.1306423;7.240619499999999;0.0020000000949949026;1673294459.0378537;-0.19795283675193787;-0.3600809872150421;90.04497528076172
10;1673294459.0949361;47.1306423;7.2406194;0.0010000000474974513;1673294459.2440968;-0.08187232911586761;-0.15348580479621887;89.93701934814453
11;1673294459.3078184;47.1306424;7.2406194;-0.0010000000474974513;1673294459.4800868;-0.05603155866265297;-0.22372904419898987;89.80256652832031
12;1673294459.5259576;47.1306424;7.240619499999999;-0.003000000026077032;1673294459.662044;-0.035368409007787704;-0.210679292678833;89.89433288574219
13;1673294459.7257187;47.1306424;7.240619499999999;-0.0020000000949949026;1673294459.874964;-0.11174705624580383;-0.40706712007522583;89.98982238769531
14;1673294459.9290338;47.1306424;7.2406196;0.0020000000949949026;1673294460.0781436;-0.062259186059236526;0.04649190604686737;89.92527770996094
15;1673294460.151129;47.1306425;7.2406196;0.006000000052154064;1673294460.294151;0.08622720837593079;-0.2783811390399933;90.19261932373047
16;1673294460.3449152;47.1306425;7.2406197;0.012000000104308128;1673294460.4859736;0.06708882749080658;0.09109523147344589;90.00922393798828
17;1673294460.5430374;47.1306425;7.240619799999999;0.003000000026077032;1673294460.6769245;-0.09028085321187973;0.27643904089927673;90.12047576904297
18;1673294460.7257323;47.1306425;7.240619799999999;0.004000000189989805;1673294460.8659587;0.08055811375379562;-0.30940014123916626;89.82839965820312
19;1673294460.9271708;47.1306424;7.2406198999999996;0.004000000189989805;1673294461.0630782;-0.02247941866517067;0.24297580122947693;89.98197174072266
20;1673294461.1140258;47.1306425;7.24062;0.004000000189989805;1673294461.2582073;-0.008759303949773312;0.3198970854282379;89.78438568115234
21;1673294461.3223393;47.1306425;7.2406201;0.0020000000949949026;1673294461.4541574;0.0972454622387886;0.09241858124732971;89.6552505493164
22;1673294461.5151663;47.1306425;7.2406201;0.003000000026077032;1673294461.656423;0.1722879707813263;0.1431051641702652;89.56379699707031
23;1673294461.7231188;47.1306425;7.2406201;0.003000000026077032;1673294461.9079456;0.1940956562757492;-0.019995659589767456;89.19886016845703
24;1673294461.962122;47.1306425;7.24062;0.003000000026077032;1673294462.0969713;0.4223741590976715;0.2613884210586548;89.13249206542969
25;1673294462.1451726;47.130642599999995;7.24062;0.003000000026077032;1673294462.2811775;1.287798285484314;0.06715388596057892;89.64188385009766
26;1673294462.3380337;47.1306425;7.24062;0.004000000189989805;1673294462.4763174;3.0643057823181152;0.05884244292974472;89.21520233154297
27;1673294462.5311413;47.1306425;7.2406198999999996;0.009000000543892384;1673294462.6967845;3.6043524742126465;-0.7367836236953735;88.21953582763672
28;1673294462.770166;47.1306424;7.240619799999999;0.020000001415610313;1673294462.8930337;-0.2366068959236145;-1.223050832748413;88.5213851928711
29;1673294462.9432962;47.1306423;7.240619499999999;0.052000001072883606;1673294463.0869172;-0.8554103970527649;1.7158551216125488;88.51791381835938
30;1673294463.1428962;47.1306422;7.2406193;0.09400000423192978;1673294463.2834527;-1.5844370126724243;-1.9762605428695679;88.95660400390625
31;1673294463.3388338;47.1306422;7.240619199999999;0.15700000524520874;1673294463.4768257;-0.7863981127738953;-2.999551773071289;89.34261322021484
32;1673294463.534677;47.1306422;7.240619199999999;0.23800000548362732;1673294463.6933174;0.03680244833230972;2.2839083671569824;89.30189514160156
33;1673294463.8105943;47.1306424;7.240619199999999;0.3320000171661377;1673294463.9271746;0.5483446717262268;0.19877643883228302;89.72372436523438
34;1673294463.9824126;47.1306425;7.240619199999999;0.44300001859664917;1673294464.1118188;0.328249990940094;-2.7050116062164307;89.79818725585938
35;1673294464.1707315;47.130642699999996;7.2406193;0.5700000524520874;1673294464.2997718;-0.08986355364322662;2.1358649730682373;89.62042999267578
36;1673294464.350203;47.1306428;7.2406194;0.7050000429153442;1673294464.4847257;-0.0446612723171711;1.2575794458389282;89.65293884277344
37;1673294464.5384378;47.130642699999996;7.2406194;0.8550000190734863;1673294464.676398;0.03869803994894028;-2.8212740421295166;90.05661010742188
38;1673294464.734112;47.130642699999996;7.2406194;1.0200001001358032;1673294464.873989;0.9238052368164062;0.30818286538124084;89.97099304199219
39;1673294464.9327464;47.130642699999996;7.2406194;1.196000099182129;1673294465.0617301;0.9575368762016296;2.592012405395508;90.17584228515625
40;1673294465.1184132;47.1306428;7.2406194;1.3790000677108765;1673294465.2548254;0.9324829578399658;-2.18664813041687;90.46630859375
41;1673294465.3110054;47.1306429;7.2406194;1.5660001039505005;1673294465.474325;0.5579184889793396;-0.49785566329956055;90.03237915039062
42;1673294465.529969;47.130643;7.2406194;1.758000135421753;1673294465.6637971;-0.16010186076164246;3.034527063369751;89.88023376464844
43;1673294465.7145429;47.1306429;7.2406193;1.9510000944137573;1673294465.863972;-0.0645049586892128;-2.2054636478424072;90.22211456298828
44;1673294465.9227467;47.1306428;7.2406193;2.1450002193450928;1673294466.0722072;-0.3330954611301422;-1.7882071733474731;90.34049987792969
45;1673294466.1496477;47.130642699999996;7.240619199999999;2.3390002250671387;1673294466.284065;0.05423426628112793;2.894536018371582;90.16868591308594
46;1673294466.3357956;47.130642699999996;7.2406191;2.5340001583099365;1673294466.482586;0.6292908787727356;-0.1673283725976944;90.3396987915039
47;1673294466.5330539;47.130642699999996;7.2406191;2.7340002059936523;1673294466.6695085;0.4545036554336548;-2.560213565826416;90.58666229248047
48;1673294466.7304535;47.130642699999996;7.2406191;2.931000232696533;1673294466.8638167;-0.19232556223869324;2.1649134159088135;90.11699676513672
49;1673294466.923376;47.130642599999995;7.240619199999999;3.128000259399414;1673294467.064122;-0.25654923915863037;0.6801225543022156;90.41014099121094
50;1673294467.1197488;47.1306425;7.240619199999999;3.329000234603882;1673294467.2615166;-0.4250345826148987;-3.1637685298919678;90.75988006591797
51;1673294467.3318748;47.1306423;7.2406193;3.5320000648498535;1673294467.4795017;-0.2907377779483795;-0.21801026165485382;90.42134857177734
52;1673294467.530252;47.1306423;7.2406193;3.7350001335144043;1673294467.6630242;0.10811373591423035;2.4560770988464355;90.16107177734375
53;1673294467.7186577;47.1306424;7.2406193;3.937000274658203;1673294467.8605747;0.4516194462776184;-1.7440741062164307;90.3299331665039
54;1673294467.9142914;47.1306425;7.2406194;4.136000156402588;1673294468.0545049;0.7313465476036072;-0.5366026163101196;90.29920959472656
55;1673294468.1069672;47.1306425;7.2406193;4.339000225067139;1673294468.2557662;0.17050759494304657;2.9747912883758545;90.46188354492188
56;1673294468.315407;47.1306424;7.2406193;4.545000076293945;1673294468.467802;-0.2576606869697571;-2.2443461418151855;90.7665786743164
57;1673294468.5216584;47.1306422;7.2406194;4.749000072479248;1673294468.6594691;-0.493712842464447;-2.109938859939575;90.630859375
58;1673294468.7138157;47.130642099999996;7.2406194;4.950000286102295;1673294468.8540273;-0.15959705412387848;2.30521559715271;90.00634765625
59;1673294468.9162488;47.130642099999996;7.2406194;5.14900016784668;1673294469.0548174;0.2614850103855133;-0.8498930931091309;90.22196960449219
60;1673294469.130979;47.130642099999996;7.240619499999999;5.3460001945495605;1673294469.2816334;0.7031291723251343;-2.605306625366211;90.48094177246094
61;1673294469.3394558;47.130642099999996;7.240619499999999;5.5460004806518555;1673294469.4824476;0.7377838492393494;2.126858711242676;90.32257080078125
62;1673294469.5381484;47.130642099999996;7.240619499999999;5.753000259399414;1673294469.6696198;0.11864656955003738;-0.5715181231498718;90.51446533203125
63;1673294469.720419;47.130641999999995;7.2406194;5.960000514984131;1673294469.8707416;-0.4495604634284973;-2.9348959922790527;90.8144302368164
64;1673294469.9264112;47.130641999999995;7.2406194;6.1660003662109375;1673294470.0616653;-0.43162569403648376;1.8576422929763794;90.37132263183594
65;1673294470.1198552;47.130642099999996;7.2406194;6.372000217437744;1673294470.2644432;-0.526274561882019;0.6350729465484619;90.29348754882812
66;1673294470.3271577;47.130642099999996;7.2406194;6.574000358581543;1673294470.4766598;-0.12319919466972351;-2.8469676971435547;90.51966094970703
67;1673294470.526436;47.1306422;7.2406194;6.776000499725342;1673294470.6568375;0.15616220235824585;1.9715291261672974;90.30400848388672
68;1673294470.711152;47.1306423;7.2406194;6.978000164031982;1673294470.8572288;0.4713466465473175;1.6122184991836548;90.39216613769531
69;1673294470.9146357;47.1306422;7.2406194;7.180000305175781;1673294471.0580053;0.17805476486682892;-3.0332539081573486;90.47425842285156
70;1673294471.1094406;47.130641999999995;7.240619499999999;7.383000373840332;1673294471.2573102;-0.37948691844940186;-0.06501293927431107;90.17141723632812
71;1673294471.3296466;47.130641999999995;7.240619499999999;7.586000442504883;1673294471.4875698;-0.47205275297164917;1.6604288816452026;90.10560607910156
72;1673294471.536465;47.130641999999995;7.240619499999999;7.7860002517700195;1673294471.6848016;-0.25730910897254944;-2.9152016639709473;90.58103942871094
73;1673294471.739458;47.1306419;7.2406196;7.987000465393066;1673294471.876399;-0.04290516674518585;-1.530513048171997;90.52266693115234
74;1673294471.9281268;47.1306419;7.2406196;8.18600082397461;1673294472.0633929;0.1481834501028061;2.2666800022125244;90.33049011230469
75;1673294472.1176045;47.1306418;7.2406196;8.385000228881836;1673294472.2569494;0.5137097835540771;-2.08241868019104;90.35970306396484
76;1673294472.3142602;47.1306417;7.2406196;8.588000297546387;1673294472.4615386;0.497203528881073;-3.6026015281677246;90.4197998046875
77;1673294472.518734;47.1306418;7.2406196;8.791000366210938;1673294472.6578426;0.17671027779579163;2.2574076652526855;90.3180923461914
78;1673294472.7160025;47.1306419;7.2406196;8.991000175476074;1673294472.8513339;0.013775103725492954;-0.13028904795646667;90.46988677978516
79;1673294472.9067004;47.130641999999995;7.2406196;9.192000389099121;1673294473.0469208;-0.7157944440841675;-2.584775447845459;90.6385498046875
80;1673294473.1021974;47.1306422;7.2406196;9.38800048828125;1673294473.2397845;-0.5848684310913086;2.3209807872772217;90.2170181274414
81;1673294473.2955625;47.1306422;7.2406196;9.587000846862793;1673294473.4368672;0.14218078553676605;0.5358750224113464;90.26486206054688
82;1673294473.4941125;47.130642099999996;7.2406197;9.788000106811523;1673294473.6353424;0.26841917634010315;-3.2734837532043457;90.4721450805664
83;1673294473.6925826;47.130642099999996;7.2406197;9.988000869750977;1673294473.833752;0.6595770120620728;0.8472239375114441;90.26717376708984
84;1673294473.8899407;47.130642099999996;7.240619799999999;10.197000503540039;1673294474.028181;0.43928372859954834;1.9368497133255005;90.17520904541016
85;1673294474.0843675;47.130642099999996;7.240619799999999;10.479000091552734;1673294474.2298841;-0.10999161005020142;-2.2167561054229736;90.50414276123047
86;1673294474.2925797;47.130642099999996;7.240619799999999;10.84000015258789;1673294474.4569676;-0.24849872291088104;-1.349246859550476;90.45655059814453
87;1673294474.5183117;47.130642099999996;7.240619799999999;11.222000122070312;1673294474.657176;-0.1556607186794281;2.255432367324829;90.26185607910156
88;1673294474.715332;47.130642099999996;7.2406198999999996;11.61500072479248;1673294474.862586;0.08959967643022537;-1.8692450523376465;90.33179473876953
89;1673294474.9177876;47.130641999999995;7.2406198999999996;12.010000228881836;1673294475.0672474;0.6214343905448914;-2.5909080505371094;90.453857421875
90;1673294475.1279254;47.130642099999996;7.24062;12.407000541687012;1673294475.2804413;0.6530587077140808;1.624131202697754;90.4041976928711
91;1673294475.3373632;47.1306422;7.24062;12.806000709533691;1673294475.4921844;0.8804789185523987;1.1945518255233765;90.53308868408203
92;1673294475.5449717;47.1306423;7.24062;13.208000183105469;1673294475.6837564;0.48898255825042725;-2.731167793273926;90.59236907958984
93;1673294475.7351558;47.1306424;7.24062;13.612000465393066;1673294475.8690405;0.3437327444553375;1.3201210498809814;90.24339294433594
94;1673294475.9341543;47.1306424;7.2406201;14.01400089263916;1673294476.0852764;0.22312650084495544;1.3635920286178589;90.39485931396484
95;1673294476.1428611;47.1306423;7.2406201;14.415000915527344;1673294476.2934754;-0.13456934690475464;-2.954662561416626;90.68143463134766
96;1673294476.3496451;47.1306422;7.2406201;14.819000244140625;1673294476.4849765;0.013222712092101574;0.5342006087303162;90.42598724365234
97;1673294476.5376818;47.1306423;7.2406201;15.221000671386719;1673294476.668098;0.27232709527015686;1.795715093612671;90.23860168457031
98;1673294476.7236423;47.1306423;7.2406201;15.622000694274902;1673294476.870682;0.6641903519630432;-2.6534433364868164;90.5003890991211
99;1673294476.9274464;47.1306422;7.24062;16.029001235961914;1673294477.062005;0.6775448322296143;-0.8222776055335999;90.31065368652344
100;1673294477.1211286;47.1306422;7.24062;16.433000564575195;1673294477.26924;0.3592633903026581;2.1084773540496826;90.32268524169922
101;1673294477.3293588;47.1306422;7.2406198999999996;16.843000411987305;1673294477.481895;-0.19999729096889496;-2.0201690196990967;90.81295776367188
102;1673294477.5385356;47.130642099999996;7.2406198999999996;17.256000518798828;1673294477.6801844;-0.179286926984787;-1.771024465560913;90.52977752685547
103;1673294477.7361512;47.1306422;7.240619799999999;17.667001724243164;1673294477.8773298;-0.18783341348171234;2.384200096130371;90.11384582519531
104;1673294477.930032;47.1306423;7.240619799999999;18.078001022338867;1673294478.070817;-0.06255003064870834;-0.7046705484390259;90.36165618896484
105;1673294478.128469;47.1306423;7.240619799999999;18.487001419067383;1673294478.2686868;0.05681373178958893;-2.0340657234191895;90.53987884521484
106;1673294478.326858;47.1306424;7.240619799999999;18.8960018157959;1673294478.473208;0.12619435787200928;2.212151050567627;90.31497192382812
107;1673294478.5293646;47.1306424;7.2406197;19.3070011138916;1673294478.6788752;0.28021466732025146;0.5350396037101746;90.31806182861328
108;1673294478.7366908;47.1306423;7.2406197;19.722000122070312;1673294478.8899038;-0.005742694716900587;-2.851515769958496;90.50878143310547
109;1673294478.9489198;47.1306422;7.2406196;20.142000198364258;1673294479.0888565;-0.26180359721183777;1.3798352479934692;90.29655456542969
110;1673294479.1435864;47.1306423;7.2406196;20.564001083374023;1673294479.2891505;-0.4397079050540924;1.0522714853286743;90.30602264404297
111;1673294479.3477147;47.1306423;7.2406196;20.983001708984375;1673294479.4925175;-0.33935031294822693;-3.1974596977233887;90.57085418701172
112;1673294479.5471995;47.1306422;7.2406196;21.395000457763672;1673294479.6777177;-0.20305824279785156;-0.05534817650914192;90.46662902832031
113;1673294479.7299883;47.1306422;7.2406196;21.802001953125;1673294479.877727;-0.08134192228317261;1.891678810119629;90.17892456054688
114;1673294479.9354827;47.1306422;7.240619499999999;22.21200180053711;1673294480.0768192;0.20189012587070465;-2.5841658115386963;90.35081481933594
115;1673294480.1359677;47.1306423;7.240619499999999;22.621000289916992;1673294480.2791147;0.15894733369350433;-1.281131625175476;90.4563217163086
116;1673294480.3362746;47.1306424;7.2406194;23.025001525878906;1673294480.483983;0.21899816393852234;2.8714990615844727;90.36543273925781
117;1673294480.5386426;47.130642599999995;7.2406194;23.42500114440918;1673294480.6854975;0.2143186628818512;0.3976815938949585;90.45286560058594
118;1673294480.7382033;47.130642599999995;7.2406194;23.82200050354004;1673294480.8775718;0.07933853566646576;-2.3332419395446777;90.51441192626953
119;1673294480.934054;47.130642699999996;7.2406194;24.21700096130371;1673294481.0824652;-0.0029983462300151587;2.0824856758117676;90.27223205566406
120;1673294481.1499245;47.130642699999996;7.2406194;24.61100196838379;1673294481.2803254;0.0932961255311966;0.8662232160568237;90.30132293701172
121;1673294481.3692057;47.130642599999995;7.2406194;25.00400161743164;1673294481.5122168;-0.13545086979866028;-2.984145164489746;90.56889343261719
122;1673294481.5649037;47.1306425;7.2406194;25.400001525878906;1673294481.7035341;-0.030733821913599968;0.9315714836120605;90.32698059082031
123;1673294481.7601562;47.130642599999995;7.2406194;25.79800033569336;1673294481.9018288;-0.07764892280101776;2.0366640090942383;90.2793197631836
124;1673294481.95978;47.130642599999995;7.2406194;26.19900131225586;1673294482.1040041;-0.08775195479393005;-2.7353570461273193;90.5867919921875
125;1673294482.1640742;47.1306425;7.2406194;26.595001220703125;1673294482.3063283;-0.048228491097688675;-0.40461668372154236;90.42240905761719
126;1673294482.364531;47.1306424;7.2406194;26.990001678466797;1673294482.4977252;0.00691631343215704;2.015073776245117;90.25553894042969
127;1673294482.5495682;47.1306424;7.2406193;27.38800048828125;1673294482.7047057;0.03755985200405121;-2.5309338569641113;90.4610595703125
128;1673294482.7663286;47.1306423;7.2406193;27.78900146484375;1673294482.9111435;-0.06907131522893906;-1.4068892002105713;90.545166015625
129;1673294482.9779387;47.1306424;7.2406193;28.190000534057617;1673294483.1163504;0.033691830933094025;2.629953145980835;90.29158020019531
130;1673294483.1633697;47.1306425;7.2406193;28.589000701904297;1673294483.3322983;-0.12431780248880386;-0.8722438216209412;90.54769134521484
131;1673294483.3846974;47.130642599999995;7.2406193;28.983001708984375;1673294483.5207427;-0.2448943853378296;-1.5169529914855957;90.55498504638672
132;1673294483.5725017;47.130642599999995;7.2406193;29.371002197265625;1673294483.7202003;-0.10582786053419113;3.095141887664795;90.23405456542969
133;1673294483.7758884;47.130642599999995;7.2406194;29.76000213623047;1673294483.9139488;-0.19835451245307922;-0.45634886622428894;90.41887664794922
134;1673294483.9667282;47.130642599999995;7.2406194;30.1510009765625;1673294484.1034136;0.28649377822875977;-2.413942575454712;90.56485748291016
135;1673294484.154167;47.130642599999995;7.2406194;30.547000885009766;1673294484.2873032;0.16561897099018097;2.3891048431396484;90.4465560913086
136;1673294484.3421276;47.130642599999995;7.2406194;30.94900131225586;1673294484.4933352;0.6238144636154175;0.9178755879402161;90.45375061035156
137;1673294484.545096;47.1306425;7.2406194;31.349000930786133;1673294484.6895437;0.36059290170669556;-3.1277506351470947;90.3329849243164
138;1673294484.7490797;47.1306424;7.2406194;31.7450008392334;1673294484.8880217;0.10894174128770828;0.7553502321243286;90.09386444091797
139;1673294484.9461813;47.1306424;7.2406194;32.13600158691406;1673294485.0964165;0.037953976541757584;1.2789580821990967;90.3732681274414
140;1673294485.1522112;47.1306423;7.2406194;32.53200149536133;1673294485.3075836;-0.23524849116802216;-2.846947431564331;90.6245346069336
141;1673294485.3569481;47.1306422;7.240619499999999;32.928001403808594;1673294485.4933898;0.0023243853356689215;0.0829840824007988;90.45647430419922
142;1673294485.5500357;47.1306423;7.240619499999999;33.32500076293945;1673294485.690867;0.04000633955001831;2.296104669570923;90.33573913574219
143;1673294485.7445931;47.1306424;7.2406196;33.72300338745117;1673294485.8783743;0.14043064415454865;-2.237774610519409;90.45462799072266
144;1673294485.9487302;47.1306424;7.2406196;34.12000274658203;1673294486.093454;0.18038621544837952;-0.701724648475647;90.42579650878906
145;1673294486.149214;47.1306425;7.2406196;34.51700210571289;1673294486.298688;0.36478736996650696;2.5592901706695557;90.2771987915039
146;1673294486.3494964;47.1306425;7.2406196;34.91400146484375;1673294486.50991;0.11478625982999802;-1.4450337886810303;90.54132080078125
147;1673294486.5656116;47.1306424;7.2406196;35.31100082397461;1673294486.7211401;0.009328223764896393;-2.3284502029418945;90.5953140258789
148;1673294486.7757874;47.1306425;7.2406196;35.707000732421875;1673294486.9098692;-0.4494006037712097;2.5270652770996094;90.21406555175781
149;1673294486.9703796;47.130642599999995;7.2406196;36.10200119018555;1673294487.11313;-0.4415680766105652;0.6695358157157898;90.4029541015625
150;1673294487.1638803;47.130642599999995;7.2406196;36.499000549316406;1673294487.3096657;-0.2108398675918579;-2.6141741275787354;90.64551544189453
151;1673294487.3685994;47.130642599999995;7.2406197;36.89800262451172;1673294487.5051165;0.01301833987236023;1.8243683576583862;90.30672454833984
152;1673294487.560851;47.1306425;7.2406197;37.29500198364258;1673294487.7052078;0.2211829572916031;0.2343117892742157;90.30563354492188
153;1673294487.7638113;47.1306424;7.2406196;37.69600296020508;1673294487.9005003;0.019452910870313644;-3.0257601737976074;90.40385437011719
154;1673294487.9685142;47.1306425;7.2406196;38.10200119018555;1673294488.1115339;-0.10593751817941666;1.0561790466308594;90.28785705566406
155;1673294488.173064;47.130642599999995;7.240619499999999;38.50699996948242;1673294488.3156624;-0.13879404962062836;2.0930123329162598;90.4041976928711
156;1673294488.3698845;47.130642699999996;7.240619499999999;38.909000396728516;1673294488.49849;-0.22817091643810272;-2.0090715885162354;90.54318237304688
157;1673294488.5475135;47.130642699999996;7.240619499999999;39.302001953125;1673294488.6893241;-0.40720292925834656;-0.05917844921350479;90.51129913330078
158;1673294488.752796;47.130642699999996;7.240619499999999;39.69200134277344;1673294488.893202;-0.21885739266872406;2.5067553520202637;90.19939422607422
159;1673294488.94825;47.130642599999995;7.2406196;40.08500289916992;1673294489.0894077;-0.11062905937433243;-2.0427422523498535;90.39570617675781
160;1673294489.1515515;47.130642599999995;7.2406196;40.479000091552734;1673294489.2894068;0.07238732278347015;-1.4717323780059814;90.37692260742188
161;1673294489.350533;47.130642599999995;7.2406196;40.874000549316406;1673294489.4903097;0.4539589583873749;2.9479124546051025;90.47443389892578
162;1673294489.5420825;47.130642699999996;7.2406196;41.2660026550293;1673294489.6892548;0.3366650342941284;-0.02704257145524025;90.5409927368164
163;1673294489.7512848;47.130642699999996;7.2406196;41.66100311279297;1673294489.9000442;0.41857820749282837;-2.046815872192383;90.3855209350586
164;1673294489.9527917;47.130642699999996;7.2406196;42.051002502441406;1673294490.1109877;0.019257184118032455;2.2798779010772705;90.2535171508789
165;1673294490.1728091;47.130642699999996;7.2406196;42.43800354003906;1673294490.3057714;0.0900336429476738;0.5755655169487;90.45049285888672
166;1673294490.3667324;47.130642599999995;7.2406197;42.82600021362305;1673294490.5098858;-0.0675463080406189;-2.890639305114746;90.54747772216797
167;1673294490.5637302;47.130642599999995;7.2406197;43.21900177001953;1673294490.7056234;-0.07110965251922607;1.7296860218048096;90.22676086425781
168;1673294490.763211;47.130642699999996;7.240619799999999;43.6150016784668;1673294490.9068952;0.019175222143530846;2.3283934593200684;90.32127380371094
169;1673294490.964479;47.1306428;7.240619799999999;44.01100158691406;1673294491.1306796;0.4664759039878845;-2.581780433654785;90.49720764160156
170;1673294491.1902232;47.130642699999996;7.2406198999999996;44.40500259399414;1673294491.349481;0.5548450946807861;0.2579245865345001;90.46884155273438
171;1673294491.3974068;47.130642699999996;7.240619799999999;44.79600143432617;1673294491.5447915;0.47529953718185425;2.268596649169922;90.27442932128906
172;1673294491.5946226;47.130642599999995;7.2406197;45.189002990722656;1673294491.7204142;-0.09503155946731567;-2.234079599380493;90.50447845458984
173;1673294491.7733634;47.130642599999995;7.2406196;45.58100128173828;1673294491.9104533;-0.3448733687400818;-0.7722236514091492;90.3744888305664
174;1673294491.9662778;47.130642699999996;7.240619499999999;45.97200393676758;1673294492.0968804;-0.687018632888794;2.7290871143341064;90.14834594726562
175;1673294492.1560876;47.130642699999996;7.240619499999999;46.3640022277832;1673294492.2923672;-0.5215625762939453;-1.1019855737686157;90.48159790039062
176;1673294492.3490858;47.130642699999996;7.2406194;46.75300216674805;1673294492.4971015;-0.5134657621383667;-1.7967275381088257;90.6068344116211
177;1673294492.554283;47.130642699999996;7.2406194;47.13900375366211;1673294492.701267;-0.10375542938709259;2.4393081665039062;90.38607025146484
178;1673294492.7571628;47.130642599999995;7.2406194;47.5260009765625;1673294492.908459;0.0128956763073802;-0.4576655924320221;90.34449768066406
179;1673294492.962025;47.1306425;7.2406194;47.915000915527344;1673294493.1059182;-0.06543684750795364;-2.961864709854126;90.77928924560547
180;1673294493.162682;47.1306425;7.2406194;48.2760009765625;1673294493.3408115;-0.4523123800754547;2.7887585163116455;90.2742691040039
181;1673294493.4095557;47.130642599999995;7.2406193;48.59100341796875;1673294493.5333068;-0.3225814402103424;0.475029319524765;90.17872619628906
182;1673294493.5850995;47.130642599999995;7.2406193;48.85700225830078;1673294493.7484024;-0.3159142732620239;-2.382265090942383;90.4674301147461
183;1673294493.8111808;47.130642599999995;7.2406193;49.07500076293945;1673294493.9448273;-0.15104563534259796;1.7182749509811401;90.49588012695312
184;1673294493.9897513;47.1306425;7.2406194;49.25100326538086;1673294494.1128535;6.654457092285156;3.5879664421081543;89.96015167236328
185;1673294494.1734116;47.1306424;7.2406193;49.39200210571289;1673294494.300017;11.992037773132324;13.45938777923584;84.35913848876953
186;1673294494.3725703;47.1306422;7.2406185999999995;49.46200180053711;1673294494.5222085;3.8629157543182373;4.894194602966309;71.89966583251953
187;1673294494.5798528;47.130641499999996;7.2406175;49.51400375366211;1673294494.7202058;3.3952109813690186;-3.1363203525543213;61.27030563354492
188;1673294494.7722194;47.1306406;7.2406163;49.564002990722656;1673294494.9116921;4.56095552444458;-0.25113388895988464;51.8889274597168
189;1673294494.9781578;47.130639699999996;7.2406149;49.608001708984375;1673294495.1200871;2.1543612480163574;-0.7061639428138733;43.751766204833984
190;1673294495.1842175;47.1306388;7.2406136;49.64400100708008;1673294495.3262606;1.348429799079895;1.7645952701568604;35.13083267211914
191;1673294495.3772855;47.1306377;7.2406124;49.673004150390625;1673294495.520827;-1.5935677289962769;1.309093713760376;26.087141036987305
192;1673294495.5732672;47.1306368;7.2406114;49.702003479003906;1673294495.7190895;-3.608772039413452;-0.8150032758712769;18.372880935668945
193;1673294495.7732463;47.1306361;7.2406105;49.730003356933594;1673294495.9156268;-3.673246145248413;1.0842759609222412;10.071120262145996
194;1673294495.9702594;47.1306356;7.2406098;49.75300216674805;1673294496.0971274;-1.9678330421447754;-0.6467601656913757;2.7165567874908447
195;1673294496.1689901;47.130635399999996;7.2406092;49.768001556396484;1673294496.3082323;1.1841256618499756;-3.0106704235076904;-5.479951858520508
196;1673294496.361404;47.130635299999994;7.2406086;49.77700424194336;1673294496.4951386;3.2180042266845703;2.752183675765991;-14.166820526123047
197;1673294496.553286;47.1306352;7.240608099999999;49.78700256347656;1673294496.697328;1.8611005544662476;1.2971854209899902;-23.450870513916016
198;1673294496.7580874;47.130635;7.240607799999999;49.798004150390625;1673294496.8932765;-0.10598047077655792;1.5685464143753052;-33.326507568359375
199;1673294496.950137;47.1306349;7.2406076;49.80900192260742;1673294497.0928257;-0.7160031795501709;2.7628610134124756;-43.263851165771484
200;1673294497.1460845;47.130634799999996;7.2406073;49.81800079345703;1673294497.2899735;0.020781369879841805;-0.437028169631958;-50.76461410522461
201;1673294497.348109;47.130634699999995;7.2406071;49.823001861572266;1673294497.4892719;1.2944316864013672;-3.270698070526123;-53.369354248046875
202;1673294497.546418;47.1306346;7.2406068999999995;49.8280029296875;1673294497.692482;2.254044771194458;-0.31310251355171204;-52.452850341796875
203;1673294497.7487717;47.1306343;7.2406067;49.8280029296875;1673294497.8881402;0.9275733828544617;3.3289835453033447;-50.53870391845703
204;1673294497.9474208;47.130634199999996;7.2406066;49.82600402832031;1673294498.0933993;-1.418063998222351;3.2219882011413574;-49.12482833862305
205;1673294498.1508205;47.130634099999995;7.2406066;49.82400131225586;1673294498.3051143;-1.9354467391967773;-0.013393370434641838;-48.376670837402344
206;1673294498.3584464;47.130634099999995;7.2406066;49.82500076293945;1673294498.483587;-0.2632089853286743;-3.7257378101348877;-47.76329803466797
207;1673294498.5368924;47.130634099999995;7.240606499999999;49.827003479003906;1673294498.6809459;2.0407655239105225;-1.9296982288360596;-47.370819091796875
208;1673294498.738238;47.1306339;7.2406063;49.829002380371094;1673294498.8893023;1.9237346649169922;3.517369508743286;-46.94796371459961
209;1673294498.946468;47.1306338;7.240606199999999;49.83100128173828;1673294499.0867121;0.7520570158958435;4.071068286895752;-46.51155090332031
210;1673294499.146819;47.1306338;7.2406063;49.833003997802734;1673294499.300548;-18.279476165771484;1.2341231107711792;-46.503108978271484
211;1673294499.3626637;47.130634;7.2406061;49.8380012512207;1673294499.5038893;-43.71609115600586;1.5000492334365845;-47.02705383300781
212;1673294499.554943;47.1306351;7.2406045;49.83500289916992;1673294499.6923308;-48.683895111083984;1.3051272630691528;-47.308040618896484
213;1673294499.747352;47.130637899999996;7.240600199999999;49.797000885009766;1673294499.8936665;-40.8001594543457;-3.027843713760376;-46.63529586791992
214;1673294499.9520955;47.1306424;7.240593499999999;49.750003814697266;1673294500.085062;-40.9842414855957;-3.4279422760009766;-46.4779052734375
215;1673294500.1502125;47.130648199999996;7.2405843;49.72700119018555;1673294500.2881272;-45.263511657714844;0.11514382809400558;-46.93332290649414
216;1673294500.347379;47.1306551;7.2405728;49.72600173950195;1673294500.4871771;-51.6283073425293;1.7863163948059082;-47.10593795776367
217;1673294500.5430846;47.1306636;7.240558999999999;49.74700164794922;1673294500.6839492;-58.12165451049805;1.3430757522583008;-47.053123474121094
218;1673294500.7393436;47.130673599999994;7.2405425999999995;49.78600311279297;1673294500.88111;-59.42238998413086;1.6668283939361572;-47.13616943359375
219;1673294500.9403625;47.1306856;7.2405235;49.829002380371094;1673294501.0800385;-58.1875114440918;1.3482006788253784;-46.97909927368164
220;1673294501.138935;47.130699199999995;7.240501999999999;49.86000061035156;1673294501.2810585;-57.36629867553711;1.3985599279403687;-47.177330017089844
221;1673294501.338249;47.1307141;7.240478599999999;49.875003814697266;1673294501.4780364;-54.176353454589844;1.5600210428237915;-47.18111801147461
222;1673294501.533983;47.13073;7.2404537;49.867000579833984;1673294501.685183;-51.48502731323242;1.429927945137024;-46.93400955200195
223;1673294501.7459989;47.130746599999995;7.240427899999999;49.85000228881836;1673294501.894006;-32.76253128051758;1.0497764348983765;-46.96165466308594
224;1673294501.9542286;47.1307634;7.2404018;49.840003967285156;1673294502.1011865;12.527364730834961;1.7902840375900269;-47.399539947509766
225;1673294502.1575024;47.1307791;7.240377499999999;49.82600402832031;1673294502.3051693;37.03704071044922;3.87290096282959;-45.261451721191406
226;1673294502.356165;47.1307927;7.2403565;49.64500045776367;1673294502.4961352;19.118066787719727;-0.06892435252666473;-46.437076568603516
227;1673294502.553367;47.1308039;7.240339499999999;49.35000228881836;1673294502.7091134;15.95978832244873;-0.6629946231842041;-47.469520568847656
228;1673294502.7601783;47.1308125;7.2403264;49.13500213623047;1673294502.9141312;17.1429386138916;-0.1826774924993515;-47.55381774902344
229;1673294502.964109;47.1308187;7.2403169;49.11100387573242;1673294503.1013007;52.793426513671875;-0.6689228415489197;-48.232112884521484
230;1673294503.15605;47.130822099999996;7.240311999999999;49.2390022277832;1673294503.2973864;50.34286880493164;-0.25538167357444763;-47.80533218383789
231;1673294503.352244;47.130822099999996;7.2403125;49.37000274658203;1673294503.5089998;49.23715591430664;-0.5375430583953857;-47.34614181518555
232;1673294503.5651364;47.130819599999995;7.240317;49.49800109863281;1673294503.704014;43.68327331542969;-1.1449720859527588;-47.28488540649414
233;1673294503.7621014;47.1308151;7.2403246;49.599002838134766;1673294503.9031465;26.510412216186523;-0.4306188225746155;-47.047203063964844
234;1673294503.9651723;47.130809199999995;7.240333799999999;49.65700149536133;1673294504.1078506;9.963507652282715;-0.6438359618186951;-47.38905715942383
235;1673294504.1628695;47.1308031;7.240343299999999;49.68300247192383;1673294504.3042908;-4.641538619995117;1.2999433279037476;-47.28560256958008
236;1673294504.3634055;47.1307973;7.240352;49.70000076293945;1673294504.5255322;-13.661561012268066;-2.6967782974243164;-47.86430740356445
237;1673294504.5832691;47.1307924;7.2403594;49.71200180053711;1673294504.7119145;-1.0504127740859985;-2.1224751472473145;-47.48469161987305
238;1673294504.7629378;47.1307883;7.2403653;49.72100067138672;1673294504.9043953;-4.093413352966309;-0.20294497907161713;-47.39128494262695
239;1673294504.961083;47.1307848;7.2403702999999995;49.742000579833984;1673294505.0960329;-9.230732917785645;3.742300033569336;-47.350345611572266
240;1673294505.1617494;47.130781899999995;7.2403745;49.7650032043457;1673294505.305995;-13.491787910461426;2.617797374725342;-47.44812774658203
241;1673294505.364888;47.1307798;7.2403777;49.78600311279297;1673294505.5082717;2.842672348022461;3.378321409225464;-46.900177001953125
242;1673294505.5603073;47.1307784;7.24038;49.803001403808594;1673294505.7182395;10.065357208251953;0.5024124383926392;-47.110191345214844
243;1673294505.77832;47.130777099999996;7.2403822;49.829002380371094;1673294505.9418752;9.249397277832031;-3.491586208343506;-47.63471221923828
244;1673294506.0100596;47.1307756;7.240384499999999;49.855003356933594;1673294506.1296773;2.250627279281616;8.041914939880371;-47.90468215942383
245;1673294506.1857522;47.130773999999995;7.2403868;49.81200408935547;1673294506.3331494;-19.246604919433594;33.60630798339844;-54.946231842041016
246;1673294506.3959646;47.1307724;7.2403889999999995;49.4170036315918;1673294506.5362017;-35.15830993652344;61.854122161865234;-71.29583740234375
247;1673294506.5875835;47.1307708;7.2403911999999995;48.65400314331055;1673294506.7314312;-42.011009216308594;89.15979766845703;-93.2008285522461
248;1673294506.7944345;47.130769199999996;7.240393399999999;47.512001037597656;1673294506.9202383;-43.17195510864258;103.09172058105469;-109.1136703491211
249;1673294507.0108836;47.1307677;7.2403954;46.00300216674805;1673294507.1344218;-44.960758209228516;96.34002685546875;-112.7262954711914
250;1673294507.1876795;47.1307662;7.240397499999999;44.14500045776367;1673294507.3240662;-45.32522964477539;63.518775939941406;-99.38764190673828
251;1673294507.381393;47.1307647;7.2403996;41.9370002746582;1673294507.53243;-29.88827133178711;14.34402847290039;-79.762939453125
252;1673294507.5866356;47.130762999999995;7.2404018;39.3640022277832;1673294507.716207;1.876215934753418;-28.28354263305664;-78.74578094482422
253;1673294507.782169;47.130761299999996;7.2404043;36.3910026550293;1673294507.9215288;26.508342742919922;-57.407100677490234;-92.52579498291016
254;1673294507.9737897;47.1307599;7.240406699999999;33.038002014160156;1673294508.108365;38.470611572265625;-62.06497573852539;-101.92638397216797
255;1673294508.1651328;47.1307587;7.240409;29.341001510620117;1673294508.3332477;36.47768020629883;-28.387901306152344;-90.04336547851562
256;1673294508.386545;47.1307577;7.240411;25.29800033569336;1673294508.5318437;9.53509521484375;18.27115249633789;-81.02082824707031
257;1673294508.587035;47.1307568;7.2404126;20.881000518798828;1673294508.736165;-22.72673988342285;50.819210052490234;-92.67425537109375
258;1673294508.7875042;47.130755699999995;7.2404142;16.086999893188477;1673294508.9198835;-40.15568923950195;54.135101318359375;-102.41505432128906
259;1673294508.9791503;47.1307543;7.2404158999999995;10.96500015258789;1673294509.1341538;-35.16181182861328;11.202502250671387;-86.25643920898438
260;1673294509.1893697;47.1307526;7.240418099999999;5.51300048828125;1673294509.3375866;-0.02040945738554001;-29.146106719970703;-81.76057434082031
261;1673294509.389948;47.130750899999995;7.2404209999999996;0.14500001072883606;1673294509.5262134;4.611691474914551;-16.842586517333984;-87.20271301269531
262;1673294509.5777118;47.130736299999995;7.2404303;-0.02500000037252903;1673294509.7148926;10.764185905456543;-24.244239807128906;-83.63461303710938
263;1673294509.7765355;47.1307202;7.240439899999999;-0.26500001549720764;1673294509.924952;10.350390434265137;-21.204200744628906;-84.03264617919922
264;1673294509.9826078;47.1307032;7.240449399999999;-0.40300002694129944;1673294510.123547;10.169204711914062;-21.073955535888672;-84.1193618774414
265;1673294510.181025;47.1306857;7.2404592;-0.5100000500679016;1673294510.3233047;10.075366973876953;-21.158926010131836;-84.22562408447266
266;1673294510.3771684;47.130666399999996;7.2404699;-0.6150000095367432;1673294510.5227067;9.945157051086426;-21.45420265197754;-84.27810668945312
267;1673294510.5773711;47.130645799999996;7.2404812;-0.7240000367164612;1673294510.7121758;9.890423774719238;-21.474687576293945;-84.3338394165039
268;1673294510.7736576;47.130624;7.2404931999999995;-0.8730000257492065;1673294510.9183009;9.883426666259766;-21.74152374267578;-84.41590881347656
269;1673294510.9729264;47.1306009;7.240505799999999;-1.0570000410079956;1673294511.116229;9.798543930053711;-21.759010314941406;-84.4330062866211
270;1673294511.1788905;47.130576999999995;7.2405187;-1.1990000009536743;1673294511.325121;9.7548246383667;-21.687183380126953;-84.42144775390625
271;1673294511.3828614;47.1305525;7.240532;-1.318000078201294;1673294511.522094;9.680876731872559;-21.53314781188965;-84.41349029541016
272;1673294511.57788;47.130527199999996;7.2405456;-1.4210001230239868;1673294511.717029;9.560741424560547;-21.319814682006836;-84.36775207519531
273;1673294511.7751255;47.1305013;7.2405593999999995;-1.5120000839233398;1673294511.9549758;9.471368789672852;-20.991607666015625;-84.304443359375
274;1673294512.0108914;47.1304741;7.240573899999999;-1.6530001163482666;1673294512.1529248;9.462249755859375;-20.89093589782715;-84.31617736816406
275;1673294512.2007484;47.1304459;7.240588799999999;-1.8220001459121704;1673294512.346929;9.41281795501709;-20.595497131347656;-84.2259292602539
276;1673294512.411789;47.1304176;7.2406038;-1.940000057220459;1673294512.5421162;9.260514259338379;-20.27715492248535;-84.12767791748047
277;1673294512.5980184;47.130389099999995;7.2406188;-2.0270001888275146;1673294512.7478147;9.154096603393555;-20.002559661865234;-84.0348129272461
278;1673294512.8068998;47.1303602;7.2406339;-2.0930001735687256;1673294512.9786332;9.076822280883789;-19.710424423217773;-83.93527221679688
279;1673294513.0541084;47.130331;7.2406492;-2.1460001468658447;1673294513.1774418;9.001151084899902;-19.403284072875977;-83.82638549804688
280;1673294513.230907;47.1303014;7.2406646;-2.189000129699707;1673294513.3739903;8.906129837036133;-19.097639083862305;-83.69914245605469
281;1673294513.4329302;47.1302704;7.2406808;-2.2730000019073486;1673294513.600957;8.764947891235352;-18.939504623413086;-83.64635467529297
282;1673294513.660894;47.1302381;7.2406976;-2.3970000743865967;1673294513.792945;8.654224395751953;-18.678152084350586;-83.51632690429688
283;1673294513.8468304;47.1302065;7.240714;-2.451000213623047;1673294514.0159364;8.531595230102539;-18.42289924621582;-83.3966293334961
284;1673294514.059829;47.1301749;7.2407305;-2.4780001640319824;1673294514.1975937;8.429064750671387;-18.14497947692871;-83.28984832763672
285;1673294514.2469084;47.1301431;7.240747;-2.4780001640319824;1673294514.3878293;8.36072826385498;-17.873842239379883;-83.194091796875
286;1673294514.4549344;47.1301109;7.2407638;-2.4630000591278076;1673294514.573938;8.206812858581543;-17.63153839111328;-83.11905670166016
287;1673294514.6518538;47.130077;7.2407813;-2.4860000610351562;1673294514.807892;8.192827224731445;-17.51747703552246;-83.07654571533203
288;1673294514.8501616;47.1300418;7.2407996;-2.5380001068115234;1673294515.0186496;8.081366539001465;-17.259166717529297;-82.99385833740234
289;1673294515.0841057;47.1300204;7.2408107;-2.5400002002716064;1673294515.187306;8.009057998657227;-16.999738693237305;-82.8833236694336
290;;;;;1673294515.3641086;7.88969612121582;-16.696165084838867;-82.7056655883789
291;;;;;1673294515.5479658;7.752557277679443;-16.348249435424805;-82.4582290649414
292;;;;;1673294515.7469454;7.651386737823486;-16.018917083740234;-82.23277282714844
293;;;;;1673294515.9332807;7.525842666625977;-15.709359169006348;-82.0330810546875
294;;;;;1673294516.1271286;7.362904071807861;-15.501313209533691;-81.84933471679688
295;;;;;1673294516.3202095;7.255506992340088;-15.333770751953125;-81.65018463134766
296;;;;;1673294516.5220354;7.186814308166504;-15.180915832519531;-81.50973510742188
