;pos_time;latitude;longitude;altitude;alt_time;pitch;roll;yaw
0;1673295992.9564059;47.1306424;7.2406198999999996;-0.03200000151991844;1673295993.1219113;0.1500263214111328;-0.16319400072097778;90.13290405273438
1;1673295993.1400132;47.1306424;7.240619799999999;-0.032999999821186066;1673295993.3253148;0.08516287058591843;-0.36598363518714905;89.98438262939453
2;1673295993.3453774;47.1306424;7.240619799999999;-0.03500000014901161;1673295993.5181704;-0.00518818199634552;-0.3207137882709503;90.03802490234375
3;1673295993.5377073;47.1306423;7.240619799999999;-0.03500000014901161;1673295993.7236688;0.16647015511989594;-0.3086448013782501;90.18903350830078
4;1673295993.748818;47.1306424;7.240619799999999;-0.03200000151991844;1673295993.925088;0.22310464084148407;-0.33503052592277527;90.13655090332031
5;1673295993.9481246;47.1306424;7.2406197;-0.03200000151991844;1673295994.1292129;0.30280399322509766;-0.1918746680021286;89.86798095703125
6;1673295994.1499887;47.1306423;7.2406197;-0.03500000014901161;1673295994.308762;0.15986134111881256;-0.461946964263916;90.11437225341797
7;1673295994.3292568;47.1306423;7.2406196;-0.03800000250339508;1673295994.4975302;-0.012310348451137543;-0.23921620845794678;89.92212677001953
8;1673295994.5201216;47.1306423;7.2406197;-0.04100000113248825;1673295994.7131698;0.00017238222062587738;-0.37691304087638855;89.98039245605469
9;1673295994.7346432;47.1306423;7.240619799999999;-0.04100000113248825;1673295994.9205124;-0.028783628717064857;-0.24913446605205536;89.8142318725586
10;1673295994.9402597;47.1306423;7.240619799999999;-0.039000000804662704;1673295995.1057906;-0.14522242546081543;-0.31528618931770325;90.0035629272461
11;1673295995.129217;47.1306423;7.2406198999999996;-0.03400000184774399;1673295995.303984;-0.1332404613494873;-0.3242300748825073;89.93592071533203
12;1673295995.3264344;47.1306424;7.240619799999999;-0.03100000135600567;1673295995.5335307;0.0431131012737751;-0.17463549971580505;89.87032318115234
13;1673295995.5575004;47.1306424;7.2406197;-0.03100000135600567;1673295995.736907;0.20669621229171753;-0.27377206087112427;90.00252532958984
14;1673295995.7579505;47.1306424;7.2406196;-0.032999999821186066;1673295995.931569;0.2176874428987503;-0.849933922290802;90.01947021484375
15;1673295995.9502273;47.1306424;7.2406196;-0.0020000000949949026;1673295996.172838;-0.11100611090660095;-1.1009055376052856;90.01434326171875
16;1673295996.1933348;47.1306424;7.2406197;-0.006000000052154064;1673295996.3686795;0.008711185306310654;-0.6843031048774719;89.96957397460938
17;1673295996.3862312;47.1306424;7.2406197;-0.006000000052154064;1673295996.5596638;0.10867378860712051;-0.8843669295310974;89.82969665527344
18;1673295996.5782554;47.1306424;7.2406196;-0.006000000052154064;1673295996.8073802;0.30587100982666016;-0.7308635711669922;89.91595458984375
19;1673295996.8213992;47.1306424;7.2406196;-0.0010000000474974513;1673295996.9881597;-0.02782410942018032;-0.96779465675354;89.97342681884766
20;1673295997.0081887;47.1306424;7.2406196;-0.0020000000949949026;1673295997.1962845;0.41909950971603394;-1.2190295457839966;89.92396545410156
21;1673295997.212414;47.1306424;7.2406196;-0.003000000026077032;1673295997.3495407;0.1289079636335373;-1.0667749643325806;89.92425537109375
22;1673295997.366365;47.1306424;7.2406197;-0.0020000000949949026;1673295997.5424223;0.42171087861061096;-0.7579128742218018;89.71174621582031
23;1673295997.5622768;47.1306424;7.2406197;-0.0010000000474974513;1673295997.716192;0.16775351762771606;-0.9853565692901611;89.62389373779297
24;1673295997.7423708;47.1306424;7.240619799999999;-0.0010000000474974513;1673295997.9102263;0.1200120747089386;-0.17477314174175262;89.56505584716797
25;1673295997.9349902;47.1306424;7.240619799999999;-0.004000000189989805;1673295998.1213427;0.33869534730911255;-0.21770386397838593;89.44188690185547
26;1673295998.1422634;47.1306424;7.2406198999999996;-0.005000000353902578;1673295998.321287;0.3661718964576721;-0.43790778517723083;89.1219253540039
27;1673295998.3423882;47.1306424;7.24062;-0.006000000052154064;1673295998.5327463;0.5715017318725586;-0.7228456735610962;88.88684844970703
28;1673295998.553735;47.1306425;7.24062;-0.009000000543892384;1673295998.7233393;0.9781889319419861;-0.6785544753074646;87.95286560058594
29;1673295998.742355;47.130642599999995;7.24062;-0.014000000432133675;1673295998.9172857;2.1718807220458984;-0.5260450839996338;87.71829223632812
30;1673295998.942351;47.130642599999995;7.2406198999999996;-0.009000000543892384;1673295999.111363;1.3752727508544922;0.5919595956802368;83.09659576416016
31;1673295999.1335616;47.1306428;7.2406197;-0.004000000189989805;1673295999.304262;-0.006562904454767704;1.3311699628829956;75.720458984375
32;1673295999.3239462;47.130643299999996;7.2406191;-0.003000000026077032;1673295999.5352411;-1.0599595308303833;4.930591583251953;78.81288146972656
33;1673295999.5543664;47.130643899999995;7.2406181;0.0020000000949949026;1673295999.7252836;-5.763840198516846;7.987731456756592;83.48321533203125
34;1673295999.7451038;47.1306447;7.2406168;0.013000000268220901;1673295999.9142742;-9.791001319885254;10.867596626281738;84.38489532470703
35;1673295999.9346287;47.1306455;7.240615099999999;0.03100000135600567;1673296000.1191516;-11.022309303283691;13.285550117492676;84.47689056396484
36;1673296000.1416326;47.130646399999996;7.2406133;0.06400000303983688;1673296000.3671987;-11.838400840759277;14.641484260559082;84.5892105102539
37;1673296000.3904753;47.1306472;7.2406115;0.1080000028014183;1673296000.573346;-13.378556251525879;14.582565307617188;84.90408325195312
38;1673296000.5913088;47.1306479;7.2406099;0.16100001335144043;1673296000.746305;-15.350838661193848;15.110703468322754;85.1338119506836
39;1673296000.7682545;47.1306486;7.2406086;0.22500000894069672;1673296000.9331753;-16.598377227783203;17.463998794555664;85.126953125
40;1673296000.9512908;47.130649;7.2406077;0.2990000247955322;1673296001.1081715;-17.590091705322266;19.3111572265625;85.2710952758789
41;1673296001.127847;47.1306492;7.2406071999999995;0.39000001549720764;1673296001.301241;-19.65018653869629;18.910717010498047;85.66922760009766
42;1673296001.3247154;47.1306492;7.2406073;0.4910000264644623;1673296001.5015414;-21.122407913208008;18.745811462402344;86.10655975341797
43;1673296001.522053;47.1306489;7.240608;0.5980000495910645;1673296001.701071;-19.004304885864258;20.17373275756836;86.00321960449219
44;1673296001.7245057;47.130648099999995;7.240609399999999;0.7150000333786011;1673296001.9170594;-16.37282371520996;16.9563045501709;86.36520385742188
45;1673296001.9366844;47.1306472;7.2406111;0.8390000462532043;1673296002.1651986;-14.518999099731445;12.816431045532227;87.19036102294922
46;1673296002.1808362;47.1306461;7.240613;0.968000054359436;1673296002.3395383;-12.295955657958984;13.475210189819336;86.74860382080078
47;1673296002.361987;47.130645;7.2406149;1.1060000658035278;1673296002.54117;-10.286523818969727;13.238967895507812;86.24299621582031
48;1673296002.563618;47.1306441;7.2406163999999995;1.25600004196167;1673296002.739358;-9.577119827270508;8.739514350891113;86.83686828613281
49;1673296002.7608285;47.1306435;7.2406177;1.4160000085830688;1673296002.950568;-9.726699829101562;10.472023963928223;86.36092376708984
50;1673296002.9661844;47.1306431;7.2406185;1.5860000848770142;1673296003.1384604;-9.35223388671875;14.72033405303955;80.37106323242188
51;1673296003.1599329;47.1306428;7.240618899999999;1.7690000534057617;1673296003.3494775;-10.021876335144043;10.529508590698242;81.9660873413086
52;1673296003.3729484;47.130642699999996;7.240619;1.9650001525878906;1673296003.544389;-11.519261360168457;11.562081336975098;82.40791320800781
53;1673296003.567828;47.130642599999995;7.240619;2.1650002002716064;1673296003.741827;-11.722587585449219;15.58104419708252;81.79869079589844
54;1673296003.7603693;47.130642599999995;7.2406188;2.366000175476074;1673296003.9483385;-12.251702308654785;14.382779121398926;82.11705017089844
55;1673296003.9698646;47.130642599999995;7.2406185999999995;2.571000099182129;1673296004.1304815;-12.814600944519043;11.982236862182617;82.67021179199219
56;1673296004.1505332;47.1306428;7.2406185;2.7830002307891846;1673296004.3160164;-12.510257720947266;16.942880630493164;81.77210235595703
57;1673296004.3355446;47.130643;7.2406185;2.993000030517578;1673296004.5064607;-12.629292488098145;16.911827087402344;81.74057006835938
58;1673296004.5279431;47.130643;7.2406185;3.196000099182129;1673296004.707663;-12.658653259277344;12.723830223083496;82.44888305664062
59;1673296004.7332501;47.130643;7.2406185999999995;3.3950002193450928;1673296004.928262;-12.715337753295898;15.171346664428711;81.95906066894531
60;1673296004.9556293;47.1306428;7.2406187;3.5920002460479736;1673296005.1175764;-12.020964622497559;16.1367130279541;81.58868408203125
61;1673296005.1425183;47.130642599999995;7.2406188;3.7900002002716064;1673296005.3169775;-12.353433609008789;12.89132022857666;82.2240982055664
62;1673296005.3384602;47.130642599999995;7.240618899999999;3.994000196456909;1673296005.5134091;-12.394593238830566;13.187239646911621;82.21175384521484
63;1673296005.5338972;47.130642599999995;7.240619;4.199000358581543;1673296005.7078855;-11.645918846130371;17.28951644897461;81.40057373046875
64;1673296005.7305686;47.130642599999995;7.240619199999999;4.402000427246094;1673296005.9163806;-11.526956558227539;13.09106159210205;82.14701080322266
65;1673296005.9403625;47.1306425;7.2406193;4.600000381469727;1673296006.1204069;-11.99548625946045;12.707765579223633;82.26801300048828
66;1673296006.1434126;47.1306424;7.240619499999999;4.798000335693359;1673296006.3181322;-11.560529708862305;16.416061401367188;81.5007095336914
67;1673296006.3376882;47.1306424;7.240619499999999;4.999000072479248;1673296006.5233731;-11.32264232635498;15.09577751159668;81.73274993896484
68;1673296006.5497482;47.1306424;7.2406196;5.202000141143799;1673296006.7283113;-11.868698120117188;12.24730110168457;82.47230529785156
69;1673296006.7488704;47.1306425;7.2406196;5.40500020980835;1673296006.9261835;-11.795514106750488;16.133766174316406;81.67987060546875
70;1673296006.9483597;47.130642599999995;7.2406196;5.6060004234313965;1673296007.1296701;-11.417086601257324;16.5433349609375;81.66593170166016
71;1673296007.150751;47.130642599999995;7.2406197;5.806000232696533;1673296007.345036;-11.951168060302734;12.675475120544434;82.40496063232422
72;1673296007.3675056;47.130642599999995;7.2406197;6.004000186920166;1673296007.5439785;-12.068492889404297;15.56353759765625;81.86778259277344
73;1673296007.5661123;47.130642599999995;7.2406197;6.200000286102295;1673296007.731678;-11.367111206054688;16.58334732055664;81.54358673095703
74;1673296007.7536988;47.130642599999995;7.2406197;6.397000312805176;1673296007.9186435;-11.92133903503418;13.208857536315918;82.29286193847656
75;1673296007.937225;47.130642599999995;7.2406197;6.595000267028809;1673296008.1096356;-11.814446449279785;14.242502212524414;82.0713882446289
76;1673296008.1301327;47.130642699999996;7.240619799999999;6.7910003662109375;1673296008.3059833;-11.505303382873535;17.73606300354004;81.4094467163086
77;1673296008.3265414;47.130642599999995;7.240619799999999;6.988000392913818;1673296008.5074763;-11.527250289916992;13.862509727478027;82.03600311279297
78;1673296008.5279784;47.1306425;7.240619799999999;7.185000419616699;1673296008.7218187;-12.106032371520996;13.218238830566406;82.24120330810547
79;1673296008.7780223;47.1306425;7.240619799999999;7.38200044631958;1673296008.9708037;-11.66639232635498;16.747032165527344;81.56144714355469
80;1673296008.990319;47.1306424;7.240619799999999;7.578000545501709;1673296009.2066133;-11.246562004089355;14.630000114440918;81.80640411376953
81;1673296009.225157;47.1306424;7.2406198999999996;7.77400016784668;1673296009.3822646;-11.93165111541748;12.784745216369629;82.39048767089844
82;1673296009.4037583;47.130642599999995;7.2406198999999996;7.973000526428223;1673296009.5823052;-11.699492454528809;17.03982162475586;81.64196014404297
83;1673296009.6048613;47.130642699999996;7.2406198999999996;8.169000625610352;1673296009.7661726;-11.328726768493652;15.723280906677246;81.71316528320312
84;1673296009.783736;47.130642599999995;7.2406198999999996;8.363000869750977;1673296009.93825;-11.980635643005371;12.65955924987793;82.1941909790039
85;1673296009.954873;47.130642599999995;7.2406198999999996;8.559000015258789;1673296010.1087446;-11.841636657714844;15.881614685058594;81.77924346923828
86;1673296010.1272874;47.130642599999995;7.2406198999999996;8.755000114440918;1673296010.3027515;-11.341285705566406;16.440582275390625;81.61571502685547
87;1673296010.3243775;47.130642599999995;7.2406198999999996;8.951000213623047;1673296010.5037029;-11.653522491455078;13.009032249450684;82.27078247070312
88;1673296010.5241983;47.130642599999995;7.24062;9.147000312805176;1673296010.7139146;-11.675760269165039;14.947364807128906;81.89395141601562
89;1673296010.738321;47.130642699999996;7.24062;9.3410005569458;1673296010.9327636;-11.34251880645752;17.779495239257812;81.53402709960938
90;1673296010.9557624;47.1306428;7.24062;9.532999992370605;1673296011.1459794;-11.38862133026123;13.564355850219727;82.06619262695312
91;1673296011.1680276;47.1306428;7.24062;9.726000785827637;1673296011.348458;-12.009108543395996;14.540399551391602;81.95427703857422
92;1673296011.3719306;47.130642699999996;7.2406198999999996;9.919000625610352;1673296011.5662603;-11.296578407287598;16.920486450195312;81.5248794555664
93;1673296011.5877151;47.130642599999995;7.2406198999999996;10.11500072479248;1673296011.7713504;-11.226301193237305;13.839735984802246;81.97992706298828
94;1673296011.7879434;47.130642599999995;7.2406198999999996;10.362000465393066;1673296011.964161;-13.246254920959473;14.507736206054688;82.46135711669922
95;1673296011.9849539;47.130642599999995;7.2406201;10.718000411987305;1673296012.1681695;-11.874044418334961;18.170751571655273;81.9415283203125
96;1673296012.1886604;47.1306424;7.2406204999999995;11.096000671386719;1673296012.3587732;-11.107062339782715;15.209524154663086;81.87915802001953
97;1673296012.377317;47.130642099999996;7.2406209;11.481000900268555;1673296012.5379694;-10.877473831176758;11.285932540893555;82.34969329833984
98;1673296012.5551136;47.1306417;7.2406212;11.874000549316406;1673296012.734277;-10.275528907775879;14.252603530883789;81.70352172851562
99;1673296012.7553144;47.130641499999996;7.2406215;12.273000717163086;1673296012.936598;-9.50688362121582;13.853340148925781;81.59867858886719
100;1673296012.9615495;47.1306413;7.240621699999999;12.676000595092773;1673296013.1495001;-10.208733558654785;11.000587463378906;82.25951385498047
101;1673296013.1717498;47.1306413;7.2406216;13.080000877380371;1673296013.3481824;-10.448702812194824;13.669005393981934;81.86808013916016
102;1673296013.368229;47.130641499999996;7.2406215;13.47900104522705;1673296013.5298793;-10.289287567138672;16.256196975708008;81.6334457397461
103;1673296013.548436;47.1306416;7.240621399999999;13.873001098632812;1673296013.7330828;-10.771064758300781;12.430109024047852;82.12138366699219
104;1673296013.758259;47.1306417;7.240621099999999;14.259000778198242;1673296013.9475467;-11.553853034973145;13.281511306762695;82.05049133300781
105;1673296013.967675;47.1306418;7.2406209;14.640000343322754;1673296014.1563382;-11.344260215759277;16.727678298950195;81.45774841308594
106;1673296014.1778276;47.1306418;7.2406207;15.024001121520996;1673296014.3937755;-11.28865909576416;14.67093276977539;81.86991119384766
107;1673296014.4308624;47.130641999999995;7.2406204999999995;15.408000946044922;1673296014.5914304;-11.949780464172363;13.064591407775879;82.26801300048828
108;1673296014.6091208;47.130642099999996;7.2406204;15.792000770568848;1673296014.7694197;-11.425614356994629;16.88161277770996;81.75279998779297
109;1673296014.787035;47.1306423;7.2406203;16.17500114440918;1673296014.9727342;-11.476035118103027;15.846102714538574;81.84149932861328
110;1673296014.9972026;47.1306422;7.2406203;16.558000564575195;1673296015.168516;-11.508129119873047;12.704129219055176;82.23506164550781
111;1673296015.1918774;47.1306422;7.2406203;16.94300079345703;1673296015.362234;-11.363563537597656;15.418092727661133;81.85832214355469
112;1673296015.3828137;47.130642099999996;7.2406204;17.332000732421875;1673296015.5573835;-10.655632972717285;16.080989837646484;81.5251235961914
113;1673296015.5774403;47.130642099999996;7.2406204999999995;17.72300148010254;1673296015.7622292;-11.193439483642578;12.773767471313477;82.23377990722656
114;1673296015.7837663;47.130642099999996;7.2406204999999995;18.11400032043457;1673296015.9569986;-11.107503890991211;13.625567436218262;82.10122680664062
115;1673296015.9829085;47.1306422;7.2406204999999995;18.503000259399414;1673296016.1925752;-10.81645679473877;17.102012634277344;81.56111907958984
116;1673296016.2101507;47.1306422;7.2406204;18.892000198364258;1673296016.4061415;-10.954771995544434;13.4739990234375;82.09970092773438
117;1673296016.4277475;47.1306422;7.2406204;19.27800178527832;1673296016.6144562;-11.428377151489258;13.133522033691406;82.18724822998047
118;1673296016.637879;47.1306422;7.2406203;19.663000106811523;1673296016.7915254;-10.821213722229004;16.56716537475586;81.50834655761719
119;1673296016.81116;47.1306422;7.2406203;20.05000114440918;1673296016.9809916;-10.695359230041504;15.195876121520996;81.60405731201172
120;1673296016.9995327;47.1306422;7.2406203;20.440000534057617;1673296017.147775;-11.37524700164795;12.534662246704102;82.2735366821289
121;1673296017.167478;47.1306423;7.2406201999999995;20.83500099182129;1673296017.3480978;-11.279695510864258;16.126800537109375;81.79855346679688
122;1673296017.3696694;47.1306424;7.2406201;21.231000900268555;1673296017.5453794;-11.113165855407715;16.37668800354004;81.73500061035156
123;1673296017.566012;47.1306424;7.24062;21.624000549316406;1673296017.7404284;-11.401845932006836;12.54221248626709;82.22734832763672
124;1673296017.762488;47.1306424;7.2406198999999996;22.014001846313477;1673296017.9411776;-11.646977424621582;14.944915771484375;81.91249084472656
125;1673296017.9616747;47.1306423;7.240619799999999;22.4060001373291;1673296018.1363227;-11.058802604675293;16.478906631469727;81.58129119873047
126;1673296018.158783;47.1306423;7.240619799999999;22.80000114440918;1673296018.3495178;-11.253114700317383;13.429991722106934;82.25630950927734
127;1673296018.3703232;47.1306424;7.240619799999999;23.194000244140625;1673296018.546867;-11.384172439575195;13.816038131713867;82.24391174316406
128;1673296018.570337;47.1306425;7.240619799999999;23.589000701904297;1673296018.7705007;-10.787571907043457;17.821537017822266;81.5533447265625
129;1673296018.792129;47.1306425;7.240619799999999;23.98200035095215;1673296018.958968;-11.046093940734863;13.667625427246094;82.0851821899414
130;1673296018.9755983;47.1306425;7.2406198999999996;24.378000259399414;1673296019.1295075;-11.164602279663086;13.372864723205566;82.16840362548828
131;1673296019.1500068;47.1306424;7.2406198999999996;24.772001266479492;1673296019.340458;-10.761743545532227;16.764766693115234;81.55223846435547
132;1673296019.3694785;47.1306424;7.2406198999999996;25.170001983642578;1673296019.5635087;-10.774374961853027;15.109299659729004;81.7248764038086
133;1673296019.5845385;47.1306423;7.2406198999999996;25.571001052856445;1673296019.749414;-11.350237846374512;12.753121376037598;82.31717681884766
134;1673296019.7705383;47.1306424;7.240619799999999;25.979001998901367;1673296019.9360592;-11.2179536819458;16.16920280456543;81.7779769897461
135;1673296019.9585102;47.1306424;7.2406197;26.38500213623047;1673296020.146402;-10.863527297973633;16.56609344482422;81.69123840332031
136;1673296020.1680915;47.1306424;7.2406197;26.782001495361328;1673296020.3413756;-11.194348335266113;12.541768074035645;82.1845703125
137;1673296020.3590045;47.1306424;7.2406197;27.17500114440918;1673296020.5447776;-11.105560302734375;15.05480670928955;81.8216552734375
138;1673296020.5716825;47.1306424;7.240619799999999;27.571001052856445;1673296020.7608893;-10.812417984008789;16.720746994018555;81.52467346191406
139;1673296020.7819197;47.1306423;7.2406197;27.96900177001953;1673296020.9531307;-11.029223442077637;14.078021049499512;82.04981231689453
140;1673296020.9800203;47.1306423;7.2406197;28.3700008392334;1673296021.1564982;-11.33488655090332;13.191511154174805;82.27674865722656
141;1673296021.1757114;47.1306423;7.2406197;28.770000457763672;1673296021.3667748;-10.965033531188965;17.004846572875977;81.64722442626953
142;1673296021.3882775;47.1306424;7.2406197;29.167001724243164;1673296021.57098;-10.793852806091309;15.125215530395508;81.791259765625
143;1673296021.5875497;47.1306424;7.2406197;29.560001373291016;1673296021.754501;-11.383101463317871;13.010186195373535;82.06259155273438
144;1673296021.7760215;47.1306423;7.2406197;29.952001571655273;1673296021.9338505;-11.126542091369629;16.312387466430664;81.71532440185547
145;1673296021.9553237;47.1306423;7.2406197;30.35000228881836;1673296022.1291933;-10.785574913024902;16.11052703857422;81.66287231445312
146;1673296022.1506863;47.1306423;7.2406197;30.75400161743164;1673296022.3301945;-11.255881309509277;13.032442092895508;82.26640319824219
147;1673296022.3526714;47.1306424;7.2406197;31.158000946044922;1673296022.5323155;-11.273014068603516;14.902541160583496;81.95693969726562
148;1673296022.5567172;47.1306425;7.2406196;31.56100082397461;1673296022.739224;-10.763330459594727;17.50979995727539;81.40938568115234
149;1673296022.758877;47.1306425;7.2406196;31.96000099182129;1673296022.9304545;-11.16231918334961;13.424047470092773;82.17845153808594
150;1673296022.9545507;47.1306425;7.2406196;32.358001708984375;1673296023.173166;-11.35548210144043;14.265422821044922;82.07836151123047
151;1673296023.194638;47.1306425;7.2406196;32.75699996948242;1673296023.358863;-10.801350593566895;17.01106834411621;81.55947875976562
152;1673296023.3823478;47.1306425;7.2406196;33.159000396728516;1673296023.5442603;-10.89954662322998;14.830320358276367;81.98263549804688
153;1673296023.5651038;47.1306425;7.2406196;33.564002990722656;1673296023.7422059;-11.472545623779297;12.90892505645752;82.2362060546875
154;1673296023.7666202;47.1306425;7.2406196;33.97300338745117;1673296023.940811;-10.985508918762207;16.95355796813965;81.48169708251953
155;1673296023.960331;47.1306425;7.2406196;34.37700271606445;1673296024.1242828;-10.903045654296875;15.929184913635254;81.7919921875
156;1673296024.143819;47.1306425;7.2406196;34.7760009765625;1673296024.3213346;-11.357486724853516;12.664286613464355;82.28864288330078
157;1673296024.3437865;47.1306425;7.2406196;35.17300033569336;1673296024.5277312;-11.33952522277832;15.813508987426758;81.90333557128906
158;1673296024.551155;47.1306425;7.2406197;35.57400131225586;1673296024.7613597;-10.645013809204102;16.261144638061523;81.66444396972656
159;1673296024.7823966;47.1306424;7.2406197;35.97700119018555;1673296024.9624891;-10.994734764099121;13.679025650024414;82.1034164428711
160;1673296024.9869826;47.1306425;7.2406197;36.384002685546875;1673296025.1722991;-11.284942626953125;14.297475814819336;82.0975112915039
161;1673296025.194311;47.130642599999995;7.2406197;36.790000915527344;1673296025.388107;-10.737504959106445;17.771013259887695;81.55343627929688
162;1673296025.4203146;47.130642699999996;7.2406197;37.18800354003906;1673296025.6017487;-10.825613021850586;14.395270347595215;82.03434753417969
163;1673296025.6241932;47.1306428;7.2406197;37.582000732421875;1673296025.781564;-11.328072547912598;13.857942581176758;82.24773406982422
164;1673296025.8020961;47.1306428;7.2406197;37.98200225830078;1673296025.97194;-11.118204116821289;17.104467391967773;81.62846374511719
165;1673296026.0063243;47.130642699999996;7.2406197;38.38199996948242;1673296026.1689796;-10.65453815460205;15.597949981689453;81.78455352783203
166;1673296026.1876042;47.130642599999995;7.2406197;38.78300094604492;1673296026.355231;-11.1502685546875;12.871326446533203;82.23152923583984
167;1673296026.377335;47.130642599999995;7.240619799999999;39.18600082397461;1673296026.5556836;-10.895008087158203;16.453340530395508;81.54637908935547
168;1673296026.5752192;47.130642599999995;7.240619799999999;39.59000015258789;1673296026.7452862;-10.505340576171875;17.01224708557129;81.62447357177734
169;1673296026.7649193;47.130642599999995;7.240619799999999;39.99100112915039;1673296026.9535475;-11.200392723083496;12.510167121887207;82.1906967163086
170;1673296026.9752262;47.1306425;7.2406197;40.38800048828125;1673296027.1634629;-11.171347618103027;15.426148414611816;81.89958190917969
171;1673296027.1864305;47.1306425;7.2406197;40.78700256347656;1673296027.3718195;-10.67933464050293;16.546518325805664;81.57234191894531
172;1673296027.3923926;47.1306424;7.2406197;41.1870002746582;1673296027.565709;-10.986078262329102;13.519936561584473;82.15975952148438
173;1673296027.5867813;47.1306424;7.2406197;41.592002868652344;1673296027.7612689;-11.309992790222168;14.116132736206055;82.03299713134766
174;1673296027.783303;47.1306425;7.2406196;41.99800109863281;1673296027.9773793;-10.660202980041504;17.453231811523438;81.52332305908203
175;1673296027.999384;47.1306425;7.2406196;42.39900207519531;1673296028.1803575;-10.85805606842041;14.38408088684082;82.11361694335938
176;1673296028.2018185;47.130642599999995;7.2406196;42.79600143432617;1673296028.3614063;-11.274287223815918;13.517745971679688;82.31538391113281
177;1673296028.382454;47.130642599999995;7.2406196;43.194000244140625;1673296028.5482795;-11.080050468444824;17.212230682373047;81.56488037109375
178;1673296028.5668125;47.130642599999995;7.2406196;43.59300231933594;1673296028.7476864;-10.681441307067871;16.213279724121094;81.64822387695312
179;1673296028.770133;47.1306425;7.240619499999999;43.99500274658203;1673296028.9550712;-11.399592399597168;13.045833587646484;82.24039459228516
180;1673296028.976562;47.1306425;7.240619499999999;44.39800262451172;1673296029.1579776;-11.053668975830078;16.208051681518555;81.73588562011719
181;1673296029.1840916;47.130642599999995;7.240619499999999;44.801002502441406;1673296029.3544726;-10.771346092224121;16.86239242553711;81.62529754638672
182;1673296029.3730276;47.1306425;7.240619499999999;45.202003479003906;1673296029.545247;-11.187681198120117;12.662863731384277;82.29048156738281
183;1673296029.5658603;47.1306425;7.240619499999999;45.60000228881836;1673296029.7451901;-11.396003723144531;15.090614318847656;82.04095458984375
184;1673296029.769599;47.1306425;7.240619499999999;45.999000549316406;1673296029.943799;-10.72724437713623;16.967397689819336;81.49197387695312
185;1673296029.9632928;47.1306424;7.240619499999999;46.39900207519531;1673296030.1376574;-10.90955638885498;13.853697776794434;81.97992706298828
186;1673296030.159286;47.1306425;7.2406194;46.80000305175781;1673296030.3463643;-11.432113647460938;14.024328231811523;82.06631469726562
187;1673296030.3707652;47.130642599999995;7.2406194;47.20100402832031;1673296030.555388;-10.697303771972656;17.825048446655273;81.60833740234375
188;1673296030.5749202;47.130642699999996;7.2406194;47.60000228881836;1673296030.7636728;-10.779764175415039;15.091609954833984;81.93867492675781
189;1673296030.7873666;47.130642699999996;7.240619499999999;47.99500274658203;1673296030.9713714;-11.466835021972656;14.628462791442871;82.26738739013672
190;1673296030.9920676;47.1306428;7.2406194;48.36300277709961;1673296031.1672754;-10.903508186340332;17.7962589263916;81.93810272216797
191;1673296031.1873488;47.1306428;7.2406194;48.682003021240234;1673296031.3590744;-10.817445755004883;15.671296119689941;82.03779602050781
192;1673296031.3825262;47.130642699999996;7.240619199999999;48.95000076293945;1673296031.5567336;-11.691365242004395;13.283915519714355;82.28438568115234
193;1673296031.576257;47.1306429;7.240619;49.172000885009766;1673296031.7527547;-11.300066947937012;16.886415481567383;81.60183715820312
194;1673296031.7722876;47.130643;7.2406187;49.35600280761719;1673296031.9517593;-1.6159790754318237;20.29418182373047;78.01709747314453
195;1673296031.9777558;47.130643199999994;7.2406182999999995;49.47900390625;1673296032.1569018;6.543456077575684;28.675952911376953;66.98870849609375
196;1673296032.1786945;47.1306431;7.2406172;49.5410041809082;1673296032.3444712;-4.062414169311523;18.889244079589844;53.94826126098633
197;1673296032.3629377;47.1306425;7.240615699999999;49.59400177001953;1673296032.5416422;4.678857326507568;19.104381561279297;45.925174713134766
198;1673296032.5706983;47.1306418;7.240614399999999;49.64600372314453;1673296032.7486098;7.3464579582214355;18.469491958618164;36.23038101196289
199;1673296032.7675855;47.130641;7.240613;49.69000244140625;1673296032.9507205;8.979096412658691;18.550573348999023;27.10662269592285
200;1673296032.9758122;47.1306401;7.2406117;49.730003356933594;1673296033.173792;10.983509063720703;19.114137649536133;18.32888412475586
201;1673296033.1915817;47.130639099999996;7.240610599999999;49.76100158691406;1673296033.3576455;11.833775520324707;19.01325225830078;9.486989974975586
202;1673296033.377861;47.1306383;7.2406095;49.78600311279297;1673296033.5696285;13.184839248657227;17.116477966308594;0.5788755416870117
203;1673296033.5906737;47.1306377;7.2406085;49.81100082397461;1673296033.7539043;15.406612396240234;13.444510459899902;-8.26954460144043
204;1673296033.7738895;47.1306371;7.2406077;49.832000732421875;1673296033.9457517;18.28355598449707;10.037528038024902;-16.758581161499023
205;1673296033.9676208;47.1306367;7.2406071999999995;49.85100173950195;1673296034.1844409;19.205974578857422;9.037797927856445;-25.197420120239258
206;1673296034.2094214;47.1306364;7.2406071;49.868003845214844;1673296034.4033065;17.346742630004883;6.908202648162842;-33.64251708984375
207;1673296034.4433036;47.1306364;7.2406071999999995;49.884002685546875;1673296034.6284392;17.15676498413086;2.277430295944214;-42.420143127441406
208;1673296034.646015;47.130636599999995;7.2406073;49.89900207519531;1673296034.8118596;19.132949829101562;-3.8364038467407227;-50.63780212402344
209;1673296034.8333414;47.1306368;7.2406074;49.910003662109375;1673296034.9986935;19.36087417602539;-7.178506851196289;-51.764347076416016
210;1673296035.020317;47.130637;7.240607499999999;49.92100143432617;1673296035.2024176;20.775819778442383;-4.219014644622803;-48.515296936035156
211;1673296035.2248657;47.130637199999995;7.2406074;49.93100357055664;1673296035.4006371;20.763381958007812;-0.6630679368972778;-45.74175262451172
212;1673296035.422109;47.1306374;7.2406071;49.94000244140625;1673296035.5948186;20.315868377685547;0.11006060242652893;-45.06280517578125
213;1673296035.6172683;47.1306374;7.240606799999999;49.94700241088867;1673296035.767405;21.114110946655273;-0.7631848454475403;-45.47005844116211
214;1673296035.784984;47.1306373;7.2406064;49.94700241088867;1673296035.959381;22.314542770385742;-1.8395028114318848;-45.88227081298828
215;1673296035.9818435;47.130637;7.2406061;49.94400405883789;1673296036.1746933;22.757970809936523;-2.0849380493164062;-45.854026794433594
216;1673296036.1987119;47.1306368;7.240605899999999;49.945003509521484;1673296036.377151;21.455419540405273;0.2076365053653717;-45.325042724609375
217;1673296036.3962398;47.130636599999995;7.2406057;49.95100402832031;1673296036.5725698;19.7601261138916;2.659351110458374;-45.032772064208984
218;1673296036.5906737;47.1306364;7.2406057;49.958003997802734;1673296036.7649386;19.344995498657227;0.9287325739860535;-45.368709564208984
219;1673296036.7864473;47.1306362;7.2406057;49.96600341796875;1673296036.957521;9.624872207641602;-2.259949207305908;-46.76487350463867
220;1673296036.9770627;47.130635899999994;7.240605599999999;49.97500228881836;1673296037.1567442;-24.951595306396484;-0.9441469311714172;-47.91333770751953
221;1673296037.1801715;47.1306363;7.2406045;49.97300338745117;1673296037.3571904;-40.78815841674805;1.7192494869232178;-47.32132339477539
222;1673296037.378651;47.130638399999995;7.240600799999999;49.923004150390625;1673296037.5762353;-40.07734680175781;1.406445860862732;-46.60525894165039
223;1673296037.6080122;47.130642699999996;7.2405935999999995;49.86600112915039;1673296037.838662;-43.47135543823242;0.201645627617836;-45.69112014770508
224;1673296037.8540425;47.1306489;7.2405829;49.82600402832031;1673296038.0137224;-46.66899871826172;1.153591513633728;-45.5098876953125
225;1673296038.0277824;47.130657;7.240568799999999;49.810001373291016;1673296038.1936748;-49.9576416015625;2.261434555053711;-46.11799621582031
226;1673296038.2152698;47.1306671;7.240551399999999;49.816001892089844;1673296038.3907363;-52.84266662597656;1.887097954750061;-45.80564498901367
227;1673296038.4108095;47.130679199999996;7.240530799999999;49.8280029296875;1673296038.5965889;-54.777225494384766;1.0545690059661865;-45.735530853271484
228;1673296038.6216633;47.1306934;7.2405073;49.8390007019043;1673296038.7886097;-54.94139862060547;3.8327929973602295;-46.52687072753906
229;1673296038.8056538;47.130709599999996;7.2404809;49.862003326416016;1673296038.9905999;-50.56802749633789;5.018499851226807;-46.9582633972168
230;1673296039.0121298;47.1307276;7.2404521;49.88800048828125;1673296039.190699;-29.706430435180664;5.752520561218262;-46.102848052978516
231;1673296039.2146652;47.1307465;7.240422499999999;49.893001556396484;1673296039.3818338;14.994564056396484;4.353742599487305;-45.586761474609375
232;1673296039.39973;47.1307651;7.2403939;49.88100051879883;1673296039.5630412;31.197023391723633;2.395566701889038;-47.04530715942383
233;1673296039.5835743;47.130781899999995;7.2403683999999995;49.78300094604492;1673296039.7663913;23.414648056030273;-0.2605533301830292;-46.25536346435547
234;1673296039.7866507;47.1307962;7.240346799999999;49.68000411987305;1673296040.059696;45.196754455566406;-0.01243814080953598;-47.530757904052734
235;1673296040.0757642;47.130807499999996;7.240329699999999;49.67400360107422;1673296040.221639;55.755741119384766;-2.0427446365356445;-48.986026763916016
236;1673296040.241743;47.1308156;7.240317699999999;49.72100067138672;1673296040.3956738;58.17737579345703;-0.48763149976730347;-48.069400787353516
237;1673296040.4128442;47.130820299999996;7.2403112;49.79300308227539;1673296040.5647273;57.01602554321289;-1.3926582336425781;-47.103363037109375
238;1673296040.5876968;47.130822099999996;7.2403097;49.86900329589844;1673296040.761774;55.52251052856445;-1.6052364110946655;-46.80078125
239;1673296040.7816978;47.1308213;7.240311999999999;49.93700408935547;1673296040.964587;50.44744110107422;-2.3320984840393066;-46.54288101196289
240;1673296040.9853015;47.1308186;7.2403167999999996;49.9900016784668;1673296041.1785607;43.038639068603516;-0.453218936920166;-46.225521087646484
241;1673296041.1963782;47.1308144;7.240323399999999;50.0260009765625;1673296041.3646584;31.098819732666016;-1.8965778350830078;-46.7518196105957
242;1673296041.3865445;47.1308095;7.2403306999999995;50.040000915527344;1673296041.5763044;19.870176315307617;-0.9296126961708069;-46.617610931396484
243;1673296041.598641;47.1308046;7.2403379;50.03700256347656;1673296041.7608466;10.505760192871094;-1.0673184394836426;-46.980106353759766
244;1673296041.780038;47.130800099999995;7.240344299999999;50.02300262451172;1673296041.972665;3.626227378845215;-1.9785184860229492;-46.680171966552734
245;1673296041.9936678;47.1307964;7.2403492;50.009002685546875;1673296042.1686757;1.3258136510849;2.9922070503234863;-46.53550720214844
246;1673296042.190507;47.1307938;7.2403526;49.996002197265625;1673296042.3714375;-0.4336508512496948;-0.3934918940067291;-47.265586853027344
247;1673296042.390613;47.1307924;7.240354399999999;49.98400115966797;1673296042.5728776;2.678788423538208;1.7010786533355713;-46.09452438354492
248;1673296042.6021554;47.1307919;7.240354699999999;49.97700119018555;1673296042.7701287;8.304207801818848;-0.053020086139440536;-46.04111099243164
249;1673296042.7915986;47.1307919;7.240354;49.98100280761719;1673296042.9587185;15.088109016418457;-1.134294867515564;-45.984649658203125
250;1673296042.979293;47.130792299999996;7.2403528999999995;49.9890022277832;1673296043.1569855;20.699420928955078;0.5500319004058838;-45.64851760864258
251;1673296043.1774902;47.130792899999996;7.2403518;49.999000549316406;1673296043.3672154;22.626510620117188;2.4564273357391357;-45.80339050292969
252;1673296043.389655;47.130793499999996;7.2403508;50.009002685546875;1673296043.580217;23.01297950744629;2.5887110233306885;-46.01139450073242
253;1673296043.60379;47.130793999999995;7.240349999999999;50.01700210571289;1673296043.7827244;23.5440731048584;2.0825936794281006;-46.24736404418945
254;1673296043.8032207;47.1307943;7.2403495;50.018001556396484;1673296043.9878588;26.74776268005371;21.263151168823242;-43.94197082519531
255;1673296044.0103052;47.1307945;7.2403490999999995;49.829002380371094;1673296044.18039;21.467260360717773;38.86594772338867;-45.804325103759766
256;1673296044.19794;47.1307948;7.2403485;49.27800369262695;1673296044.3498435;9.660690307617188;51.8046989440918;-56.10457229614258
257;1673296044.37033;47.130795199999994;7.2403476;48.355003356933594;1673296044.54145;-5.168237686157227;59.87109375;-75.12094116210938
258;1673296044.5630295;47.1307956;7.240346499999999;47.05800247192383;1673296044.749594;-20.02984619140625;63.001983642578125;-101.1251449584961
259;1673296044.7739933;47.130795899999995;7.2403452999999995;45.38600158691406;1673296044.9557335;-33.235618591308594;60.48818588256836;-128.31178283691406
260;1673296044.9752526;47.1307961;7.2403439999999994;43.33700180053711;1673296045.1659873;-42.90247344970703;45.806522369384766;-147.08575439453125
261;1673296045.187459;47.1307962;7.2403429;40.91800308227539;1673296045.3637958;-43.6044921875;14.000731468200684;-147.9075927734375
262;1673296045.3852746;47.130796499999995;7.2403422;38.1410026550293;1673296045.5755584;-25.866348266601562;-15.41781234741211;-145.94935607910156
263;1673296045.5905828;47.130797099999995;7.2403416;34.992000579833984;1673296045.7639408;5.006843090057373;-24.45920181274414;-155.64219665527344
264;1673296045.78639;47.1307979;7.2403409;31.463001251220703;1673296045.980891;34.84141159057617;-16.760761260986328;-166.41685485839844
265;1673296046.0014758;47.130798899999995;7.2403397;27.553001403808594;1673296046.2239552;49.00554275512695;9.825791358947754;-167.36520385742188
266;1673296046.2582493;47.1307997;7.2403381;23.270000457763672;1673296046.4487016;38.00788116455078;32.91204833984375;-174.24020385742188
267;1673296046.4869096;47.130800099999995;7.2403363999999995;18.630001068115234;1673296046.628669;11.632499694824219;35.64745330810547;166.00057983398438
268;1673296046.6433108;47.1308003;7.240335099999999;13.635000228881836;1673296046.8132584;-18.86903953552246;22.368831634521484;150.36859130859375
269;1673296046.8298507;47.130800799999996;7.2403341999999995;8.268000602722168;1673296047.020822;-30.29034423828125;-6.685122966766357;149.3253936767578
270;1673296047.0513237;47.1308017;7.2403334;2.5300002098083496;1673296047.2120073;5.653571128845215;4.95493745803833;140.58995056152344
271;1673296047.230551;47.1308003;7.2403363;0.2720000147819519;1673296047.3958046;7.191066265106201;3.8257932662963867;130.79502868652344
272;1673296047.4174528;47.1307954;7.240346;0.39400002360343933;1673296047.5926106;-0.6125617623329163;2.402233123779297;129.18157958984375
273;1673296047.6121762;47.1307896;7.2403569;0.44200003147125244;1673296047.7857623;-0.6017155051231384;2.094635009765625;128.94129943847656
274;1673296047.805281;47.130784;7.2403673;0.4960000216960907;1673296047.9851618;-0.5607443451881409;2.3078575134277344;128.764404296875
275;1673296048.0056686;47.1307792;7.2403759999999995;0.5220000147819519;1673296048.173005;-0.37238621711730957;2.548509359359741;128.5668182373047
276;1673296048.1905715;47.130775;7.2403831;0.534000039100647;1673296048.3637707;-0.22636841237545013;2.7540054321289062;128.3760528564453
277;1673296048.3862262;47.1307718;7.240388299999999;0.5400000214576721;1673296048.5662029;-0.007008734159171581;2.930485725402832;128.17034912109375
278;1673296048.592643;47.1307693;7.240392099999999;0.5460000038146973;1673296048.7755208;0.17607048153877258;3.0922963619232178;127.95399475097656
279;1673296048.7951071;47.130767;7.240395299999999;0.5560000538825989;1673296048.9731936;0.3257240653038025;3.2306442260742188;127.79186248779297
280;1673296048.9966352;47.130764799999994;7.2403979;0.5740000009536743;1673296049.187312;0.6615458726882935;3.309098720550537;127.5348129272461
281;1673296049.2059176;47.1307644;7.2403976;0.5890000462532043;1673296049.391574;0.968481719493866;3.3804941177368164;127.30731201171875
282;1673296049.4110851;47.1307652;7.2403952;0.6040000319480896;1673296049.585271;1.2190698385238647;3.4483306407928467;127.05281066894531
283;1673296049.6059139;47.130766699999995;7.240391499999999;0.6170000433921814;1673296049.7852664;1.4886313676834106;3.446141481399536;126.85392761230469
284;1673296049.806738;47.130768599999996;7.240386999999999;0.6290000081062317;1673296049.9668941;1.7037279605865479;3.443906545639038;126.62037658691406
285;1673296049.984461;47.1307708;7.2403819;0.6370000243186951;1673296050.1578693;1.8629180192947388;3.4533112049102783;126.39916229248047
286;1673296050.1783235;47.1307723;7.240377499999999;0.6470000147819519;1673296050.3544097;2.0872466564178467;3.2887332439422607;126.27957916259766
287;1673296050.378449;47.1307757;7.2403727;0.6730000376701355;1673296050.5785837;2.621497631072998;3.0819168090820312;126.02940368652344
288;1673296050.600055;47.1307829;7.240364899999999;0.7070000171661377;1673296050.7771955;2.8137331008911133;2.9453747272491455;125.8831787109375
289;1673296050.797691;47.130789;7.240358199999999;0.7300000190734863;1673296050.9798312;2.8775806427001953;2.794461727142334;125.7776107788086
290;1673296050.999505;47.1307936;7.240353;0.7380000352859497;1673296051.1759696;2.891782283782959;2.6471059322357178;125.70152282714844
291;1673296051.1970766;47.1307968;7.2403492;0.7350000143051147;1673296051.3707485;2.8794026374816895;2.5029613971710205;125.62771606445312
292;1673296051.4069283;47.1307988;7.240346499999999;0.7280000448226929;1673296051.6211967;2.8757340908050537;2.3868000507354736;125.54669952392578
293;1673296051.6407413;47.1307999;7.240344599999999;0.7200000286102295;1673296051.8067932;2.808537483215332;2.1845226287841797;125.49850463867188
294;1673296051.8282654;47.130800799999996;7.2403431;0.703000009059906;1673296052.0249844;2.783179521560669;2.496391773223877;125.36865997314453
295;1673296052.0450344;47.1308016;7.2403417999999995;0.6820000410079956;1673296052.208632;2.717726230621338;2.6009812355041504;125.25827026367188
296;1673296052.229129;47.1308022;7.240340799999999;0.6580000519752502;1673296052.4032054;2.6074881553649902;2.6680727005004883;125.14165496826172
297;1673296052.4236999;47.130802599999996;7.2403398;0.6330000162124634;1673296052.5947893;2.5854172706604004;2.648740530014038;125.07691955566406
298;1673296052.614329;47.1308029;7.240338899999999;0.6100000143051147;1673296052.7833598;2.480926990509033;2.5806572437286377;125.00816345214844
299;1673296052.8038414;47.1308031;7.2403381;0.5879999995231628;1673296052.9729266;2.3974008560180664;2.512467384338379;124.93891906738281
300;1673296052.9914565;47.1308031;7.2403372;0.5680000185966492;1673296053.1649907;2.3474109172821045;2.4330525398254395;124.9034194946289
301;1673296053.1870654;47.130803199999995;7.2403365;0.5460000038146973;1673296053.3770156;2.2714128494262695;2.3198423385620117;124.87281799316406
302;1673296053.3945858;47.1308033;7.240336;0.5230000019073486;1673296053.570251;2.2036750316619873;2.2515361309051514;124.82135772705078
303;1673296053.5947967;47.1308035;7.2403356;0.49900001287460327;1673296053.781156;2.0955042839050293;2.1785805225372314;124.78375244140625
304;1673296053.8017378;47.1308035;7.2403352;0.47300001978874207;1673296053.9834642;1.9439573287963867;2.2373061180114746;124.748779296875
305;1673296054.0049362;47.1308036;7.2403347;0.45600003004074097;1673296054.1683342;1.9178773164749146;2.1892664432525635;124.6934814453125
306;1673296054.1898606;47.1308037;7.2403341999999995;-0.004000000189989805;1673296054.3726094;1.8029009103775024;2.1551129817962646;124.64151763916016
307;1673296054.3940809;47.1308037;7.2403338999999995;-0.01900000125169754;1673296054.5870001;1.7223118543624878;2.106689691543579;124.60310363769531
308;1673296054.621792;47.130803799999995;7.2403336;-0.039000000804662704;1673296054.788974;1.648583173751831;2.034712791442871;124.53917694091797
309;1673296054.8065424;47.130803799999995;7.2403334;-0.06300000101327896;;;;
