;pos_time;latitude;longitude;altitude;alt_time;pitch;roll;yaw
0;1673298085.5411515;47.1306425;7.2406198999999996;0.006000000052154064;1673298085.5763009;0.3091100752353668;-0.8319680690765381;90.37704467773438
1;1673298085.7405949;47.1306425;7.2406198999999996;0.006000000052154064;1673298085.775731;0.10017988830804825;-0.3030546009540558;90.28409576416016
2;1673298085.9333386;47.1306425;7.240619799999999;0.005000000353902578;1673298085.9675;-0.0195362139493227;-0.1430336982011795;90.3348388671875
3;1673298086.140301;47.1306425;7.240619799999999;0.006000000052154064;1673298086.179385;-0.10658523440361023;0.43378373980522156;90.38780975341797
4;1673298086.3201075;47.1306425;7.240619799999999;0.007000000216066837;1673298086.354276;-0.006864006165415049;0.24169373512268066;90.3083724975586
5;1673298086.5284936;47.1306425;7.240619799999999;0.007000000216066837;1673298086.5626545;0.30239373445510864;0.2452557533979416;90.32183837890625
6;1673298086.7421315;47.1306425;7.2406197;0.0;1673298086.7753477;0.026775509119033813;0.24961549043655396;90.25789642333984
7;1673298086.937686;47.1306425;7.2406196;-0.004000000189989805;1673298086.9839098;-0.05566835030913353;0.228251650929451;90.18739318847656
8;1673298087.1642158;47.1306425;7.2406196;-0.007000000216066837;1673298087.2013464;0.1009996309876442;0.13525955379009247;90.30891418457031
9;1673298087.367994;47.1306425;7.2406196;-0.003000000026077032;1673298087.4252;0.37097424268722534;0.22148825228214264;90.4166259765625
10;1673298087.5673842;47.1306425;7.2406196;-0.01100000087171793;1673298087.5976405;0.36417675018310547;0.26115331053733826;90.2011947631836
11;1673298087.7561295;47.1306424;7.2406196;-0.015000000596046448;1673298087.7912798;0.32249608635902405;0.19863642752170563;90.3909912109375
12;1673298087.9852805;47.1306424;7.240619499999999;-0.01900000125169754;1673298088.0165138;0.5423137545585632;0.3259543478488922;90.26495361328125
13;1673298088.1676042;47.1306424;7.2406194;-0.0020000000949949026;1673298088.2005088;0.022181332111358643;0.1832682192325592;90.20417022705078
14;1673298088.3825278;47.1306423;7.2406194;-0.0010000000474974513;1673298088.4175906;0.3070358633995056;0.05427372083067894;90.27652740478516
15;1673298088.5679266;47.1306424;7.240619499999999;-0.0010000000474974513;1673298088.597667;0.23048807680606842;0.12131238728761673;90.22509002685547
16;1673298088.7536056;47.1306424;7.2406196;0.0;1673298088.7868083;0.225865438580513;0.09363196045160294;90.21541595458984
17;1673298088.946406;47.1306424;7.2406197;0.0010000000474974513;1673298088.9740062;0.4228551387786865;0.2180691510438919;90.24446868896484
18;1673298089.1404796;47.1306424;7.240619799999999;0.0020000000949949026;1673298089.1741142;0.27601778507232666;-0.26052141189575195;90.26310729980469
19;1673298089.3676522;47.1306423;7.2406198999999996;0.0010000000474974513;1673298089.3964722;0.21103855967521667;-0.2864643633365631;90.24868774414062
20;1673298089.537483;47.1306424;7.2406198999999996;0.0010000000474974513;1673298089.5707717;0.20232722163200378;-0.3160220682621002;90.2297592163086
21;1673298089.7323682;47.1306424;7.2406198999999996;0.0020000000949949026;1673298089.7926185;1.9912843704223633;-0.2711648643016815;90.34942626953125
22;1673298089.9745493;47.1306424;7.2406198999999996;0.010000000707805157;1673298090.0064769;5.051100254058838;-0.11199309676885605;90.5347900390625
23;1673298090.1820285;47.1306424;7.2406197;0.018000001087784767;1673298090.213609;8.450858116149902;-0.18673838675022125;90.51156616210938
24;1673298090.3484845;47.1306424;7.2406196;0.024000000208616257;1673298090.378636;11.217811584472656;-0.11327822506427765;90.52632904052734
25;1673298090.52939;47.1306424;7.2406185999999995;0.007000000216066837;1673298090.5645168;-3.3791658878326416;0.16362451016902924;90.12487030029297
26;1673298090.7416673;47.1306424;7.240615999999999;0.01600000075995922;1673298090.7769282;-4.524994850158691;0.10037625581026077;89.26104736328125
27;1673298090.9504812;47.1306423;7.2406127;0.02500000037252903;1673298090.985707;-10.393511772155762;-0.06847085803747177;89.45604705810547
28;1673298091.1468322;47.1306423;7.2406086;0.036000002175569534;1673298091.1867783;-15.95265007019043;0.6778095960617065;88.97908782958984
29;1673298091.3465223;47.1306423;7.2406038;0.05000000074505806;1673298091.3781831;-16.872913360595703;-0.3388077914714813;89.68932342529297
30;1673298091.53564;47.1306422;7.2405985;0.07600000500679016;1673298091.5704951;-17.44671630859375;-1.0416259765625;90.11520385742188
31;1673298091.7327232;47.130642099999996;7.240592899999999;0.11800000816583633;1673298091.7679834;-18.66474151611328;0.1037713959813118;89.95124816894531
32;1673298091.9575298;47.130642099999996;7.2405868;0.17900000512599945;1673298092.0025249;-20.302946090698242;0.3286168873310089;89.91128540039062
33;1673298092.1984742;47.130641999999995;7.2405807;0.25600001215934753;1673298092.248309;-22.068485260009766;-1.1483525037765503;90.35749816894531
34;1673298092.4335008;47.1306419;7.2405745999999995;0.34200000762939453;1673298092.4916925;-24.046016693115234;-1.075538992881775;90.37834930419922
35;1673298092.678175;47.1306418;7.2405687;0.42000001668930054;1673298092.703552;-26.103849411010742;0.16593216359615326;90.0451431274414
36;1673298092.8136842;47.1306416;7.2405631999999995;0.48900002241134644;1673298092.842963;-28.192867279052734;-0.8299113512039185;90.238525390625
37;1673298092.9896052;47.130641499999996;7.2405586;0.5440000295639038;1673298093.0199308;-30.37725067138672;-1.2599154710769653;90.35646057128906
38;1673298093.2127507;47.130641399999995;7.2405544;0.5910000205039978;1673298093.2539735;-32.44829177856445;-0.5789149403572083;90.11578369140625
39;1673298093.4125466;47.1306413;7.240551;0.6350000500679016;1673298093.4418275;-34.63309097290039;-0.9393911957740784;90.20915222167969
40;1673298093.6020114;47.1306413;7.2405485999999994;0.6780000329017639;1673298093.630315;-36.868019104003906;-1.324074625968933;90.34854888916016
41;1673298093.8053312;47.1306413;7.240547299999999;0.7150000333786011;1673298093.8730817;-39.00152587890625;-0.9024325013160706;90.17420196533203
42;1673298094.0201046;47.130641399999995;7.2405472;0.7490000128746033;1673298094.0707061;-41.16061019897461;-0.8159613013267517;90.06478118896484
43;1673298094.2104902;47.130641499999996;7.2405484;0.781000018119812;1673298094.2407444;-43.390777587890625;-1.1142115592956543;90.19562530517578
44;1673298094.3951685;47.130641499999996;7.2405513;0.8070000410079956;1673298094.4285316;-45.6076774597168;-0.8537300229072571;90.01844787597656
45;1673298094.5847013;47.1306417;7.240555499999999;0.8360000252723694;1673298094.6208594;-47.75069808959961;-0.5352548360824585;89.74163818359375
46;1673298094.7775686;47.1306418;7.2405614;0.862000048160553;1673298094.8064995;-46.77772903442383;-0.5620808005332947;89.70161437988281
47;1673298094.9731753;47.130641999999995;7.2405687;0.8840000629425049;1673298095.007961;-41.842681884765625;-0.05014370009303093;89.42438507080078
48;1673298095.1569655;47.1306422;7.2405766;0.8990000486373901;1673298095.185913;-36.764644622802734;-0.20743173360824585;89.55789184570312
49;1673298095.353151;47.1306423;7.240584699999999;0.9160000681877136;1673298095.384163;-29.78232765197754;0.19306375086307526;89.38277435302734
50;1673298095.5478768;47.1306424;7.2405924;0.9960000514984131;1673298095.5924864;-29.811630249023438;-0.23644964396953583;89.40995788574219
51;1673298095.7495852;47.1306425;7.2405994;1.0940001010894775;1673298095.7798524;-22.369657516479492;-0.00585894612595439;89.34507751464844
52;1673298095.933973;47.1306425;7.2406052999999995;1.2130000591278076;1673298095.968179;-19.75687026977539;0.009079904295504093;89.37598419189453
53;1673298096.1257007;47.1306425;7.2406099;1.349000096321106;1673298096.1579068;-18.330678939819336;-0.15657258033752441;89.47575378417969
54;1673298096.3221788;47.1306425;7.2406131;1.4880000352859497;1673298096.358288;-18.726472854614258;-0.43372786045074463;89.60696411132812
55;1673298096.5248637;47.1306424;7.240615;1.6320000886917114;1673298096.5628862;-20.229907989501953;0.08940984308719635;79.85718536376953
56;1673298096.741322;47.1306423;7.240615999999999;1.78600013256073;1673298096.7774405;-22.881282806396484;-0.4156327545642853;80.3396224975586
57;1673298096.9333515;47.130642099999996;7.2406162;1.946000099182129;1673298096.968707;-25.474273681640625;-1.7862544059753418;80.72736358642578
58;1673298097.1380982;47.130641999999995;7.2406160999999996;2.120000123977661;1673298097.173249;-27.249462127685547;-1.8629647493362427;81.11485290527344
59;1673298097.3307123;47.130641999999995;7.2406159;2.308000087738037;1673298097.3717837;-27.74799919128418;0.9856829047203064;80.19855499267578
60;1673298097.5494213;47.130641999999995;7.2406158;2.50600004196167;1673298097.5851095;-28.44066619873047;-0.5626916289329529;80.81473541259766
61;1673298097.748608;47.130642099999996;7.2406158;2.7120001316070557;1673298097.7865477;-29.135147094726562;-1.452455997467041;81.12689208984375
62;1673298097.9570634;47.1306422;7.240615999999999;2.9200000762939453;1673298098.0071855;-28.576387405395508;1.6786189079284668;80.10294342041016
63;1673298098.1564174;47.1306422;7.2406162;3.125000238418579;1673298098.1837487;-28.820999145507812;0.6680113673210144;80.4387435913086
64;1673298098.348444;47.1306422;7.2406166;3.3380000591278076;1673298098.3816671;-28.115047454833984;-1.4807054996490479;81.1746597290039
65;1673298098.550009;47.130642099999996;7.2406171;3.5460002422332764;1673298098.5822272;-27.957124710083008;0.5415998101234436;80.36827087402344
66;1673298098.754789;47.130641999999995;7.240617599999999;3.754000186920166;1673298098.7983634;-27.362884521484375;0.1581733077764511;80.1932601928711
67;1673298098.9544013;47.1306418;7.2406181;3.9610002040863037;1673298098.9939888;-27.14212417602539;-2.6906304359436035;81.12419891357422
68;1673298099.1675916;47.1306418;7.2406185999999995;4.164999961853027;1673298099.2048326;-26.529388427734375;-0.5868794918060303;80.52826690673828
69;1673298099.3611488;47.1306417;7.240619;4.369000434875488;1673298099.393371;-26.68876838684082;0.48274749517440796;80.04456329345703
70;1673298099.5618958;47.1306418;7.240619199999999;4.570000171661377;1673298099.5917602;-26.538118362426758;-2.500958204269409;81.24492645263672
71;1673298099.8051248;47.1306418;7.2406194;4.769000053405762;1673298099.8653502;-26.76202392578125;-0.27751532196998596;80.60342407226562
72;1673298099.9967327;47.1306418;7.2406196;4.968000411987305;1673298100.0269878;-26.49925422668457;1.3582502603530884;79.81124877929688
73;1673298100.168109;47.1306419;7.2406197;5.170000076293945;1673298100.2106361;-26.608585357666016;-1.7131774425506592;80.97207641601562
74;1673298100.3860476;47.130641999999995;7.2406197;5.37000036239624;1673298100.41799;-26.791202545166016;-0.604316771030426;80.8633041381836
75;1673298100.5757773;47.130642099999996;7.2406197;5.571000099182129;1673298100.6087203;-26.77549934387207;1.9660670757293701;79.94744110107422
76;1673298100.813682;47.1306422;7.2406197;5.771000385284424;1673298100.8429499;-27.020484924316406;-1.0586323738098145;80.85659790039062
77;1673298100.9801524;47.1306422;7.2406196;5.9720001220703125;1673298101.0060706;-27.1881046295166;-0.7528082132339478;80.84732055664062
78;1673298101.1715567;47.1306422;7.2406196;6.170000076293945;1673298101.2172673;-27.098255157470703;2.006634473800659;79.86988067626953
79;1673298101.378671;47.1306422;7.2406197;6.374000072479248;1673298101.4114218;-27.192224502563477;-0.9067760705947876;80.76519775390625
80;1673298101.5694733;47.1306422;7.240619799999999;6.582000255584717;1673298101.6032016;-27.154338836669922;-1.4067572355270386;81.07633209228516
81;1673298101.7724905;47.1306422;7.240619799999999;6.788000106811523;1673298101.8062367;-27.188127517700195;1.7846723794937134;79.95101928710938
82;1673298101.9443963;47.1306422;7.2406198999999996;6.993000507354736;1673298101.982471;-27.284873962402344;-0.4027409851551056;80.61815643310547
83;1673298102.1536531;47.130642099999996;7.240619799999999;7.194000244140625;1673298102.1878407;-27.229799270629883;-1.849408745765686;81.08963012695312
84;1673298102.3606896;47.130642099999996;7.2406198999999996;7.395000457763672;1673298102.398347;-27.312828063964844;1.1714898347854614;80.06918334960938
85;1673298102.567928;47.130642099999996;7.2406198999999996;7.5960001945495605;1673298102.6036081;-27.170310974121094;0.32686448097229004;80.21205139160156
86;1673298102.7764723;47.130642099999996;7.24062;7.7920002937316895;1673298102.8145814;-27.274188995361328;-2.0198442935943604;81.08673858642578
87;1673298102.9703116;47.1306422;7.2406201;7.9860005378723145;1673298103.0284352;-26.938461303710938;0.2087402641773224;80.44312286376953
88;1673298103.1814775;47.1306422;7.2406201999999995;8.187000274658203;1673298103.2347507;-27.101032257080078;1.051084041595459;80.12936401367188
89;1673298103.3865294;47.1306422;7.2406201999999995;8.384000778198242;1673298103.4153838;-27.179967880249023;-1.8473585844039917;81.1709976196289
90;1673298103.575351;47.1306422;7.2406203;8.576000213623047;1673298103.613285;-27.0910701751709;-0.07948210835456848;80.44940948486328
91;1673298103.7758684;47.1306422;7.2406204;8.770000457763672;1673298103.8125875;-26.814449310302734;1.441364049911499;79.89029693603516
92;1673298103.9975383;47.1306422;7.2406204999999995;8.967000007629395;1673298104.0347836;-26.92620849609375;-1.6050169467926025;80.88388061523438
93;1673298104.1932447;47.1306423;7.2406206;9.166000366210938;1673298104.225027;-26.80088233947754;-0.6483758687973022;80.79610443115234
94;1673298104.3926396;47.1306423;7.2406207;9.36500072479248;1673298104.428391;-26.958934783935547;2.0448153018951416;79.90231323242188
95;1673298104.584297;47.1306423;7.2406207;9.565000534057617;1673298104.614221;-26.696792602539062;-0.964837372303009;80.82281494140625
96;1673298104.7684226;47.1306423;7.2406207;9.765000343322754;1673298104.80378;-27.330318450927734;-1.2121763229370117;80.9483413696289
97;1673298104.9813275;47.1306423;7.2406207;9.964000701904297;1673298105.0160499;-27.176013946533203;1.3026750087738037;80.0713119506836
98;1673298105.1934981;47.1306423;7.240620799999999;10.165000915527344;1673298105.2243254;-26.7281551361084;-0.056806061416864395;80.35630798339844
99;1673298105.380149;47.1306423;7.240621;10.432000160217285;1673298105.4120955;-30.19138526916504;-1.3346658945083618;80.8078842163086
100;1673298105.5750756;47.1306425;7.2406217999999996;10.784000396728516;1673298105.6107562;-31.67331314086914;0.9138376116752625;79.99571990966797
101;1673298105.7654254;47.130642599999995;7.2406232;11.170000076293945;1673298105.7993605;-27.73440933227539;0.26793745160102844;80.34397888183594
102;1673298105.964191;47.130642699999996;7.2406245;11.568000793457031;1673298105.9973779;-25.385377883911133;-1.5183064937591553;81.2219009399414
103;1673298106.162096;47.130642699999996;7.2406258;11.975000381469727;1673298106.1982412;-22.766176223754883;0.4197065234184265;80.24270629882812
104;1673298106.3739102;47.130642599999995;7.2406267;12.382000923156738;1673298106.4110487;-21.655282974243164;-0.3399430513381958;80.32459259033203
105;1673298106.5740695;47.130642599999995;7.240627099999999;12.790000915527344;1673298106.6127517;-21.49125099182129;-2.5574851036071777;81.19746398925781
106;1673298106.7785547;47.130642699999996;7.240627;13.202000617980957;1673298106.8111708;-21.920333862304688;0.7454395294189453;80.2534408569336
107;1673298106.972639;47.1306428;7.240626499999999;13.616000175476074;1673298107.0107627;-23.15472984313965;0.8975049257278442;80.07398223876953
108;1673298107.1688142;47.1306428;7.2406258;14.029000282287598;1673298107.2000484;-24.16209602355957;-2.029050827026367;81.14545440673828
109;1673298107.356603;47.1306428;7.2406248;14.439001083374023;1673298107.392714;-25.741668701171875;0.7863622307777405;80.45598602294922
110;1673298107.5498548;47.1306429;7.2406239;14.85300064086914;1673298107.5862198;-26.435319900512695;1.7218185663223267;80.04366302490234
111;1673298107.7427146;47.130643;7.2406232;15.272000312805176;1673298107.7778504;-27.001136779785156;-1.2855736017227173;81.13519287109375
112;1673298107.9460943;47.1306431;7.240622699999999;15.694001197814941;1673298107.9773276;-27.06003761291504;1.1883902549743652;80.52919006347656
113;1673298108.1509523;47.1306431;7.2406223999999995;16.11400032043457;1673298108.1831615;-27.183366775512695;2.157717227935791;80.06210327148438
114;1673298108.3661783;47.1306431;7.2406223;16.53499984741211;1673298108.3983924;-26.98867416381836;-0.8864383101463318;80.92839050292969
115;1673298108.5900376;47.130643;7.2406220999999995;16.944000244140625;1673298108.6550634;-27.017559051513672;0.21480971574783325;80.58052825927734
116;1673298108.831663;47.130643;7.2406220999999995;17.35500144958496;1673298108.8600242;-26.48714256286621;1.5775907039642334;80.04744720458984
117;1673298109.0045855;47.130643;7.2406220999999995;17.762001037597656;1673298109.042681;-26.368152618408203;-1.1602909564971924;80.96044158935547
118;1673298109.1877842;47.130643;7.2406222;18.168001174926758;1673298109.2175927;-26.08295440673828;-0.5644887089729309;80.93073272705078
119;1673298109.3576977;47.1306429;7.2406222;18.576000213623047;1673298109.3938296;-26.172239303588867;1.8196468353271484;80.04949188232422
120;1673298109.5520554;47.1306428;7.2406222;18.98400115966797;1673298109.5881546;-25.72457504272461;-0.9536918997764587;80.75820922851562
121;1673298109.7406075;47.1306428;7.2406222;19.391000747680664;1673298109.7728157;-26.098758697509766;-1.0028371810913086;80.87165069580078
122;1673298109.9572043;47.1306428;7.240622;19.791000366210938;1673298109.9953022;-26.194196701049805;1.659372091293335;80.0888900756836
123;1673298110.152779;47.1306428;7.2406217999999996;20.196001052856445;1673298110.189046;-26.417606353759766;-0.3820914328098297;80.6410903930664
124;1673298110.3455155;47.1306428;7.240621699999999;20.599000930786133;1673298110.3777652;-26.200809478759766;-1.1649092435836792;81.05965423583984
125;1673298110.5353446;47.1306428;7.240621699999999;21.00200080871582;1673298110.5733926;-26.474369049072266;1.8501007556915283;80.08596801757812
126;1673298110.7588072;47.130642699999996;7.240621699999999;21.40300178527832;1673298110.791998;-26.15439796447754;0.18665196001529694;80.4538803100586
127;1673298110.9654098;47.130642699999996;7.240621699999999;21.8070011138916;1673298111.0026896;-26.285127639770508;-1.415697693824768;81.0660629272461
128;1673298111.1668465;47.130642699999996;7.2406216;22.20400047302246;1673298111.1980834;-26.376405715942383;1.4566103219985962;80.20032501220703
129;1673298111.361183;47.130642699999996;7.2406215;22.60500144958496;1673298111.4023771;-26.357088088989258;0.6895350813865662;80.4199447631836
130;1673298111.6067076;47.1306428;7.2406215;23.007001876831055;1673298111.6376462;-26.35225486755371;-1.1467201709747314;81.10253143310547
131;1673298111.8242419;47.1306428;7.2406215;23.407001495361328;1673298111.8566093;-26.214797973632812;1.2940342426300049;80.34532928466797
132;1673298112.006624;47.130642699999996;7.2406215;23.808000564575195;1673298112.0374255;-26.123374938964844;1.3429045677185059;80.15620422363281
133;1673298112.1961021;47.130642699999996;7.2406215;24.21200180053711;1673298112.2259347;-26.250423431396484;-1.2895307540893555;81.05736541748047
134;1673298112.3894756;47.130642599999995;7.240621399999999;24.6200008392334;1673298112.4242454;-26.32465171813965;0.8077311515808105;80.51471710205078
135;1673298112.6008155;47.130642599999995;7.2406213;25.018001556396484;1673298112.6355603;-26.299415588378906;1.7607656717300415;80.12215423583984
136;1673298112.8496025;47.130642599999995;7.2406212;25.418001174926758;1673298112.875969;-26.506248474121094;-1.2777986526489258;81.03428649902344
137;1673298113.0110803;47.1306425;7.240621099999999;25.817001342773438;1673298113.0443063;-26.367721557617188;0.2944207787513733;80.61019134521484
138;1673298113.1797383;47.1306425;7.240621099999999;26.216001510620117;1673298113.2080715;-26.393232345581055;1.8314110040664673;79.87062072753906
139;1673298113.3721588;47.1306424;7.240621099999999;26.61600112915039;1673298113.4034011;-26.396909713745117;-1.0984002351760864;80.8576431274414
140;1673298113.5529106;47.1306423;7.240621099999999;27.018001556396484;1673298113.587069;-26.48908805847168;-0.4313517212867737;80.81787872314453
141;1673298113.7742069;47.1306424;7.2406209;27.41200065612793;1673298113.8093493;-26.613008499145508;1.8979288339614868;80.0177230834961
142;1673298113.9801977;47.1306424;7.2406209;27.808000564575195;1673298114.019631;-26.507659912109375;-0.5065627098083496;80.77391052246094
143;1673298114.1673138;47.1306424;7.2406209;28.205001831054688;1673298114.2073677;-26.596641540527344;-0.5024214386940002;80.86394500732422
144;1673298114.3538048;47.1306424;7.2406209;28.60700225830078;1673298114.3879669;-26.55832862854004;1.850982427597046;79.99906921386719
145;1673298114.5729842;47.1306423;7.240621;29.012001037597656;1673298114.6052058;-26.4893856048584;-0.08106882125139236;80.58111572265625
146;1673298114.7676275;47.1306423;7.240621;29.418001174926758;1673298114.798018;-26.34851837158203;-1.0960469245910645;80.97063446044922
147;1673298114.971148;47.1306424;7.240621;29.821001052856445;1673298115.0092044;-26.264690399169922;1.8373699188232422;80.04389190673828
148;1673298115.1961155;47.1306424;7.240621;30.216001510620117;1673298115.2278988;-26.519912719726562;0.8846549987792969;80.2596664428711
149;1673298115.3947344;47.1306424;7.2406209;30.61600112915039;1673298115.431573;-26.45428466796875;-1.0490026473999023;81.06575775146484
150;1673298115.5923312;47.1306424;7.2406209;31.016000747680664;1673298115.6270223;-26.576087951660156;0.9663752317428589;80.39337158203125
151;1673298115.788991;47.1306424;7.240621;31.41900062561035;1673298115.8277004;-26.228748321533203;0.943811297416687;80.23928833007812
152;1673298116.0200956;47.1306424;7.240621;31.82600212097168;1673298116.0630648;-26.53849983215332;-1.3028925657272339;80.9601058959961
153;1673298116.223221;47.1306424;7.240621;32.23200225830078;1673298116.249589;-26.21978187561035;0.7870920896530151;80.45042419433594
154;1673298116.3938498;47.1306425;7.240620799999999;32.630001068115234;1673298116.423674;-26.571149826049805;1.668735146522522;80.16277313232422
155;1673298116.5598996;47.130642599999995;7.240620799999999;33.03300094604492;1673298116.5931177;-26.515487670898438;-0.8404518365859985;81.0755844116211
156;1673298116.766539;47.130642599999995;7.2406207;33.44000244140625;1673298116.8030348;-26.69108009338379;0.5867847800254822;80.63349914550781
157;1673298116.9688869;47.130642599999995;7.2406207;33.84600067138672;1673298117.0030465;-26.383756637573242;2.1903340816497803;79.96566009521484
158;1673298117.1612513;47.130642599999995;7.2406207;34.25;1673298117.1954198;-26.412233352661133;-0.7805231213569641;80.88565826416016
159;1673298117.3647761;47.130642599999995;7.2406207;34.65299987792969;1673298117.3979578;-26.4769344329834;0.04344821348786354;80.7408218383789
160;1673298117.5656;47.130642699999996;7.2406206;35.05400085449219;1673298117.5999146;-26.477846145629883;2.3078134059906006;80.02204132080078
161;1673298117.782475;47.130642699999996;7.2406204999999995;35.44600296020508;1673298117.8179076;-26.707881927490234;-0.4409283399581909;80.83582305908203
162;1673298117.985806;47.130642699999996;7.2406204999999995;35.84300231933594;1673298118.0202122;-26.626569747924805;-0.2345789670944214;80.78645324707031
163;1673298118.1791394;47.130642599999995;7.2406204;36.24400329589844;1673298118.216292;-26.704242706298828;2.027434825897217;80.0320053100586
164;1673298118.3763146;47.130642599999995;7.2406204;36.645999908447266;1673298118.4135764;-26.75663185119629;0.07559911906719208;80.70683288574219
165;1673298118.5806234;47.130642599999995;7.2406204;37.04500198364258;1673298118.6177204;-26.71751594543457;-0.8356330394744873;81.16944122314453
166;1673298118.7814865;47.130642699999996;7.2406204;37.44600296020508;1673298118.815683;-26.447856903076172;2.010209083557129;80.13461303710938
167;1673298118.9733078;47.130642699999996;7.2406203;37.84100341796875;1673298119.0104127;-26.681245803833008;0.8537073731422424;80.43443298339844
168;1673298119.1710823;47.130642699999996;7.2406203;38.2400016784668;1673298119.2073507;-26.530942916870117;-0.777359664440155;81.0682144165039
169;1673298119.3710396;47.130642699999996;7.2406203;38.64200210571289;1673298119.4091215;-26.85012435913086;1.823727011680603;80.146240234375
170;1673298119.5782187;47.130642599999995;7.2406203;39.04900360107422;1673298119.6108384;-26.502273559570312;1.3158565759658813;80.19303131103516
171;1673298119.7830725;47.130642599999995;7.2406201999999995;39.45500183105469;1673298119.8164148;-26.8712100982666;-1.0935918092727661;81.08645629882812
172;1673298119.9772549;47.130642699999996;7.2406201999999995;39.862003326416016;1673298120.0095026;-26.50252342224121;1.2950762510299683;80.42153930664062
173;1673298120.1727622;47.130642699999996;7.2406201999999995;40.26700210571289;1673298120.208874;-26.79079818725586;1.7741889953613281;80.16166687011719
174;1673298120.3622632;47.130642599999995;7.2406201;40.66100311279297;1673298120.3955066;-26.55158042907715;-0.9121193289756775;81.10791778564453
175;1673298120.562699;47.130642599999995;7.2406201;41.06100082397461;1673298120.6027138;-26.95977020263672;0.522574245929718;80.74246215820312
176;1673298120.7654233;47.1306425;7.2406201;41.461002349853516;1673298120.8127236;-26.700429916381836;1.9461073875427246;80.07231903076172
177;1673298120.9919698;47.1306425;7.2406201;41.862003326416016;1673298121.0183337;-26.94058609008789;-0.6705902814865112;80.81490325927734
178;1673298121.1836414;47.130642599999995;7.2406201;42.262001037597656;1673298121.220741;-26.7291202545166;0.04809140786528587;80.81263732910156
179;1673298121.373978;47.130642599999995;7.2406201;42.66400146484375;1673298121.4120593;-26.804712295532227;2.2805793285369873;80.014892578125
180;1673298121.5706105;47.130642599999995;7.24062;43.057003021240234;1673298121.6039562;-26.59320068359375;-0.1441723257303238;80.6822738647461
181;1673298121.7542195;47.130642599999995;7.24062;43.46000289916992;1673298121.7855036;-26.95008659362793;-0.15408046543598175;80.8302001953125
182;1673298121.94574;47.130642599999995;7.2406201;43.8650016784668;1673298121.9799712;-26.66067123413086;2.3854563236236572;79.89452362060547
183;1673298122.1460283;47.1306425;7.2406201;44.27000045776367;1673298122.1791966;-26.622650146484375;0.3972223997116089;80.53106689453125
184;1673298122.3474083;47.1306425;7.2406201;44.67400360107422;1673298122.3913467;-26.71125602722168;-0.6429440379142761;81.03851318359375
185;1673298122.5831685;47.130642599999995;7.2406201;45.077003479003906;1673298122.6183379;-26.585819244384766;2.1099014282226562;80.16831970214844
186;1673298122.7928684;47.130642599999995;7.2406201;45.47600173950195;1673298122.83051;-26.73880958557129;0.6331968903541565;80.54959869384766
187;1673298122.9759223;47.130642599999995;7.2406201;45.868003845214844;1673298123.0141714;-26.679323196411133;-0.7702319622039795;81.09137725830078
188;1673298123.1679187;47.1306425;7.24062;46.2650032043457;1673298123.2001276;-26.860008239746094;1.6875585317611694;80.33602905273438
189;1673298123.3685727;47.1306425;7.24062;46.66600036621094;1673298123.4057007;-26.63983917236328;1.130002737045288;80.43234252929688
190;1673298123.5922973;47.130642599999995;7.24062;47.066001892089844;1673298123.6245143;-26.846546173095703;-0.82643723487854;81.13591766357422
191;1673298123.7735758;47.130642699999996;7.24062;47.46900177001953;1673298123.8058293;-26.683496475219727;1.7047643661499023;80.36223602294922
192;1673298123.958213;47.130642699999996;7.24062;47.87200164794922;1673298123.9923744;-26.849401473999023;1.9866031408309937;80.19366455078125
193;1673298124.161341;47.130642699999996;7.2406198999999996;48.250003814697266;1673298124.1995692;-27.334678649902344;-0.6999759078025818;81.06075286865234
194;1673298124.374613;47.130642699999996;7.240619799999999;48.583003997802734;1673298124.4146712;-26.985614776611328;1.8315225839614868;80.2159423828125
195;1673298124.584338;47.130642699999996;7.240619499999999;48.8650016784668;1673298124.6235647;-27.30733299255371;1.4859585762023926;80.3425064086914
196;1673298124.7840173;47.130642699999996;7.2406191;49.099002838134766;1673298124.8191626;-27.951662063598633;-0.11175647377967834;80.91215515136719
197;1673298124.980662;47.130642699999996;7.2406185999999995;49.29600143432617;1673298125.013846;-27.36382293701172;2.7663285732269287;80.26221466064453
198;1673298125.1672237;47.130642599999995;7.240617899999999;49.44600296020508;1673298125.2036662;-18.610380172729492;8.689497947692871;75.28217315673828
199;1673298125.3857207;47.1306423;7.2406165;49.51400375366211;1673298125.42121;-18.100692749023438;15.671162605285645;64.44501495361328
200;1673298125.5825024;47.130641499999996;7.2406147;49.56300354003906;1673298125.616283;-26.26127815246582;12.411510467529297;52.74979019165039
201;1673298125.779365;47.130640799999995;7.2406128999999995;49.612003326416016;1673298125.811334;-19.09649658203125;18.97610092163086;43.75415802001953
202;1673298125.98353;47.1306401;7.2406111;49.6660041809082;1673298126.0265782;-18.217519760131836;18.831993103027344;35.25069046020508
203;1673298126.1915798;47.1306394;7.2406093;49.71600341796875;1673298126.2216284;-15.431373596191406;21.81944465637207;25.456497192382812
204;1673298126.4209235;47.1306387;7.2406077;49.76100158691406;1673298126.4496074;-11.098982810974121;25.24770164489746;16.14676284790039
205;1673298126.604799;47.130638;7.2406063;49.803001403808594;1673298126.6386046;-6.765448093414307;28.710147857666016;6.967444896697998
206;1673298126.779436;47.1306374;7.2406051;49.829002380371094;1673298126.810162;-2.3507933616638184;31.030582427978516;-2.5104994773864746
207;1673298126.9668143;47.1306368;7.240603999999999;49.85300064086914;1673298126.9999003;1.936279296875;32.26890182495117;-11.558103561401367
208;1673298127.1470833;47.1306363;7.2406030999999995;49.874000549316406;1673298127.1825547;7.374795436859131;31.422502517700195;-20.807580947875977
209;1673298127.3357704;47.130635899999994;7.2406026;49.8900032043457;1673298127.369503;12.812296867370605;28.73564338684082;-29.63074493408203
210;1673298127.5313687;47.1306356;7.2406023;49.90300369262695;1673298127.5662918;17.9748477935791;25.43552017211914;-38.84419631958008
211;1673298127.72485;47.130635399999996;7.2406025;49.90900421142578;1673298127.758845;20.942752838134766;22.001741409301758;-47.64164352416992
212;1673298127.9200208;47.130635299999994;7.2406028;49.910003662109375;1673298127.9553118;22.593551635742188;19.604217529296875;-52.82795333862305
213;1673298128.1183486;47.1306351;7.2406032;49.90300369262695;1673298128.1535053;21.33356285095215;20.993497848510742;-49.749977111816406
214;1673298128.3142517;47.130635;7.240603699999999;49.90200424194336;1673298128.3480868;20.27950668334961;22.287832260131836;-47.17465591430664
215;1673298128.509754;47.130634799999996;7.2406042;49.90700149536133;1673298128.5444515;19.532257080078125;22.968950271606445;-45.98810958862305
216;1673298128.7061098;47.1306345;7.2406045;49.913002014160156;1673298128.7404015;18.659048080444336;22.742136001586914;-45.51981735229492
217;1673298128.9027057;47.1306344;7.2406048;49.91800308227539;1673298128.938603;18.257116317749023;22.011489868164062;-45.34992599487305
218;1673298129.1040392;47.1306343;7.240604899999999;49.92100143432617;1673298129.1377704;18.145593643188477;21.34738540649414;-45.278038024902344
219;1673298129.3009129;47.130634199999996;7.2406049999999995;49.915000915527344;1673298129.3361719;17.858606338500977;21.476682662963867;-45.115936279296875
220;1673298129.4981427;47.130634199999996;7.2406049999999995;49.915000915527344;1673298129.533046;17.804983139038086;21.879796981811523;-45.17706298828125
221;1673298129.6956;47.1306343;7.2406051;49.923004150390625;1673298129.7312856;17.709627151489258;22.596269607543945;-45.75879669189453
222;1673298129.9117734;47.1306344;7.2406049999999995;49.93300247192383;1673298129.949038;18.213172912597656;22.481367111206055;-46.08062744140625
223;1673298130.1232498;47.1306344;7.240604899999999;49.94400405883789;1673298130.1601014;16.904573440551758;22.75164794921875;-46.371376037597656
224;1673298130.3381107;47.1306345;7.2406045;49.948001861572266;1673298130.373933;-9.997891426086426;23.135820388793945;-49.1145133972168
225;1673298130.5420759;47.1306356;7.240602399999999;49.9630012512207;1673298130.577908;-38.31562805175781;15.971446990966797;-47.77656936645508
226;1673298130.7422667;47.1306386;7.2405969;49.96900177001953;1673298130.7747996;-53.68928527832031;9.199058532714844;-44.43560791015625
227;1673298130.9420564;47.130644;7.2405874;49.93300247192383;1673298130.9793065;-48.4864387512207;5.0500946044921875;-44.47792053222656
228;1673298131.146209;47.1306517;7.240574;49.884002685546875;1673298131.1793268;-48.18564987182617;6.610633850097656;-44.26633071899414
229;1673298131.3351872;47.130661499999995;7.240557;49.84800338745117;1673298131.36866;-52.15555953979492;9.721363067626953;-43.18254089355469
230;1673298131.5300002;47.1306733;7.2405367;49.83700180053711;1673298131.563931;-55.198944091796875;12.532228469848633;-43.839290618896484
231;1673298131.7282813;47.1306873;7.240513399999999;49.842002868652344;1673298131.7648234;-54.98768997192383;12.865209579467773;-43.299346923828125
232;1673298131.9340644;47.1307031;7.240487399999999;49.85400390625;1673298131.9692357;-53.79777145385742;14.415077209472656;-42.026817321777344
233;1673298132.143374;47.1307207;7.2404595;49.874000549316406;1673298132.1802485;-53.70952606201172;15.004620552062988;-41.578163146972656
234;1673298132.3492064;47.1307398;7.2404302;49.893001556396484;1673298132.3880882;-41.08449172973633;15.522500038146973;-38.64214324951172
235;1673298132.5537949;47.130759399999995;7.2404008;49.89900207519531;1673298132.5868027;-1.7620126008987427;16.823814392089844;-37.44013214111328
236;1673298132.745155;47.130777599999995;7.2403732;49.90200424194336;1673298132.780002;35.764896392822266;21.391597747802734;-38.44104766845703
237;1673298132.9369595;47.1307932;7.2403483;49.82100296020508;1673298132.9711936;20.641555786132812;8.611928939819336;-42.2909049987793
238;1673298133.1290405;47.130805699999996;7.2403262999999995;49.76100158691406;1673298133.1639805;32.746368408203125;10.069293975830078;-45.37316131591797
239;1673298133.3221388;47.1308152;7.240307199999999;49.707000732421875;1673298133.3551264;31.905900955200195;10.341144561767578;-45.817745208740234
240;1673298133.5181937;47.130822099999996;7.2402906;49.69300079345703;1673298133.5524685;41.652347564697266;13.162830352783203;-44.97971725463867
241;1673298133.7131333;47.1308267;7.2402771999999995;49.708003997802734;1673298133.752241;46.46590042114258;14.56627368927002;-45.71616744995117
242;1673298133.92611;47.130828799999996;7.2402674;49.7400016784668;1673298133.9650347;48.518577575683594;16.75438117980957;-44.854217529296875
243;1673298134.1370962;47.1308289;7.2402612;49.78300094604492;1673298134.1722562;50.44859313964844;19.257551193237305;-44.501991271972656
244;1673298134.3420517;47.1308274;7.2402587;49.827003479003906;1673298134.3781338;51.50064468383789;22.473064422607422;-44.87350082397461
245;1673298134.551957;47.1308246;7.240259999999999;49.86900329589844;1673298134.5910463;52.07538604736328;26.040315628051758;-45.1790885925293
246;1673298134.7540276;47.130820899999996;7.2402647;49.926002502441406;1673298134.7881958;49.90717697143555;29.83352279663086;-45.30188751220703
247;1673298134.9451785;47.1308169;7.240272099999999;49.96800231933594;1673298134.9795063;40.945030212402344;30.247268676757812;-45.87730407714844
248;1673298135.1387455;47.130812999999996;7.2402809999999995;49.98800277709961;1673298135.173068;28.557889938354492;29.140045166015625;-45.072593688964844
249;1673298135.3440812;47.1308095;7.2402902;49.99500274658203;1673298135.3821828;15.49043083190918;26.82229995727539;-43.84527587890625
250;1673298135.5546887;47.130806799999995;7.2402988;49.9900016784668;1673298135.5931187;5.8902435302734375;23.436870574951172;-42.014408111572266
251;1673298135.7650673;47.130804999999995;7.2403059999999995;49.97600173950195;1673298135.800378;0.22810587286949158;20.751564025878906;-40.94660568237305
252;1673298135.9580665;47.1308041;7.2403110999999996;49.961002349853516;1673298135.997531;-0.04439409449696541;19.098712921142578;-40.66827392578125
253;1673298136.1649368;47.1308039;7.240314499999999;49.94600296020508;1673298136.1981275;1.7594389915466309;18.342634201049805;-40.83037185668945
254;1673298136.3542747;47.1308043;7.2403162;49.93300247192383;1673298136.3875227;6.240466117858887;17.908184051513672;-41.60285568237305
255;1673298136.5430083;47.1308049;7.240316399999999;49.932003021240234;1673298136.5762048;11.791702270507812;18.17208480834961;-42.448150634765625
256;1673298136.7368026;47.1308055;7.2403157;49.935001373291016;1673298136.7726793;17.12091636657715;18.24695587158203;-42.684234619140625
257;1673298136.9347968;47.130806;7.2403146;49.94300079345703;1673298136.9699337;21.30668067932129;18.237838745117188;-42.862064361572266
258;1673298137.130209;47.1308065;7.2403134;49.95000076293945;1673298137.1644435;17.002338409423828;21.302480697631836;-43.618690490722656
259;1673298137.3237305;47.130806899999996;7.2403119;49.7390022277832;1673298137.358189;-4.180345058441162;14.92082405090332;-47.77348327636719
260;1673298137.5221028;47.1308072;7.24031;49.15900421142578;1673298137.5562804;-32.97056579589844;-0.6695518493652344;-49.480831146240234
261;1673298137.7181823;47.130807399999995;7.2403078999999995;48.19400405883789;1673298137.7536197;-62.047943115234375;-36.67074203491211;-34.386898040771484
262;1673298137.916242;47.130807499999996;7.2403058;46.84700393676758;1673298137.9504056;-69.75358581542969;-114.3306655883789;21.723098754882812
263;1673298138.114756;47.130807499999996;7.2403037999999995;45.13500213623047;1673298138.1489358;-65.94605255126953;-149.75160217285156;38.2943229675293
264;1673298138.3118944;47.130807499999996;7.240301499999999;43.07200241088867;1673298138.3461146;-75.92417907714844;-139.8230438232422;17.719200134277344
265;1673298138.5104444;47.1308077;7.2402991;40.64600372314453;1673298138.5455706;-66.96556854248047;-20.38330841064453;-102.38179779052734
266;1673298138.7247589;47.130807999999995;7.240296799999999;37.871002197265625;1673298138.7709224;-19.322521209716797;4.0555315017700195;-119.50460052490234
267;1673298138.9612613;47.1308084;7.2402945;34.7030029296875;1673298139.001377;28.01411247253418;16.39571762084961;-115.36383056640625
268;1673298139.170611;47.130808699999996;7.240291699999999;31.145002365112305;1673298139.204344;51.750572204589844;32.397186279296875;-106.83539581298828
269;1673298139.3750114;47.130808699999996;7.240288499999999;27.238000869750977;1673298139.4108062;46.0746955871582;28.525789260864258;-118.72488403320312
270;1673298139.5783913;47.130808599999995;7.2402849;22.988000869750977;1673298139.6092343;9.401183128356934;17.779582977294922;-140.8105010986328
271;1673298139.7583733;47.130808099999996;7.2402811;18.339000701904297;1673298139.7919528;-38.394798278808594;19.62826919555664;-161.5805206298828
272;1673298139.948886;47.1308079;7.2402776;13.318000793457031;1673298139.984018;-61.99971389770508;32.926658630371094;173.4549560546875
273;1673298140.1419027;47.130808099999996;7.2402741;7.9760003089904785;1673298140.176146;-48.319793701171875;19.68875503540039;178.55889892578125
274;1673298140.3499207;47.130808699999996;7.2402707;2.2980000972747803;1673298140.3851423;-0.8569819331169128;6.008950233459473;-172.7753143310547
275;1673298140.5552943;47.1308079;7.2402751;0.31200000643730164;1673298140.5904322;-7.838465690612793;-3.990471124649048;-162.06471252441406
276;1673298140.750751;47.1308079;7.2402842;0.3540000021457672;1673298140.7848954;-5.415524959564209;-10.135359764099121;-153.22177124023438
277;1673298140.94709;47.1308082;7.240293599999999;0.40800002217292786;1673298140.985151;-5.284628391265869;-6.8228759765625;-153.69039916992188
278;1673298141.1504734;47.130808099999996;7.2403035;0.48000001907348633;1673298141.1856809;-5.299672603607178;-7.197227954864502;-154.29002380371094
279;1673298141.34186;47.1308073;7.2403128;0.5210000276565552;1673298141.3781676;-5.322873115539551;-6.163642406463623;-154.66983032226562
280;1673298141.552275;47.130806;7.240321;0.5440000295639038;1673298141.5934296;-5.362479209899902;-5.2372612953186035;-154.97486877441406
281;1673298141.7707944;47.130804;7.2403284;0.5649999976158142;1673298141.805101;-5.373083114624023;-4.248788356781006;-155.27508544921875
282;1673298141.959563;47.1308017;7.2403344;0.5750000476837158;1673298141.9921503;-5.48163366317749;-3.3452491760253906;-155.58863830566406
283;1673298142.1482553;47.1307991;7.2403388;0.5820000171661377;1673298142.1816297;-5.538624286651611;-2.7478253841400146;-155.85687255859375
284;1673298142.3419893;47.1307958;7.2403469;0.5990000367164612;1673298142.3761635;-5.5236639976501465;-2.487259864807129;-155.94105529785156
285;1673298142.5383828;47.1307919;7.2403572;0.5990000367164612;1673298142.5735536;-5.505725860595703;-2.452252149581909;-156.01959228515625
286;1673298142.7467446;47.130787399999996;7.2403691;0.5879999995231628;1673298142.7888908;-5.446102619171143;-2.4098706245422363;-156.04124450683594
287;1673298142.9589307;47.1307823;7.240381999999999;0.5700000524520874;1673298142.996083;-5.4692864418029785;-2.4655473232269287;-156.08506774902344
288;1673298143.1720912;47.1307768;7.240395599999999;0.5509999990463257;1673298143.2054658;-5.372224807739258;-2.7009739875793457;-156.10137939453125
289;1673298143.3683455;47.1307708;7.2404098999999995;0.5250000357627869;1673298143.411839;-5.3375630378723145;-2.973691940307617;-156.12876892089844
290;1673298143.5931203;47.130764299999996;7.2404247999999995;0.49500003457069397;1673298143.6290069;-5.3609089851379395;-3.248133897781372;-156.1114501953125
291;1673298143.7969434;47.1307573;7.2404401;0.47200003266334534;1673298143.829927;-5.35427188873291;-3.5029585361480713;-156.09117126464844
292;1673298143.9898605;47.1307499;7.2404559;0.44600000977516174;1673298144.0258212;-5.294897556304932;-3.804827928543091;-156.07162475585938
293;1673298144.1821122;47.1307421;7.240472199999999;0.41700002551078796;1673298144.2167275;-5.3402419090271;-4.0619587898254395;-156.02401733398438
294;1673298144.3800588;47.130733799999994;7.2404889;0.3850000202655792;1673298144.4287863;-5.3257527351379395;-4.283918857574463;-155.9770965576172
295;1673298144.6059;47.130725;7.240506099999999;0.35100001096725464;1673298144.6439407;-5.349456310272217;-4.551858425140381;-155.8858642578125
296;1673298144.8001592;47.1307158;7.2405237;0.3160000145435333;1673298144.8362465;-5.401497840881348;-4.862137317657471;-155.81121826171875
297;1673298145.002922;47.1307062;7.2405418;0.27400001883506775;1673298145.0409253;-5.335495948791504;-5.039388179779053;-155.73898315429688
298;1673298145.202336;47.130696199999996;7.240560299999999;0.23600001633167267;1673298145.234976;-5.2920966148376465;-5.281240940093994;-155.68173217773438
299;1673298145.3919551;47.1306857;7.2405792;0.20000000298023224;1673298145.4268458;-5.250669956207275;-5.492947578430176;-155.62623596191406
300;1673298145.5990887;47.1306748;7.240598599999999;0.16300000250339508;1673298145.6331618;-5.234614849090576;-5.650611877441406;-155.55091857910156
301;1673298145.8021688;47.1306636;7.2406184;0.125;1673298145.8342414;-5.14470911026001;-5.841547966003418;-155.4910430908203
302;1673298145.9951537;47.1306519;7.2406386;0.09000000357627869;1673298146.024773;-5.152927398681641;-6.010077476501465;-155.42977905273438
303;1673298146.1710293;47.1306399;7.2406592;0.05400000140070915;1673298146.2038283;-5.0906662940979;-6.1625542640686035;-155.3524932861328
304;1673298146.359759;47.1306273;7.2406804;0.005000000353902578;1673298146.3941364;-5.060852527618408;-6.341742038726807;-155.30380249023438
305;1673298146.5509489;47.1306145;7.2407018999999995;-0.03200000151991844;1673298146.585049;-5.073019981384277;-6.476703643798828;-155.24073791503906
306;1673298146.7553017;47.1306012;7.2407239;-0.06599999964237213;1673298146.7887464;-4.978276252746582;-6.580754280090332;-155.1876678466797
307;1673298146.956033;47.1305877;7.240746199999999;-0.09400000423192978;1673298146.9888437;-5.024094581604004;-6.720688819885254;-155.13282775878906
308;;;;;1673298147.1980822;-4.943448066711426;-7.256618022918701;-155.07627868652344
309;;;;;1673298147.4575763;-4.912900447845459;-7.808485984802246;-154.9925537109375
310;;;;;1673298147.679159;-4.984086513519287;-8.175747871398926;-154.9208221435547
311;;;;;1673298147.8788428;-4.972298622131348;-8.654614448547363;-154.79248046875
312;;;;;1673298148.0439284;-4.969611167907715;-9.078734397888184;-154.69134521484375
313;;;;;1673298148.2359636;-4.941606521606445;-9.342060089111328;-154.60401916503906
