;pos_time;latitude;longitude;altitude;alt_time;pitch;roll;yaw
0;1673297837.0662699;47.1306424;7.2406201;-0.018000001087784767;1673297837.1351683;-0.17723388969898224;-0.35467544198036194;90.05780029296875
1;1673297837.2706268;47.1306424;7.2406201;-0.01600000075995922;1673297837.3519955;-0.17815665900707245;-0.12453627586364746;89.98521423339844
2;1673297837.469666;47.1306424;7.2406201;-0.015000000596046448;1673297837.5385306;0.13349883258342743;-0.3050750195980072;90.10321044921875
3;1673297837.6514637;47.1306424;7.2406201;-0.020000001415610313;1673297837.7232924;-0.19672845304012299;-0.16387495398521423;90.20501708984375
4;1673297837.8529253;47.1306423;7.2406201;-0.02200000174343586;1673297837.917669;-0.16571804881095886;-0.16788294911384583;90.27995300292969
5;1673297838.046282;47.1306423;7.24062;-0.024000000208616257;1673297838.1216102;0.063866525888443;-0.1935928463935852;90.25000762939453
6;1673297838.245481;47.1306423;7.2406198999999996;-0.027000000700354576;1673297838.316842;-0.024784240871667862;-0.17392122745513916;90.15421295166016
7;1673297838.4506748;47.1306423;7.240619799999999;-0.02800000086426735;1673297838.5192277;-0.12659579515457153;-0.23893673717975616;90.25077819824219
8;1673297838.653403;47.1306423;7.240619799999999;-0.029000001028180122;1673297838.7154167;-0.20481503009796143;-0.21401578187942505;90.28279113769531
9;1673297838.8366737;47.1306424;7.240619799999999;0.0010000000474974513;1673297838.904027;-0.11967533826828003;-0.11421768367290497;90.22756958007812
10;1673297839.0319555;47.1306424;7.240619799999999;0.0020000000949949026;1673297839.0993428;0.03353549540042877;-0.2372797429561615;90.24943542480469
11;1673297839.2260652;47.1306424;7.2406197;0.0020000000949949026;1673297839.2953222;0.004176280461251736;-0.1576744168996811;90.221923828125
12;1673297839.4183927;47.1306424;7.2406196;0.0010000000474974513;1673297839.493115;0.02108686789870262;-0.23709042370319366;90.35323333740234
13;1673297839.625726;47.1306424;7.2406197;0.0;1673297839.7006738;0.03941280022263527;-0.17363345623016357;90.26349639892578
14;1673297839.8408575;47.1306424;7.2406196;-0.0020000000949949026;1673297839.9126961;0.027530448511242867;0.011900643818080425;90.22323608398438
15;1673297840.0306003;47.1306424;7.2406196;-0.005000000353902578;1673297840.0955682;0.1869610697031021;0.25490719079971313;90.25364685058594
16;1673297840.2435272;47.1306424;7.2406196;-0.005000000353902578;1673297840.3137972;-0.01020862441509962;-0.14035531878471375;90.27706146240234
17;1673297840.4306626;47.1306424;7.2406196;-0.0010000000474974513;1673297840.495514;0.004239812958985567;0.33370399475097656;90.31539916992188
18;1673297840.6255457;47.1306424;7.2406196;-0.005000000353902578;1673297840.699753;0.11792605370283127;-0.5638381242752075;90.28654479980469
19;1673297840.8335;47.1306424;7.2406197;-0.006000000052154064;1673297840.898842;0.247974693775177;0.1936001479625702;90.37467193603516
20;1673297841.0287623;47.1306424;7.2406197;-0.00800000037997961;1673297841.1007748;0.315621018409729;-0.062185660004615784;90.52951049804688
21;1673297841.24572;47.1306424;7.2406197;-0.009000000543892384;1673297841.3130307;0.1076277568936348;-0.24173994362354279;90.2466049194336
22;1673297841.450562;47.1306424;7.240619799999999;-0.00800000037997961;1673297841.519865;1.1230665445327759;-0.12096697837114334;90.24472045898438
23;1673297841.6435246;47.1306424;7.240619799999999;-0.005000000353902578;1673297841.7118113;2.664766311645508;-0.11368631571531296;90.33534240722656
24;1673297841.8545141;47.1306424;7.240619799999999;-0.004000000189989805;1673297841.9346726;4.219374656677246;-0.10766971856355667;90.3042221069336
25;1673297842.0720863;47.1306424;7.2406197;0.0;1673297842.170667;1.98043692111969;0.25784364342689514;88.23320007324219
26;1673297842.3290076;47.1306424;7.240619;-0.003000000026077032;1673297842.3886602;-4.555255889892578;0.6781112551689148;85.3521957397461
27;1673297842.5075684;47.1306424;7.2406175;0.006000000052154064;1673297842.573611;-10.03400707244873;0.8259434700012207;86.04078674316406
28;1673297842.6886945;47.1306424;7.2406156;0.029000001028180122;1673297842.7489092;-14.303272247314453;2.385601758956909;86.52420043945312
29;1673297842.907632;47.1306422;7.240613499999999;0.06100000441074371;1673297842.967754;-14.096903800964355;-1.9542365074157715;88.22809600830078
30;1673297843.092672;47.130642099999996;7.2406111;0.10600000619888306;1673297843.1654928;-15.614044189453125;-0.5964213013648987;88.39588928222656
31;1673297843.2815447;47.130641999999995;7.240608699999999;0.16300000250339508;1673297843.345778;-17.48270034790039;2.549018383026123;88.07637023925781
32;1673297843.4807982;47.1306418;7.2406064;0.22800001502037048;1673297843.535595;-19.450040817260742;-1.1897610425949097;89.26153564453125
33;1673297843.6496615;47.1306418;7.2406044;0.3060000240802765;1673297843.7228622;-21.525327682495117;-3.021897077560425;90.0088119506836
34;1673297843.8522003;47.1306419;7.240602699999999;0.3970000147819519;1673297843.9206028;-23.457168579101562;1.6144596338272095;89.33014678955078
35;1673297844.1095803;47.1306419;7.2406017;0.49800002574920654;1673297844.1633205;-25.605426788330078;0.06379694491624832;89.74054718017578
36;1673297844.26446;47.1306419;7.2406013;0.6030000448226929;1673297844.3240178;-27.571016311645508;-3.8873374462127686;90.95793914794922
37;1673297844.4415245;47.130641999999995;7.2406019;0.7090000510215759;1673297844.5128055;-28.91006088256836;-0.4737359285354614;90.2954330444336
38;1673297844.648855;47.130641999999995;7.2406032;0.8200000524520874;1673297844.7181613;-26.790555953979492;0.6500059366226196;89.86072540283203
39;1673297844.8402283;47.130642099999996;7.2406052999999995;0.937000036239624;1673297844.9075782;-24.256118774414062;-3.7898800373077393;91.1978759765625
40;1673297845.0358014;47.1306423;7.240607799999999;1.061000108718872;1673297845.1090336;-21.16472625732422;-0.29332685470581055;90.45787811279297
41;1673297845.2467766;47.130642599999995;7.240610299999999;1.1890000104904175;1673297845.3350186;-18.477622985839844;2.632859706878662;89.65413665771484
42;1673297845.4577453;47.130642699999996;7.2406127;1.3250000476837158;1673297845.5289845;-16.203773498535156;-2.2030913829803467;90.70494842529297
43;1673297845.644299;47.1306428;7.2406147;1.4700000286102295;1673297845.7116432;-14.928563117980957;-0.994446873664856;90.40675354003906
44;1673297845.8439326;47.1306428;7.2406163;1.6200001239776611;1673297845.9133468;-14.351176261901855;2.4446520805358887;81.35881805419922
45;1673297846.0363815;47.130642699999996;7.240617299999999;1.78000009059906;1673297846.1047015;-14.602493286132812;-1.6880841255187988;84.23983001708984
46;1673297846.2355363;47.130642599999995;7.240617899999999;1.9570001363754272;1673297846.3078003;-15.46010971069336;-2.80922269821167;85.74250793457031
47;1673297846.4457154;47.130642699999996;7.2406181;2.1500000953674316;1673297846.521409;-16.387351989746094;2.5827062129974365;85.47225189208984
48;1673297846.6452475;47.1306428;7.2406182;2.3510000705718994;1673297846.7126248;-17.290058135986328;-0.008748652413487434;86.47660064697266
49;1673297846.8328285;47.130642699999996;7.2406179999999996;2.5510001182556152;1673297846.9007194;-18.110740661621094;-3.180546522140503;87.49092864990234
50;1673297847.0411577;47.130642699999996;7.2406178;2.747000217437744;1673297847.114474;-19.149810791015625;1.5099924802780151;87.063232421875
51;1673297847.2417305;47.1306425;7.2406177;2.949000120162964;1673297847.3053238;-19.456298828125;-0.41903918981552124;87.33348846435547
52;1673297847.4372447;47.1306425;7.2406177;3.1530001163482666;1673297847.5086539;-19.66312026977539;-3.3350348472595215;88.18011474609375
53;1673297847.6355927;47.130642599999995;7.2406178;3.3560001850128174;1673297847.700186;-19.696361541748047;1.5343003273010254;87.05891418457031
54;1673297847.8274145;47.130642699999996;7.2406179999999996;3.563000202178955;1673297847.9003007;-19.476499557495117;1.8131444454193115;86.96887969970703
55;1673297848.0336144;47.130642699999996;7.2406182999999995;3.7680001258850098;1673297848.099545;-19.005374908447266;-2.979731321334839;88.06326293945312
56;1673297848.2309008;47.130642599999995;7.2406187;3.9750001430511475;1673297848.3036835;-18.540693283081055;-0.13066980242729187;87.34480285644531
57;1673297848.441438;47.130642599999995;7.240619;4.176000118255615;1673297848.516576;-18.424406051635742;2.1562538146972656;86.8083724975586
58;1673297848.6642125;47.1306425;7.2406194;4.373000144958496;1673297848.7305923;-17.99325942993164;-2.4538168907165527;87.9921646118164
59;1673297848.861387;47.1306425;7.2406197;4.565000057220459;1673297848.9426682;-17.748897552490234;0.010181796737015247;87.421875
60;1673297849.0748994;47.130642599999995;7.2406198999999996;4.75700044631958;1673297849.1335351;-17.524127960205078;3.247032403945923;86.6842269897461
61;1673297849.2607412;47.1306424;7.2406201;4.952000141143799;1673297849.3350573;-17.671466827392578;-2.4206438064575195;87.72907257080078
62;1673297849.4581943;47.1306423;7.2406201999999995;5.154000282287598;1673297849.5246305;-17.71170997619629;-1.3079107999801636;87.51911926269531
63;1673297849.6514463;47.1306422;7.2406201999999995;5.354000091552734;1673297849.726611;-18.113168716430664;3.1420278549194336;86.4820327758789
64;1673297849.8524656;47.130642099999996;7.2406201;5.553000450134277;1673297849.9268353;-17.99702262878418;-1.8298063278198242;87.64111328125
65;1673297850.0577433;47.130642099999996;7.24062;5.75600004196167;1673297850.1202195;-18.519819259643555;-1.7406312227249146;87.5573959350586
66;1673297850.2482264;47.1306422;7.2406198999999996;5.963000297546387;1673297850.316729;-18.636625289916992;2.84745192527771;86.59153747558594
67;1673297850.45137;47.130642099999996;7.240619799999999;6.168000221252441;1673297850.5216627;-18.719568252563477;-0.5646396279335022;87.1773910522461
68;1673297850.6396146;47.130642099999996;7.2406197;6.371000289916992;1673297850.7011402;-18.742708206176758;-2.4442243576049805;87.7342758178711
69;1673297850.8230295;47.130642099999996;7.2406197;6.572000503540039;1673297850.8996391;-18.909276962280273;2.9243459701538086;86.42675018310547
70;1673297851.0517197;47.1306422;7.2406197;6.76900053024292;1673297851.1519418;-18.7275390625;1.170422077178955;86.96599578857422
71;1673297851.2811425;47.1306423;7.2406197;6.970000267028809;1673297851.3500314;-18.77752685546875;-2.2535905838012695;87.7444839477539
72;1673297851.4630105;47.1306424;7.2406197;7.1700005531311035;1673297851.5494907;-18.70574378967285;2.365888833999634;86.62631225585938
73;1673297851.660388;47.1306423;7.240619799999999;7.37000036239624;1673297851.763184;-18.571292877197266;2.1556973457336426;86.58769989013672
74;1673297851.8799036;47.130642099999996;7.2406198999999996;7.567000389099121;1673297851.958694;-18.513559341430664;-2.9089508056640625;87.6018295288086
75;1673297852.0803366;47.130641999999995;7.24062;7.765000343322754;1673297852.1394455;-18.449695587158203;-0.06436141580343246;87.14527893066406
76;1673297852.2510607;47.1306419;7.24062;7.961000442504883;1673297852.3203578;-18.521528244018555;2.0334863662719727;86.36896514892578
77;1673297852.4572456;47.1306419;7.2406201;8.159000396728516;1673297852.5275471;-18.54535675048828;-2.857609748840332;87.59937286376953
78;1673297852.6534169;47.1306419;7.2406201;8.355999946594238;1673297852.7324743;-18.435415267944336;0.0957268700003624;87.03934478759766
79;1673297852.857561;47.130641999999995;7.2406201;8.551000595092773;1673297852.9251325;-18.423402786254883;2.905935525894165;86.52396392822266
80;1673297853.0626433;47.1306419;7.2406201999999995;8.743000030517578;1673297853.1310122;-18.341087341308594;-1.9246039390563965;87.51377868652344
81;1673297853.259249;47.1306419;7.2406203;8.939000129699707;1673297853.3315332;-18.406593322753906;-1.2772825956344604;87.42119598388672
82;1673297853.4652848;47.130641999999995;7.2406203;9.136000633239746;1673297853.5355613;-18.516151428222656;3.247356653213501;86.31346893310547
83;1673297853.6595266;47.130642099999996;7.2406203;9.331000328063965;1673297853.7288377;-18.41293716430664;-0.7730158567428589;87.26809692382812
84;1673297853.8501234;47.1306422;7.2406203;9.530000686645508;1673297853.9164793;-18.642459869384766;-1.2400904893875122;87.50281524658203
85;1673297854.0502872;47.1306422;7.2406203;9.731000900268555;1673297854.1215475;-18.52110481262207;3.459216833114624;86.31610870361328
86;1673297854.2595172;47.1306422;7.2406203;9.931000709533691;1673297854.326895;-18.50617027282715;0.8210418224334717;86.71074676513672
87;1673297854.453058;47.130642099999996;7.2406204;10.129000663757324;1673297854.524528;-18.453094482421875;-2.262938976287842;87.30149841308594
88;1673297854.6526995;47.130642099999996;7.2406204999999995;10.372000694274902;1673297854.7197242;-21.481090545654297;0.9630556702613831;86.61257934570312
89;1673297854.8571322;47.130642099999996;7.240621;10.706000328063965;1673297854.9286435;-22.30037498474121;0.8299030661582947;86.60066223144531
90;1673297855.0639966;47.1306422;7.2406219;11.080000877380371;1673297855.1572676;-18.83685302734375;-2.494450092315674;87.67117309570312
91;1673297855.2930222;47.1306425;7.240622999999999;11.467000961303711;1673297855.3623683;-17.153169631958008;0.8861956000328064;87.09101104736328
92;1673297855.478913;47.130642599999995;7.2406239;11.859000205993652;1673297855.56551;-15.037009239196777;3.1970019340515137;86.32290649414062
93;1673297855.6901715;47.130642599999995;7.240624599999999;12.253000259399414;1673297855.7730966;-14.306286811828613;-0.9418013691902161;87.32877349853516
94;1673297855.920244;47.130642599999995;7.240624899999999;12.653000831604004;1673297855.9862378;-14.439652442932129;-0.6649960875511169;87.41146850585938
95;1673297856.1020648;47.130642599999995;7.2406248;13.052000999450684;1673297856.1711278;-14.624164581298828;3.1718528270721436;86.56684875488281
96;1673297856.287047;47.130642599999995;7.2406244;13.451000213623047;1673297856.3468766;-15.886967658996582;-0.32304704189300537;87.28422546386719
97;1673297856.5008786;47.130642599999995;7.2406238;13.85300064086914;1673297856.5659075;-16.815372467041016;-1.2228559255599976;87.57534790039062
98;1673297856.7074587;47.130642599999995;7.2406232;14.257000923156738;1673297856.7720077;-17.50635528564453;2.9977777004241943;86.61140441894531
99;1673297856.8771646;47.1306425;7.240622699999999;14.66200065612793;1673297856.934972;-18.283769607543945;-0.4248350262641907;87.13141632080078
100;1673297857.0606673;47.1306423;7.2406222;15.071001052856445;1673297857.1350055;-18.564149856567383;-2.6495704650878906;87.68585205078125
101;1673297857.2640333;47.1306423;7.2406219;15.481000900268555;1673297857.337447;-18.900354385375977;2.3967831134796143;86.76351928710938
102;1673297857.4715497;47.1306423;7.240621699999999;15.88800048828125;1673297857.5400524;-18.832786560058594;0.6207408308982849;87.13188934326172
103;1673297857.683135;47.1306423;7.2406216;16.295000076293945;1673297857.7428448;-18.651132583618164;-2.3063321113586426;87.8492431640625
104;1673297857.8603067;47.1306425;7.2406216;16.701000213623047;1673297857.9288647;-18.097885131835938;2.3390440940856934;86.96656799316406
105;1673297858.0477293;47.1306425;7.2406216;17.10900115966797;1673297858.1234424;-18.153104782104492;2.0333549976348877;86.95336151123047
106;1673297858.2580674;47.1306424;7.240621699999999;17.518001556396484;1673297858.3256571;-17.736600875854492;-2.2025299072265625;87.82228088378906
107;1673297858.4803238;47.1306424;7.2406217999999996;17.927000045776367;1673297858.5488544;-17.77495765686035;1.3909505605697632;87.00623321533203
108;1673297858.6673646;47.1306425;7.2406219;18.33500099182129;1673297858.7734532;-17.389266967773438;2.58182954788208;86.75768280029297
109;1673297858.9264853;47.1306425;7.2406217999999996;18.740001678466797;1673297858.9966023;-17.797319412231445;-1.8655892610549927;87.82433319091797
110;1673297859.1249037;47.1306425;7.2406217999999996;19.1510009765625;1673297859.2004466;-17.556306838989258;0.8472450375556946;87.28812408447266
111;1673297859.340166;47.1306425;7.2406217999999996;19.564001083374023;1673297859.4024658;-17.60508918762207;2.717047691345215;86.62590026855469
112;1673297859.5228672;47.1306424;7.2406217999999996;19.977001190185547;1673297859.5849102;-17.418682098388672;-1.965205192565918;87.6366958618164
113;1673297859.6966612;47.1306423;7.240621699999999;20.391000747680664;1673297859.7671416;-17.788679122924805;-0.9595175385475159;87.5908432006836
114;1673297859.89193;47.1306424;7.240621699999999;20.80500030517578;1673297859.9525373;-17.59824562072754;2.983135938644409;86.66946411132812
115;1673297860.0615237;47.1306424;7.2406215;21.216001510620117;1673297860.1250427;-18.02300262451172;-1.011927843093872;87.53597259521484
116;1673297860.2487192;47.1306425;7.240621399999999;21.62900161743164;1673297860.3331873;-17.90212631225586;-0.7530569434165955;87.57610321044922
117;1673297860.4652781;47.1306425;7.2406213;22.04400062561035;1673297860.5454443;-17.965007781982422;3.4733386039733887;86.62711334228516
118;1673297860.6766982;47.1306425;7.2406212;22.461000442504883;1673297860.7372863;-17.946483612060547;-0.22170470654964447;87.38953399658203
119;1673297860.8653102;47.1306424;7.2406212;22.880001068115234;1673297860.9320376;-18.114994049072266;-1.6533552408218384;87.81953430175781
120;1673297861.0490363;47.1306424;7.2406212;23.297000885009766;1673297861.1243496;-17.80690574645996;3.0706846714019775;86.6327133178711
121;1673297861.2662098;47.1306424;7.240621099999999;23.709001541137695;1673297861.3368216;-17.99819564819336;0.6436556577682495;87.19982147216797
122;1673297861.4565666;47.1306425;7.240621;24.113000869750977;1673297861.5301619;-18.142471313476562;-1.609052300453186;87.76806640625
123;1673297861.6617885;47.1306425;7.2406209;24.519001007080078;1673297861.7360518;-17.999269485473633;2.572803020477295;86.8558349609375
124;1673297861.86726;47.1306424;7.2406209;24.92500114440918;1673297861.9387462;-18.118412017822266;1.4173239469528198;87.02033996582031
125;1673297862.0715775;47.1306423;7.240620799999999;25.328001022338867;1673297862.1419942;-18.171489715576172;-2.2310116291046143;87.83284759521484
126;1673297862.2789974;47.1306423;7.240620799999999;25.733001708984375;1673297862.3502572;-18.059743881225586;1.3014771938323975;87.12640380859375
127;1673297862.482239;47.1306423;7.240620799999999;26.13800048828125;1673297862.5517406;-17.79849624633789;2.5727033615112305;86.82803344726562
128;1673297862.678928;47.1306423;7.2406207;26.535001754760742;1673297862.7405;-18.15250015258789;-2.1469216346740723;87.97836303710938
129;1673297862.8617375;47.1306424;7.2406207;26.937002182006836;1673297862.9290822;-18.050779342651367;1.0844168663024902;87.41316223144531
130;1673297863.0468554;47.1306424;7.2406207;27.341001510620117;1673297863.119782;-17.879291534423828;3.297899007797241;86.74371337890625
131;1673297863.247426;47.1306424;7.2406207;27.749000549316406;1673297863.3183079;-17.845945358276367;-1.1620054244995117;87.63453674316406
132;1673297863.4448018;47.1306424;7.2406207;28.155000686645508;1673297863.5156894;-18.02585792541504;0.16215145587921143;87.36073303222656
133;1673297863.644666;47.1306424;7.2406206;28.56100082397461;1673297863.7159567;-18.000009536743164;3.890385389328003;86.44886779785156
134;1673297863.877484;47.1306424;7.2406204999999995;28.96700096130371;1673297863.941965;-18.178983688354492;-0.9243338108062744;87.48137664794922
135;1673297864.056895;47.1306423;7.2406204999999995;29.365001678466797;1673297864.1413968;-17.982038497924805;-0.5554923415184021;87.54276275634766
136;1673297864.3065438;47.1306423;7.2406204;29.766000747680664;1673297864.4068935;-18.21225357055664;3.3820199966430664;86.7084732055664
137;1673297864.5373354;47.1306422;7.2406204;30.167001724243164;1673297864.5959394;-18.036691665649414;-0.8370697498321533;87.4800796508789
138;1673297864.7178614;47.130642099999996;7.2406203;30.569002151489258;1673297864.7799315;-18.300439834594727;-1.1816034317016602;87.54315185546875
139;1673297864.9037366;47.1306422;7.2406203;30.968002319335938;1673297864.965811;-18.131305694580078;3.311760663986206;86.54460144042969
140;1673297865.0972972;47.1306422;7.2406203;31.36600112915039;1673297865.1631052;-18.211130142211914;0.26003608107566833;87.18466186523438
141;1673297865.2661445;47.1306423;7.2406203;31.759000778198242;1673297865.335456;-18.323057174682617;-1.2108525037765503;87.63099670410156
142;1673297865.4646223;47.1306423;7.2406203;32.15800094604492;1673297865.5389543;-18.042905807495117;3.2754271030426025;86.66731262207031
143;1673297865.6531386;47.1306423;7.2406203;32.55800247192383;1673297865.7220342;-18.37930679321289;1.0579067468643188;87.02774047851562
144;1673297865.856121;47.1306422;7.2406203;32.961002349853516;1673297865.9240465;-18.16343879699707;-1.8827332258224487;87.85465240478516
145;1673297866.055813;47.1306423;7.2406204;33.36600112915039;1673297866.1295726;-18.142778396606445;2.5775249004364014;86.84942626953125
146;1673297866.2745693;47.1306423;7.2406204;33.770999908447266;1673297866.3441427;-17.837909698486328;2.1886634826660156;86.84169006347656
147;1673297866.4620345;47.1306423;7.2406204;34.176002502441406;1673297866.533411;-18.121850967407227;-1.7870148420333862;87.84930419921875
148;1673297866.686677;47.1306423;7.2406204;34.57200241088867;1673297866.7613325;-17.978063583374023;1.3129936456680298;87.18281555175781
149;1673297866.8802419;47.1306423;7.2406204;34.97300338745117;1673297866.94079;-18.32818031311035;2.841888904571533;86.63406372070312
150;1673297867.0615551;47.1306422;7.2406204;35.374000549316406;1673297867.1315293;-18.05183982849121;-1.9962080717086792;87.6768569946289
151;1673297867.257194;47.1306422;7.2406204;35.78000259399414;1673297867.3281274;-18.201610565185547;0.7049277424812317;87.14869689941406
152;1673297867.4566324;47.1306423;7.2406204;36.1870002746582;1673297867.5226011;-18.00773048400879;3.34619140625;86.65351867675781
153;1673297867.644873;47.1306423;7.2406204;36.592002868652344;1673297867.734577;-18.117708206176758;-1.3164433240890503;87.68385314941406
154;1673297867.8814976;47.1306424;7.2406204;36.987003326416016;1673297867.9494066;-18.216978073120117;0.0700758621096611;87.47688293457031
155;1673297868.0711157;47.1306424;7.2406204;37.38600158691406;1673297868.1414685;-18.14071273803711;3.5572471618652344;86.51934814453125
156;1673297868.2705355;47.1306424;7.2406204;37.790000915527344;1673297868.3449066;-18.23172378540039;-0.49624624848365784;87.26483154296875
157;1673297868.471979;47.1306425;7.2406204;38.195003509521484;1673297868.5501714;-18.24337387084961;-0.4502970576286316;87.54911041259766
158;1673297868.6869507;47.130642699999996;7.2406204;38.59600067138672;1673297868.759251;-17.87665557861328;3.937572717666626;86.69359588623047
159;1673297868.8931508;47.1306428;7.2406204;39.00100326538086;1673297868.9573052;-18.258302688598633;1.3089908361434937;87.15794372558594
160;1673297869.0697372;47.1306428;7.2406204;39.40500259399414;1673297869.1370792;-18.074644088745117;-0.8372981548309326;87.58106231689453
161;1673297869.273905;47.130642699999996;7.2406203;39.79900360107422;1673297869.3395536;-18.342315673828125;3.260289430618286;86.62541961669922
162;1673297869.4682894;47.130642599999995;7.2406203;40.19700241088867;1673297869.5376928;-18.08220672607422;1.216026782989502;86.93373107910156
163;1673297869.6696098;47.1306425;7.2406203;40.59700012207031;1673297869.7418776;-18.316818237304688;-1.7696046829223633;87.6348648071289
164;1673297869.8729131;47.130642599999995;7.2406203;41.000003814697266;1673297869.94442;-18.249080657958984;2.46689772605896;86.94124603271484
165;1673297870.0653353;47.130642599999995;7.2406203;41.402000427246094;1673297870.135829;-17.927108764648438;3.1740691661834717;86.60193634033203
166;1673297870.2662117;47.130642599999995;7.2406203;41.80500030517578;1673297870.3381095;-18.209537506103516;-1.3083693981170654;87.6051254272461
167;1673297870.474908;47.130642599999995;7.2406203;42.19900131225586;1673297870.550148;-18.289085388183594;0.7097160220146179;87.22654724121094
168;1673297870.6947093;47.1306425;7.2406201999999995;42.60100173950195;1673297870.7562683;-18.288114547729492;3.263491630554199;86.4709243774414
169;1673297870.874609;47.1306424;7.2406201999999995;43.00600051879883;1673297870.947973;-18.312864303588867;-1.260937213897705;87.5223159790039
170;1673297871.0666614;47.1306425;7.2406201;43.413002014160156;1673297871.1426733;-18.462797164916992;0.7393564581871033;87.20641326904297
171;1673297871.2736437;47.130642599999995;7.2406201;43.820003509521484;1673297871.3449495;-18.27719497680664;4.04591703414917;86.49689483642578
172;1673297871.5013678;47.130642699999996;7.24062;44.22700119018555;1673297871.5713012;-18.320783615112305;-0.559353768825531;87.5015640258789
173;1673297871.6860828;47.130642699999996;7.24062;44.63200378417969;1673297871.7564962;-18.266433715820312;-0.16193149983882904;87.42770385742188
174;1673297871.8915613;47.130642599999995;7.24062;45.025001525878906;1673297871.9540095;-18.227680206298828;3.8917737007141113;86.52278900146484
175;1673297872.0668654;47.1306425;7.24062;45.42000198364258;1673297872.1319196;-18.216230392456055;-0.12562626600265503;87.34783172607422
176;1673297872.2755537;47.130642599999995;7.2406198999999996;45.81700134277344;1673297872.3458652;-18.560367584228516;-0.8655363321304321;87.63824462890625
177;1673297872.4782848;47.130642699999996;7.2406198999999996;46.21800231933594;1673297872.5524578;-18.267194747924805;3.8492724895477295;86.64247131347656
178;1673297872.6894386;47.130642699999996;7.2406198999999996;46.621002197265625;1673297872.7578819;-18.536048889160156;1.3702564239501953;87.07437133789062
179;1673297872.8791566;47.130642699999996;7.2406198999999996;47.01900100708008;1673297872.9516308;-18.294212341308594;-0.9668642282485962;87.6438217163086
180;1673297873.0771194;47.130642599999995;7.2406198999999996;47.40500259399414;1673297873.150579;-18.32366943359375;3.5388541221618652;86.58102416992188
181;1673297873.2661061;47.130642599999995;7.2406198999999996;47.798004150390625;1673297873.344841;-18.464815139770508;1.507137417793274;86.9295883178711
182;1673297873.4777288;47.130642599999995;7.2406198999999996;48.189002990722656;1673297873.5440967;-19.138763427734375;-1.5781999826431274;87.58438110351562
183;1673297873.6964915;47.130642699999996;7.2406198999999996;48.53600311279297;1673297873.7609167;-18.41828727722168;3.5212483406066895;87.00128936767578
184;1673297873.8811495;47.130642699999996;7.2406197;48.83400344848633;1673297873.9497256;-18.30893325805664;1.7630566358566284;87.3105239868164
185;1673297874.0801997;47.130642699999996;7.240619499999999;49.08000183105469;1673297874.157749;-18.639171600341797;-0.8772012591362;87.80661010742188
186;1673297874.2764423;47.130642699999996;7.2406191;49.28200149536133;1673297874.3379333;-17.190629959106445;4.62571382522583;86.46488189697266
187;1673297874.4726102;47.130642699999996;7.2406185999999995;49.42900085449219;1673297874.5448978;-9.788536071777344;9.271961212158203;84.42191314697266
188;1673297874.6833103;47.1306425;7.2406175;49.50300216674805;1673297874.7502806;-8.61442756652832;15.523877143859863;73.8170166015625
189;1673297874.876711;47.1306418;7.2406159;49.56700134277344;1673297874.9616206;-19.176612854003906;7.209798812866211;61.42205810546875
190;1673297875.0964255;47.130641;7.2406143;49.63300323486328;1673297875.1709957;-11.540894508361816;12.311004638671875;52.100006103515625
191;1673297875.3452003;47.130640299999996;7.2406127;49.691001892089844;1673297875.4034793;-12.2725191116333;12.695296287536621;43.232398986816406
192;1673297875.5201426;47.1306395;7.2406111;49.7400016784668;1673297875.5777187;-10.339167594909668;14.824891090393066;33.811317443847656
193;1673297875.694368;47.1306386;7.2406096;49.77300262451172;1673297875.7631464;-7.633914947509766;18.799793243408203;24.56351661682129
194;1673297875.917166;47.130637799999995;7.240608399999999;49.80600357055664;1673297876.0003436;-5.8549370765686035;21.69025230407715;15.546055793762207
195;1673297876.1252415;47.130637;7.2406074;49.83400344848633;1673297876.1942828;-3.7553086280822754;23.056121826171875;6.780023097991943
196;1673297876.3253012;47.1306364;7.2406066;49.85900115966797;1673297876.3983335;-0.5978276133537292;21.937641143798828;-2.2705767154693604
197;1673297876.52342;47.1306361;7.240606;49.88100051879883;1673297876.5900965;3.328585624694824;20.38109588623047;-11.396827697753906
198;1673297876.7142894;47.130635899999994;7.2406054;49.9010009765625;1673297876.7877674;8.211711883544922;18.527856826782227;-20.263996124267578
199;1673297876.9291196;47.1306358;7.2406049999999995;49.92000198364258;1673297877.016154;12.281765937805176;17.121498107910156;-29.363426208496094
200;1673297877.1688666;47.1306356;7.2406048;49.93000411987305;1673297877.22407;13.42627239227295;15.983016967773438;-38.65961837768555
201;1673297877.3409562;47.1306356;7.2406047;49.939002990722656;1673297877.3972447;13.691822052001953;15.93432331085205;-47.241600036621094
202;1673297877.5179226;47.1306358;7.2406047;49.95000076293945;1673297877.5849116;15.636686325073242;12.304438591003418;-52.60307693481445
203;1673297877.7141263;47.130635899999994;7.240604599999999;49.96200180053711;1673297877.7768686;18.03680992126465;10.04312515258789;-50.761634826660156
204;1673297877.909658;47.1306358;7.2406045;49.97500228881836;1673297877.974088;17.761672973632812;9.727962493896484;-47.762699127197266
205;1673297878.0826387;47.1306356;7.2406044;49.98800277709961;1673297878.1578116;16.124814987182617;11.496047973632812;-46.40574645996094
206;1673297878.2959325;47.1306351;7.2406044;49.98800277709961;1673297878.3682303;13.075532913208008;14.294508934020996;-46.327884674072266
207;1673297878.4884255;47.130634799999996;7.240604299999999;49.993003845214844;1673297878.566799;11.421418190002441;15.529539108276367;-45.9049186706543
208;1673297878.6891232;47.130634699999995;7.2406041;50.00100326538086;1673297878.7525702;12.229469299316406;13.806073188781738;-45.35881423950195
209;1673297878.888282;47.1306346;7.2406038;50.01000213623047;1673297878.9608307;14.578743934631348;11.046687126159668;-45.81338882446289
210;1673297879.0882852;47.1306345;7.2406035;50.02300262451172;1673297879.1556275;15.5652437210083;12.97170352935791;-46.29446792602539
211;1673297879.2720919;47.1306343;7.2406030999999995;50.03700256347656;1673297879.341003;14.633097648620605;15.668302536010742;-46.455936431884766
212;1673297879.4743824;47.130634199999996;7.2406029;50.047000885009766;1673297879.5471902;2.691878080368042;15.729314804077148;-47.98521041870117
213;1673297879.673202;47.1306343;7.240602399999999;50.0420036315918;1673297879.7410758;-28.05206298828125;12.686657905578613;-50.57356262207031
214;1673297879.874302;47.130635399999996;7.240599899999999;50.04300308227539;1673297879.9493418;-48.7371826171875;9.47067642211914;-47.952449798583984
215;1673297880.069597;47.130638499999996;7.2405938999999995;50.00800323486328;1673297880.1404498;-42.53124237060547;1.01878023147583;-45.09069061279297
216;1673297880.2694957;47.130643299999996;7.2405843;49.948001861572266;1673297880.3446147;-38.871421813964844;1.3302870988845825;-44.822593688964844
217;1673297880.4784896;47.130649399999996;7.2405712;49.90400314331055;1673297880.5463667;-43.73520278930664;4.971174716949463;-44.64350891113281
218;1673297880.682401;47.130656699999996;7.240555199999999;49.87300109863281;1673297880.7482529;-45.46463394165039;7.400777816772461;-44.31355285644531
219;1673297880.881764;47.1306655;7.2405367;49.85700225830078;1673297880.9604454;-48.64846420288086;9.03907585144043;-43.47336959838867
220;1673297881.0893734;47.130676;7.2405156999999996;49.87700271606445;1673297881.163321;-54.796024322509766;13.991779327392578;-42.93942642211914
221;1673297881.2843363;47.1306887;7.2404923;49.9160041809082;1673297881.3632717;-58.44557571411133;15.251425743103027;-41.89487075805664
222;1673297881.486531;47.1307039;7.2404671;49.948001861572266;1673297881.5485373;-56.28330993652344;17.155460357666016;-39.771976470947266
223;1673297881.6782627;47.130721099999995;7.2404408;49.965003967285156;1673297881.7442584;-48.70482635498047;16.87648582458496;-38.5312385559082
224;1673297881.8834844;47.1307396;7.2404142;49.96600341796875;1673297881.9595275;-24.750032424926758;21.778030395507812;-38.52304458618164
225;1673297882.0935094;47.1307583;7.2403887;49.95500183105469;1673297882.1554701;19.65808868408203;18.857412338256836;-36.91627502441406
226;1673297882.271029;47.1307751;7.240366099999999;49.91800308227539;1673297882.3366036;28.46721076965332;7.901247978210449;-38.339508056640625
227;1673297882.461445;47.1307895;7.2403458999999994;49.75400161743164;1673297882.538629;18.09364128112793;1.4776301383972168;-42.236148834228516
228;1673297882.6738899;47.1308009;7.240328099999999;49.64500045776367;1673297882.742213;28.692874908447266;3.2278130054473877;-44.744781494140625
229;1673297882.8693082;47.1308094;7.2403129999999996;49.60600280761719;1673297882.9517665;39.9245719909668;2.8966104984283447;-45.21152114868164
230;1673297883.0904589;47.130815;7.2403011;49.61600112915039;1673297883.168659;45.035213470458984;3.731724977493286;-44.83271026611328
231;1673297883.3143868;47.130817799999996;7.2402926;49.64800262451172;1673297883.3943365;49.04549026489258;6.54171895980835;-44.661170959472656
232;1673297883.5748572;47.1308176;7.240288;49.702003479003906;1673297883.6321428;52.78506088256836;10.627978324890137;-44.12909698486328
233;1673297883.7342186;47.130815299999995;7.2402872;49.75700378417969;1673297883.7934089;55.596641540527344;14.696438789367676;-43.747920989990234
234;1673297883.919479;47.130811099999995;7.240290399999999;49.81100082397461;1673297883.9769068;54.836116790771484;18.145530700683594;-44.494197845458984
235;1673297884.0818946;47.1308054;7.240297399999999;49.867000579833984;1673297884.1473372;47.89475631713867;20.92732048034668;-44.86652374267578
236;1673297884.277149;47.130798999999996;7.240307;49.90900421142578;1673297884.3534381;33.31561279296875;20.415531158447266;-45.49498748779297
237;1673297884.5048397;47.1307925;7.2403178;49.93000411987305;1673297884.5875852;16.345918655395508;20.665239334106445;-44.906776428222656
238;1673297884.7084556;47.1307866;7.2403284;49.93400192260742;1673297884.77407;-4.347695827484131;18.32534408569336;-43.27301025390625
239;1673297884.9374778;47.1307821;7.2403371;49.93700408935547;1673297885.0137956;-10.584145545959473;18.35818862915039;-40.83418273925781
240;1673297885.1160686;47.130779;7.2403439999999994;49.92900085449219;1673297885.1756957;-6.831854820251465;7.421029090881348;-41.88387680053711
241;1673297885.2970538;47.130776999999995;7.2403488;49.93300247192383;1673297885.3722837;-3.2453088760375977;18.012413024902344;-41.77039337158203
242;1673297885.5048373;47.130776;7.240352;49.94700241088867;1673297885.5731688;-6.224717140197754;11.766763687133789;-41.2600212097168
243;1673297885.6972303;47.130775799999995;7.2403536;49.958003997802734;1673297885.7736652;2.7377512454986572;12.840636253356934;-40.40235900878906
244;1673297885.8965032;47.130776;7.2403542;49.97800064086914;1673297885.9707105;8.308470726013184;13.31828498840332;-40.864444732666016
245;1673297886.0949235;47.1307763;7.240354;49.99700164794922;1673297886.1741726;14.268624305725098;13.769023895263672;-42.03816604614258
246;1673297886.2832873;47.130776399999995;7.2403537;50.01400375366211;1673297886.3506432;18.581558227539062;12.607553482055664;-43.21483612060547
247;1673297886.4714422;47.1307761;7.2403533;50.00400161743164;1673297886.5373764;19.469017028808594;-10.700185775756836;-47.916378021240234
248;1673297886.6663702;47.1307757;7.2403527;49.7030029296875;1673297886.7366815;15.973555564880371;-44.90896224975586;-52.163639068603516
249;1673297886.8699691;47.1307755;7.2403518;49.02000045776367;1673297886.9457285;7.835421085357666;-76.44708251953125;-47.29542922973633
250;1673297887.081706;47.130775299999996;7.240350899999999;47.954002380371094;1673297887.1452043;2.573665142059326;-99.74628448486328;-33.0518798828125
251;1673297887.277562;47.130775299999996;7.2403499;46.52100372314453;1673297887.3566558;3.1217072010040283;-108.6758041381836;-14.093953132629395
252;1673297887.4912515;47.130775199999995;7.240348699999999;44.704002380371094;1673297887.575261;6.772100925445557;-98.73540496826172;6.534456729888916
253;1673297887.6991029;47.130775199999995;7.2403474;42.53600311279297;1673297887.760684;2.371499538421631;-67.74212646484375;28.917625427246094
254;1673297887.9013662;47.1307751;7.240346199999999;40.012001037597656;1673297887.9726434;-16.599973678588867;-20.881526947021484;37.08899688720703
255;1673297888.095639;47.130774699999996;7.240344899999999;37.104000091552734;1673297888.1641152;-20.746740341186523;29.12401008605957;34.048980712890625
256;1673297888.2881706;47.1307743;7.2403432;33.8129997253418;1673297888.36137;-13.092134475708008;57.56201171875;40.57442855834961
257;1673297888.4923594;47.130773999999995;7.240341;30.178001403808594;1673297888.5687582;-0.41743579506874084;53.23994827270508;57.13987350463867
258;1673297888.6894374;47.1307739;7.2403382999999994;26.189001083374023;1673297888.7558382;19.3494815826416;19.792938232421875;73.33563995361328
259;1673297888.8725348;47.1307741;7.240335399999999;21.832000732421875;1673297888.9443443;38.941707611083984;-28.921287536621094;76.3069839477539
260;1673297889.0766535;47.1307743;7.240333;17.099000930786133;1673297889.1529248;42.55276107788086;-58.962730407714844;80.04815673828125
261;1673297889.280832;47.1307742;7.2403309;12.033000946044922;1673297889.3487196;29.28497314453125;-42.124290466308594;104.83847045898438
262;1673297889.477267;47.1307737;7.2403289;6.63200044631958;1673297889.5480714;-4.965132713317871;-1.9606733322143555;122.4925537109375
263;1673297889.6771133;47.130773;7.2403265999999995;0.8440000414848328;1673297889.7484074;-15.875262260437012;19.707082748413086;125.18314361572266
264;1673297889.8833792;47.1307572;7.2403262999999995;-0.5420000553131104;1673297889.959616;-20.757410049438477;19.133630752563477;129.2108154296875
265;1673297890.077392;47.1307353;7.2403271;-1.2390000820159912;1673297890.150472;-20.415802001953125;19.11263084411621;131.32472229003906
266;1673297890.3223553;47.1307128;7.2403281999999995;-1.90500009059906;1673297890.4294937;-20.333486557006836;18.544755935668945;131.47190856933594
267;1673297890.530354;47.1306885;7.2403296;-2.5920000076293945;1673297890.5866392;-20.338245391845703;18.716575622558594;131.4315948486328
268;1673297890.7024124;47.1306625;7.2403312;-3.3000001907348633;1673297890.774833;-20.30728530883789;18.65199089050293;131.39794921875
269;1673297890.9146633;47.1306349;7.2403331;-4.025000095367432;1673297890.9923406;-20.225692749023438;18.616966247558594;131.38421630859375
270;1673297891.1178746;47.1306067;7.240335399999999;-4.577000141143799;1673297891.1784437;-20.088319778442383;18.51774787902832;131.35879516601562
271;1673297891.2868693;47.1305771;7.2403381;-5.123000144958496;1673297891.3478565;-19.97736358642578;18.69012451171875;131.3726806640625
272;1673297891.4637108;47.1305471;7.2403413;-0.7540000081062317;1673297891.528096;-19.85393524169922;18.740867614746094;131.3303985595703
273;1673297891.661628;47.1305151;7.240344599999999;-0.3190000057220459;1673297891.7340083;-19.83664321899414;18.7324275970459;131.33547973632812
274;1673297891.8569608;47.1304811;7.2403482;-0.12000000476837158;1673297891.9314163;-19.842315673828125;18.81431770324707;131.27247619628906
275;1673297892.0609229;47.1304454;7.240351899999999;-0.046000003814697266;1673297892.130867;-19.79990005493164;19.01396942138672;131.22866821289062
276;1673297892.2776654;47.130407999999996;7.240355999999999;-0.04000000283122063;1673297892.3489885;-19.763662338256836;19.142301559448242;131.20481872558594
277;1673297892.487498;47.130368999999995;7.2403603;-0.05900000408291817;1673297892.5526738;-19.73903465270996;19.250104904174805;131.17025756835938
278;1673297892.6859546;47.1303285;7.240364899999999;-0.1120000034570694;1673297892.7588565;-19.697370529174805;19.36857032775879;131.12953186035156
279;1673297892.9067988;47.1302865;7.2403697;-0.15300001204013824;1673297892.9807494;-19.672121047973633;19.38084602355957;131.1201629638672
280;1673297893.1012022;47.1302431;7.2403748;-0.16900001466274261;1673297893.1728697;-19.636795043945312;19.380258560180664;131.13768005371094
281;1673297893.2938368;47.130198199999995;7.2403802;-0.17100000381469727;1673297893.3637393;-19.635770797729492;19.42381477355957;131.11068725585938
282;1673297893.4938173;47.1301518;7.240385799999999;-0.1720000058412552;1673297893.560616;-19.649513244628906;19.444334030151367;131.0897979736328
283;1673297893.685827;47.130103899999995;7.2403917;-0.17500001192092896;1673297893.7528949;-19.59149169921875;19.44753074645996;131.06907653808594
284;1673297893.889794;47.1300545;7.2403979;-0.2240000069141388;1673297893.952749;-19.609169006347656;19.426151275634766;131.06289672851562
285;1673297894.0780008;47.130003699999996;7.2404044;-0.24900001287460327;1673297894.1497378;-19.540916442871094;19.314571380615234;131.10244750976562
286;1673297894.2816586;47.129951399999996;7.240411099999999;-0.2460000067949295;1673297894.3518236;-19.579126358032227;19.250747680664062;131.0806884765625
287;1673297894.48192;47.1298977;7.240418099999999;-0.23600001633167267;1673297894.5627496;-19.544485092163086;19.242488861083984;131.02667236328125
288;1673297894.6887453;47.129842499999995;7.2404253;-0.22300000488758087;1673297894.7478254;-19.514524459838867;19.21865463256836;131.04403686523438
289;1673297894.8714468;47.129785899999995;7.2404328;-0.21300001442432404;1673297894.9376922;-19.48686408996582;19.2154598236084;130.9796905517578
290;1673297895.0637808;47.1297277;7.2404405999999994;-0.2110000103712082;1673297895.1359954;-19.48209571838379;19.143835067749023;130.9799041748047
291;1673297895.2688305;47.1297183;7.240441799999999;-0.2550000250339508;1673297895.3489633;-19.43734359741211;19.127010345458984;130.9417724609375
292;;;;;1673297895.585803;-19.484027862548828;19.09253692626953;130.9013214111328
293;;;;;1673297895.7977018;-19.436948776245117;19.007070541381836;130.912841796875
294;;;;;1673297896.0128927;-19.407691955566406;18.90704917907715;130.8836669921875
295;;;;;1673297896.1879325;-19.429340362548828;18.850603103637695;130.8436279296875
296;;;;;1673297896.4248273;-19.43657684326172;18.736618041992188;130.83631896972656
297;;;;;1673297896.615776;-19.441417694091797;18.37443733215332;130.81707763671875
