;pos_time;latitude;longitude;altitude;alt_time;pitch;roll;yaw
0;1673298750.0842757;47.1306425;7.2406201;-0.018000001087784767;1673298750.236935;-0.035955846309661865;0.0375441238284111;90.18733978271484
1;1673298750.2857394;47.1306425;7.2406201999999995;-0.020000001415610313;1673298750.4467764;0.11667608469724655;-0.1775408387184143;90.31057739257812
2;1673298750.494722;47.1306425;7.2406201999999995;-0.02200000174343586;1673298750.661379;0.08228175342082977;-0.2354021966457367;90.37094116210938
3;1673298750.7152517;47.1306425;7.2406201999999995;-0.027000000700354576;1673298750.8601904;0.13588014245033264;-0.2092491239309311;90.4478530883789
4;1673298750.9170134;47.1306425;7.2406201999999995;-0.02800000086426735;1673298751.0519044;-0.10003380477428436;-0.13271130621433258;90.15274047851562
5;1673298751.089992;47.1306425;7.2406201999999995;-0.03100000135600567;1673298751.2472434;-0.002987893996760249;-0.16188493371009827;90.24689483642578
6;1673298751.3005407;47.1306425;7.2406201999999995;-0.03500000014901161;1673298751.4677563;0.08987177163362503;-0.1557983160018921;90.29983520507812
7;1673298751.508842;47.1306424;7.2406201;-0.036000002175569534;1673298751.6502419;0.07105780392885208;-0.21958482265472412;90.36518859863281
8;1673298751.6955006;47.1306424;7.24062;-0.04000000283122063;1673298751.8405042;-0.15774942934513092;-0.09280712157487869;90.23532104492188
9;1673298751.8816075;47.1306425;7.24062;-0.04100000113248825;1673298752.0369663;-0.183670774102211;-0.1702384501695633;90.15502166748047
10;1673298752.0857718;47.1306425;7.2406201;-0.04000000283122063;1673298752.2420518;-0.1028759554028511;-0.3490687608718872;90.31627655029297
11;1673298752.28988;47.1306424;7.2406201;-0.039000000804662704;1673298752.4609473;-0.019016873091459274;-0.08942734450101852;90.26968383789062
12;1673298752.5051203;47.1306424;7.2406201;-0.04100000113248825;1673298752.6651213;-0.06631824374198914;-0.24244177341461182;90.1923599243164
13;1673298752.706314;47.1306424;7.24062;-0.03800000250339508;1673298752.8757565;0.11554834246635437;-0.08859014511108398;90.03081512451172
14;1673298752.9213495;47.1306424;7.24062;-0.03100000135600567;1673298753.0655127;0.03475925698876381;-0.12177811563014984;90.13444519042969
15;1673298753.104121;47.1306424;7.2406198999999996;0.003000000026077032;1673298753.255963;0.008456134237349033;-0.13379116356372833;90.3500747680664
16;1673298753.2969654;47.1306424;7.2406198999999996;0.007000000216066837;1673298753.4613028;-0.07995932549238205;-0.35493192076683044;90.23310852050781
17;1673298753.5019026;47.1306424;7.24062;0.01100000087171793;1673298753.6676846;-0.29061028361320496;-0.09790598601102829;90.14030456542969
18;1673298753.7112772;47.1306424;7.24062;0.015000000596046448;1673298753.858396;-0.05560440197587013;-0.2640089690685272;90.13407135009766
19;1673298753.9054077;47.1306423;7.2406201;0.018000001087784767;1673298754.0598376;-0.12713390588760376;-0.080113485455513;90.09020233154297
20;1673298754.100797;47.1306423;7.2406201;0.01600000075995922;1673298754.257088;-0.36216863989830017;-0.36429697275161743;90.16634368896484
21;1673298754.3008032;47.1306423;7.2406201;0.014000000432133675;1673298754.4408786;-0.5552266836166382;-0.446508526802063;90.12442016601562
22;1673298754.4848132;47.1306423;7.2406201999999995;0.012000000104308128;1673298754.6769233;-0.6605418920516968;-0.5859227776527405;90.25194549560547
23;1673298754.7189615;47.1306423;7.2406201999999995;0.0;1673298754.8764215;-0.8000760078430176;-0.2265295684337616;90.05461883544922
24;1673298754.9168515;47.1306423;7.2406203;-0.0010000000474974513;1673298755.0559013;-0.7847102284431458;-0.23499877750873566;90.02877807617188
25;1673298755.1059468;47.1306423;7.2406203;-0.0020000000949949026;1673298755.2698512;-0.7507216930389404;-0.15377318859100342;89.92330169677734
26;1673298755.3108158;47.1306423;7.2406203;-0.0020000000949949026;1673298755.4578428;-0.8068087100982666;-0.11974471062421799;90.20252227783203
27;1673298755.505844;47.1306423;7.2406203;-0.004000000189989805;1673298755.6557813;-0.9079091548919678;0.04462394863367081;90.07807159423828
28;1673298755.698347;47.1306423;7.2406203;-0.007000000216066837;1673298755.8661377;-1.156407117843628;-0.11070368438959122;90.03971099853516
29;1673298755.9108987;47.1306423;7.2406204;-0.01100000087171793;1673298756.0850942;-1.257995367050171;-0.19137372076511383;89.24853515625
30;1673298756.1288404;47.1306423;7.2406204999999995;-0.017000000923871994;1673298756.2780516;0.780775785446167;0.10636592656373978;86.42353820800781
31;1673298756.335912;47.1306423;7.2406212;-0.01900000125169754;1673298756.474977;4.768126487731934;-0.35711342096328735;86.36637115478516
32;1673298756.5159078;47.1306423;7.2406228;-0.01100000087171793;1673298756.6688502;10.947210311889648;-0.09451143443584442;84.76512145996094
33;1673298756.7099853;47.1306424;7.2406253;-0.0010000000474974513;1673298756.859747;15.293452262878418;0.2687935531139374;84.45741271972656
34;1673298756.9007347;47.1306424;7.2406288;0.009000000543892384;1673298757.051911;15.83969783782959;-2.0064032077789307;84.87853240966797
35;1673298757.0968595;47.1306424;7.240633;0.032999999821186066;1673298757.2519886;16.283767700195312;-1.991273045539856;85.61613464355469
36;1673298757.297904;47.1306424;7.2406378;0.07600000500679016;1673298757.4652941;17.725811004638672;-0.22110743820667267;86.74344635009766
37;1673298757.516781;47.1306425;7.2406429999999995;0.13100001215934753;1673298757.6698327;19.46006965637207;-0.350580632686615;87.28375244140625
38;1673298757.7149777;47.130642599999995;7.2406486;0.1990000158548355;1673298757.8686929;21.31158447265625;-2.0522844791412354;87.27670288085938
39;1673298757.9141512;47.1306428;7.2406543999999995;0.2800000011920929;1673298758.0684001;23.260345458984375;-0.5372072458267212;87.81055450439453
40;1673298758.1167865;47.130643;7.24066;0.3790000081062317;1673298758.2766771;25.341283798217773;0.5353601574897766;88.28962707519531
41;1673298758.315757;47.1306431;7.240665399999999;0.49400001764297485;1673298758.4724512;27.387720108032227;-0.9630904793739319;88.19615936279297
42;1673298758.514987;47.130643299999996;7.2406704;0.6240000128746033;1673298758.6680636;29.49762535095215;-0.901037335395813;88.35124206542969
43;1673298758.71357;47.1306434;7.2406747;0.7640000581741333;1673298758.865386;31.668750762939453;0.8922706842422485;89.06622314453125
44;1673298758.9110138;47.1306435;7.2406783;0.9050000309944153;1673298759.1125357;33.805152893066406;-0.02867302857339382;88.9226303100586
45;1673298759.1605868;47.1306435;7.2406809999999995;1.0480000972747803;1673298759.3551583;35.99242401123047;-0.2759919762611389;88.96121978759766
46;1673298759.390342;47.1306436;7.2406827;1.196000099182129;1673298759.563919;38.2281379699707;0.7078425288200378;89.38807678222656
47;1673298759.5963004;47.1306435;7.2406833;1.350000023841858;1673298759.7246428;40.42920684814453;0.18060095608234406;89.23910522460938
48;1673298759.757812;47.1306435;7.2406827;1.505000114440918;1673298759.9061399;42.63307571411133;-0.3086177110671997;77.17327880859375
49;1673298759.948097;47.1306435;7.2406806999999995;1.66100013256073;1673298760.0972877;44.158870697021484;-7.570207118988037;77.78086853027344
50;1673298760.1329548;47.1306434;7.2406771999999995;1.8220001459121704;1673298760.2596853;46.481693267822266;-3.7248477935791016;78.55768585205078
51;1673298760.3150928;47.1306437;7.240672099999999;1.9900001287460327;1673298760.4640968;43.27461624145508;-1.5786821842193604;79.1768569946289
52;1673298760.5124853;47.1306441;7.2406657;2.1570000648498535;1673298760.7210498;39.016807556152344;1.5775482654571533;80.27320098876953
53;1673298760.762928;47.1306447;7.240658499999999;2.320000171661377;1673298760.904008;34.02177429199219;4.471042633056641;80.7730712890625
54;1673298760.945007;47.130645099999995;7.2406511;2.4740002155303955;1673298761.0920079;29.241809844970703;4.834419250488281;80.61981964111328
55;1673298761.1403964;47.1306453;7.2406441;2.622000217437744;1673298761.281703;25.226070404052734;5.6990461349487305;80.80529022216797
56;1673298761.3235345;47.1306452;7.2406378;2.759000062942505;1673298761.4956744;21.9576416015625;5.316193580627441;80.78819274902344
57;1673298761.5502365;47.1306447;7.2406324;2.890000104904175;1673298761.7024343;19.797061920166016;4.370254993438721;81.42530059814453
58;1673298761.7444043;47.130644;7.2406282;3.0230002403259277;1673298761.9005492;19.202476501464844;1.4094630479812622;81.6894302368164
59;1673298761.936219;47.130643;7.2406253;3.1660001277923584;1673298762.0776603;19.948816299438477;-2.5294196605682373;81.11322784423828
60;1673298762.121161;47.130641999999995;7.240623599999999;3.325000047683716;1673298762.273623;21.62153434753418;-2.616544723510742;81.22538757324219
61;1673298762.3166254;47.1306411;7.2406229;3.504000186920166;1673298762.4723294;23.605525970458984;-4.571969509124756;81.9271469116211
62;1673298762.514834;47.130640299999996;7.2406229;3.695000171661377;1673298762.6671534;25.53788185119629;-8.234211921691895;80.72351837158203
63;1673298762.7161732;47.1306398;7.240623299999999;3.892000198364258;1673298762.868263;27.20952796936035;-6.361312389373779;80.98441314697266
64;1673298762.915838;47.130639599999995;7.2406239;4.091000080108643;1673298763.088048;28.996862411499023;-4.479416847229004;81.42979431152344
65;1673298763.1287515;47.130639699999996;7.2406244;4.2910003662109375;1673298763.2688768;29.64336395263672;-6.548399448394775;80.859375
66;1673298763.3055305;47.13064;7.2406247;4.490000247955322;1673298763.4613488;29.758609771728516;-4.587343692779541;80.90676879882812
67;1673298763.5148468;47.1306404;7.240624599999999;4.687000274658203;1673298763.6744554;29.6534423828125;-1.6511796712875366;81.4404525756836
68;1673298763.7150629;47.130640899999996;7.2406244;4.88700008392334;1673298763.8680642;29.423725128173828;-3.1312785148620605;80.68722534179688
69;1673298763.91423;47.130641499999996;7.2406239999999995;5.085000038146973;1673298764.0706072;28.851646423339844;-2.5798492431640625;80.60478973388672
70;1673298764.1145768;47.1306419;7.240623599999999;5.279000282287598;1673298764.2742696;28.522048950195312;-0.0768308937549591;81.32706451416016
71;1673298764.3214147;47.130642099999996;7.2406231;5.474000453948975;1673298764.4676645;27.95115852355957;-2.038517713546753;80.66983032226562
72;1673298764.5150568;47.1306423;7.2406226;5.670000076293945;1673298764.6653035;27.266429901123047;-3.3173887729644775;80.40472412109375
73;1673298764.7126966;47.1306423;7.240622;5.866000175476074;1673298764.863275;27.06094741821289;-0.5226661562919617;81.31885528564453
74;1673298764.9054003;47.1306423;7.2406216;6.060000419616699;1673298765.0610487;26.7979793548584;-2.272548198699951;80.86329650878906
75;1673298765.113916;47.1306423;7.2406213;6.253000259399414;1673298765.2747486;26.675783157348633;-4.239561557769775;80.33817291259766
76;1673298765.3250515;47.1306423;7.240621;6.445000171661377;1673298765.472874;26.87938690185547;-1.8246982097625732;81.02764129638672
77;1673298765.5211394;47.1306423;7.2406209;6.636000156402588;1673298765.6752832;27.164506912231445;-2.081772804260254;81.10791778564453
78;1673298765.7145698;47.1306422;7.2406209;6.831000328063965;1673298765.869259;27.157121658325195;-4.805386066436768;80.2968521118164
79;1673298765.9133384;47.1306422;7.2406209;7.025000095367432;1673298766.0728896;27.29464340209961;-2.620114326477051;80.76780700683594
80;1673298766.1280723;47.1306423;7.240620799999999;7.217000484466553;1673298766.2930663;27.61672592163086;-1.3749773502349854;81.25464630126953
81;1673298766.3621871;47.1306423;7.2406209;7.4110002517700195;1673298766.5377426;27.586889266967773;-4.2566609382629395;80.26670837402344
82;1673298766.5718892;47.1306424;7.2406209;7.607000350952148;1673298766.7023609;27.519779205322266;-2.912221908569336;80.65412139892578
83;1673298766.7410927;47.1306425;7.2406209;7.802000522613525;1673298766.900184;27.73602867126465;-0.9980025291442871;81.32811737060547
84;1673298766.9438167;47.1306424;7.240620799999999;7.999000549316406;1673298767.085141;27.550735473632812;-3.9276459217071533;80.54023742675781
85;1673298767.1261704;47.1306424;7.240620799999999;8.196000099182129;1673298767.2640846;27.481855392456055;-4.063066005706787;80.3174057006836
86;1673298767.304112;47.1306424;7.240620799999999;8.393000602722168;1673298767.4561973;27.53122329711914;-1.1587374210357666;81.24503326416016
87;1673298767.5001175;47.1306424;7.2406207;8.589000701904297;1673298767.662427;27.622846603393555;-3.2175662517547607;80.80241394042969
88;1673298767.7102954;47.1306424;7.2406207;8.789000511169434;1673298767.8698761;27.461700439453125;-4.032410144805908;80.32306671142578
89;1673298767.9130867;47.1306424;7.2406207;8.99000072479248;1673298768.0569885;27.63282012939453;-1.216862678527832;81.1549072265625
90;1673298768.1065152;47.1306424;7.240620799999999;9.188000679016113;1673298768.2532792;27.757139205932617;-2.6312170028686523;81.02334594726562
91;1673298768.2983541;47.1306424;7.240620799999999;9.384000778198242;1673298768.473008;27.607513427734375;-4.486501693725586;80.40322875976562
92;1673298768.5189161;47.1306424;7.240620799999999;9.580000877380371;1673298768.7097726;27.7774600982666;-1.7023746967315674;81.03137969970703
93;1673298768.7752678;47.1306424;7.240620799999999;9.777000427246094;1673298768.91296;27.672840118408203;-1.793383002281189;81.03533935546875
94;1673298768.960166;47.1306424;7.2406207;9.97700023651123;1673298769.1323605;27.580772399902344;-4.394099712371826;80.28985595703125
95;1673298769.1724048;47.1306425;7.2406206;10.183000564575195;1673298769.3157866;26.54623031616211;-2.3121495246887207;80.74620056152344
96;1673298769.360849;47.1306425;7.2406203;10.483000755310059;1673298769.51155;28.5244140625;-1.7225736379623413;81.14450073242188
97;1673298769.5569472;47.1306424;7.2406197;10.863000869750977;1673298769.6868644;27.170686721801758;-3.4625909328460693;80.66958618164062
98;1673298769.7380044;47.1306423;7.2406191;11.25200080871582;1673298769.8796546;25.581016540527344;-3.537666082382202;80.47354125976562
99;1673298769.9202344;47.1306422;7.2406184;11.646000862121582;1673298770.0782044;25.294921875;-1.182366967201233;81.254638671875
100;1673298770.1148558;47.1306422;7.240617899999999;12.046000480651855;1673298770.2608898;24.915851593017578;-2.787696123123169;80.71330261230469
101;1673298770.3058052;47.1306423;7.2406177;12.453001022338867;1673298770.473336;24.86351203918457;-3.5709598064422607;80.41592407226562
102;1673298770.5263526;47.1306423;7.2406177;12.862000465393066;1673298770.681187;25.400959014892578;-1.2311691045761108;81.02322387695312
103;1673298770.7256708;47.1306423;7.2406178;13.273000717163086;1673298770.8814902;25.803707122802734;-2.1957552433013916;81.0448989868164
104;1673298770.9240172;47.1306423;7.2406181;13.682001113891602;1673298771.0947995;26.0577392578125;-4.262668609619141;80.39765167236328
105;1673298771.1341708;47.1306423;7.2406182999999995;14.090001106262207;1673298771.292353;26.400588989257812;-1.8325119018554688;80.9661636352539
106;1673298771.3324108;47.1306423;7.2406185999999995;14.498001098632812;1673298771.5012252;26.856746673583984;-1.5431374311447144;81.14537811279297
107;1673298771.543419;47.1306424;7.2406188;14.905000686645508;1673298771.6912649;26.780977249145508;-4.026272296905518;80.46197509765625
108;1673298771.7339802;47.1306424;7.240618899999999;15.313000679016113;1673298771.8802211;26.83143424987793;-2.6016170978546143;80.7703857421875
109;1673298771.9267313;47.1306424;7.240619;15.725000381469727;1673298772.0942333;26.957569122314453;-1.3940497636795044;81.18900299072266
110;1673298772.1435905;47.1306423;7.240619;16.138999938964844;1673298772.277064;26.728139877319336;-4.020934581756592;80.43238830566406
111;1673298772.343768;47.1306423;7.2406191;16.554000854492188;1673298772.4900575;26.73882484436035;-3.1606521606445312;80.64611053466797
112;1673298772.5394154;47.1306423;7.2406191;16.964000701904297;1673298772.695574;26.66762924194336;-1.2077611684799194;81.22193145751953
113;1673298772.7466903;47.1306424;7.2406191;17.369001388549805;1673298772.936022;26.584327697753906;-3.558382749557495;80.5482406616211
114;1673298772.9773433;47.1306424;7.2406191;17.775001525878906;1673298773.123399;26.477142333984375;-3.2529566287994385;80.45951843261719
115;1673298773.1643872;47.1306425;7.240619;18.183000564575195;1673298773.3045185;26.60763931274414;-1.0894544124603271;81.1762466430664
116;1673298773.3450658;47.1306425;7.240619;18.591001510620117;1673298773.485467;26.538429260253906;-2.8060383796691895;80.7880630493164
117;1673298773.5260422;47.1306425;7.2406191;18.996000289916992;1673298773.6741574;26.476806640625;-3.9272658824920654;80.4135513305664
118;1673298773.7151563;47.1306425;7.2406191;19.4010009765625;1673298773.8718753;26.753204345703125;-1.3802032470703125;81.11316680908203
119;1673298773.922625;47.1306425;7.2406191;19.802000045776367;1673298774.0736558;26.590856552124023;-2.1091134548187256;81.01203918457031
120;1673298774.1137087;47.1306425;7.2406191;20.201000213623047;1673298774.2711124;26.607812881469727;-4.206678867340088;80.36933898925781
121;1673298774.3160088;47.1306425;7.2406191;20.60300064086914;1673298774.4685814;26.56600570678711;-2.169523239135742;80.87992095947266
122;1673298774.5067968;47.1306425;7.2406191;21.007001876831055;1673298774.6805983;26.742238998413086;-1.6760711669921875;81.0692138671875
123;1673298774.7255306;47.1306424;7.240619;21.41200065612793;1673298774.879608;26.524404525756836;-4.156707763671875;80.39582824707031
124;1673298774.9239542;47.1306424;7.240619;21.815000534057617;1673298775.0746732;26.492137908935547;-2.8663315773010254;80.6764144897461
125;1673298775.1240296;47.1306425;7.240619;22.21500015258789;1673298775.281591;26.63268280029297;-1.1353284120559692;81.2257080078125
126;1673298775.324203;47.1306425;7.240619;22.615001678466797;1673298775.5234501;26.65229034423828;-3.618927240371704;80.64299774169922
127;1673298775.566928;47.1306425;7.240619;23.018001556396484;1673298775.701708;26.55854034423828;-3.360849142074585;80.47698211669922
128;1673298775.7434106;47.1306425;7.240619;23.422000885009766;1673298775.8953733;26.55959701538086;-0.9820258617401123;81.27115631103516
129;1673298775.9369144;47.1306425;7.240619;23.825000762939453;1673298776.091954;26.55220603942871;-2.948803424835205;80.83572387695312
130;1673298776.1393173;47.1306425;7.240619;24.231000900268555;1673298776.2923436;26.434938430786133;-3.847882032394409;80.3552017211914
131;1673298776.3407762;47.1306425;7.240619;24.635000228881836;1673298776.4879482;26.519384384155273;-1.113986849784851;81.1578598022461
132;1673298776.5333824;47.1306425;7.240619;25.033000946044922;1673298776.692193;26.740978240966797;-2.4324893951416016;80.92320251464844
133;1673298776.730583;47.1306425;7.240619;25.429000854492188;1673298776.8826401;26.43739891052246;-3.8432490825653076;80.40804290771484
134;1673298776.9226384;47.130642599999995;7.240619;25.828001022338867;1673298777.0865011;26.587146759033203;-1.6349189281463623;80.92029571533203
135;1673298777.1265504;47.130642599999995;7.240619;26.229001998901367;1673298777.3018496;26.6118221282959;-1.7555700540542603;81.03739929199219
136;1673298777.3434186;47.1306425;7.2406191;26.63500213623047;1673298777.521119;26.468658447265625;-4.09188175201416;80.4063720703125
137;1673298777.5646336;47.1306425;7.240619199999999;27.038002014160156;1673298777.7364137;26.773765563964844;-2.6732873916625977;80.640625
138;1673298777.8185353;47.1306425;7.240619199999999;27.435001373291016;1673298777.951505;26.748516082763672;-1.3576595783233643;81.16352844238281
139;1673298777.9891217;47.1306425;7.2406193;27.832000732421875;1673298778.1200318;26.68317413330078;-3.712109088897705;80.58258819580078
140;1673298778.159741;47.1306425;7.2406193;28.233001708984375;1673298778.2959895;26.66499137878418;-3.07585072517395;80.60481262207031
141;1673298778.3360968;47.1306425;7.2406193;28.636001586914062;1673298778.481847;26.832927703857422;-1.072295904159546;81.22120666503906
142;1673298778.5263052;47.1306424;7.2406194;29.040000915527344;1673298778.6762297;26.69610023498535;-3.423182725906372;80.59925842285156
143;1673298778.7285142;47.1306424;7.2406194;29.44500160217285;1673298778.8927324;26.496309280395508;-3.8334310054779053;80.38953399658203
144;1673298778.9368396;47.1306424;7.2406194;29.849000930786133;1673298779.0877452;26.687589645385742;-1.2404370307922363;81.07009887695312
145;1673298779.1401906;47.1306424;7.2406194;30.251001358032227;1673298779.3016207;26.722076416015625;-2.7671241760253906;80.7603759765625
146;1673298779.369666;47.1306424;7.2406194;30.652002334594727;1673298779.5192683;26.673452377319336;-3.9405698776245117;80.38960266113281
147;1673298779.5573773;47.1306424;7.240619499999999;31.056001663208008;1673298779.7085862;26.738374710083008;-1.7442187070846558;80.97901916503906
148;1673298779.754787;47.1306424;7.240619499999999;31.46200180053711;1673298779.901794;26.79383087158203;-1.980652093887329;81.03165435791016
149;1673298779.949236;47.1306424;7.240619499999999;31.869001388549805;1673298780.1280239;26.602216720581055;-4.217082977294922;80.45641326904297
150;1673298780.2072232;47.1306424;7.240619499999999;32.272003173828125;1673298780.3638413;26.67591094970703;-2.4068474769592285;80.89754486083984
151;1673298780.4501739;47.1306424;7.2406196;32.669002532958984;1673298780.5748038;26.823514938354492;-1.3628052473068237;81.20809173583984
152;1673298780.6230407;47.1306424;7.2406196;33.069000244140625;1673298780.7495804;26.69028663635254;-3.9468088150024414;80.53888702392578
153;1673298780.787679;47.1306424;7.2406196;33.474002838134766;1673298780.9254515;26.71638298034668;-2.9675216674804688;80.68596649169922
154;1673298780.9645207;47.1306425;7.2406196;33.880001068115234;1673298781.0999885;26.732654571533203;-1.0596871376037598;81.24344635009766
155;1673298781.1441183;47.1306424;7.2406196;34.28600311279297;1673298781.2991984;26.699050903320312;-3.5851528644561768;80.61676788330078
156;1673298781.352916;47.1306424;7.2406196;34.69300079345703;1673298781.5148642;26.64250946044922;-3.3992202281951904;80.54846954345703
157;1673298781.5659661;47.1306425;7.2406196;35.099002838134766;1673298781.6982691;26.72323989868164;-0.8630886673927307;81.2895278930664
158;1673298781.7450936;47.1306425;7.2406196;35.496002197265625;1673298781.8906684;26.816884994506836;-3.0298573970794678;80.77045440673828
159;1673298781.9381022;47.130642599999995;7.2406196;35.89500045776367;1673298782.1018996;26.585351943969727;-3.6145145893096924;80.4615478515625
160;1673298782.1405354;47.130642599999995;7.2406196;36.301002502441406;1673298782.3002856;26.83125114440918;-1.1169517040252686;81.15879821777344
161;1673298782.3458943;47.130642599999995;7.2406197;36.70600128173828;1673298782.492002;26.79930877685547;-2.6082615852355957;80.88069915771484
162;1673298782.5345054;47.1306425;7.2406197;37.112003326416016;1673298782.6934803;26.67334747314453;-4.034574031829834;80.29191589355469
163;1673298782.7617793;47.1306425;7.240619799999999;37.5160026550293;1673298782.9045227;26.830852508544922;-1.6244641542434692;81.01448059082031
164;1673298782.9500427;47.130642599999995;7.240619799999999;37.913002014160156;1673298783.096585;26.826496124267578;-1.9284653663635254;80.99271392822266
165;1673298783.143356;47.130642599999995;7.240619799999999;38.30900192260742;1673298783.2951763;26.77088165283203;-4.169551849365234;80.30667877197266
166;1673298783.3367167;47.130642599999995;7.240619799999999;38.70900344848633;1673298783.4818676;26.805683135986328;-2.366183280944824;80.80177307128906
167;1673298783.5281124;47.1306425;7.240619799999999;39.11000061035156;1673298783.6770875;26.8712100982666;-1.4800797700881958;81.20924377441406
168;1673298783.722307;47.1306425;7.240619799999999;39.51400375366211;1673298783.8808732;26.639057159423828;-4.102415084838867;80.4496078491211
169;1673298783.9296803;47.1306424;7.240619799999999;39.9170036315918;1673298784.0899875;26.733444213867188;-2.9155421257019043;80.6771240234375
170;1673298784.1461768;47.1306425;7.240619799999999;40.32100296020508;1673298784.3049521;26.915334701538086;-1.2263870239257812;81.25784301757812
171;1673298784.353486;47.1306425;7.240619799999999;40.720001220703125;1673298784.555794;26.77625274658203;-3.707993745803833;80.60670471191406
172;1673298784.5960646;47.1306425;7.240619799999999;41.118003845214844;1673298784.7643323;26.681842803955078;-3.2824275493621826;80.60487365722656
173;1673298784.802397;47.1306425;7.240619799999999;41.522003173828125;1673298784.9269261;26.937931060791016;-1.2805078029632568;81.21257019042969
174;1673298784.9627836;47.1306425;7.240619799999999;41.93000030517578;1673298785.10394;26.840669631958008;-3.0531558990478516;80.72046661376953
175;1673298785.1464555;47.1306425;7.240619799999999;42.336002349853516;1673298785.3310828;26.7014102935791;-4.124461650848389;80.4056625366211
176;1673298785.3722816;47.1306425;7.240619799999999;42.74100112915039;1673298785.5276506;26.793498992919922;-1.3292986154556274;81.1358642578125
177;1673298785.567821;47.1306425;7.240619799999999;43.13900375366211;1673298785.717193;26.928659439086914;-2.2014288902282715;80.86903381347656
178;1673298785.7804008;47.130642599999995;7.240619799999999;43.535003662109375;1673298785.9416502;26.703060150146484;-4.0706024169921875;80.33084106445312
179;1673298785.984601;47.130642599999995;7.240619799999999;43.935001373291016;1673298786.150778;26.734411239624023;-2.1988604068756104;80.97174072265625
180;1673298786.18792;47.130642599999995;7.2406197;44.336002349853516;1673298786.3440397;26.852176666259766;-1.4148468971252441;81.18472290039062
181;1673298786.384056;47.1306425;7.2406197;44.7390022277832;1673298786.533514;26.59159278869629;-4.115682125091553;80.38229370117188
182;1673298786.5847344;47.1306425;7.2406197;45.14400100708008;1673298786.7274551;26.609569549560547;-2.65564227104187;80.6785659790039
183;1673298786.7652018;47.130642599999995;7.2406197;45.55000305175781;1673298786.9211063;26.713674545288086;-1.0927271842956543;81.17462158203125
184;1673298786.9638307;47.130642599999995;7.2406196;45.94600296020508;1673298787.1136997;26.683122634887695;-3.8087317943573;80.49007415771484
185;1673298787.1562116;47.1306425;7.2406196;46.3390007019043;1673298787.315164;26.553009033203125;-3.4448447227478027;80.5661392211914
186;1673298787.360742;47.1306425;7.2406196;46.7400016784668;1673298787.5044723;26.741172790527344;-1.1750456094741821;81.19538879394531
187;1673298787.55686;47.1306425;7.2406196;47.14400100708008;1673298787.7149193;26.75699806213379;-3.305434226989746;80.67334747314453
188;1673298787.7629066;47.1306424;7.2406196;47.552001953125;1673298787.8999758;26.665267944335938;-4.036306858062744;80.42327880859375
189;1673298787.9422545;47.1306424;7.2406197;47.95900344848633;1673298788.089097;26.8598690032959;-1.9072315692901611;81.03193664550781
190;1673298788.1361032;47.1306425;7.240619799999999;48.33400344848633;1673298788.2925403;27.208160400390625;-3.03875470161438;80.91333770751953
191;1673298788.3355544;47.1306425;7.24062;48.656002044677734;1673298788.488146;27.05365753173828;-3.869265556335449;80.48096466064453
192;1673298788.532115;47.1306425;7.2406203;48.93400192260742;1673298788.681854;27.665409088134766;-1.4564632177352905;81.11093139648438
193;1673298788.7238166;47.130642599999995;7.2406207;49.17000198364258;1673298788.8771524;28.38950538635254;-2.097160816192627;80.92054748535156
194;1673298788.9249759;47.130642599999995;7.2406212;49.367000579833984;1673298789.0857515;37.7982292175293;1.787858486175537;76.31865692138672
195;1673298789.1340117;47.1306425;7.240621399999999;49.52300262451172;1673298789.2967472;37.6985969543457;-3.424757480621338;62.61227798461914
196;1673298789.345825;47.1306418;7.240621099999999;49.624000549316406;1673298789.4897604;26.084489822387695;-14.572608947753906;53.49015426635742
197;1673298789.5337825;47.130640799999995;7.2406206;49.685001373291016;1673298789.6799011;28.277746200561523;-18.079715728759766;44.209938049316406
198;1673298789.7199616;47.130639599999995;7.2406198999999996;49.73100280761719;1673298789.8698254;22.640199661254883;-22.815767288208008;34.829219818115234
199;1673298789.9136436;47.130638399999995;7.240618899999999;49.772003173828125;1673298790.0759003;16.67683219909668;-27.523839950561523;25.44381332397461
200;1673298790.1188724;47.1306373;7.2406178;49.810001373291016;1673298790.2736843;10.303970336914062;-29.472360610961914;15.839892387390137
201;1673298790.3178506;47.1306363;7.2406165;49.84300231933594;1673298790.4847271;3.998161554336548;-29.757984161376953;6.448458671569824
202;1673298790.5362644;47.1306355;7.2406153;49.868003845214844;1673298790.6897888;-1.7344273328781128;-28.875770568847656;-3.0516529083251953
203;1673298790.73296;47.130634799999996;7.2406143;49.88200378417969;1673298790.8778567;-6.3843913078308105;-27.555320739746094;-12.284786224365234
204;1673298790.9221718;47.1306344;7.2406133;49.893001556396484;1673298791.079812;-10.922429084777832;-25.329326629638672;-21.219451904296875
205;1673298791.1227856;47.130634;7.240612499999999;49.90900421142578;1673298791.2797666;-14.575443267822266;-22.77256202697754;-30.151744842529297
206;1673298791.3260753;47.1306338;7.240611899999999;49.927001953125;1673298791.4779549;-17.069923400878906;-20.40825080871582;-38.82392501831055
207;1673298791.519915;47.130633499999995;7.2406114;49.945003509521484;1673298791.671331;-19.27300262451172;-18.76565933227539;-47.25196075439453
208;1673298791.7123094;47.1306333;7.2406109999999995;49.9640007019043;1673298791.8627298;-21.14617156982422;-17.798442840576172;-51.99614334106445
209;1673298791.905673;47.1306331;7.2406109;49.98400115966797;1673298792.0581148;-20.85614013671875;-20.346420288085938;-48.432472229003906
210;1673298792.1020563;47.130632999999996;7.2406108;49.99500274658203;1673298792.2524607;-19.89190673828125;-21.46809959411621;-45.74304962158203
211;1673298792.2974997;47.1306331;7.2406109;50.005001068115234;1673298792.4509673;-20.092987060546875;-20.44874382019043;-45.47611999511719
212;1673298792.4941063;47.1306332;7.2406111;50.02100372314453;1673298792.6475325;-19.992830276489258;-19.576196670532227;-45.35051345825195
213;1673298792.690492;47.1306333;7.2406114;50.03700256347656;1673298792.8452585;-20.080034255981445;-19.735889434814453;-45.14364242553711
214;1673298792.8887444;47.1306333;7.240611599999999;50.052001953125;1673298793.0455241;-19.843517303466797;-20.772220611572266;-44.92012023925781
215;1673298793.0909567;47.1306332;7.2406117;50.060001373291016;1673298793.2457263;-19.635738372802734;-22.251773834228516;-44.74160385131836
216;1673298793.2901893;47.1306331;7.240611599999999;50.05900192260742;1673298793.4439735;-19.418079376220703;-23.588834762573242;-44.5487060546875
217;1673298793.4884584;47.1306331;7.2406115;50.05800247192383;1673298793.6453402;-19.70482063293457;-23.423782348632812;-44.53797912597656
218;1673298793.6888444;47.1306331;7.2406115;50.06500244140625;1673298793.8491433;-20.12799644470215;-21.27894401550293;-44.7628173828125
219;1673298793.8942783;47.1306331;7.2406115;50.073001861572266;1673298794.0461552;-22.929180145263672;-19.203182220458984;-45.02210235595703
220;1673298794.0901177;47.1306331;7.240611299999999;50.079002380371094;1673298794.2583404;-40.5943717956543;-15.839327812194824;-45.410621643066406
221;1673298794.3104737;47.130633499999995;7.240610599999999;50.092002868652344;1673298794.4849868;-52.551109313964844;-12.082857131958008;-46.9886360168457
222;1673298794.5308652;47.130635;7.2406083;50.10700225830078;1673298794.6814525;-60.22742462158203;-9.002476692199707;-48.633338928222656
223;1673298794.7254853;47.130638399999995;7.240603699999999;50.105003356933594;1673298794.8778462;-57.23420333862305;-8.020207405090332;-50.78862762451172
224;1673298794.922524;47.130644;7.2405968;50.086002349853516;1673298795.0720596;-51.89723587036133;-7.513211727142334;-51.07483673095703
225;1673298795.1147125;47.130651199999996;7.240588499999999;50.070003509521484;1673298795.2677004;-53.43208694458008;-8.654528617858887;-50.30070877075195
226;1673298795.31187;47.1306595;7.240578999999999;50.05900192260742;1673298795.4678257;-54.988426208496094;-9.230676651000977;-49.52851867675781
227;1673298795.5120826;47.130668899999996;7.240568499999999;50.03300094604492;1673298795.663871;-51.64533233642578;-10.492779731750488;-49.031028747558594
228;1673298795.7112164;47.130679199999996;7.2405569;49.999000549316406;1673298795.8638895;-50.045860290527344;-11.831927299499512;-49.039161682128906
229;1673298795.9103246;47.130690099999995;7.2405446;49.961002349853516;1673298796.0638378;-48.08811569213867;-13.50911808013916;-49.53315734863281
230;1673298796.1097844;47.1307012;7.2405316;49.92500305175781;1673298796.2740636;-47.75635528564453;-11.948139190673828;-51.92058563232422
231;1673298796.3178527;47.1307125;7.2405181999999995;49.900001525878906;1673298796.482155;-47.852622985839844;-11.765125274658203;-51.8614616394043
232;1673298796.533024;47.1307239;7.2405043;49.88200378417969;1673298796.6865232;-47.55588912963867;-12.566986083984375;-51.39327621459961
233;1673298796.7277634;47.1307352;7.2404901;49.871002197265625;1673298796.8779292;-47.57390594482422;-13.592580795288086;-51.323368072509766
234;1673298796.9208086;47.1307465;7.2404755;49.867000579833984;1673298797.0720146;-47.4012336730957;-15.450187683105469;-51.23102951049805
235;1673298797.1149166;47.1307577;7.2404606;49.867000579833984;1673298797.2690961;-46.19255065917969;-17.817174911499023;-51.32209777832031
236;1673298797.3131227;47.130768499999995;7.240445299999999;49.867000579833984;1673298797.4680097;-44.18336486816406;-21.711027145385742;-51.495887756347656
237;1673298797.512904;47.130778899999996;7.2404296;49.86600112915039;1673298797.6650505;-41.3153190612793;-28.521900177001953;-51.927371978759766
238;1673298797.7087936;47.1307885;7.2404135;49.871002197265625;1673298797.8612823;-33.94717788696289;-39.17464828491211;-53.29426193237305
239;1673298797.905857;47.1307966;7.2403971;49.87800216674805;1673298798.0598557;-15.4617919921875;-41.854583740234375;-58.083953857421875
240;1673298798.1031692;47.1308027;7.2403808;49.85900115966797;1673298798.2572513;5.6140923500061035;-22.26776695251465;-60.904937744140625
241;1673298798.3005922;47.1308067;7.2403666;49.78300094604492;1673298798.457999;11.949053764343262;-13.304563522338867;-48.73246765136719
242;1673298798.5015287;47.130809;7.2403562;49.730003356933594;1673298798.6579595;31.249996185302734;-26.15772819519043;-44.820159912109375
243;1673298798.7017033;47.130809199999995;7.240349999999999;49.746002197265625;1673298798.8582091;34.615501403808594;-27.6197452545166;-41.63302993774414
244;1673298798.9018762;47.1308067;7.2403471999999995;49.76100158691406;1673298799.0570083;27.515647888183594;-31.18045997619629;-42.03841781616211
245;1673298799.1018643;47.1308017;7.240347099999999;49.78400421142578;1673298799.2575867;9.262762069702148;-31.74872589111328;-42.95481872558594
246;1673298799.307023;47.1307949;7.2403488;49.83000183105469;1673298799.4778354;-0.24674133956432343;-27.494693756103516;-46.45681381225586
247;1673298799.5247695;47.130787299999994;7.2403514;49.87700271606445;1673298799.690229;1.0623754262924194;-23.65283203125;-48.043697357177734
248;1673298799.7337546;47.130779399999994;7.2403547999999995;49.9170036315918;1673298799.8897994;5.73763370513916;-22.87491226196289;-48.33884811401367
249;1673298799.9342532;47.1307714;7.240359199999999;49.95100402832031;1673298800.1007555;9.747599601745605;-24.27128028869629;-48.08047103881836
250;1673298800.1445704;47.1307632;7.2403645999999995;49.98100280761719;1673298800.2977676;6.664555549621582;-27.593786239624023;-47.5430908203125
251;1673298800.344225;47.130754499999995;7.2403707;50.005001068115234;1673298800.4984062;2.9012115001678467;-26.681161880493164;-48.3365478515625
252;1673298800.5448477;47.130745499999996;7.2403773;50.01900100708008;1673298800.6950028;5.505881309509277;-11.986041069030762;-48.91609191894531
253;1673298800.740679;47.1307365;7.2403846;50.022003173828125;1673298800.8935986;-3.4167425632476807;7.539830684661865;-49.39014434814453
254;1673298800.9361138;47.1307283;7.2403933;50.012001037597656;1673298801.087082;-22.486804962158203;40.35810470581055;-55.31235885620117
255;1673298801.129609;47.1307213;7.2404033;49.85100173950195;1673298801.2814498;-33.77729797363281;82.69142150878906;-69.19751739501953
256;1673298801.323964;47.130714399999995;7.2404135;49.30900192260742;1673298801.4767964;-36.38462829589844;121.90898132324219;-80.80792999267578
257;1673298801.5193224;47.1307074;7.240424;48.40400314331055;1673298801.6721082;-40.88928985595703;147.13670349121094;-84.0478515625
258;1673298801.7148597;47.130700499999996;7.2404345;47.13800048828125;1673298801.8666892;-55.84193420410156;158.38827514648438;-82.37545776367188
259;1673298801.912139;47.130693799999996;7.2404454;45.50800323486328;1673298802.0650234;-84.26044464111328;127.46834564208984;-46.871116638183594
260;1673298802.1075528;47.1306872;7.240456399999999;43.518001556396484;1673298802.2633035;-47.79393005371094;-2.7191102504730225;83.05587768554688
261;1673298802.3118398;47.1306807;7.240467199999999;41.16600036621094;1673298802.4708612;7.648190975189209;-7.439937591552734;79.03059387207031
262;1673298802.521675;47.130674299999995;7.2404778;38.409000396728516;1673298802.682303;51.52600860595703;-24.905067443847656;67.20175170898438
263;1673298802.7294495;47.1306679;7.240488699999999;35.25600051879883;1673298802.8887854;68.23184204101562;-46.455116271972656;52.66061782836914
264;1673298802.932899;47.130661599999996;7.2405;31.76000213623047;1673298803.091667;57.94928741455078;-29.17469024658203;79.12525177001953
265;1673298803.137256;47.130655399999995;7.2405117;27.93600082397461;1673298803.2939887;15.498379707336426;-16.50938606262207;105.43885040283203
266;1673298803.337457;47.1306492;7.2405238999999995;23.760000228881836;1673298803.492423;-37.826480865478516;-21.739852905273438;126.1839370727539
267;1673298803.539562;47.1306429;7.240536199999999;19.18400001525879;1673298803.6955988;-64.93363952636719;-41.69914627075195;157.4071502685547
268;1673298803.746987;47.1306368;7.240547899999999;14.248001098632812;1673298803.8942838;-56.12233352661133;-25.632564544677734;150.48519897460938
269;1673298803.936507;47.1306308;7.240559299999999;8.997000694274902;1673298804.088351;-9.567253112792969;-5.1920976638793945;139.40286254882812
270;1673298804.1299715;47.1306253;7.240570399999999;3.4040000438690186;1673298804.2828617;-2.052727699279785;5.157401084899902;133.82052612304688
271;1673298804.3253825;47.130621399999995;7.240574199999999;0.3960000276565552;1673298804.4775333;-6.840070724487305;1.3508052825927734;127.94816589355469
272;1673298804.5207522;47.1306217;7.2405655;0.8100000619888306;1673298804.6721647;-1.2927623987197876;3.2445876598358154;127.3808364868164
273;1673298804.7147076;47.1306228;7.2405558;1.0540000200271606;1673298804.868496;-1.2330291271209717;3.034080982208252;127.03252410888672
274;1673298804.9119868;47.1306237;7.2405463;1.224000096321106;1673298805.0629776;-1.367040753364563;3.197537899017334;127.04759216308594
275;1673298805.1060035;47.1306242;7.2405368999999995;1.3960000276565552;1673298805.2593272;-1.326621651649475;3.345538854598999;127.07657623291016
276;1673298805.3022823;47.130624399999995;7.2405285;1.558000087738037;1673298805.4566116;-1.5486886501312256;2.9307632446289062;127.23420715332031
277;1673298805.5054028;47.1306243;7.2405219999999995;1.665000081062317;1673298805.662661;-1.4688153266906738;2.9037253856658936;127.36915588378906
278;1673298805.7085865;47.130624;7.240517199999999;1.7410000562667847;1673298805.870636;-1.586620569229126;2.8349435329437256;127.71665954589844
279;1673298805.9152956;47.1306236;7.2405140999999995;1.8030000925064087;1673298806.0741942;-1.773647665977478;2.733018398284912;127.76844787597656
280;1673298806.121585;47.1306231;7.2405126;1.8560000658035278;1673298806.2766316;-1.9543371200561523;2.3039391040802;128.0677947998047
281;1673298806.3228102;47.1306224;7.2405105;1.937000036239624;1673298806.4759731;-2.02693772315979;2.536255121231079;128.1790313720703
282;1673298806.5180948;47.1306217;7.2405095;2.0250000953674316;1673298806.6732848;-2.172560453414917;2.2877860069274902;128.48641967773438
283;1673298806.7252588;47.130621;7.240511199999999;2.0840001106262207;1673298806.8947113;-2.4621095657348633;2.257389545440674;128.6531982421875
284;1673298806.9460387;47.130620199999996;7.2405145;2.128000020980835;1673298807.1198616;-2.3824756145477295;2.227938652038574;128.9329833984375
285;1673298807.1647594;47.1306193;7.2405187;2.1610000133514404;1673298807.3240664;-2.5604546070098877;2.195620536804199;129.14657592773438
286;1673298807.3723028;47.130618299999995;7.2405232999999996;2.186000108718872;1673298807.5137641;-2.8308160305023193;2.087672233581543;129.33273315429688
287;1673298807.556045;47.1306187;7.2405313;2.2150001525878906;1673298807.7042956;-3.1461360454559326;1.7240701913833618;129.83486938476562
288;1673298807.7482953;47.1306204;7.2405408;2.2700002193450928;1673298807.8996918;-3.0626111030578613;1.6124131679534912;130.04803466796875
289;1673298807.9409688;47.1306218;7.2405482999999995;2.325000047683716;1673298808.0992022;-3.2374982833862305;1.300870656967163;130.20758056640625
290;1673298808.145638;47.1306235;7.2405558999999995;2.3470001220703125;1673298808.3143935;-3.084871530532837;1.3029334545135498;130.27064514160156
291;1673298808.3675005;47.1306248;7.240561899999999;2.3460001945495605;1673298808.5206382;-3.289947986602783;1.1958649158477783;130.36355590820312
292;1673298808.564093;47.130625699999996;7.2405665;2.327000141143799;1673298808.7129533;-3.410468339920044;1.1271648406982422;130.49447631835938
293;1673298808.7564275;47.130626;7.2405697;2.2990000247955322;1673298808.910198;-3.303440570831299;1.6233665943145752;130.45941162109375
294;1673298808.9541717;47.1306258;7.2405716;2.2880001068115234;1673298809.1131504;-3.2856059074401855;1.5754907131195068;130.48898315429688
295;1673298809.157858;47.1306254;7.2405728;2.2750000953674316;1673298809.3113842;-3.3255114555358887;1.5906611680984497;130.670654296875
296;1673298809.3529263;47.130625099999996;7.2405738;2.239000082015991;1673298809.5088396;-3.23563551902771;1.338046669960022;130.6772003173828
297;1673298809.5548224;47.1306248;7.2405747;2.193000078201294;1673298809.7067251;-3.1183204650878906;1.0867000818252563;130.7151336669922
298;1673298809.7502286;47.130624499999996;7.240575499999999;2.139000177383423;1673298809.9071681;-3.0996150970458984;0.9043749570846558;130.74269104003906
299;1673298809.952298;47.1306241;7.240576099999999;2.0810000896453857;1673298810.1131537;-3.0995373725891113;1.1120392084121704;130.63758850097656
300;1673298810.1576328;47.1306237;7.2405766;2.0190000534057617;1673298810.3136883;-2.980895519256592;0.6433461308479309;130.76573181152344
301;1673298810.3563647;47.130623;7.240577;1.9650001525878906;1673298810.5142987;-2.8313486576080322;0.8245130181312561;130.65818786621094
302;1673298810.560427;47.1306224;7.240577399999999;1.9140000343322754;1673298810.7174773;-2.8839597702026367;0.7718043923377991;130.6796417236328
303;1673298810.7619386;47.1306219;7.240577699999999;1.849000096321106;1673298810.9203799;-2.8281712532043457;0.5746086239814758;130.76205444335938
304;1673298810.9633265;47.1306216;7.240577999999999;1.7750000953674316;1673298811.1155152;-2.8477883338928223;1.1961289644241333;130.7041473388672
305;1673298811.1600838;47.130621399999995;7.2405782;1.721000075340271;1673298811.3220792;-2.4632277488708496;1.0787245035171509;130.66842651367188
306;1673298811.364516;47.1306212;7.2405783999999995;-0.009000000543892384;1673298811.5122578;-2.5713319778442383;1.1395502090454102;130.5889129638672
307;1673298811.5545602;47.130620699999994;7.2405786999999995;-0.05000000074505806;1673298811.705818;-2.4897561073303223;1.0103598833084106;130.63377380371094
308;1673298811.750823;47.1306203;7.240578999999999;-0.11100000888109207;1673298811.9039288;-2.522108554840088;0.9360929727554321;130.66343688964844
309;1673298811.946324;47.13062;7.240579299999999;-0.18200001120567322;;;;
