;pos_time;latitude;longitude;altitude;alt_time;pitch;roll;yaw
0;1673298584.8495872;47.1306424;7.24062;-0.029000001028180122;1673298584.8720553;0.1631150245666504;-0.31908127665519714;90.16706085205078
1;1673298585.0536385;47.1306424;7.2406201;-0.03200000151991844;1673298585.0770745;0.1371995508670807;-0.23216411471366882;90.21935272216797
2;1673298585.2540643;47.1306424;7.24062;-0.03500000014901161;1673298585.2765126;0.34783995151519775;-0.3099870979785919;90.20015716552734
3;1673298585.4555314;47.1306424;7.2406198999999996;-0.039000000804662704;1673298585.4789546;0.33877241611480713;-0.3074485659599304;90.38826751708984
4;1673298585.6449764;47.1306424;7.2406198999999996;-0.039000000804662704;1673298585.6664855;0.10568945109844208;-0.35028165578842163;90.40951538085938
5;1673298585.8483777;47.1306424;7.240619799999999;-0.04200000315904617;1673298585.872768;0.02106587588787079;-0.2156372368335724;90.32843780517578
6;1673298586.0584888;47.1306424;7.240619799999999;-0.046000003814697266;1673298586.0838656;-0.10879301279783249;-0.321654736995697;90.46174621582031
7;1673298586.2651703;47.1306424;7.240619799999999;-0.049000002443790436;1673298586.2877219;-0.14546319842338562;-0.18413151800632477;90.32157897949219
8;1673298586.46294;47.1306424;7.2406198999999996;-0.049000002443790436;1673298586.4863641;-0.15327776968479156;-0.4426063299179077;90.45829010009766
9;1673298586.657384;47.1306424;7.2406198999999996;0.0010000000474974513;1673298586.6808786;-0.21136094629764557;-0.2215375155210495;90.4198226928711
10;1673298586.8490741;47.1306424;7.24062;0.007000000216066837;1673298586.8725004;0.012351863086223602;-0.37560465931892395;90.38021087646484
11;1673298587.060534;47.1306425;7.24062;0.009000000543892384;1673298587.0860531;-0.043738991022109985;-0.18511195480823517;90.50647735595703
12;1673298587.2634318;47.1306425;7.2406198999999996;0.01100000087171793;1673298587.2907662;0.1402168720960617;-0.4289085268974304;90.51753234863281
13;1673298587.4651601;47.1306425;7.2406198999999996;0.014000000432133675;1673298587.488272;-0.13044993579387665;-0.27786359190940857;90.41712951660156
14;1673298587.6710844;47.130642599999995;7.240619799999999;0.01600000075995922;1673298587.69467;-0.28171366453170776;-0.07648669928312302;90.33818054199219
15;1673298587.8701484;47.130642599999995;7.240619799999999;0.01600000075995922;1673298587.8932557;-0.4057154655456543;-0.03138960152864456;90.40177917480469
16;1673298588.052503;47.130642599999995;7.240619799999999;0.01900000125169754;1673298588.076349;-0.2304481416940689;-0.0856393575668335;90.40005493164062
17;1673298588.2490795;47.130642699999996;7.2406198999999996;0.0020000000949949026;1673298588.2723446;-0.554040253162384;0.22128382325172424;90.40257263183594
18;1673298588.4533677;47.130642599999995;7.24062;0.005000000353902578;1673298588.4774966;-0.40387406945228577;0.04510234296321869;90.56657409667969
19;1673298588.6635125;47.130642599999995;7.24062;0.006000000052154064;1673298588.6811461;-0.5223307013511658;-0.3554930090904236;90.46614837646484
20;1673298588.8672302;47.130642599999995;7.24062;0.007000000216066837;1673298588.8883712;-0.6114845275878906;0.2226637601852417;90.57511138916016
21;1673298589.062513;47.130642599999995;7.2406201;0.006000000052154064;1673298589.0852242;-0.5296140313148499;0.22661682963371277;90.40166473388672
22;1673298589.2814145;47.130642599999995;7.2406201;0.006000000052154064;1673298589.3052497;-0.4996430277824402;-0.1658770591020584;90.28401184082031
23;1673298589.470134;47.130642599999995;7.2406201;0.004000000189989805;1673298589.4902308;-0.5510965585708618;-0.19256015121936798;90.49044036865234
24;1673298589.6543143;47.130642599999995;7.2406201;0.003000000026077032;1673298589.679802;-0.641252875328064;-0.1224600300192833;90.40383911132812
25;1673298589.8481462;47.130642599999995;7.2406201;0.0;1673298589.8693583;-0.7117068767547607;-0.10717148333787918;90.93339538574219
26;1673298590.0572162;47.130642599999995;7.2406203;-0.0010000000474974513;1673298590.0804806;1.2152855396270752;-0.15060418844223022;93.91737365722656
27;1673298590.2622814;47.130642599999995;7.240621;0.010000000707805157;1673298590.2822013;6.328930854797363;0.21142469346523285;95.31195068359375
28;1673298590.4602566;47.130642599999995;7.2406220999999995;0.02500000037252903;1673298590.485268;14.019497871398926;1.4182606935501099;95.71410369873047
29;1673298590.6456625;47.130642599999995;7.2406235;0.04500000178813934;1673298590.6681588;16.517980575561523;1.2844290733337402;94.66848754882812
30;1673298590.8413134;47.130642599999995;7.2406251;0.07800000160932541;1673298590.8641932;16.810945510864258;0.12871487438678741;93.5415267944336
31;1673298591.0524817;47.1306425;7.240626799999999;0.12000000476837158;1673298591.0783908;17.925275802612305;2.721078634262085;93.31562805175781
32;1673298591.2553422;47.1306424;7.2406285;0.17400000989437103;1673298591.2765896;19.531108856201172;2.119313955307007;92.75568389892578
33;1673298591.4549813;47.1306424;7.2406299;0.23800000548362732;1673298591.4789417;21.477550506591797;-1.138161540031433;91.79981231689453
34;1673298591.6682124;47.1306424;7.240630899999999;0.31700000166893005;1673298591.6936781;23.502832412719727;0.7104578018188477;91.69715881347656
35;1673298591.8656018;47.1306423;7.2406314;0.4050000309944153;1673298591.8890595;25.509187698364258;2.1065244674682617;91.70738220214844
36;1673298592.0502648;47.1306424;7.2406312999999995;0.503000020980835;1673298592.073693;27.602651596069336;-1.1032782793045044;91.04254913330078
37;1673298592.2459679;47.130642599999995;7.2406305;0.6060000061988831;1673298592.2693982;27.303739547729492;-0.8146646022796631;90.61480712890625
38;1673298592.4565265;47.130642699999996;7.240628999999999;0.7150000333786011;1673298592.4805036;25.239042282104492;2.466548442840576;90.99726867675781
39;1673298592.660862;47.1306429;7.240627099999999;0.8340000510215759;1673298592.6848276;22.982566833496094;0.8664833307266235;90.44671630859375
40;1673298592.8613408;47.1306429;7.240624899999999;0.9650000333786011;1673298592.8804426;20.391820907592773;-1.1610145568847656;89.6471176147461
41;1673298593.0598335;47.1306429;7.2406229;1.1060000658035278;1673298593.084785;18.136489868164062;1.3864606618881226;90.07051086425781
42;1673298593.2690003;47.1306428;7.240621099999999;1.25600004196167;1673298593.292976;16.411914825439453;1.7849082946777344;90.20816802978516
43;1673298593.4644225;47.1306429;7.2406197;1.4190000295639038;1673298593.48644;15.291681289672852;-1.67853844165802;89.32567596435547
44;1673298593.6685982;47.1306429;7.2406187;1.5950000286102295;1673298593.6935499;15.07789134979248;-0.5044375658035278;96.50839233398438
45;1673298593.88112;47.1306428;7.2406182;1.7780001163482666;1673298593.903569;15.363565444946289;2.8536293506622314;95.67922973632812
46;1673298594.0739894;47.1306428;7.2406182;1.968000054359436;1673298594.0969782;16.46432876586914;-0.6713937520980835;94.02529907226562
47;1673298594.2752652;47.130642699999996;7.2406182999999995;2.1590001583099365;1673298594.2973216;17.32950210571289;-2.08347225189209;92.82777404785156
48;1673298594.4749725;47.130642599999995;7.2406185999999995;2.3460001945495605;1673298594.4989288;18.421838760375977;0.7340108156204224;92.58756256103516
49;1673298594.7210608;47.1306425;7.240619;2.5350000858306885;1673298594.7386284;19.155353546142578;0.933895468711853;92.22111511230469
50;1673298594.9315758;47.130642599999995;7.2406193;2.7210001945495605;1673298594.9501338;19.670093536376953;-1.8828868865966797;91.38459777832031
51;1673298595.092971;47.130642699999996;7.240619499999999;2.9090001583099365;1673298595.1124902;19.847026824951172;0.0869220569729805;91.59908294677734
52;1673298595.2665448;47.1306428;7.2406196;3.0980000495910645;1673298595.287725;19.714242935180664;2.80204701423645;92.02647399902344
53;1673298595.4542615;47.1306428;7.2406197;3.2880001068115234;1673298595.4816;19.61191177368164;0.23287269473075867;91.60845947265625
54;1673298595.67713;47.130642699999996;7.2406197;3.4750001430511475;1673298595.7001314;19.305469512939453;-1.6443105936050415;91.18016052246094
55;1673298595.8697991;47.1306425;7.2406197;3.6650002002716064;1673298595.8929756;19.418203353881836;0.9629136323928833;91.65863800048828
56;1673298596.072715;47.1306423;7.240619799999999;3.8610002994537354;1673298596.0942247;19.413286209106445;0.981268048286438;91.8890380859375
57;1673298596.258945;47.1306423;7.240619799999999;4.056000232696533;1673298596.281405;19.319358825683594;-1.7450402975082397;91.41349029541016
58;1673298596.447789;47.1306423;7.240619799999999;4.246000289916992;1673298596.4704437;19.248271942138672;-0.6113606691360474;91.69547271728516
59;1673298596.6539855;47.1306423;7.2406197;4.436000347137451;1673298596.6813707;19.20330238342285;2.3627185821533203;92.17562103271484
60;1673298596.8940651;47.1306424;7.2406197;4.628000259399414;1673298596.9175987;19.09063720703125;0.7570210099220276;91.8427963256836
61;1673298597.1112947;47.1306423;7.2406197;4.819000244140625;1673298597.1775265;18.924068450927734;-1.8944995403289795;91.24427032470703
62;1673298597.325094;47.1306422;7.2406197;5.011000156402588;1673298597.3465672;19.04574966430664;1.3360425233840942;91.83672332763672
63;1673298597.51117;47.130642099999996;7.2406196;5.204000473022461;1673298597.5277436;18.83652114868164;1.7735533714294434;92.04499816894531
64;1673298597.678872;47.130642099999996;7.2406196;5.395000457763672;1673298597.6999145;19.001066207885742;-1.624974012374878;91.59603881835938
65;1673298597.8560212;47.130641999999995;7.2406196;5.586000442504883;1673298597.878656;19.037734985351562;-0.9064990282058716;91.85556030273438
66;1673298598.0474849;47.130641999999995;7.2406196;5.78000020980835;1673298598.0728528;18.89086151123047;2.443138360977173;92.26872253417969
67;1673298598.2470565;47.1306422;7.2406196;5.975000381469727;1673298598.2695837;18.825061798095703;0.5153506994247437;91.81839752197266
68;1673298598.4691827;47.1306423;7.2406197;6.170000076293945;1673298598.4931986;18.98809051513672;-1.276816487312317;91.48686981201172
69;1673298598.6596615;47.1306423;7.2406197;6.362000465393066;1673298598.686017;18.921741485595703;2.214858293533325;92.04441833496094
70;1673298598.8562603;47.1306422;7.240619799999999;6.551000118255615;1673298598.8816614;19.04281997680664;1.4873312711715698;92.03231048583984
71;1673298599.0558195;47.1306422;7.240619799999999;6.741000175476074;1673298599.081256;19.0740966796875;-1.8925725221633911;91.53643798828125
72;1673298599.26463;47.1306422;7.240619799999999;6.933000564575195;1673298599.2880576;18.998470306396484;0.3125775158405304;91.75025939941406
73;1673298599.454536;47.1306423;7.2406198999999996;7.128000259399414;1673298599.4761755;19.186250686645508;2.588520050048828;91.92981719970703
74;1673298599.658605;47.1306424;7.2406198999999996;7.322000503540039;1673298599.680081;19.072721481323242;-0.38501760363578796;91.71417999267578
75;1673298599.8667865;47.1306425;7.24062;7.51800012588501;1673298599.8912222;19.178375244140625;-0.8189071416854858;91.51420593261719
76;1673298600.0650163;47.1306424;7.2406201;7.716000556945801;1673298600.086546;19.165395736694336;2.654110908508301;92.0906982421875
77;1673298600.2545047;47.1306424;7.2406201;7.910000324249268;1673298600.27997;18.95423126220703;1.3340102434158325;91.91710662841797
78;1673298600.469455;47.1306424;7.2406201;8.105000495910645;1673298600.4919374;19.08426284790039;-1.9994901418685913;91.42003631591797
79;1673298600.6745515;47.1306423;7.2406201;8.302000045776367;1673298600.6965778;19.06037139892578;0.48204734921455383;91.6694564819336
80;1673298600.8704138;47.1306423;7.2406201999999995;8.498000144958496;1673298600.893012;19.31178092956543;2.315927267074585;91.98706817626953
81;1673298601.0614617;47.1306424;7.2406201999999995;8.696000099182129;1673298601.0848885;19.246191024780273;-0.609607458114624;91.72661590576172
82;1673298601.2753503;47.1306425;7.2406201999999995;8.895000457763672;1673298601.2969525;19.191404342651367;-0.6803240776062012;91.58594512939453
83;1673298601.515709;47.1306425;7.2406201999999995;9.092000007629395;1673298601.5479171;19.238004684448242;2.803382635116577;92.15011596679688
84;1673298601.721754;47.1306425;7.2406201999999995;9.289000511169434;1673298601.7442007;19.0318660736084;1.040753722190857;91.695556640625
85;1673298601.9095058;47.1306425;7.2406201999999995;9.487000465393066;1673298601.9319866;19.053014755249023;-1.736636996269226;91.3988037109375
86;1673298602.0928588;47.1306424;7.2406203;9.6850004196167;1673298602.1179538;19.131196975708008;1.2853888273239136;91.7584228515625
87;1673298602.2724676;47.1306425;7.2406203;9.882000923156738;1673298602.2950392;19.20148277282715;2.3460280895233154;92.03247833251953
88;1673298602.472452;47.130642599999995;7.2406204;10.082000732421875;1673298602.495908;19.352073669433594;-1.0184926986694336;91.63164520263672
89;1673298602.6673625;47.130642599999995;7.2406204;10.315000534057617;1673298602.6899025;19.548608779907227;0.45589354634284973;91.75399017333984
90;1673298602.8610218;47.130642699999996;7.24062;10.658000946044922;1673298602.884616;20.955533981323242;3.3946316242218018;92.39463806152344
91;1673298603.0603642;47.130642699999996;7.240619499999999;11.039000511169434;1673298603.085786;19.78805923461914;1.1668238639831543;92.02516174316406
92;1673298603.276306;47.130642599999995;7.240618899999999;11.430000305175781;1673298603.3022275;18.216503143310547;-0.6617543697357178;91.61276245117188
93;1673298603.4718988;47.1306424;7.2406182999999995;11.827000617980957;1673298603.5018454;17.186914443969727;1.4836550951004028;92.08496856689453
94;1673298603.6743534;47.1306423;7.2406179999999996;12.226000785827637;1673298603.6940458;16.45766258239746;1.471491813659668;92.2036361694336
95;1673298603.8768175;47.1306423;7.2406178;12.629000663757324;1673298603.9014351;16.48821258544922;-1.3081648349761963;91.58126068115234
96;1673298604.081654;47.1306423;7.2406178;13.028000831604004;1673298604.1042078;16.766389846801758;-0.04381537064909935;91.6944808959961
97;1673298604.269151;47.1306424;7.2406179999999996;13.422000885009766;1673298604.2964814;17.259227752685547;2.769188404083252;92.09244537353516
98;1673298604.4806468;47.1306424;7.2406182999999995;13.814001083374023;1673298604.504114;17.616470336914062;-0.13992764055728912;91.7370376586914
99;1673298604.6805127;47.1306423;7.2406187;14.208001136779785;1673298604.7044747;18.453210830688477;-0.9531432390213013;91.5136947631836
100;1673298604.8760085;47.1306422;7.240619;14.599000930786133;1673298604.8976197;18.78622055053711;1.8727149963378906;91.96782684326172
101;1673298605.068762;47.1306422;7.240619199999999;14.994000434875488;1673298605.0912309;18.973766326904297;1.1053447723388672;91.8777084350586
102;1673298605.2604718;47.1306422;7.2406194;15.38900089263916;1673298605.2868307;19.148653030395508;-1.4789663553237915;91.46056365966797
103;1673298605.4648223;47.1306423;7.240619499999999;15.783000946044922;1673298605.488257;19.146827697753906;1.195304036140442;91.80260467529297
104;1673298605.6666315;47.1306424;7.2406196;16.1820011138916;1673298605.6978664;19.12061309814453;2.8147647380828857;92.1596450805664
105;1673298605.913963;47.1306424;7.2406196;16.582000732421875;1673298605.932541;18.672321319580078;-0.4621691405773163;91.60759735107422
106;1673298606.0801103;47.1306423;7.240619499999999;16.985000610351562;1673298606.1050544;18.7032527923584;0.14206378161907196;91.6651840209961
107;1673298606.3445415;47.1306422;7.2406194;17.38800048828125;1673298606.3640628;18.507287979125977;2.3649206161499023;92.14298248291016
108;1673298606.5419958;47.1306422;7.2406194;17.792001724243164;1673298606.5606985;18.438993453979492;-0.009131171740591526;91.82099151611328
109;1673298606.714115;47.1306422;7.2406194;18.19700050354004;1673298606.7346098;18.295988082885742;-1.112912893295288;91.53416442871094
110;1673298606.9288309;47.1306422;7.2406193;18.59800148010254;1673298606.9474235;18.371017456054688;2.3299407958984375;91.94708251953125
111;1673298607.0969563;47.1306423;7.2406193;19.005001068115234;1673298607.1140935;18.361845016479492;1.0924789905548096;91.88727569580078
112;1673298607.2699294;47.1306423;7.2406194;19.411001205444336;1673298607.293505;18.426877975463867;-1.2368173599243164;91.49759674072266
113;1673298607.471608;47.1306423;7.2406194;19.81800079345703;1673298607.4950461;18.342437744140625;1.317441701889038;91.8482894897461
114;1673298607.6593866;47.1306422;7.2406194;20.225000381469727;1673298607.6809075;18.52713966369629;1.9057464599609375;92.05973815917969
115;1673298607.8529122;47.1306423;7.2406194;20.631000518798828;1673298607.87646;18.447660446166992;-0.681187629699707;91.66674041748047
116;1673298608.065365;47.1306423;7.2406194;21.02800178527832;1673298608.0888832;18.49966812133789;-0.6327949166297913;91.56688690185547
117;1673298608.2822704;47.1306424;7.2406194;21.427001953125;1673298608.3047838;18.490177154541016;2.703798770904541;92.03888702392578
118;1673298608.4833906;47.1306425;7.2406194;21.830001831054688;1673298608.5058463;18.6035213470459;1.5071042776107788;91.87237548828125
119;1673298608.6703382;47.1306425;7.2406194;22.233001708984375;1673298608.7099707;18.47446632385254;-0.747351348400116;91.5775146484375
120;1673298608.8776598;47.1306425;7.2406194;22.635000228881836;1673298608.9202244;18.692508697509766;1.554817795753479;91.92044830322266
121;1673298609.0809512;47.1306424;7.2406194;23.035001754760742;1673298609.1044214;18.380844116210938;1.9858916997909546;92.05955505371094
122;1673298609.293345;47.1306424;7.2406193;23.433000564575195;1673298609.31835;18.390411376953125;-0.7668339014053345;91.63520050048828
123;1673298609.511704;47.1306424;7.2406193;23.82400131225586;1673298609.5380566;18.570404052734375;0.019910182803869247;91.69146728515625
124;1673298609.6942697;47.1306425;7.2406193;24.216001510620117;1673298609.713864;18.49260139465332;2.77907395362854;92.17547607421875
125;1673298609.8768466;47.1306425;7.2406194;24.61100196838379;1673298609.8992982;18.456361770629883;0.8251817226409912;91.8709716796875
126;1673298610.0897985;47.130642599999995;7.2406194;25.00800132751465;1673298610.1118202;18.68376350402832;-0.725409746170044;91.59420013427734
127;1673298610.283206;47.1306425;7.2406194;25.406002044677734;1673298610.3036885;18.786949157714844;2.2904469966888428;91.99854278564453
128;1673298610.4777904;47.1306425;7.240619499999999;25.80000114440918;1673298610.5004084;18.597179412841797;1.6780872344970703;92.0438003540039
129;1673298610.7053816;47.1306425;7.240619499999999;26.192001342773438;1673298610.7361798;18.64250946044922;-1.1756268739700317;91.53772735595703
130;1673298610.8949144;47.1306424;7.240619499999999;26.588001251220703;1673298610.9160063;18.654541015625;0.5489933490753174;91.8113784790039
131;1673298611.0854294;47.1306425;7.240619499999999;26.985000610351562;1673298611.1079113;18.477663040161133;2.9053878784179688;92.16767883300781
132;1673298611.2917254;47.130642599999995;7.240619499999999;27.38300132751465;1673298611.3112507;18.59125328063965;0.26997435092926025;91.71635437011719
133;1673298611.4980097;47.130642699999996;7.240619499999999;27.783000946044922;1673298611.5219748;18.65314483642578;0.028100116178393364;91.51961517333984
134;1673298611.7154262;47.130642699999996;7.240619499999999;28.18600082397461;1673298611.7349358;18.6114559173584;3.0996434688568115;92.05181121826172
135;1673298611.9181306;47.130642599999995;7.240619499999999;28.58500099182129;1673298611.9362385;18.44773292541504;1.3166979551315308;91.9029541015625
136;1673298612.0887449;47.1306425;7.240619499999999;28.974000930786133;1673298612.1094086;18.52379608154297;-1.0809235572814941;91.55101013183594
137;1673298612.284938;47.1306424;7.240619499999999;29.365001678466797;1673298612.3075964;18.838062286376953;1.1976436376571655;91.80813598632812
138;1673298612.4745688;47.1306425;7.240619499999999;29.75800132751465;1673298612.497039;18.63805389404297;2.5846338272094727;92.09580993652344
139;1673298612.703716;47.1306425;7.240619499999999;30.1510009765625;1673298612.7277422;18.55206871032715;-0.843053936958313;91.59272766113281
140;1673298612.9142184;47.1306425;7.240619499999999;30.546001434326172;1673298612.9326034;18.715970993041992;0.30255386233329773;91.6304931640625
141;1673298613.0802832;47.1306425;7.240619499999999;30.939001083374023;1673298613.1027334;18.55544662475586;2.8166940212249756;92.1145248413086
142;1673298613.276847;47.1306425;7.240619499999999;31.328001022338867;1673298613.3012471;18.61876106262207;0.7503626942634583;91.80533599853516
143;1673298613.4722822;47.1306424;7.240619499999999;31.72300148010254;1673298613.4967408;18.491504669189453;-0.9983681440353394;91.48517608642578
144;1673298613.6801805;47.1306424;7.240619499999999;32.12000274658203;1673298613.7047338;18.545839309692383;2.1766724586486816;91.96941375732422
145;1673298613.8942935;47.1306425;7.240619499999999;32.518001556396484;1673298613.9158864;18.534971237182617;1.9357818365097046;91.99207305908203
146;1673298614.0875356;47.130642599999995;7.2406196;32.91699981689453;1673298614.1080315;18.652528762817383;-0.5312928557395935;91.55110931396484
147;1673298614.2966032;47.130642599999995;7.2406196;33.314002990722656;1673298614.3235092;18.62390899658203;1.5103403329849243;91.93907928466797
148;1673298614.505625;47.130642599999995;7.2406196;33.707000732421875;1673298614.5286698;18.569374084472656;3.227788209915161;92.20063018798828
149;1673298614.6853943;47.1306425;7.2406196;34.095001220703125;1673298614.7068763;18.595096588134766;-0.2629550099372864;91.76145935058594
150;1673298614.8833601;47.1306425;7.2406197;34.4900016784668;1673298614.9087389;18.732816696166992;-0.7390486001968384;91.6383056640625
151;1673298615.0842485;47.1306425;7.2406197;34.8910026550293;1673298615.1087255;18.681015014648438;2.381129264831543;92.05575561523438
152;1673298615.2965555;47.130642599999995;7.2406197;35.294002532958984;1673298615.3214927;18.578716278076172;1.7104883193969727;91.91034698486328
153;1673298615.4821403;47.1306428;7.2406197;35.695003509521484;1673298615.509471;18.629369735717773;-0.5424804091453552;91.52214050292969
154;1673298615.6886683;47.1306428;7.2406197;36.09000015258789;1673298615.7180166;18.51288604736328;1.7939237356185913;91.86553955078125
155;1673298615.9048884;47.1306429;7.2406197;36.48200225830078;1673298615.9279416;18.5479679107666;3.3353378772735596;92.16557312011719
156;1673298616.1098113;47.1306429;7.2406197;36.87700271606445;1673298616.1309788;18.531631469726562;0.26490941643714905;91.66890716552734
157;1673298616.3090038;47.1306429;7.240619799999999;37.27300262451172;1673298616.3310075;18.62447738647461;0.4513118267059326;91.63176727294922
158;1673298616.4965608;47.1306429;7.240619799999999;37.6670036315918;1673298616.520054;18.70911979675293;3.018491506576538;92.05280303955078
159;1673298616.6929994;47.1306429;7.240619799999999;38.0620002746582;1673298616.725767;18.545429229736328;1.4161285161972046;91.7962417602539
160;1673298616.8894558;47.1306429;7.240619799999999;38.45800018310547;1673298616.9119093;18.642473220825195;-0.5206131935119629;91.4365234375
161;1673298617.1004362;47.1306429;7.2406198999999996;38.85100173950195;1673298617.124607;18.59187889099121;2.5447299480438232;91.9282455444336
162;1673298617.3013444;47.1306428;7.2406198999999996;39.236000061035156;1673298617.3198895;18.56985855102539;2.6694304943084717;92.03257751464844
163;1673298617.4984417;47.1306428;7.2406198999999996;39.62800216674805;1673298617.519076;18.6754207611084;-0.7714206576347351;91.47026062011719
164;1673298617.695105;47.130642699999996;7.2406198999999996;40.02100372314453;1673298617.720544;18.63275146484375;1.2046680450439453;91.8046875
165;1673298617.9096532;47.130642699999996;7.2406198999999996;40.41400146484375;1673298617.9341717;18.74776840209961;2.740701913833618;92.11557006835938
166;1673298618.10948;47.130642699999996;7.2406198999999996;40.81100082397461;1673298618.130527;18.649208068847656;0.48820167779922485;91.81805419921875
167;1673298618.3178666;47.1306428;7.2406198999999996;41.20600128173828;1673298618.3379114;18.843965530395508;-0.16830898821353912;91.54934692382812
168;1673298618.5064764;47.1306428;7.2406198999999996;41.59600067138672;1673298618.528518;18.661174774169922;3.166133403778076;92.02507781982422
169;1673298618.701253;47.1306428;7.2406198999999996;41.992000579833984;1673298618.7237217;18.712453842163086;2.0134072303771973;91.88764953613281
170;1673298618.8883867;47.1306428;7.2406198999999996;42.3910026550293;1673298618.9127972;18.78998374938965;-0.622949481010437;91.47354125976562
171;1673298619.08854;47.130642699999996;7.2406198999999996;42.790000915527344;1673298619.1119745;18.63258171081543;2.187178611755371;91.9527359008789
172;1673298619.3077977;47.130642599999995;7.240619799999999;43.189002990722656;1673298619.3293068;18.534149169921875;2.3821094036102295;92.03595733642578
173;1673298619.5093143;47.130642599999995;7.240619799999999;43.58700180053711;1673298619.5323021;18.56821632385254;-0.608540415763855;91.58258056640625
174;1673298619.7132897;47.130642599999995;7.240619799999999;43.97900390625;1673298619.7398825;18.731191635131836;0.5627590417861938;91.71163940429688
175;1673298619.9466212;47.130642599999995;7.240619799999999;44.36600112915039;1673298619.9679565;18.560035705566406;3.4097418785095215;92.13597869873047
176;1673298620.181053;47.130642699999996;7.240619799999999;44.75600051879883;1673298620.2044926;18.63374137878418;0.6733023524284363;91.71955871582031
177;1673298620.3894267;47.130642599999995;7.2406197;45.14900207519531;1673298620.4041848;18.64094352722168;-0.22424021363258362;91.46810913085938
178;1673298620.5590858;47.130642599999995;7.2406197;45.54300308227539;1673298620.5776281;18.57588005065918;2.8976857662200928;91.98689270019531
179;1673298620.710317;47.1306425;7.2406197;45.94000244140625;1673298620.7328146;18.582460403442383;1.563995361328125;91.90453338623047
180;1673298620.9016466;47.1306425;7.2406196;46.33400344848633;1673298620.927135;18.538511276245117;-0.7854968905448914;91.51368713378906
181;1673298621.0929854;47.1306425;7.2406196;46.72500228881836;1673298621.1144779;18.50007438659668;1.5126910209655762;91.64594268798828
182;1673298621.3172085;47.130642599999995;7.2406196;47.125003814697266;1673298621.3362918;18.403928756713867;3.277585029602051;92.02635955810547
183;1673298621.484527;47.130642599999995;7.2406196;47.527000427246094;1673298621.5089254;18.439302444458008;0.6075108051300049;91.79936981201172
184;1673298621.6757832;47.1306425;7.2406196;47.928001403808594;1673298621.70133;18.58270263671875;-0.2347228229045868;91.54454803466797
185;1673298621.8830848;47.1306424;7.2406197;48.307003021240234;1673298621.904562;18.57307243347168;2.743622064590454;92.00186157226562
186;1673298622.07947;47.1306424;7.240619799999999;48.634002685546875;1673298622.102895;18.470558166503906;1.5665700435638428;91.73384857177734
187;1673298622.2777913;47.1306425;7.2406201;48.910003662109375;1673298622.300239;18.77400779724121;-0.8983250260353088;91.3786849975586
188;1673298622.4812667;47.1306425;7.2406204999999995;49.13300323486328;1673298622.5134747;19.0645694732666;1.461384654045105;91.54511260986328
189;1673298622.708183;47.1306425;7.2406209;49.32500076293945;1673298622.727696;22.6623477935791;5.43557596206665;91.82359313964844
190;1673298622.9046135;47.130642599999995;7.2406209;49.483001708984375;1673298622.9280417;30.01828384399414;0.7701644897460938;86.89924621582031
191;1673298623.1188173;47.1306425;7.2406207;49.55800247192383;1673298623.140008;15.258935928344727;-0.6471346020698547;75.66204833984375
192;1673298623.3006682;47.1306422;7.2406207;49.57100296020508;1673298623.3240948;22.671438217163086;-1.387824296951294;64.82778930664062
193;1673298623.4842656;47.130641499999996;7.2406206;49.592002868652344;1673298623.5056837;33.86206817626953;-8.681536674499512;54.94036865234375
194;1673298623.6858087;47.130640299999996;7.240619799999999;49.61900329589844;1673298623.7068293;17.70025634765625;-14.030914306640625;46.72308349609375
195;1673298623.8847396;47.130639099999996;7.2406187;49.66400146484375;1673298623.9085915;15.037558555603027;-16.846567153930664;37.70427703857422
196;1673298624.0966446;47.130637899999996;7.2406177;49.71000289916992;1673298624.1206365;13.247262001037598;-16.70990562438965;29.150686264038086
197;1673298624.2939215;47.1306368;7.2406166;49.75100326538086;1673298624.3174431;6.707123756408691;-17.16793441772461;19.473039627075195
198;1673298624.500575;47.130635999999996;7.240615699999999;49.785003662109375;1673298624.5235188;1.5052191019058228;-16.799518585205078;9.500033378601074
199;1673298624.7094634;47.1306352;7.2406149;49.81800079345703;1673298624.7327123;-3.309088706970215;-16.509010314941406;-0.245953768491745
200;1673298624.9436371;47.130634699999995;7.2406143;49.845001220703125;1673298624.9647658;-6.269388198852539;-17.564725875854492;-9.49687385559082
201;1673298625.1336956;47.1306345;7.240614;49.86000061035156;1673298625.1561484;-7.574254035949707;-18.70592498779297;-18.48896026611328
202;1673298625.3727365;47.1306345;7.2406139;49.87800216674805;1673298625.3898406;-9.029057502746582;-20.070058822631836;-27.177196502685547
203;1673298625.547685;47.1306345;7.2406139;49.89500427246094;1673298625.567858;-10.31959342956543;-19.331117630004883;-35.50347900390625
204;1673298625.7508779;47.1306344;7.2406139;49.913002014160156;1673298625.774709;-12.819442749023438;-16.6578369140625;-43.76058578491211
205;1673298625.960667;47.1306344;7.240613799999999;49.93300247192383;1673298625.9850118;-15.746439933776855;-14.773418426513672;-50.342369079589844
206;1673298626.154722;47.130634199999996;7.2406136;49.94400405883789;1673298626.1752245;-16.65177345275879;-12.139196395874023;-50.50028991699219
207;1673298626.3522007;47.130634099999995;7.240613199999999;49.94600296020508;1673298626.3747628;-15.159971237182617;-12.564970016479492;-47.48271942138672
208;1673298626.5431662;47.1306339;7.2406128;49.9530029296875;1673298626.5665903;-14.085079193115234;-14.309261322021484;-45.558475494384766
209;1673298626.7205856;47.1306338;7.2406124;49.961002349853516;1673298626.7401004;-13.075787544250488;-16.267175674438477;-45.04526901245117
210;1673298626.8979259;47.1306337;7.240612;49.96900177001953;1673298626.9199944;-12.546422958374023;-17.570579528808594;-44.745059967041016
211;1673298627.0983605;47.130633499999995;7.2406117;49.97600173950195;1673298627.1243217;-12.614439964294434;-18.065580368041992;-44.426021575927734
212;1673298627.2958627;47.1306333;7.240611299999999;49.97800064086914;1673298627.316535;-13.09457778930664;-16.90017318725586;-44.33036804199219
213;1673298627.4887218;47.1306331;7.2406109999999995;49.97600173950195;1673298627.512148;-13.771708488464355;-14.755494117736816;-44.56785583496094
214;1673298627.6923609;47.130632899999995;7.240610599999999;49.96600341796875;1673298627.714819;-13.8887357711792;-12.17911148071289;-44.94891357421875
215;1673298627.8897924;47.1306326;7.2406102;49.961002349853516;1673298627.9128637;-20.12859344482422;-11.383845329284668;-44.50128936767578
216;1673298628.0986886;47.1306327;7.2406095;49.970001220703125;1673298628.1236715;-39.20289611816406;-10.237348556518555;-45.69679260253906
217;1673298628.293268;47.1306338;7.240607499999999;49.98500061035156;1673298628.3137748;-51.81148910522461;-7.609118938446045;-47.08868408203125
218;1673298628.4805865;47.130636599999995;7.2406030999999995;49.992000579833984;1673298628.501232;-58.342674255371094;-5.537838935852051;-49.11855697631836
219;1673298628.6845744;47.1306417;7.2405959;49.98200225830078;1673298628.7082827;-56.9499397277832;-5.522894382476807;-51.22933578491211
220;1673298628.895072;47.130648699999995;7.240585899999999;49.97100067138672;1673298628.917333;-55.45344543457031;-3.837808847427368;-51.974369049072266
221;1673298629.1040254;47.1306571;7.2405741;49.96900177001953;1673298629.1251953;-53.945125579833984;-3.169930934906006;-51.140892028808594
222;1673298629.293127;47.1306669;7.240560599999999;49.96900177001953;1673298629.3162396;-54.31542205810547;-4.7423810958862305;-49.59165954589844
223;1673298629.501317;47.130677899999995;7.240545699999999;49.97500228881836;1673298629.5293941;-53.648014068603516;-6.2070159912109375;-49.04728317260742
224;1673298629.720661;47.1306898;7.2405297;49.97300338745117;1673298629.7443104;-54.189788818359375;-7.048203945159912;-49.04471206665039
225;1673298629.9363668;47.130702299999996;7.2405124999999995;49.95900344848633;1673298629.9583623;-52.518272399902344;-8.839864730834961;-49.615440368652344
226;1673298630.144082;47.1307153;7.2404945;49.941001892089844;1673298630.1682615;-49.2524528503418;-6.490050315856934;-51.29071807861328
227;1673298630.3360784;47.1307285;7.2404759;49.913002014160156;1673298630.3931835;-47.69354248046875;-7.056764602661133;-50.91168975830078
228;1673298630.5845454;47.130741799999996;7.2404568;49.89800262451172;1673298630.5987754;-47.34519577026367;-9.428309440612793;-50.18803024291992
229;1673298630.7514436;47.130755099999995;7.240437399999999;49.900001525878906;1673298630.777102;-47.8237190246582;-12.151515007019043;-50.050350189208984
230;1673298630.9391675;47.1307681;7.2404174999999995;49.90500259399414;1673298630.9613254;-47.562923431396484;-18.210819244384766;-49.42473220825195
231;1673298631.11697;47.1307805;7.240397;49.92500305175781;1673298631.1451242;-25.02016830444336;-12.522941589355469;-54.024497985839844
232;1673298631.322284;47.1307918;7.2403781;49.948001861572266;1673298631.3449051;20.63303565979004;-17.57646369934082;-51.38462829589844
233;1673298631.5183492;47.1308011;7.2403628;49.86100387573242;1673298631.5392666;25.104108810424805;-8.259411811828613;-55.27363967895508
234;1673298631.7222464;47.1308088;7.2403512999999995;49.612003326416016;1673298631.7470953;15.876527786254883;-4.951063632965088;-49.18093490600586
235;1673298631.9193444;47.1308146;7.2403442;49.380001068115234;1673298631.9433303;13.517244338989258;-4.819581031799316;-47.73967742919922
236;1673298632.1493094;47.1308185;7.240341099999999;49.272003173828125;1673298632.1725755;14.64002799987793;-8.362011909484863;-48.062625885009766
237;1673298632.3422852;47.1308206;7.2403414999999995;49.307003021240234;1673298632.3651075;29.727720260620117;-16.933528900146484;-46.83389663696289
238;1673298632.5571985;47.1308206;7.2403448;49.37600326538086;1673298632.5893047;33.59463882446289;-19.10699462890625;-43.80155944824219
239;1673298632.8119905;47.130818;7.2403504;49.4640007019043;1673298632.831685;31.768362045288086;-27.95210075378418;-42.895606994628906
240;1673298633.0131838;47.130812999999996;7.2403571;49.56100082397461;1673298633.0511632;15.383081436157227;-28.534635543823242;-42.71518325805664
241;1673298633.2154918;47.1308066;7.2403638;49.66200256347656;1673298633.2311196;-4.2753005027771;-25.47352409362793;-44.793434143066406
242;1673298633.3728435;47.1307999;7.240369599999999;49.75200271606445;1673298633.3923984;-16.096155166625977;-16.711341857910156;-47.87142562866211
243;1673298633.5603013;47.1307937;7.2403745;49.823001861572266;1673298633.582904;-10.97492790222168;-8.573808670043945;-49.490230560302734
244;1673298633.764656;47.1307882;7.2403793;49.87600326538086;1673298633.7883384;-3.768561840057373;-7.519073963165283;-49.75176239013672
245;1673298633.9660852;47.1307834;7.240384499999999;49.9170036315918;1673298633.9866245;3.9294357299804688;-4.122064590454102;-49.7800407409668
246;1673298634.128736;47.1307791;7.2403906;49.95000076293945;1673298634.1502085;1.7262285947799683;0.5296997427940369;-50.90827560424805
247;1673298634.3107972;47.1307751;7.2403977;49.97900390625;1673298634.331279;-4.0864176750183105;-7.663708209991455;-51.39669418334961
248;1673298634.546043;47.1307714;7.2404053;50.01000213623047;1673298634.5645883;-12.289430618286133;-13.644627571105957;-50.34648895263672
249;1673298634.7378743;47.1307681;7.2404125;50.03200149536133;1673298634.759353;-11.670599937438965;-8.01810073852539;-50.57298278808594
250;1673298634.947452;47.130765;7.2404195;49.94300079345703;1673298634.9699013;-12.150166511535645;-25.957870483398438;-48.8974723815918
251;1673298635.1523747;47.1307622;7.240426599999999;49.50300216674805;1673298635.174879;-9.071087837219238;-37.44528579711914;-48.53156280517578
252;1673298635.3327177;47.130759499999996;7.2404338;48.689002990722656;1673298635.3591337;-4.460607528686523;-39.86866760253906;-50.02885437011719
253;1673298635.5360177;47.130756999999996;7.2404411;47.492000579833984;1673298635.5584757;1.4089187383651733;-31.433713912963867;-52.67485427856445
254;1673298635.718898;47.130754499999995;7.2404486;45.928001403808594;1673298635.7403617;8.423412322998047;-11.808883666992188;-54.735843658447266
255;1673298635.9087453;47.130752199999996;7.240456099999999;43.98500061035156;1673298635.9312077;14.589401245117188;15.580936431884766;-54.413272857666016
256;1673298636.1070669;47.1307499;7.2404636;41.647003173828125;1673298636.1295142;17.06606674194336;40.92005920410156;-53.10630798339844
257;1673298636.3033602;47.1307475;7.240470999999999;38.928001403808594;1673298636.3287463;15.287184715270996;51.92860794067383;-54.77181625366211
258;1673298636.5098155;47.130744899999996;7.2404781;35.84100341796875;1673298636.533238;10.13182258605957;42.112545013427734;-60.19034194946289
259;1673298636.7276597;47.130742299999994;7.240485;32.37200164794922;1673298636.7510843;1.4053527116775513;15.007634162902832;-65.34403228759766
260;1673298636.9482555;47.130739399999996;7.240491899999999;28.51700210571289;1673298636.9677799;-6.308170318603516;-16.09027099609375;-66.06498718261719
261;1673298637.120206;47.1307367;7.2404991;24.279001235961914;1673298637.1446052;-7.708960056304932;-31.904033660888672;-66.53471374511719
262;1673298637.321541;47.1307343;7.2405066;19.67500114440918;1673298637.3449655;-2.604351282119751;-21.501506805419922;-70.59534454345703
263;1673298637.542468;47.130731999999995;7.2405143999999995;14.691000938415527;1673298637.561014;7.333278179168701;7.787725925445557;-73.8726577758789
264;1673298637.8039315;47.1307298;7.2405221;9.312000274658203;1673298637.8322368;14.617456436157227;32.49241256713867;-73.70314025878906
265;1673298638.0247881;47.1307273;7.2405295;3.558000087738037;1673298638.0423644;13.382562637329102;30.464618682861328;-76.71389770507812
266;1673298638.1852098;47.1307251;7.2405323;0.15900000929832458;1673298638.206908;0.12016574293375015;-10.005084991455078;-76.29161834716797
267;1673298638.3738723;47.130725;7.2405314;0.5290000438690186;1673298638.3978503;0.23918835818767548;-7.786130905151367;-76.17390441894531
268;1673298638.5635126;47.1307251;7.240531799999999;0.7730000615119934;1673298638.5840616;0.3897798955440521;-6.192501544952393;-76.48526763916016
269;1673298638.7691758;47.130724799999996;7.2405325;0.9270000457763672;1673298638.7921982;0.3374606668949127;-5.277339935302734;-76.49455261230469
270;1673298638.9596312;47.1307243;7.240533;1.0210000276565552;1673298638.9772382;0.4119887948036194;-4.760796546936035;-76.4804458618164
271;1673298639.1495202;47.130723599999996;7.2405333;1.1019999980926514;1673298639.1700025;0.48567524552345276;-4.006312370300293;-76.45532989501953
272;1673298639.3593924;47.1307228;7.2405333999999995;1.2070000171661377;1673298639.3799195;0.4817824065685272;-3.4657020568847656;-76.39603424072266
273;1673298639.553087;47.130722299999995;7.2405335;1.2640000581741333;1673298639.5755458;0.5164766311645508;-2.900061845779419;-76.29708862304688
274;1673298639.7513633;47.130722;7.240533699999999;1.2940000295639038;1673298639.7738812;0.5207964777946472;-2.1664676666259766;-76.2276611328125
275;1673298639.9531214;47.1307219;7.2405338;1.309000015258789;1673298639.979528;0.5538796186447144;-1.7073729038238525;-76.13765716552734
276;1673298640.1414268;47.130721799999996;7.2405339;1.3160001039505005;1673298640.1655855;0.4964371621608734;-0.8839455842971802;-76.04878997802734
277;1673298640.3303435;47.1307216;7.240533999999999;1.3200000524520874;1673298640.3557281;0.7053404450416565;-0.44937577843666077;-76.00244903564453
278;1673298640.5288465;47.1307214;7.2405341;1.3320000171661377;1673298640.5493393;0.5890935063362122;0.06919706612825394;-75.94515228271484
279;1673298640.7527566;47.130720499999995;7.2405339;1.3730000257492065;1673298640.7722862;0.5404262542724609;0.6977917551994324;-75.91279602050781
280;1673298640.9515512;47.1307203;7.2405339;1.3870000839233398;1673298640.9730363;0.6510975956916809;1.079505205154419;-75.86470031738281
281;1673298641.154485;47.1307202;7.240533999999999;1.3930000066757202;1673298641.1751497;0.6398954391479492;1.8834800720214844;-75.86956024169922
282;1673298641.342792;47.1307203;7.2405341;1.3890000581741333;1673298641.3642652;0.5905020236968994;2.3084399700164795;-75.84532165527344
283;1673298641.528083;47.1307204;7.2405342;1.378000020980835;1673298641.5515075;0.6336625218391418;2.7170636653900146;-75.82461547851562
284;1673298641.720631;47.1307204;7.240534299999999;1.3730000257492065;1673298641.7440722;0.6997700333595276;3.1040761470794678;-75.81652069091797
285;1673298641.9131653;47.1307198;7.2405342;1.3820000886917114;1673298641.937143;0.6493508815765381;3.349959373474121;-75.83576965332031
286;1673298642.1098123;47.1307198;7.240534299999999;1.377000093460083;1673298642.132261;0.6636551022529602;3.8868210315704346;-75.86847686767578
287;1673298642.3054888;47.13072;7.2405345;1.3620001077651978;1673298642.3289146;0.6813086271286011;4.170541286468506;-75.85576629638672
288;1673298642.516798;47.1307203;7.240534599999999;1.3420000076293945;1673298642.5392382;0.6402483582496643;4.497268199920654;-75.86885070800781
289;1673298642.7078774;47.1307207;7.2405348;1.3160001039505005;1673298642.730334;0.7697576880455017;4.68859338760376;-75.9148178100586
290;1673298642.9029357;47.130721;7.2405349;1.287000060081482;1673298642.929559;0.7664592266082764;5.2884440422058105;-75.9635009765625
291;1673298643.1482406;47.130721199999996;7.2405351;1.2570000886917114;1673298643.1677566;0.7704793810844421;5.433420658111572;-76.00204467773438
292;1673298643.3568954;47.1307209;7.2405352;1.2340000867843628;1673298643.3793502;0.70806485414505;5.630824565887451;-76.04254150390625
293;1673298643.572646;47.130721;7.2405352999999995;1.2010000944137573;1673298643.591887;0.7099514007568359;5.860759258270264;-76.06004333496094
294;1673298643.7606065;47.1307214;7.2405354;1.159000039100647;1673298643.7840383;0.6808974742889404;6.067392349243164;-76.09960174560547
295;1673298643.9524364;47.130721699999995;7.2405355;1.1130000352859497;1673298643.9719658;0.7210833430290222;6.238065242767334;-76.0960693359375
296;1673298644.1777227;47.130722;7.240535599999999;1.0660001039505005;1673298644.2041929;0.6755936741828918;6.40796422958374;-76.13493347167969
297;1673298644.37651;47.1307222;7.240535599999999;1.0170000791549683;1673298644.3980272;0.7115585803985596;6.602851867675781;-76.13518524169922
298;1673298644.5689812;47.1307222;7.2405357;0.9720000624656677;1673298644.5919976;0.7627142667770386;6.835644721984863;-76.16368103027344
299;1673298644.7682803;47.130722299999995;7.2405358;0.9260000586509705;1673298644.7893293;0.8296375870704651;6.786838531494141;-76.22378540039062
300;1673298644.9516425;47.1307225;7.240535899999999;0.89000004529953;1673298644.9750836;0.8045727610588074;6.783575534820557;-76.22604370117188
301;1673298645.1457925;47.1307227;7.240535899999999;-0.005000000353902578;1673298645.164322;0.7491022348403931;6.819357395172119;-76.24098205566406
302;1673298645.3334904;47.130722899999995;7.240536;-0.036000002175569534;1673298645.3551424;0.7505576014518738;6.828216075897217;-76.22835540771484
303;1673298645.5376236;47.1307231;7.240536;-0.08000000566244125;1673298645.5604124;0.7431240081787109;6.817206859588623;-76.23239135742188
