;pos_time;latitude;longitude;altitude;alt_time;pitch;roll;yaw
0;1673294619.401517;47.1306425;7.2406194;-0.030000001192092896;1673294619.4044454;0.25765231251716614;-0.40679237246513367;90.5594253540039
1;1673294619.6063607;47.1306425;7.2406193;-0.029000001028180122;1673294619.6092887;0.165541410446167;-0.372218519449234;90.57902526855469
2;1673294619.808747;47.1306425;7.2406193;-0.029000001028180122;1673294619.813626;0.1365089863538742;-0.36396801471710205;90.68287658691406
3;1673294620.0073605;47.1306425;7.2406194;-0.029000001028180122;1673294620.010289;-0.06666897982358932;-0.29563280940055847;90.70356750488281
4;1673294620.2085173;47.1306425;7.240619499999999;-0.029000001028180122;1673294620.2104716;-0.055274154990911484;-0.2659047544002533;90.66449737548828
5;1673294620.4060073;47.1306425;7.2406196;-0.03200000151991844;1673294620.4089274;-0.13864180445671082;-0.24905277788639069;90.6885757446289
6;1673294620.604768;47.1306425;7.2406196;-0.03500000014901161;1673294620.6086633;-0.06955427676439285;-0.23769833147525787;90.693115234375
7;1673294620.809983;47.1306425;7.2406196;-0.04000000283122063;1673294620.8148615;-0.049923188984394073;-0.3694242835044861;90.63973999023438
8;1673294621.0143077;47.1306424;7.2406197;-0.04500000178813934;1673294621.0172472;-0.03163151070475578;-0.25785890221595764;90.56245422363281
9;1673294621.2189198;47.1306424;7.240619799999999;-0.046000003814697266;1673294621.2218575;-0.34935688972473145;-0.31847378611564636;90.64717102050781
10;1673294621.4151027;47.1306424;7.24062;-0.04400000348687172;1673294621.4180336;-0.34399497509002686;-0.26733875274658203;90.67591857910156
11;1673294621.6087475;47.1306424;7.2406201;-0.0430000014603138;1673294621.6106882;-0.3267763555049896;-0.21522927284240723;90.66072082519531
12;1673294621.7953715;47.1306424;7.2406201999999995;-0.0430000014603138;1673294621.7983015;-0.3687375485897064;-0.22187857329845428;90.630615234375
13;1673294621.994299;47.1306423;7.2406203;-0.0430000014603138;1673294621.9972353;-0.05991532281041145;-0.35146185755729675;90.81426239013672
14;1673294622.1868238;47.1306423;7.2406203;-0.0010000000474974513;1673294622.1897526;-0.27929365634918213;-0.2949007749557495;90.6276626586914
15;1673294622.3776221;47.1306424;7.2406201999999995;-0.0010000000474974513;1673294622.3805504;-0.29906323552131653;-0.2873396575450897;90.6142578125
16;1673294622.574012;47.1306424;7.2406201999999995;0.0;1673294622.5779166;-0.03344609588384628;-0.25382310152053833;90.66470336914062
17;1673294622.7940123;47.1306424;7.2406201999999995;0.0;1673294622.7979157;-0.13764634728431702;-0.18557323515415192;90.7456283569336
18;1673294623.0085797;47.1306424;7.2406201;-0.0010000000474974513;1673294623.0105317;0.06403911858797073;-0.3337830603122711;90.72343444824219
19;1673294623.20855;47.1306423;7.2406201;-0.003000000026077032;1673294623.2114782;0.021196790039539337;-0.1633136123418808;90.77460479736328
20;1673294623.435629;47.1306423;7.2406201;-0.005000000353902578;1673294623.436627;-0.09017494320869446;-0.47275444865226746;90.78254699707031
21;1673294623.625608;47.1306423;7.2406201999999995;-0.007000000216066837;1673294623.62756;-0.2870543301105499;-0.1178852841258049;90.77433776855469
22;1673294623.8186305;47.1306423;7.2406201999999995;0.0;1673294623.8205833;-0.03213582932949066;-0.2778683304786682;90.90400695800781
23;1673294624.0184507;47.1306423;7.2406201;0.0010000000474974513;1673294624.0213785;-0.15264831483364105;-0.10948925465345383;90.71672058105469
24;1673294624.2804267;47.1306423;7.2406201;0.0020000000949949026;1673294624.281417;-0.03518722951412201;0.2591785490512848;90.69606018066406
25;1673294624.485999;47.1306423;7.2406201999999995;0.004000000189989805;1673294624.4889276;-0.017686612904071808;-0.4073117971420288;90.80750274658203
26;1673294624.6375813;47.1306423;7.2406201999999995;0.0020000000949949026;1673294624.640511;-0.018671100959181786;-0.1852181851863861;90.60975646972656
27;1673294624.8006673;47.1306423;7.2406201999999995;0.0;1673294624.8037033;0.01366362627595663;-0.16932882368564606;90.87411499023438
28;1673294624.9895337;47.1306423;7.2406201;-0.005000000353902578;1673294624.993518;0.06659156829118729;-0.18283076584339142;90.69010925292969
29;1673294625.1993308;47.1306423;7.2406201;-0.015000000596046448;1673294625.2013004;-0.005603489466011524;-0.4414239525794983;90.9122314453125
30;1673294625.4169745;47.1306423;7.24062;-0.01900000125169754;1673294625.4209065;-0.03600642457604408;-0.4626431167125702;90.89742279052734
31;1673294625.6094646;47.1306424;7.2406198999999996;-0.021000001579523087;1673294625.6134727;0.10050550848245621;-0.37270691990852356;90.94876861572266
32;1673294625.816403;47.1306424;7.240619799999999;-0.023000001907348633;1673294625.8203526;-0.15465478599071503;-0.6037378907203674;89.87279510498047
33;1673294626.020604;47.1306424;7.240619799999999;-0.014000000432133675;1673294626.0284798;-0.07060378789901733;1.865967869758606;89.10904693603516
34;1673294626.2124634;47.1306424;7.240619799999999;0.017000000923871994;1673294626.2155294;0.43155449628829956;-0.5775583386421204;89.322998046875
35;1673294626.444496;47.1306425;7.2406198999999996;0.06200000271201134;1673294626.4464674;0.6159084439277649;-2.8312177658081055;89.46733093261719
36;1673294626.6107836;47.1306424;7.24062;0.12400000542402267;1673294626.6133204;0.2681635916233063;2.3617515563964844;89.39556884765625
37;1673294626.8054338;47.1306423;7.2406201999999995;0.20500001311302185;1673294626.8083682;-0.16061629354953766;-0.07303492724895477;89.66495513916016
38;1673294627.0050552;47.1306423;7.2406203;0.2990000247955322;1673294627.0099423;-0.2266966849565506;-2.917212724685669;90.37678527832031
39;1673294627.2004092;47.1306422;7.2406203;0.4010000228881836;1673294627.203355;0.2747122347354889;0.9874303340911865;90.2445297241211
40;1673294627.3840947;47.1306422;7.2406203;0.5190000534057617;1673294627.3870218;0.8098578453063965;1.2448451519012451;90.42037200927734
41;1673294627.575649;47.1306423;7.2406203;0.6490000486373901;1673294627.5805278;1.2224605083465576;-3.0494396686553955;90.53656768798828
42;1673294627.7957492;47.1306423;7.2406203;0.7920000553131104;1673294627.801606;0.731497049331665;0.36499595642089844;90.40419006347656
43;1673294627.9932516;47.1306422;7.2406203;0.9530000686645508;1673294627.9971552;0.19026106595993042;1.6335136890411377;90.41526794433594
44;1673294628.1801128;47.1306422;7.2406201999999995;1.128000020980835;1673294628.1830394;-0.3723691403865814;-2.7936649322509766;90.90733337402344
45;1673294628.3784726;47.1306422;7.2406201999999995;1.312000036239624;1673294628.3814106;-0.2214880883693695;-0.8210763931274414;91.01976776123047
46;1673294628.5819468;47.1306423;7.2406201;1.5010000467300415;1673294628.5858512;0.14966562390327454;2.5849640369415283;90.89419555664062
47;1673294628.789771;47.1306425;7.2406201;1.6950000524520874;1673294628.7936769;0.6628660559654236;-1.8484294414520264;91.35596466064453
48;1673294628.9965236;47.1306425;7.24062;1.8870000839233398;1673294629.0014026;0.6802563071250916;-1.1334812641143799;91.14815521240234
49;1673294629.1994174;47.1306424;7.24062;2.0830001831054688;1673294629.2023447;0.3035113215446472;2.782053232192993;91.0050277709961
50;1673294629.4055207;47.1306423;7.24062;2.2790000438690186;1673294629.410401;-0.4257238209247589;-2.028470039367676;91.2767105102539
51;1673294629.5991666;47.1306423;7.2406198999999996;2.4770002365112305;1673294629.602098;-0.5765247344970703;-1.8851782083511353;91.40027618408203
52;1673294629.7935743;47.1306423;7.2406198999999996;2.6740000247955322;1673294629.7964973;-0.16141806542873383;2.5398800373077393;91.23542785644531
53;1673294629.995331;47.1306424;7.2406198999999996;2.876000165939331;1673294629.9982646;0.228959858417511;-0.31130245327949524;91.49667358398438
54;1673294630.203164;47.1306425;7.2406198999999996;3.077000141143799;1673294630.2060926;0.3958137035369873;-1.9315859079360962;91.61927795410156
55;1673294630.400752;47.1306424;7.2406198999999996;3.2790000438690186;1673294630.402703;0.3915780782699585;1.837384819984436;91.2552261352539
56;1673294630.6044571;47.1306422;7.24062;3.4780001640319824;1673294630.6064112;0.0686936229467392;-0.4822765290737152;91.68621063232422
57;1673294630.807967;47.130642099999996;7.24062;3.6780002117156982;1673294630.8099084;-0.37821677327156067;-3.3426005840301514;91.61164093017578
58;1673294630.9986072;47.1306422;7.24062;3.876000165939331;1673294631.00154;-0.39533817768096924;1.1056145429611206;91.37922668457031
59;1673294631.1897755;47.1306423;7.2406201;4.074000358581543;1673294631.19368;0.23707209527492523;1.0154974460601807;91.23402404785156
60;1673294631.3993907;47.1306423;7.2406201;4.272000312805176;1673294631.401307;0.4843883514404297;-2.5143895149230957;91.45089721679688
61;1673294631.6020193;47.1306423;7.2406201;4.473999977111816;1673294631.6049314;0.6587803363800049;0.2432384490966797;91.55052947998047
62;1673294631.7998254;47.130642099999996;7.2406201;4.681000232696533;1673294631.802753;0.7857261896133423;1.785672664642334;91.25250244140625
63;1673294632.0027788;47.130641999999995;7.2406201999999995;4.888000011444092;1673294632.0057068;0.3585285544395447;-2.8002707958221436;91.65702056884766
64;1673294632.1984627;47.130642099999996;7.2406201999999995;5.095000267028809;1673294632.2013888;0.132498100399971;-1.128919005393982;91.49479675292969
65;1673294632.4136043;47.130642099999996;7.2406201999999995;5.298000335693359;1673294632.4165196;-0.22009196877479553;2.3857421875;91.41586303710938
66;1673294632.6022522;47.1306422;7.2406201;5.50100040435791;1673294632.6042016;-0.3676309883594513;-1.8332504034042358;91.60081481933594
67;1673294632.7859857;47.1306422;7.24062;5.704000473022461;1673294632.7899103;0.2144584059715271;-2.0515856742858887;91.70068359375
68;1673294632.9778943;47.130642099999996;7.24062;5.90500020980835;1673294632.9817996;0.45852646231651306;2.339966297149658;91.6913833618164
69;1673294633.1950474;47.130641999999995;7.24062;6.103000164031982;1673294633.1979752;0.41744229197502136;-1.3025094270706177;91.5406265258789
70;1673294633.3975148;47.130642099999996;7.24062;6.303000450134277;1673294633.4023852;0.11197183281183243;-2.719996213912964;91.53246307373047
71;1673294633.6103177;47.1306422;7.2406201;6.504000186920166;1673294633.6142333;-0.0736670196056366;2.185009479522705;91.15311431884766
72;1673294633.8027868;47.1306423;7.2406201;6.703000545501709;1673294633.8066921;-0.3714011609554291;-0.08434874564409256;91.5141372680664
73;1673294634.0012546;47.1306423;7.24062;6.904000282287598;1673294634.0041814;-0.19749999046325684;-2.424776792526245;91.64643096923828
74;1673294634.2171934;47.1306422;7.24062;7.1060004234313965;1673294634.2201216;0.15955127775669098;1.9259576797485352;91.25859832763672
75;1673294634.4133599;47.130642099999996;7.24062;7.307000160217285;1673294634.4172957;0.6230329275131226;0.4225858151912689;91.48506164550781
76;1673294634.620561;47.130642099999996;7.24062;7.51300048828125;1673294634.622522;0.4596457779407501;-3.3113033771514893;91.4647216796875
77;1673294634.8086505;47.1306422;7.2406201;7.715000152587891;1673294634.811578;0.045521318912506104;0.8705314993858337;91.42420196533203
78;1673294635.0000942;47.1306423;7.2406201;7.9150004386901855;1673294635.0039868;-0.16170792281627655;1.3497235774993896;91.45941925048828
79;1673294635.2172642;47.1306423;7.2406201999999995;8.11500072479248;1673294635.2201977;-0.4975188970565796;-2.8254735469818115;91.53276824951172
80;1673294635.412927;47.1306423;7.2406201999999995;8.315999984741211;1673294635.4168303;-0.25085896253585815;0.7190922498703003;91.59427642822266
81;1673294635.6152778;47.1306422;7.2406201999999995;8.520000457763672;1673294635.620143;0.33456796407699585;1.8102604150772095;91.24866485595703
82;1673294635.8079033;47.1306422;7.2406201999999995;8.723999977111816;1673294635.8118143;0.6668541431427002;-3.3752264976501465;91.37212371826172
83;1673294635.9976094;47.1306422;7.2406203;8.921000480651855;1673294635.999558;0.4701053500175476;-0.283471018075943;91.25318908691406
84;1673294636.1914372;47.1306422;7.2406204;9.120000839233398;1673294636.195364;0.24737617373466492;2.034298896789551;91.46269989013672
85;1673294636.4212694;47.1306422;7.2406204;9.320000648498535;1673294636.4251719;-0.17489087581634521;-2.1871538162231445;91.78477478027344
86;1673294636.6132174;47.130642099999996;7.2406204;9.523000717163086;1673294636.6161454;-0.3106003999710083;-1.8093023300170898;91.62037658691406
87;1673294636.815473;47.130642099999996;7.2406204999999995;9.72700023651123;1673294636.8174255;0.12744171917438507;2.17885422706604;91.3733139038086
88;1673294637.058676;47.130642099999996;7.2406204999999995;9.932000160217285;1673294637.0605733;0.5179536938667297;-1.170818567276001;91.4278335571289
89;1673294637.2820015;47.1306422;7.2406204999999995;10.135000228881836;1673294637.2849212;0.6268661022186279;-2.176983118057251;91.5258560180664
90;1673294637.489581;47.1306423;7.2406204999999995;10.379000663757324;1673294637.4925299;1.0141537189483643;1.5737488269805908;91.39619445800781
91;1673294637.6727438;47.1306424;7.2406204999999995;10.71500015258789;1673294637.6746933;0.040254149585962296;1.1246451139450073;91.64086151123047
92;1673294637.8947132;47.1306425;7.2406204999999995;11.089000701904297;1673294637.8976407;-0.03979257494211197;-2.1794447898864746;91.84844970703125
93;1673294638.1112883;47.1306424;7.2406204999999995;11.484000205993652;1673294638.1132414;-0.2371312975883484;0.7070649862289429;91.30754089355469
94;1673294638.2955756;47.1306423;7.2406204999999995;11.885000228881836;1673294638.2985034;-0.18065868318080902;1.584166169166565;91.32847595214844
95;1673294638.4715443;47.1306424;7.2406204999999995;12.288000106811523;1673294638.4744723;-0.03747287392616272;-2.844527006149292;91.61100006103516
96;1673294638.638672;47.1306424;7.2406204999999995;12.696001052856445;1673294638.6425948;0.05588192120194435;-0.6192994117736816;91.55789184570312
97;1673294638.8268983;47.1306424;7.2406206;13.10400104522705;1673294638.8288536;0.3126451075077057;2.3834633827209473;91.39071655273438
98;1673294639.0147913;47.1306424;7.2406204999999995;13.510000228881836;1673294639.0186963;0.021552447229623795;-2.1291210651397705;91.52574920654297
99;1673294639.2074444;47.1306423;7.2406206;13.919000625610352;1673294639.210371;0.34282422065734863;-1.5637092590332031;91.47571563720703
100;1673294639.4078426;47.1306422;7.2406206;14.330000877380371;1673294639.411749;0.034045398235321045;1.9442930221557617;91.4222640991211
101;1673294639.6124637;47.130642099999996;7.2406207;14.743000984191895;1673294639.6154327;0.04696107655763626;-1.066665530204773;91.51029968261719
102;1673294639.84521;47.1306422;7.2406207;15.158000946044922;1673294639.849115;-0.04650484025478363;-2.4878599643707275;91.71965026855469
103;1673294640.046379;47.1306423;7.2406207;15.569001197814941;1673294640.0483315;0.07459240406751633;1.398449182510376;91.39457702636719
104;1673294640.2459693;47.1306424;7.2406207;15.976000785827637;1673294640.2489116;0.23599906265735626;0.590623676776886;91.28968811035156
105;1673294640.4408264;47.1306425;7.2406207;16.386001586914062;1673294640.4462392;0.2111804187297821;-2.3919570446014404;91.59912109375
106;1673294640.6412652;47.1306424;7.2406206;16.799001693725586;1673294640.645701;0.4958396852016449;0.788834273815155;91.48184204101562
107;1673294640.8219397;47.1306423;7.2406206;17.213001251220703;1673294640.8258975;0.29581165313720703;1.3472787141799927;91.5155258178711
108;1673294641.0068207;47.1306424;7.2406206;17.62900161743164;1673294641.0107245;0.31215035915374756;-2.7581193447113037;91.6160659790039
109;1673294641.2062123;47.1306424;7.2406204999999995;18.041000366210938;1673294641.2101312;0.16160930693149567;-0.5872947573661804;91.50943756103516
110;1673294641.4115014;47.1306424;7.2406204999999995;18.44900131225586;1673294641.414418;-0.015310188755393028;2.20456862449646;91.29002380371094
111;1673294641.6178186;47.1306424;7.2406204999999995;18.85500144958496;1673294641.6217368;-0.1429571658372879;-2.1382033824920654;91.69730377197266
112;1673294641.8261986;47.1306424;7.2406204999999995;19.261001586914062;1673294641.8301105;0.012446578592061996;-1.2602336406707764;91.61035919189453
113;1673294642.0290382;47.1306423;7.2406204;19.668001174926758;1673294642.0319693;0.18010137975215912;2.000319004058838;91.36300659179688
114;1673294642.219686;47.1306423;7.2406204;20.076000213623047;1673294642.2226167;0.4151575565338135;-1.470750331878662;91.47547912597656
115;1673294642.4306295;47.1306424;7.2406204;20.488000869750977;1673294642.4345365;0.5392277836799622;-2.4025845527648926;91.4079360961914
116;1673294642.6376064;47.1306425;7.2406204;20.895000457763672;1673294642.6405334;0.5300575494766235;2.239907741546631;91.46845245361328
117;1673294642.8490944;47.1306425;7.2406204;21.29800033569336;1673294642.8520238;0.04863014817237854;0.03429187089204788;91.66205596923828
118;1673294643.0341094;47.130642599999995;7.2406204;21.703001022338867;1673294643.0360482;-0.08546042442321777;-2.4165096282958984;91.66646575927734
119;1673294643.2186975;47.1306425;7.2406203;22.11100196838379;1673294643.2216253;-0.20187346637248993;1.948319673538208;91.3875732421875
120;1673294643.411682;47.1306424;7.2406203;22.516000747680664;1673294643.414611;-0.28326892852783203;0.7090364694595337;91.39501190185547
121;1673294643.6206625;47.1306425;7.2406201999999995;22.917001724243164;1673294643.6245656;-0.15761961042881012;-3.00539231300354;91.62400817871094
122;1673294643.8540552;47.130642599999995;7.2406201999999995;23.315000534057617;1673294643.8569822;-0.07274429500102997;0.4242417812347412;91.54452514648438
123;1673294644.0707178;47.130642599999995;7.2406201;23.709001541137695;1673294644.0736456;0.17445342242717743;2.4008281230926514;91.31383514404297
124;1673294644.2671354;47.1306425;7.2406201;24.100000381469727;1673294644.2700632;0.11551661044359207;-2.25050687789917;91.55036163330078
125;1673294644.4391773;47.1306425;7.2406201;24.496000289916992;1673294644.4430807;0.051418520510196686;-1.3884342908859253;91.44799041748047
126;1673294644.6281898;47.1306424;7.2406201;24.8960018157959;1673294644.6311176;-0.3075978457927704;2.253800392150879;91.26227569580078
127;1673294644.820779;47.1306424;7.2406201;25.299001693725586;1673294644.8237019;-0.5211199522018433;-1.5070152282714844;91.6082763671875
128;1673294645.0362945;47.1306425;7.2406201;25.700000762939453;1673294645.041179;-0.29999908804893494;-1.806814193725586;91.81002807617188
129;1673294645.2457976;47.130642599999995;7.2406201;26.09800148010254;1673294645.263836;0.019152596592903137;2.539262533187866;91.40081787109375
130;1673294645.468071;47.130642699999996;7.2406201;26.49300193786621;1673294645.4720185;0.3531104624271393;-0.03787970542907715;91.42547607421875
131;1673294645.6375096;47.130642699999996;7.2406201;26.886001586914062;1673294645.6414177;0.43450748920440674;-2.0565874576568604;91.53617858886719
132;1673294645.829234;47.130642699999996;7.2406201999999995;27.280000686645508;1673294645.8311684;0.3799859881401062;1.9088778495788574;91.33537292480469
133;1673294646.0293128;47.130642599999995;7.2406201;27.673002243041992;1673294646.033218;-0.18222856521606445;1.0859204530715942;91.53910064697266
134;1673294646.2322872;47.130642599999995;7.2406201;28.066001892089844;1673294646.2371824;-0.47275659441947937;-2.566735029220581;91.72518157958984
135;1673294646.4399269;47.130642699999996;7.2406201;28.46700096130371;1673294646.443814;-0.5664925575256348;0.7686148881912231;91.49222564697266
136;1673294646.6384945;47.130642599999995;7.2406201;28.864002227783203;1673294646.6414132;-0.17297901213169098;1.835642695426941;91.43812561035156
137;1673294646.859794;47.1306425;7.2406201;29.25400161743164;1673294646.8627195;0.2874952554702759;-2.9203948974609375;91.51014709472656
138;1673294647.0572047;47.1306424;7.2406201;29.644001007080078;1673294647.0591652;0.3576467037200928;-0.0902571752667427;91.46505737304688
139;1673294647.2540338;47.1306423;7.2406201;30.036001205444336;1673294647.2584836;0.32147982716560364;1.574546456336975;91.44053649902344
140;1673294647.446147;47.1306423;7.24062;30.430002212524414;1673294647.4490921;0.1170981153845787;-2.55476450920105;91.58686065673828
141;1673294647.6385367;47.1306423;7.24062;30.825000762939453;1673294647.6414778;0.053642868995666504;-1.564225435256958;91.51542663574219
142;1673294647.8410633;47.1306424;7.2406201;31.21900177001953;1673294647.845946;-0.28363871574401855;2.349822521209717;91.3765640258789
143;1673294648.0423326;47.1306424;7.2406201;31.61100196838379;1673294648.0462198;-0.40208700299263;-1.222391128540039;91.58614349365234
144;1673294648.241878;47.1306424;7.2406201;32.00800323486328;1673294648.244809;-0.17369191348552704;-1.8090598583221436;91.72384643554688
145;1673294648.4434254;47.1306424;7.2406201;32.40700149536133;1673294648.4473286;0.22738754749298096;1.7569384574890137;91.45221710205078
146;1673294648.6414185;47.1306424;7.2406201;32.805999755859375;1673294648.6453452;0.5657300353050232;-0.20040781795978546;91.4821548461914
147;1673294648.871294;47.1306425;7.2406201999999995;33.207000732421875;1673294648.8762562;0.41214898228645325;-2.3592369556427;91.49423217773438
148;1673294649.0869462;47.1306425;7.2406201999999995;33.608001708984375;1673294649.090848;0.39241108298301697;1.5035350322723389;91.31420135498047
149;1673294649.2824702;47.1306425;7.2406201999999995;34.00800323486328;1673294649.2853975;-0.14885026216506958;0.7924982309341431;91.570556640625
150;1673294649.5124207;47.1306425;7.2406201999999995;34.40299987792969;1673294649.5133965;-0.08896217495203018;-2.834193229675293;91.72098541259766
151;1673294649.6737812;47.1306424;7.2406201999999995;34.801002502441406;1673294649.6776757;-0.35580357909202576;0.7206991910934448;91.38147735595703
152;1673294649.8682022;47.1306424;7.2406201999999995;35.20000076293945;1673294649.8711452;-0.16842319071292877;1.26425302028656;91.24256896972656
153;1673294650.0504513;47.1306424;7.2406201999999995;35.59800338745117;1673294650.0543678;-0.04359016194939613;-2.5513975620269775;91.49391174316406
154;1673294650.2401822;47.130642599999995;7.2406201;35.996002197265625;1673294650.244051;0.2763627767562866;-0.16665807366371155;91.47605895996094
155;1673294650.468779;47.130642599999995;7.2406201;36.395999908447266;1673294650.4726849;0.20968864858150482;2.9170010089874268;91.51993560791016
156;1673294650.6614861;47.130642699999996;7.2406201;36.79100036621094;1673294650.6654065;-0.06807831674814224;-1.4757341146469116;91.73310852050781
157;1673294650.8462555;47.130642699999996;7.2406201999999995;37.18600082397461;1673294650.8491905;-0.28162139654159546;-1.6108380556106567;91.56949615478516
158;1673294651.0321927;47.130642699999996;7.2406201999999995;37.5780029296875;1673294651.0381155;-0.30630096793174744;2.366765022277832;91.3247299194336
159;1673294651.2288344;47.130642699999996;7.2406203;37.97600173950195;1673294651.2317626;-0.5236217379570007;-0.3422541618347168;91.44165802001953
160;1673294651.458727;47.1306428;7.2406203;38.37200164794922;1673294651.4616554;-0.3001292049884796;-1.879537582397461;91.7025146484375
161;1673294651.6599824;47.1306429;7.2406204;38.7650032043457;1673294651.6619222;-0.1093800961971283;2.078665018081665;91.44578552246094
162;1673294651.845553;47.1306428;7.2406204;39.159000396728516;1673294651.849469;-0.10775173455476761;1.8129292726516724;91.40695190429688
163;1673294652.0319963;47.130642699999996;7.2406204;39.551002502441406;1673294652.0359042;0.17367830872535706;-2.788442611694336;91.47013092041016
164;1673294652.240237;47.130642699999996;7.2406204;39.944000244140625;1673294652.2431638;0.3563947379589081;0.7301446795463562;91.39852142333984
165;1673294652.44264;47.130642599999995;7.2406204;40.3390007019043;1673294652.4455698;0.5408791899681091;1.833032250404358;91.5085678100586
166;1673294652.6332185;47.130642699999996;7.2406204;40.73500061035156;1673294652.636167;0.23837129771709442;-2.338125467300415;91.59117889404297
167;1673294652.8494227;47.130642699999996;7.2406204;41.13200378417969;1673294652.8533432;0.2645019590854645;-0.6018792390823364;91.53874969482422
168;1673294653.0419965;47.130642699999996;7.2406204;41.531002044677734;1673294653.044925;-0.21026623249053955;2.6642470359802246;91.30182647705078
169;1673294653.232942;47.130642699999996;7.2406204;41.93000030517578;1673294653.2358701;-0.10836800187826157;-0.6720331907272339;91.59410858154297
170;1673294653.4400706;47.130642699999996;7.2406204;42.33400344848633;1673294653.442999;-0.06222356855869293;-2.1878693103790283;91.5252914428711
171;1673294653.6454206;47.130642599999995;7.2406203;42.73600387573242;1673294653.648347;0.07318004965782166;2.463850259780884;91.36480712890625
172;1673294653.8282113;47.130642599999995;7.2406203;43.13900375366211;1673294653.8301623;0.2566940486431122;-0.20168380439281464;91.3970947265625
173;1673294654.03338;47.130642699999996;7.2406203;43.54100036621094;1673294654.038284;0.4572004973888397;-2.4341766834259033;91.5508804321289
174;1673294654.243976;47.130642699999996;7.2406204;43.94200134277344;1673294654.2469046;0.4401099383831024;1.876527190208435;91.35040283203125
175;1673294654.4375856;47.130642699999996;7.2406203;44.34300231933594;1673294654.4405327;0.004852102138102055;0.9949092864990234;91.5369644165039
176;1673294654.643231;47.130642599999995;7.2406203;44.74100112915039;1673294654.6461577;-0.2612287402153015;-2.7799229621887207;91.79118347167969
177;1673294654.8493237;47.1306425;7.2406203;45.14200210571289;1673294654.8532295;-0.36390167474746704;0.7365630269050598;91.3423080444336
178;1673294655.057041;47.1306425;7.2406201999999995;45.540000915527344;1673294655.0609462;-0.2535891830921173;1.521121621131897;91.32808685302734
179;1673294655.2388217;47.130642599999995;7.2406201999999995;45.93600082397461;1673294655.2417483;-0.05837283283472061;-2.880173444747925;91.5470962524414
180;1673294655.4398386;47.130642599999995;7.2406201999999995;46.333003997802734;1673294655.4456937;0.13490021228790283;0.08885051310062408;91.44635009765625
181;1673294655.6542253;47.130642599999995;7.2406201999999995;46.730003356933594;1673294655.65815;0.12792494893074036;2.6952552795410156;91.4906997680664
182;1673294655.830234;47.130642599999995;7.2406201999999995;47.124000549316406;1673294655.8341365;0.032199859619140625;-1.653026819229126;91.76588439941406
183;1673294656.0384645;47.130642599999995;7.2406201999999995;47.52100372314453;1673294656.0433261;-0.31363049149513245;-1.270979404449463;91.50879669189453
184;1673294656.2454493;47.130642599999995;7.2406201;47.915000915527344;1673294656.2493532;-0.5645953416824341;2.2500159740448;91.30721282958984
185;1673294656.434086;47.130642599999995;7.2406201;48.28200149536133;1673294656.4380023;-0.660595715045929;-1.4293432235717773;91.75382232666016
186;1673294656.6377149;47.130642699999996;7.2406201;48.595001220703125;1673294656.641618;-0.33318567276000977;-0.5374902486801147;91.56517791748047
187;1673294656.8408527;47.130642699999996;7.2406201;48.86000061035156;1673294656.8447733;-0.17914867401123047;2.5128555297851562;91.34502410888672
188;1673294657.0589597;47.130642599999995;7.2406201;49.082000732421875;1673294657.0618677;0.0012374380603432655;-1.1637290716171265;91.3696517944336
189;1673294657.2672486;47.130642599999995;7.2406201999999995;49.262001037597656;1673294657.2692008;-0.056109048426151276;-1.8125135898590088;91.39623260498047
190;1673294657.4685879;47.1306424;7.2406201;49.415000915527344;1673294657.4715164;10.240252494812012;2.9412295818328857;90.17467498779297
191;1673294657.659141;47.1306424;7.240619499999999;49.509002685546875;1673294657.6620586;1.8017022609710693;-0.5885489583015442;83.3129653930664
192;1673294657.8560758;47.1306425;7.240618899999999;49.53300094604492;1673294657.8589551;-5.322428226470947;7.964186191558838;70.7025146484375
193;1673294658.0621626;47.1306423;7.2406185;49.54300308227539;1673294658.0651171;18.98402976989746;6.282851696014404;61.406429290771484
194;1673294658.2629175;47.1306416;7.2406172;49.557003021240234;1673294658.2659159;6.202549934387207;3.84287166595459;50.6513557434082
195;1673294658.45996;47.1306405;7.240615699999999;49.586002349853516;1673294658.462954;0.5893625020980835;-1.0880569219589233;42.208919525146484
196;1673294658.6540449;47.1306394;7.2406144999999995;49.62000274658203;1673294658.6579483;2.4180095195770264;-2.085585594177246;33.391319274902344
197;1673294658.846973;47.1306382;7.240613499999999;49.6510009765625;1673294658.8499012;-2.217669725418091;-1.9974539279937744;24.28785514831543
198;1673294659.0459015;47.130637199999995;7.2406125999999995;49.68000411987305;1673294659.047834;-2.619476318359375;1.0654911994934082;15.064879417419434
199;1673294659.2350783;47.1306364;7.2406117;49.71000289916992;1673294659.2380064;-1.6849979162216187;2.5372684001922607;6.646906852722168
200;1673294659.4328609;47.1306358;7.2406108;49.73800277709961;1673294659.4351082;-0.8564749956130981;1.1929614543914795;-1.3262275457382202
201;1673294659.6488895;47.130635399999996;7.2406099;49.76000213623047;1673294659.6518254;-1.2076579332351685;-1.4133121967315674;-8.911239624023438
202;1673294659.852981;47.1306352;7.2406092;49.7760009765625;1673294659.8579142;-2.1460394859313965;-1.6826941967010498;-16.887540817260742
203;1673294660.0509343;47.1306352;7.2406086;49.7910041809082;1673294660.0529547;-2.336702585220337;-1.0469820499420166;-26.17192840576172
204;1673294660.2489524;47.1306352;7.240608099999999;49.80400085449219;1673294660.2525868;-1.7708595991134644;-0.2428346574306488;-35.35224914550781
205;1673294660.4388351;47.1306352;7.2406077;49.814002990722656;1673294660.443716;-0.2677662968635559;0.09473811089992523;-44.63597106933594
206;1673294660.6337688;47.1306351;7.2406073;49.82400131225586;1673294660.6367285;1.773058533668518;2.678994655609131;-52.052635192871094
207;1673294660.8292205;47.130635;7.240607;49.83100128173828;1673294660.8321505;3.5408377647399902;3.919525623321533;-53.9189338684082
208;1673294661.030298;47.130635;7.2406068999999995;49.83500289916992;1673294661.03419;2.864978075027466;-3.102388381958008;-52.48029327392578
209;1673294661.2324743;47.1306351;7.2406067;49.83700180053711;1673294661.2383447;1.7609472274780273;-4.093401908874512;-50.47058868408203
210;1673294661.4641857;47.1306351;7.2406066;49.842002868652344;1673294661.466137;-0.42427659034729004;0.6594688296318054;-49.141693115234375
211;1673294661.6618454;47.130635;7.2406067;49.84700393676758;1673294661.664782;-1.0268348455429077;-0.9097095131874084;-47.87256622314453
212;1673294661.8487225;47.130634799999996;7.240606799999999;49.85100173950195;1673294661.8526318;-0.762008547782898;-1.430124044418335;-47.45073318481445
213;1673294662.041136;47.1306345;7.2406068999999995;49.855003356933594;1673294662.043091;0.1490027755498886;3.6622960567474365;-47.37715530395508
214;1673294662.239564;47.130634199999996;7.240607;49.855003356933594;1673294662.2434692;1.210965871810913;2.415698289871216;-47.10219955444336
215;1673294662.4510975;47.130634099999995;7.240607;49.85300064086914;1673294662.454026;0.7516260743141174;-3.864616870880127;-47.06462478637695
216;1673294662.6497016;47.130634099999995;7.2406066;49.85600280761719;1673294662.653608;-16.688846588134766;-2.6928296089172363;-47.5581169128418
217;1673294662.851995;47.130634699999995;7.2406052;49.85900115966797;1673294662.8549302;-42.816646575927734;-0.4880797863006592;-48.52884292602539
218;1673294663.048813;47.1306369;7.2406014999999995;49.83400344848633;1673294663.0517406;-49.1419677734375;0.6713253855705261;-48.13081741333008
219;1673294663.2524054;47.130640799999995;7.240595099999999;49.78400421142578;1673294663.2576804;-42.48258972167969;-0.0834750086069107;-47.41444778442383
220;1673294663.460178;47.130646;7.240586599999999;49.74100112915039;1673294663.4622133;-40.611698150634766;1.9730584621429443;-48.453182220458984
221;1673294663.6531408;47.130652399999995;7.2405759;49.720001220703125;1673294663.6574562;-41.77607345581055;2.6811742782592773;-48.916648864746094
222;1673294663.8482587;47.1306599;7.240563099999999;49.73100280761719;1673294663.8511884;-47.67057418823242;2.4854931831359863;-48.214324951171875
223;1673294664.0472753;47.130669;7.2405479999999995;49.7650032043457;1673294664.0492468;-57.56135559082031;1.565352439880371;-47.36737823486328
224;1673294664.2321072;47.1306801;7.24053;49.81500244140625;1673294664.2344644;-60.892513275146484;1.2064757347106934;-46.692813873291016
225;1673294664.434415;47.130693;7.240509299999999;49.862003326416016;1673294664.4373426;-59.312217712402344;1.0572471618652344;-46.18233871459961
226;1673294664.6362803;47.1307075;7.2404867;49.88900375366211;1673294664.6392097;-56.87030029296875;1.1066112518310547;-45.91373825073242
227;1673294664.8542917;47.1307231;7.2404625;49.893001556396484;1673294664.8572016;-55.644859313964844;0.7246121168136597;-45.75728225708008
228;1673294665.0474415;47.1307396;7.2404372;49.88100051879883;1673294665.0513453;-52.095741271972656;0.5445500016212463;-45.733795166015625
229;1673294665.2544653;47.1307565;7.2404112;49.874000549316406;1673294665.2583628;-36.84064483642578;1.0247308015823364;-45.82954406738281
230;1673294665.455304;47.130773;7.240386099999999;49.86000061035156;1673294665.4582193;7.071119785308838;0.7648327350616455;-45.80745315551758
231;1673294665.6422293;47.1307876;7.240364199999999;49.77700424194336;1673294665.6454132;40.98659133911133;3.352799654006958;-45.104251861572266
232;1673294665.840187;47.130800099999995;7.2403455;49.493003845214844;1673294665.8432212;20.476070404052734;-0.17594318091869354;-45.31075668334961
233;1673294666.0443592;47.130809899999996;7.2403308;49.22900390625;1673294666.051191;17.449947357177734;0.4947916865348816;-46.0831298828125
234;1673294666.2612593;47.130817099999994;7.24032;49.10100173950195;1673294666.2645166;14.947443008422852;0.551288902759552;-46.53213119506836
235;1673294666.4791415;47.130821999999995;7.2403131;49.18800354003906;1673294666.4820995;51.77986145019531;1.804266095161438;-46.339385986328125
236;1673294666.6572323;47.1308236;7.2403113999999995;49.30900192260742;1673294666.6601586;52.392799377441406;1.9770762920379639;-45.8701057434082
237;1673294666.8530898;47.130822099999996;7.2403146;49.43400192260742;1673294666.8570015;49.444252014160156;0.5659266710281372;-47.118839263916016
238;1673294667.034343;47.1308183;7.2403214;49.53700256347656;1673294667.037259;44.69987106323242;0.18517811596393585;-47.27216720581055
239;1673294667.2282917;47.130812999999996;7.2403305;49.625003814697266;1673294667.233302;30.513240814208984;0.5172766447067261;-46.7387809753418
240;1673294667.44323;47.130806899999996;7.2403406;49.67500305175781;1673294667.4462755;13.320432662963867;0.37795785069465637;-46.73173141479492
241;1673294667.6450725;47.130801;7.240350299999999;49.69600296020508;1673294667.6486745;-3.0485517978668213;0.08022313565015793;-46.76005554199219
242;1673294667.8485115;47.1307957;7.2403588999999995;49.70100402832031;1673294667.8514419;-20.79328155517578;0.5405663847923279;-46.90855407714844
243;1673294668.059693;47.130791699999996;7.240365499999999;49.69700241088867;1673294668.0626225;-28.271989822387695;2.2445175647735596;-46.94834899902344
244;1673294668.2700703;47.130789199999995;7.240369899999999;49.66800308227539;1673294668.2740064;-34.668212890625;3.786168336868286;-46.5878791809082
245;1673294668.4624894;47.1307882;7.2403721;49.599002838134766;1673294668.4644718;-26.53998374938965;1.740151047706604;-46.69184494018555
246;1673294668.6476345;47.1307884;7.2403721999999995;49.52100372314453;1673294668.6505687;-16.200136184692383;3.1648566722869873;-46.20136642456055
247;1673294668.8334434;47.1307896;7.240371199999999;49.45900344848633;1673294668.8363714;-10.465030670166016;1.883901834487915;-45.917816162109375
248;1673294669.0309286;47.1307913;7.2403698;49.419002532958984;1673294669.0358047;1.3063353300094604;1.5541070699691772;-45.21255111694336
249;1673294669.249554;47.130793;7.2403689;49.40400314331055;1673294669.2534676;12.7241792678833;3.412158489227295;-45.16438674926758
250;1673294669.4493413;47.1307942;7.240369299999999;49.39800262451172;1673294669.451307;19.927885055541992;4.947661399841309;-46.053165435791016
251;1673294669.6481528;47.130795;7.2403701;49.19900131225586;1673294669.651094;5.596861839294434;-12.796279907226562;-44.98777389526367
252;1673294669.8670473;47.1307958;7.240370899999999;48.630001068115234;1673294669.8699784;-7.372610569000244;-31.06341552734375;-39.94418716430664
253;1673294670.0569594;47.1307966;7.2403717;47.676002502441406;1673294670.0598702;-17.1940975189209;-47.1636848449707;-32.45399475097656
254;1673294670.2485783;47.1307973;7.2403726;46.336002349853516;1673294670.250541;-23.120256423950195;-56.174625396728516;-25.83733558654785
255;1673294670.438147;47.1307981;7.2403736;44.63300323486328;1673294670.4410784;-25.49154281616211;-52.299415588378906;-24.15705680847168
256;1673294670.633542;47.1307988;7.2403748;42.566001892089844;1673294670.6374464;-22.66062355041504;-33.32871627807617;-28.78787612915039
257;1673294670.826987;47.130799599999996;7.240376299999999;40.124000549316406;1673294670.8299165;-11.223487854003906;-4.949730396270752;-34.635414123535156
258;1673294671.032118;47.130800199999996;7.2403778;37.29500198364258;1673294671.035047;5.472189903259277;21.25193214416504;-34.27574157714844
259;1673294671.2265403;47.1308009;7.2403792;34.07400131225586;1673294671.2304335;18.60279655456543;35.737735748291016;-29.5672550201416
260;1673294671.4219916;47.130801399999996;7.240380099999999;30.47500228881836;1673294671.426869;23.080493927001953;29.72318458557129;-29.009857177734375
261;1673294671.632611;47.130801999999996;7.240380699999999;26.511001586914062;1673294671.635551;15.67921257019043;5.053534507751465;-33.35712432861328
262;1673294671.8461177;47.1308027;7.2403811;22.16200065612793;1673294671.8480697;-1.1299930810928345;-21.469701766967773;-32.887508392333984
263;1673294672.0630114;47.1308035;7.2403816999999995;17.431001663208008;1673294672.0669203;-15.548165321350098;-32.859580993652344;-28.20897102355957
264;1673294672.2632344;47.130804399999995;7.240382899999999;12.336000442504883;1673294672.2651875;-19.5018367767334;-19.209136962890625;-29.418832778930664
265;1673294672.49358;47.130805099999996;7.2403844;6.86400032043457;1673294672.4965048;-7.989151477813721;8.654557228088379;-33.4830436706543
266;1673294672.6881685;47.130805699999996;7.2403859;1.0;1673294672.69305;10.260651588439941;25.694658279418945;-31.014238357543945
267;1673294672.8762414;47.1308073;7.2403879;0.3700000047683716;1673294672.8781974;2.389530897140503;-2.121727466583252;-39.708335876464844
268;1673294673.0627756;47.1308095;7.2403929;0.5100000500679016;1673294673.0647297;2.232553243637085;3.307281732559204;-47.557376861572266
269;1673294673.2671294;47.1308119;7.2403987999999995;0.6360000371932983;1673294673.2710354;1.8753643035888672;-0.6169723272323608;-47.81858444213867
270;1673294673.4593494;47.1308139;7.2404043;0.7130000591278076;1673294673.4612975;1.8843088150024414;-0.7774562239646912;-47.72178649902344
271;1673294673.6612895;47.1308156;7.240409;0.7550000548362732;1673294673.6642163;1.9433846473693848;-1.1338176727294922;-47.65557098388672
272;1673294673.8580065;47.1308169;7.2404131;0.7850000262260437;1673294673.8619125;1.9862446784973145;-1.319231629371643;-47.641876220703125
273;1673294674.0358126;47.1308181;7.240417;0.8300000429153442;1673294674.0397158;2.0277280807495117;-1.4990472793579102;-47.68788146972656
274;1673294674.246112;47.130818399999995;7.2404193;0.8490000367164612;1673294674.2490354;2.0292160511016846;-1.785178542137146;-47.7205924987793
275;1673294674.4350166;47.1308176;7.2404179;0.8610000610351562;1673294674.4389205;1.9207406044006348;-2.153531789779663;-47.92137908935547
276;1673294674.6339543;47.1308149;7.2404094;0.8770000338554382;1673294674.6359057;1.632745385169983;-2.950252056121826;-48.33926010131836
277;1673294674.8310857;47.130812399999996;7.2404015;0.8890000581741333;1673294674.8340037;1.5211451053619385;-3.177272081375122;-48.488311767578125
278;1673294675.040697;47.1308106;7.2403957;0.8950000405311584;1673294675.0455456;1.4476268291473389;-3.2155416011810303;-48.5689697265625
279;1673294675.2436166;47.130809299999996;7.2403916;0.9030000567436218;1673294675.245569;1.397515058517456;-3.170788049697876;-48.61532974243164
280;1673294675.4618633;47.1308085;7.2403897;0.9260000586509705;1673294675.4657729;1.4153387546539307;-3.0685508251190186;-48.63605499267578
281;1673294675.6574287;47.1308079;7.2403881;0.9350000619888306;1673294675.6613328;1.3624320030212402;-2.9537899494171143;-48.65087127685547
282;1673294675.8807106;47.130807499999996;7.2403869;0.9360000491142273;1673294675.8826814;1.3234530687332153;-2.801499366760254;-48.61693572998047
283;1673294676.0726104;47.1308073;7.240386099999999;0.9320000410079956;1673294676.0755398;1.2702289819717407;-2.664417028427124;-48.59038543701172
284;1673294676.2771873;47.1308071;7.2403856;0.9250000715255737;1673294676.2791884;1.2473376989364624;-2.5257370471954346;-48.57904052734375
285;1673294676.4680007;47.130806899999996;7.2403853;0.9240000247955322;1673294676.4719079;1.2202061414718628;-2.413221597671509;-48.53258514404297
286;1673294676.669696;47.1308066;7.2403851999999995;0.9320000410079956;1673294676.6726086;1.2087538242340088;-2.293081283569336;-48.52842330932617
287;1673294676.8554437;47.1308064;7.2403851999999995;0.9270000457763672;1673294676.8593466;1.1444878578186035;-2.177639961242676;-48.448856353759766
288;1673294677.0459836;47.130806299999996;7.240385099999999;0.9170000553131104;1673294677.0479367;1.1137721538543701;-2.073935031890869;-48.376182556152344
289;1673294677.2396538;47.130806199999995;7.240385;0.9010000228881836;1673294677.2445326;1.0650243759155273;-1.9882805347442627;-48.305171966552734
290;1673294677.446027;47.130806199999995;7.2403849;0.8830000162124634;1673294677.449603;1.0474419593811035;-1.909199595451355;-48.280792236328125
291;1673294677.6567626;47.1308061;7.2403849;0.8640000224113464;1673294677.6606665;1.0330437421798706;-1.8268810510635376;-48.20072937011719
292;1673294677.9238267;47.130806;7.2403849;0.8440000414848328;1673294677.9267564;0.9372389316558838;-1.7200788259506226;-48.145118713378906
293;1673294678.0850506;47.1308058;7.240384799999999;0.8330000638961792;1673294678.0879974;0.9680123329162598;-1.6622037887573242;-48.08821105957031
294;1673294678.2566218;47.130805699999996;7.240384799999999;0.815000057220459;1673294678.2585764;0.8801194429397583;-1.5845506191253662;-48.05642318725586
295;1673294678.4541204;47.130805599999995;7.2403849;0.7920000553131104;1673294678.4570477;0.8346797823905945;-1.5379581451416016;-47.985877990722656
296;1673294678.6762378;47.130805699999996;7.2403849;0.7670000195503235;1673294678.6791654;0.8175807595252991;-1.4788093566894531;-47.9321174621582
297;1673294678.8658206;47.130805699999996;7.2403849;0.7420000433921814;1673294678.868778;0.7654491066932678;-1.4079387187957764;-47.88359451293945
298;1673294679.0578218;47.130805599999995;7.240385;0.7190000414848328;1673294679.061744;0.7213159203529358;-1.3623634576797485;-47.85662841796875
299;1673294679.254219;47.1308054;7.2403849;0.7010000348091125;1673294679.2581224;0.7743163108825684;-1.3336657285690308;-47.8258056640625
300;1673294679.4467661;47.1308054;7.2403849;0.6760000586509705;1673294679.4496949;0.674220860004425;-1.2820260524749756;-47.775238037109375
301;1673294679.6573884;47.1308054;7.2403849;0.6580000519752502;1673294679.6612937;0.683765172958374;-1.2574164867401123;-47.75294494628906
302;1673294679.8958082;47.1308055;7.2403849;-0.004000000189989805;1673294679.8987365;0.5782073736190796;-1.2090212106704712;-47.71390914916992
303;1673294680.1030185;47.1308055;7.2403849;-0.024000000208616257;1673294680.10497;0.5439420342445374;-1.2115119695663452;-47.68095397949219
