;pos_time;latitude;longitude;altitude;alt_time;pitch;roll;yaw
0;1673298000.3933184;47.1306423;7.2406198999999996;-0.013000000268220901;1673298000.438215;-0.236129492521286;-0.32807204127311707;90.21759033203125
1;1673298000.6005263;47.1306424;7.24062;-0.013000000268220901;1673298000.6444788;-0.18633721768856049;-0.35788029432296753;90.1767578125
2;1673298000.7894094;47.1306424;7.24062;-0.014000000432133675;1673298000.8274658;0.1416638344526291;-0.3402244746685028;90.1237564086914
3;1673298001.0013046;47.1306424;7.24062;-0.012000000104308128;1673298001.0374167;-0.08248931169509888;-0.3668678104877472;90.15564727783203
4;1673298001.192853;47.1306424;7.24062;-0.012000000104308128;1673298001.238725;-0.19384652376174927;-0.3340088725090027;90.20841979980469
5;1673298001.4041555;47.1306424;7.2406201;-0.01100000087171793;1673298001.4510298;-0.2398979216814041;-0.23851336538791656;90.06077575683594
6;1673298001.622711;47.1306424;7.2406201;-0.013000000268220901;1673298001.6666348;-0.1653071790933609;-0.49575987458229065;90.17301177978516
7;1673298001.8271616;47.1306424;7.2406201999999995;-0.013000000268220901;1673298001.8701677;-0.10235905647277832;-0.3095322251319885;90.15860748291016
8;1673298002.0134733;47.1306424;7.2406201999999995;-0.013000000268220901;1673298002.0604777;-0.12937146425247192;-0.31584417819976807;90.08302307128906
9;1673298002.2170393;47.1306424;7.2406201999999995;0.0;1673298002.2620142;0.18392838537693024;-0.24914030730724335;90.02822875976562
10;1673298002.4202397;47.1306423;7.2406201999999995;-0.005000000353902578;1673298002.4582915;-0.15610340237617493;-0.19645065069198608;90.05927276611328
11;1673298002.6153536;47.1306423;7.2406201;-0.007000000216066837;1673298002.6612256;-0.06196609511971474;-0.25342926383018494;89.9034652709961
12;1673298002.8185637;47.1306423;7.2406201;-0.009000000543892384;1673298002.855663;-0.0039854818023741245;-0.2415444701910019;89.88455963134766
13;1673298003.0046291;47.1306422;7.2406201;-0.012000000104308128;1673298003.0426075;0.31771495938301086;-0.26374632120132446;89.74250030517578
14;1673298003.1860056;47.1306423;7.2406201;-0.014000000432133675;1673298003.230481;0.1526353657245636;-0.16503648459911346;90.01156616210938
15;1673298003.3895352;47.1306422;7.2406201999999995;-0.01600000075995922;1673298003.4306214;0.34350135922431946;0.026516029611229897;89.83837127685547
16;1673298003.5948107;47.1306422;7.2406201;-0.017000000923871994;1673298003.6397145;0.3371332585811615;-0.27312010526657104;89.91471862792969
17;1673298003.7990746;47.1306423;7.2406201999999995;0.0;1673298003.8467066;0.3209007680416107;-0.45306408405303955;90.17779541015625
18;1673298004.002653;47.1306423;7.2406203;0.0020000000949949026;1673298004.0444083;0.14571405947208405;0.19842380285263062;90.19588470458984
19;1673298004.1997857;47.1306423;7.2406203;0.003000000026077032;1673298004.2417765;-0.025425126776099205;-0.4224257469177246;90.33917999267578
20;1673298004.3938093;47.1306423;7.2406204;0.004000000189989805;1673298004.4356742;0.9119111895561218;-0.17416644096374512;89.91595458984375
21;1673298004.5948348;47.1306423;7.2406203;0.009000000543892384;1673298004.6497736;3.1168642044067383;-0.2807302176952362;90.26789093017578
22;1673298004.7907782;47.1306423;7.2406201999999995;0.012000000104308128;1673298004.839676;5.667428970336914;-0.3333655595779419;90.32677459716797
23;1673298005.0057673;47.1306423;7.24062;0.018000001087784767;1673298005.0486665;9.040973663330078;-0.18495231866836548;90.43553924560547
24;1673298005.201198;47.1306424;7.2406196;0.013000000268220901;1673298005.246856;-0.614877462387085;1.2485592365264893;85.38067626953125
25;1673298005.4165828;47.1306424;7.2406177;0.003000000026077032;1673298005.4596424;-3.6297719478607178;-0.22338294982910156;83.76969146728516
26;1673298005.6087525;47.1306424;7.2406147999999995;0.00800000037997961;1673298005.6516855;-7.636368751525879;0.6158604621887207;84.58137512207031
27;1673298005.815782;47.1306423;7.2406109999999995;0.020000001415610313;1673298005.8726358;-13.445173263549805;0.7820940017700195;85.51272583007812
28;1673298006.0416746;47.1306422;7.2406064;0.023000001907348633;1673298006.0788126;-15.887585639953613;0.4548497498035431;85.25687408447266
29;1673298006.290671;47.130642099999996;7.2406011999999995;0.03200000151991844;1673298006.3486888;-15.708307266235352;1.0066505670547485;86.17552185058594
30;1673298006.4847665;47.1306419;7.240595399999999;0.04700000211596489;1673298006.546842;-16.7835636138916;1.621356725692749;86.71769714355469
31;1673298006.689122;47.1306416;7.240589099999999;0.06300000101327896;1673298006.7276845;-18.40440559387207;0.5125076174736023;87.54808807373047
32;1673298006.8648746;47.130641399999995;7.2405827;0.08300000429153442;1673298006.9048746;-20.25942039489746;-0.21717195212841034;88.21234130859375
33;1673298007.0570261;47.1306411;7.240576099999999;0.10900000482797623;1673298007.0956511;-22.166473388671875;0.5905025601387024;88.3503646850586
34;1673298007.2732534;47.130640899999996;7.240569499999999;0.13700000941753387;1673298007.336656;-24.21272850036621;0.061456650495529175;88.75592803955078
35;1673298007.507315;47.1306406;7.2405631999999995;0.16300000250339508;1673298007.5483212;-26.290525436401367;-0.7631263136863708;89.23072814941406
36;1673298007.7547545;47.1306405;7.240557399999999;0.18900001049041748;1673298007.7801454;-28.379043579101562;-0.2306310385465622;89.3167495727539
37;1673298007.8925369;47.1306404;7.2405522;0.2120000123977661;1673298007.9267073;-30.529399871826172;-0.3781270384788513;89.4093017578125
38;1673298008.0630007;47.130640199999995;7.2405478;0.23400001227855682;1673298008.1035702;-32.68903732299805;-1.0205438137054443;89.62859344482422
39;1673298008.241717;47.1306401;7.2405444;0.2510000169277191;1673298008.279785;-34.85231399536133;-0.7474837303161621;89.66960144042969
40;1673298008.4598897;47.1306401;7.240542;0.2750000059604645;1673298008.4955828;-37.077030181884766;-0.9247462153434753;89.69044494628906
41;1673298008.6328425;47.130640199999995;7.2405406;0.30000001192092896;1673298008.67205;-39.21742630004883;-1.2497291564941406;89.8574447631836
42;1673298008.8266542;47.130640299999996;7.2405403999999995;0.320000022649765;1673298008.8715494;-41.4206428527832;-1.0729737281799316;89.86198425292969
43;1673298009.0251904;47.1306404;7.240541599999999;0.33900001645088196;1673298009.0681338;-43.64350509643555;-0.8375833034515381;89.74413299560547
44;1673298009.2256267;47.1306406;7.2405441999999995;0.35500001907348633;1673298009.268615;-45.81415557861328;-0.8869292736053467;89.6887435913086
45;1673298009.4170876;47.1306407;7.2405485;0.36900001764297485;1673298009.4571052;-48.089839935302734;-0.8149771690368652;89.69100189208984
46;1673298009.625182;47.130640899999996;7.2405545;0.3850000202655792;1673298009.6641994;-48.84915542602539;-0.8924946188926697;89.71893310546875
47;1673298009.821539;47.1306412;7.240562;0.4000000059604645;1673298009.8674073;-44.387325286865234;-0.4586283266544342;89.584716796875
48;1673298010.021555;47.130641499999996;7.240570399999999;0.4090000092983246;1673298010.0615523;-39.129737854003906;-0.4810304641723633;89.67130279541016
49;1673298010.2230797;47.1306417;7.2405792;0.41700002551078796;1673298010.2690399;-33.26603698730469;0.06748644262552261;89.47744750976562
50;1673298010.420476;47.1306419;7.2405877;0.44300001859664917;1673298010.4635725;-27.15599822998047;-0.08201828598976135;89.6269302368164
51;1673298010.6081445;47.130642099999996;7.2405953;0.484000027179718;1673298010.6550138;-23.84468650817871;-0.07024481147527695;89.73150634765625
52;1673298010.8258789;47.1306422;7.2406017;0.5260000228881836;1673298010.8717184;-19.949872970581055;0.1349620670080185;89.66051483154297
53;1673298011.0182364;47.1306422;7.240606799999999;0.578000009059906;1673298011.0592923;-18.978906631469727;-0.0222029909491539;89.62330627441406
54;1673298011.2137733;47.1306422;7.2406105;0.6340000033378601;1673298011.2567117;-19.165508270263672;-0.5323707461357117;89.83079528808594
55;1673298011.406491;47.1306422;7.240613;0.7010000348091125;1673298011.448499;-20.577842712402344;-0.9700178503990173;89.99573516845703
56;1673298011.6068292;47.1306422;7.240614399999999;0.7830000519752502;1673298011.6478207;-22.331972122192383;1.1131349802017212;89.21822357177734
57;1673298011.8071709;47.1306422;7.240615099999999;0.8720000386238098;1673298011.851093;-23.88943862915039;-0.6141548156738281;89.68338775634766
58;1673298012.0086396;47.130642099999996;7.2406152;0.968000054359436;1673298012.056613;-26.170013427734375;-2.5003128051757812;90.29351043701172
59;1673298012.2233634;47.130641999999995;7.240615099999999;1.0750000476837158;1673298012.2702467;-27.532562255859375;1.0233495235443115;88.91463470458984
60;1673298012.4333987;47.1306419;7.240615;1.194000005722046;1673298012.4725006;-28.974599838256836;-0.8973321914672852;89.46145629882812
61;1673298012.6203976;47.130641999999995;7.240615;1.3240001201629639;1673298012.6594522;-29.455015182495117;-2.3591887950897217;90.22846221923828
62;1673298012.8129146;47.130641999999995;7.240615099999999;1.465000033378601;1673298012.8568356;-29.678054809570312;1.1457372903823853;89.03517150878906
63;1673298013.0150838;47.130641999999995;7.2406155;1.6130000352859497;1673298013.0609543;-29.018280029296875;-0.5251123309135437;93.38478088378906
64;1673298013.2346966;47.130641999999995;7.2406160999999996;1.7690000534057617;1673298013.2758324;-28.45440673828125;-3.254249334335327;93.97863006591797
65;1673298013.4203203;47.1306422;7.2406168;1.9350000619888306;1673298013.468184;-28.149497985839844;0.9525452852249146;92.90080261230469
66;1673298013.676498;47.1306423;7.2406175;2.116000175476074;1673298013.714934;-27.547048568725586;-0.08749765902757645;93.26176452636719
67;1673298013.859034;47.1306424;7.2406181;2.307000160217285;1673298013.896777;-26.844961166381836;-1.4339982271194458;94.00547790527344
68;1673298014.048716;47.1306425;7.2406187;2.499000072479248;1673298014.085053;-26.562408447265625;1.2396316528320312;93.09593200683594
69;1673298014.24085;47.1306425;7.240619199999999;2.69100022315979;1673298014.2809994;-26.569543838500977;0.8525974154472351;92.8528823852539
70;1673298014.4472723;47.1306424;7.2406196;2.88700008392334;1673298014.4837706;-26.58762550354004;-1.7912180423736572;93.76786804199219
71;1673298014.626981;47.1306424;7.240619799999999;3.0810000896453857;1673298014.6708918;-26.772493362426758;0.9977983832359314;92.81912231445312
72;1673298014.863579;47.1306423;7.24062;3.2730002403259277;1673298014.9070637;-26.934505462646484;0.9903674721717834;92.43486022949219
73;1673298015.085559;47.1306423;7.2406201999999995;3.4700002670288086;1673298015.1236854;-26.878612518310547;-1.7189651727676392;93.4658432006836
74;1673298015.2653563;47.1306423;7.2406203;3.6640002727508545;1673298015.304446;-26.975265502929688;-0.14950306713581085;92.90309143066406
75;1673298015.4567235;47.130642099999996;7.2406204;3.8560001850128174;1673298015.4967563;-26.870834350585938;0.6260579228401184;92.4683837890625
76;1673298015.6509752;47.130641999999995;7.2406204999999995;4.046000003814697;1673298015.691979;-26.985546112060547;-2.657109498977661;93.43135833740234
77;1673298015.8475332;47.130641999999995;7.2406204999999995;4.242000102996826;1673298015.8915772;-27.054105758666992;-1.0371867418289185;93.15606689453125
78;1673298016.025302;47.130641999999995;7.2406204999999995;4.438000202178955;1673298016.0683267;-27.118249893188477;1.0662966966629028;92.38164520263672
79;1673298016.2275639;47.130642099999996;7.2406204999999995;4.63700008392334;1673298016.2685559;-27.298992156982422;-2.1534905433654785;93.56874084472656
80;1673298016.4269524;47.1306422;7.2406204999999995;4.839000225067139;1673298016.4699059;-27.021726608276367;-1.2252026796340942;93.33586883544922
81;1673298016.626455;47.1306422;7.2406204999999995;5.0410003662109375;1673298016.6684556;-27.388408660888672;1.6419477462768555;92.38907623291016
82;1673298016.8365405;47.1306422;7.2406204999999995;5.238000392913818;1673298016.8775334;-27.275285720825195;-1.3909813165664673;93.30428314208984
83;1673298017.0328202;47.1306423;7.2406204999999995;5.434000492095947;1673298017.071856;-27.356447219848633;-1.4499708414077759;93.49141693115234
84;1673298017.2271788;47.1306423;7.2406204999999995;5.629000186920166;1673298017.2633164;-27.237028121948242;1.4845441579818726;92.47480773925781
85;1673298017.4287446;47.1306424;7.2406204999999995;5.826000213623047;1673298017.4708047;-27.417491912841797;-0.7082546949386597;93.18252563476562
86;1673298017.6364312;47.1306425;7.2406204999999995;6.022000312805176;1673298017.6892478;-27.12709617614746;-1.681771993637085;93.59674072265625
87;1673298017.8368478;47.1306424;7.2406206;6.215000152587891;1673298017.8837092;-27.150976181030273;1.4790843725204468;92.49791717529297
88;1673298018.0431023;47.1306423;7.2406207;6.410000324249268;1673298018.0841384;-26.944847106933594;-0.5952538847923279;92.91038513183594
89;1673298018.2467306;47.1306423;7.2406207;6.600000381469727;1673298018.2877746;-27.216772079467773;-2.235191583633423;93.56803894042969
90;1673298018.4447167;47.1306423;7.2406207;6.793000221252441;1673298018.4857042;-26.888290405273438;1.0889517068862915;92.52082824707031
91;1673298018.6497045;47.1306424;7.2406207;6.9860005378723145;1673298018.6981788;-27.271682739257812;-0.22064808011054993;92.88133239746094
92;1673298018.852959;47.1306424;7.2406207;7.180000305175781;1673298018.8968842;-27.102523803710938;-2.342273712158203;93.75370788574219
93;1673298019.0444906;47.1306424;7.2406207;7.375000476837158;1673298019.0845323;-27.46022605895996;0.35430535674095154;92.95757293701172
94;1673298019.23611;47.1306423;7.240620799999999;7.569000244140625;1673298019.2731996;-27.03627586364746;0.30183035135269165;92.69259643554688
95;1673298019.429111;47.1306423;7.240620799999999;7.766000270843506;1673298019.470176;-27.27872085571289;-2.470552682876587;93.73627471923828
96;1673298019.6331382;47.1306423;7.2406209;7.959000587463379;1673298019.674261;-26.99280548095703;0.4394623041152954;92.79943084716797
97;1673298019.8391864;47.1306423;7.2406209;8.153000831604004;1673298019.87938;-27.363357543945312;0.8294849991798401;92.55357360839844
98;1673298020.0211716;47.1306423;7.240621;8.348999977111816;1673298020.0719242;-27.174144744873047;-2.3232228755950928;93.6826171875
99;1673298020.2754388;47.1306423;7.240621099999999;8.550000190734863;1673298020.3111331;-27.138280868530273;-0.14882057905197144;92.90513610839844
100;1673298020.4966776;47.1306422;7.240621099999999;8.749000549316406;1673298020.5357544;-26.93423080444336;0.9154642820358276;92.46414184570312
101;1673298020.6739953;47.130642099999996;7.2406212;8.951000213623047;1673298020.7205794;-27.065326690673828;-2.4963109493255615;93.58952331542969
102;1673298020.86738;47.1306422;7.240621399999999;9.154000282287598;1673298020.9084518;-26.752424240112305;-0.5924843549728394;93.07563018798828
103;1673298021.0572872;47.1306422;7.2406215;9.356000900268555;1673298021.0963285;-26.948392868041992;1.2351003885269165;92.39004516601562
104;1673298021.249602;47.1306422;7.2406215;9.554000854492188;1673298021.2857134;-26.976709365844727;-2.146533489227295;93.5338134765625
105;1673298021.4430027;47.130642099999996;7.2406215;9.758000373840332;1673298021.4895527;-27.10561752319336;-1.2709977626800537;93.35468292236328
106;1673298021.6781452;47.130642099999996;7.2406216;9.964000701904297;1673298021.7193396;-26.9345760345459;1.3571858406066895;92.44501495361328
107;1673298021.9087522;47.130642099999996;7.2406216;10.17300033569336;1673298021.9461174;-26.68326759338379;-1.855800986289978;93.31220245361328
108;1673298022.1078331;47.1306422;7.2406219;10.439000129699707;1673298022.1401637;-30.437408447265625;-1.3406296968460083;93.36378479003906
109;1673298022.2912977;47.1306422;7.240622699999999;10.789000511169434;1673298022.3294115;-32.100730895996094;0.6187454462051392;92.51683807373047
110;1673298022.474464;47.1306422;7.2406239999999995;11.176000595092773;1673298022.5140278;-28.017230987548828;-0.9553818106651306;93.09439849853516
111;1673298022.679207;47.1306422;7.2406255999999996;11.578001022338867;1673298022.7174084;-25.00328826904297;-1.0142052173614502;93.45722198486328
112;1673298022.8799758;47.1306422;7.2406269;11.987000465393066;1673298022.9234684;-22.4735050201416;1.0126135349273682;92.60763549804688
113;1673298023.081288;47.1306422;7.2406277999999995;12.396000862121582;1673298023.1201284;-21.301658630371094;-0.5943005084991455;93.11225128173828
114;1673298023.293422;47.1306422;7.2406282;12.809000968933105;1673298023.3291297;-21.205488204956055;-1.5257916450500488;93.53716278076172
115;1673298023.4773276;47.1306423;7.240628;13.221000671386719;1673298023.5149632;-21.901498794555664;1.4131239652633667;92.59330749511719
116;1673298023.6465135;47.1306423;7.240627399999999;13.635000228881836;1673298023.6837735;-22.975948333740234;-0.6139428019523621;93.05731964111328
117;1673298023.8388894;47.1306422;7.2406264;14.045001029968262;1673298023.8807995;-24.765466690063477;-2.1124677658081055;93.6280746459961
118;1673298024.0518417;47.1306422;7.2406254;14.460000991821289;1673298024.0930011;-25.577356338500977;1.0737199783325195;92.55660247802734
119;1673298024.2540627;47.130642099999996;7.2406245;14.874000549316406;1673298024.2971354;-26.774322509765625;-0.9997206330299377;93.11444091796875
120;1673298024.4594808;47.130642099999996;7.2406236999999996;15.293001174926758;1673298024.4995651;-26.985355377197266;-2.351801872253418;93.46745300292969
121;1673298024.6588864;47.1306422;7.2406232;15.717000961303711;1673298024.70391;-27.746763229370117;0.7212631106376648;92.55057525634766
122;1673298024.8577724;47.1306422;7.2406228;16.136001586914062;1673298024.8903456;-27.60216522216797;-0.4315740764141083;92.93772888183594
123;1673298025.0539703;47.1306422;7.2406225;16.545000076293945;1673298025.0960977;-27.474956512451172;-2.1719794273376465;93.53243255615234
124;1673298025.2285478;47.1306422;7.2406223999999995;16.954999923706055;1673298025.2725487;-27.228248596191406;0.2948634624481201;92.81576538085938
125;1673298025.4328575;47.1306422;7.2406223999999995;17.365001678466797;1673298025.4728742;-26.86287498474121;0.11026541888713837;92.77495574951172
126;1673298025.6330438;47.1306423;7.2406225;17.770000457763672;1673298025.6818438;-26.441307067871094;-1.8419321775436401;93.5538558959961
127;1673298025.837305;47.1306425;7.2406226;18.17500114440918;1673298025.8785527;-26.05252456665039;0.5328198671340942;92.87449645996094
128;1673298026.0329194;47.1306425;7.2406228;18.577001571655273;1673298026.0759706;-25.995573043823242;1.134875774383545;92.64384460449219
129;1673298026.2244463;47.1306425;7.2406229;18.98200035095215;1673298026.2635038;-25.785436630249023;-1.6173536777496338;93.53558349609375
130;1673298026.4114065;47.1306425;7.2406228;19.381000518798828;1673298026.4617321;-25.85733985900879;-0.01147241797298193;93.02381134033203
131;1673298026.6251585;47.1306425;7.2406228;19.784000396728516;1673298026.671219;-25.855409622192383;1.3362905979156494;92.472900390625
132;1673298026.8316798;47.1306425;7.240622699999999;20.190000534057617;1673298026.8785586;-26.074182510375977;-1.7365816831588745;93.43207550048828
133;1673298027.0320036;47.1306425;7.2406226;20.599000930786133;1673298027.0765615;-25.920183181762695;-0.5056986212730408;93.27603912353516
134;1673298027.2469497;47.1306425;7.2406225;21.012001037597656;1673298027.2900002;-26.462343215942383;1.3504213094711304;92.6463851928711
135;1673298027.4371345;47.1306424;7.2406223999999995;21.416000366210938;1673298027.4839702;-26.015398025512695;-1.293720006942749;93.41122436523438
136;1673298027.6462386;47.1306424;7.2406222;21.812000274658203;1673298027.6872883;-26.707260131835938;-1.2638953924179077;93.41759490966797
137;1673298027.8367763;47.1306424;7.2406220999999995;22.21200180053711;1673298027.881673;-26.32332992553711;1.1820919513702393;92.62263488769531
138;1673298028.052791;47.1306424;7.240622;22.612001419067383;1673298028.0937884;-26.60302734375;-0.952816367149353;93.25511169433594
139;1673298028.2472248;47.1306424;7.240622;23.014001846313477;1673298028.289183;-26.31549072265625;-1.5738660097122192;93.51832580566406
140;1673298028.4416873;47.1306424;7.240622;23.417001724243164;1673298028.4856539;-26.518556594848633;1.239555835723877;92.6116943359375
141;1673298028.6439288;47.1306423;7.240622;23.817001342773438;1673298028.686881;-26.34329605102539;0.0070329150184988976;92.8780517578125
142;1673298028.8472872;47.1306423;7.240622;24.21900177001953;1673298028.8892574;-26.338973999023438;-1.7623298168182373;93.46092224121094
143;1673298029.0436506;47.1306423;7.2406217999999996;24.61400032043457;1673298029.0877044;-26.506195068359375;0.9430424571037292;92.71142578125
144;1673298029.251439;47.1306423;7.2406217999999996;25.01500129699707;1673298029.291679;-26.498798370361328;0.3001974821090698;92.84733581542969
145;1673298029.4520097;47.1306424;7.2406217999999996;25.421001434326172;1673298029.4940119;-26.478740692138672;-1.7610160112380981;93.54730987548828
146;1673298029.6475205;47.1306424;7.2406217999999996;25.82600212097168;1673298029.6885142;-26.3787841796875;0.47158685326576233;92.83279418945312
147;1673298029.849962;47.1306424;7.2406217999999996;26.225000381469727;1673298029.8948586;-26.242237091064453;0.9088212847709656;92.60259246826172
148;1673298030.0492055;47.1306423;7.2406217999999996;26.626001358032227;1673298030.089223;-26.364299774169922;-2.0981600284576416;93.58865356445312
149;1673298030.2621684;47.1306423;7.240621699999999;27.022001266479492;1673298030.3041697;-26.52069091796875;0.15888433158397675;92.92601776123047
150;1673298030.4950354;47.1306423;7.240621699999999;27.421001434326172;1673298030.5321796;-26.520078659057617;0.889662504196167;92.58998107910156
151;1673298030.6921206;47.1306424;7.240621699999999;27.823001861572266;1673298030.7313743;-26.434404373168945;-1.811253547668457;93.59973907470703
152;1673298030.8908627;47.1306424;7.240621699999999;28.22800064086914;1673298030.928491;-26.424041748046875;-0.023196633905172348;93.14075469970703
153;1673298031.1083236;47.1306424;7.240621699999999;28.634000778198242;1673298031.1418076;-26.46576690673828;1.1506593227386475;92.5746841430664
154;1673298031.28868;47.1306424;7.240621699999999;29.04100227355957;1673298031.3331704;-26.504989624023438;-1.5027650594711304;93.45903015136719
155;1673298031.464723;47.1306425;7.240621699999999;29.444002151489258;1673298031.5037525;-26.35740089416504;-0.286025732755661;93.17100524902344
156;1673298031.6584086;47.1306425;7.2406216;29.839000701904297;1673298031.7014253;-26.480680465698242;1.4148873090744019;92.61443328857422
157;1673298031.881172;47.130642599999995;7.2406216;30.240001678466797;1673298031.929141;-26.584569931030273;-1.0166023969650269;93.35187530517578
158;1673298032.0780282;47.130642599999995;7.2406216;30.641000747680664;1673298032.118048;-26.356435775756836;-0.5867622494697571;93.29656982421875
159;1673298032.2708158;47.130642599999995;7.2406216;31.046001434326172;1673298032.303999;-26.595870971679688;1.6921993494033813;92.45294952392578
160;1673298032.4378524;47.1306425;7.2406216;31.453001022338867;1673298032.4788451;-26.285484313964844;-1.0137519836425781;93.30554962158203
161;1673298032.631219;47.1306425;7.2406216;31.85500144958496;1673298032.6771333;-26.620037078857422;-1.1039613485336304;93.45708465576172
162;1673298032.829505;47.1306425;7.2406215;32.24800109863281;1673298032.8695254;-26.48842430114746;1.591055989265442;92.52928924560547
163;1673298033.0320778;47.1306425;7.240621399999999;32.645999908447266;1673298033.0760484;-26.721256256103516;-0.5669828653335571;93.11815643310547
164;1673298033.2363477;47.1306425;7.240621399999999;33.04600143432617;1673298033.285315;-26.44948387145996;-1.1250450611114502;93.4808120727539
165;1673298033.4476566;47.1306425;7.240621399999999;33.44499969482422;1673298033.4965196;-26.554269790649414;1.5216261148452759;92.51538848876953
166;1673298033.6699245;47.1306424;7.2406215;33.84600067138672;1673298033.717827;-26.35172462463379;-0.3816906213760376;93.05168151855469
167;1673298033.87863;47.1306424;7.240621399999999;34.25100326538086;1673298033.9167309;-26.573331832885742;-1.7131836414337158;93.61544036865234
168;1673298034.064433;47.1306424;7.240621399999999;34.65500259399414;1673298034.1054244;-26.372949600219727;1.4609060287475586;92.62026977539062
169;1673298034.262183;47.1306425;7.2406213;35.05000305175781;1673298034.304168;-26.665348052978516;0.11693736910820007;92.92820739746094
170;1673298034.4680696;47.1306425;7.2406212;35.44700241088867;1673298034.5053468;-26.554161071777344;-1.5951918363571167;93.47728729248047
171;1673298034.666587;47.1306424;7.240621099999999;35.84800338745117;1673298034.7066286;-26.789520263671875;1.148988962173462;92.59121704101562
172;1673298034.871883;47.1306424;7.240621099999999;36.25300216674805;1673298034.9099393;-26.507205963134766;0.5623159408569336;92.6524429321289
173;1673298035.0588233;47.1306424;7.240621099999999;36.66200256347656;1673298035.0979774;-26.83485221862793;-1.9865851402282715;93.68036651611328
174;1673298035.2535844;47.1306424;7.240621;37.06800079345703;1673298035.2965353;-26.457874298095703;0.5592126846313477;92.92410278320312
175;1673298035.4565642;47.1306424;7.240621;37.4640007019043;1673298035.4995492;-26.80804443359375;1.064423680305481;92.66075897216797
176;1673298035.6639955;47.1306424;7.2406209;37.86300277709961;1673298035.7051194;-26.64693260192871;-1.6126655340194702;93.57879638671875
177;1673298035.8680556;47.1306424;7.2406209;38.26300048828125;1673298035.9071004;-26.766035079956055;-0.001866562757641077;93.08301544189453
178;1673298036.058282;47.1306423;7.2406209;38.663002014160156;1673298036.1033185;-26.576732635498047;1.4327949285507202;92.51314544677734
179;1673298036.2462912;47.1306423;7.2406209;39.06500244140625;1673298036.2883255;-26.74986457824707;-1.5219101905822754;93.49578857421875
180;1673298036.4434946;47.1306423;7.2406209;39.467002868652344;1673298036.4854624;-26.567890167236328;-0.3578530550003052;93.29114532470703
181;1673298036.654634;47.1306424;7.2406209;39.87000274658203;1673298036.7084062;-26.684598922729492;1.5900458097457886;92.46282196044922
182;1673298036.8794541;47.1306424;7.2406209;40.26400375366211;1673298036.9201126;-26.516523361206055;-1.103348970413208;93.28192138671875
183;1673298037.0769486;47.1306423;7.240620799999999;40.66200256347656;1673298037.1161885;-26.721343994140625;-0.7939568161964417;93.34403991699219
184;1673298037.2802036;47.1306423;7.240620799999999;41.06100082397461;1673298037.32416;-26.719467163085938;1.6137877702713013;92.55178833007812
185;1673298037.47675;47.1306423;7.240620799999999;41.46200180053711;1673298037.5236075;-26.714067459106445;-0.9040953516960144;93.34635925292969
186;1673298037.6820629;47.1306424;7.240620799999999;41.8640022277832;1673298037.7255785;-26.758832931518555;-0.9927762746810913;93.46517181396484
187;1673298037.8774307;47.1306424;7.240620799999999;42.2650032043457;1673298037.925391;-26.663646697998047;1.6329947710037231;92.55477142333984
188;1673298038.081852;47.1306424;7.2406207;42.65700149536133;1673298038.1259077;-26.697643280029297;-0.2250691056251526;93.12353515625
189;1673298038.2727282;47.1306424;7.2406207;43.05600357055664;1673298038.3117702;-26.75490379333496;-1.2595560550689697;93.49446868896484
190;1673298038.458135;47.1306424;7.240620799999999;43.45900344848633;1673298038.5001013;-26.651412963867188;1.4411474466323853;92.60000610351562
191;1673298038.6584945;47.1306424;7.240620799999999;43.862003326416016;1673298038.7016366;-26.46562957763672;0.11184113472700119;92.95608520507812
192;1673298038.8655634;47.1306424;7.240620799999999;44.262001037597656;1673298038.9095607;-26.812177658081055;-1.4839597940444946;93.66043853759766
193;1673298039.0632389;47.1306424;7.240620799999999;44.663002014160156;1673298039.1042879;-26.524948120117188;1.0118603706359863;92.83736419677734
194;1673298039.280143;47.1306424;7.240620799999999;45.0620002746582;1673298039.3241203;-26.806840896606445;0.9398922324180603;92.73006439208984
195;1673298039.48961;47.1306424;7.2406207;45.454002380371094;1673298039.540951;-26.61150360107422;-1.594089150428772;93.4846420288086
196;1673298039.678286;47.1306424;7.2406206;45.85000228881836;1673298039.7168934;-26.98229217529297;0.4209502041339874;92.90222930908203
197;1673298039.8625772;47.1306424;7.2406206;46.25300216674805;1673298039.9045503;-26.752445220947266;1.262096643447876;92.65340423583984
198;1673298040.0743375;47.1306424;7.2406206;46.65400314331055;1673298040.11728;-26.872276306152344;-1.5103895664215088;93.55789947509766
199;1673298040.2816596;47.1306424;7.2406206;47.05600357055664;1673298040.3199215;-26.60224723815918;0.29607415199279785;93.1898422241211
200;1673298040.479388;47.1306425;7.2406206;47.46000289916992;1673298040.5194275;-26.819372177124023;1.701470136642456;92.6357421875
201;1673298040.6750987;47.1306425;7.2406206;47.85400390625;1673298040.7184443;-26.49234390258789;-0.9818704724311829;93.49877166748047
202;1673298040.8813093;47.1306425;7.2406204999999995;48.23600387573242;1673298040.926411;-27.40639877319336;0.24017491936683655;93.20297241210938
203;1673298041.0682392;47.1306425;7.2406203;48.56500244140625;1673298041.1102073;-27.028087615966797;1.2748416662216187;92.5838851928711
204;1673298041.2645504;47.1306425;7.24062;48.840003967285156;1673298041.3065486;-27.404762268066406;-0.6674317121505737;93.32318115234375
205;1673298041.4619803;47.1306425;7.2406196;49.070003509521484;1673298041.5079868;-27.905866622924805;-0.5266178250312805;93.35468292236328
206;1673298041.650679;47.1306425;7.2406191;49.26700210571289;1673298041.6926465;-28.4970703125;1.6061080694198608;92.553955078125
207;1673298041.8647006;47.1306424;7.2406185999999995;49.427001953125;1673298041.910576;-19.84648895263672;8.609944343566895;90.74636840820312
208;1673298042.081062;47.130642099999996;7.2406174;49.51900100708008;1673298042.1206684;-18.24977684020996;14.646028518676758;81.17695617675781
209;1673298042.2737832;47.1306413;7.240615699999999;49.58000183105469;1673298042.3137002;-27.753170013427734;9.158995628356934;68.14287567138672
210;1673298042.4789214;47.1306404;7.240614;49.62600326538086;1673298042.5146122;-19.779691696166992;13.094101905822754;59.463741302490234
211;1673298042.6796782;47.130639599999995;7.2406123;49.67000198364258;1673298042.726699;-20.09255599975586;16.72220230102539;49.775970458984375
212;1673298042.880786;47.1306387;7.2406105;49.708003997802734;1673298042.9169118;-17.175609588623047;22.231369018554688;39.93730163574219
213;1673298043.068644;47.130637899999996;7.240609;49.742000579833984;1673298043.1078258;-14.365365982055664;26.138713836669922;30.707155227661133
214;1673298043.259629;47.130637199999995;7.240607499999999;49.76400375366211;1673298043.2977312;-10.94354248046875;28.635515213012695;21.578208923339844
215;1673298043.4636183;47.1306368;7.2406061;49.78400421142578;1673298043.514886;-6.4780120849609375;29.43018341064453;12.642105102539062
216;1673298043.6896837;47.1306365;7.2406049999999995;49.802001953125;1673298043.7269235;-1.5530154705047607;29.507143020629883;3.609790563583374
217;1673298043.8806393;47.1306363;7.2406041;49.81700134277344;1673298043.9216945;4.472400665283203;29.279903411865234;-5.6005330085754395
218;1673298044.0766733;47.1306362;7.2406036;49.829002380371094;1673298044.1216383;10.336305618286133;28.093647003173828;-14.789484977722168
219;1673298044.2857957;47.1306362;7.2406032;49.836002349853516;1673298044.326258;15.441143035888672;26.730648040771484;-23.848814010620117
220;1673298044.4735932;47.1306362;7.2406032;49.842002868652344;1673298044.5284822;19.04298210144043;24.266643524169922;-32.8735466003418
221;1673298044.6742258;47.1306361;7.2406033;49.84300231933594;1673298044.712873;21.74893569946289;21.38881492614746;-41.62948226928711
222;1673298044.8616521;47.1306361;7.2406035;49.845001220703125;1673298044.9053829;24.227163314819336;18.294687271118164;-50.03298568725586
223;1673298045.0738726;47.130635999999996;7.2406038;49.84800338745117;1673298045.1125197;25.490478515625;16.203752517700195;-51.58090591430664
224;1673298045.2776582;47.130635899999994;7.2406041;49.84700393676758;1673298045.320742;24.67134666442871;16.975753784179688;-48.351741790771484
225;1673298045.465969;47.1306357;7.240604299999999;49.84700393676758;1673298045.5072;23.67234230041504;16.45423698425293;-46.721588134765625
226;1673298045.6631317;47.1306355;7.2406045;49.84700393676758;1673298045.7082174;22.73345947265625;16.04009246826172;-46.10075378417969
227;1673298045.9063835;47.1306351;7.240604599999999;49.842002868652344;1673298045.9474964;21.310226440429688;16.81283187866211;-46.27947235107422
228;1673298046.0975108;47.1306349;7.2406047;49.84300231933594;1673298046.1395235;20.6771240234375;17.832630157470703;-46.72161102294922
229;1673298046.2940187;47.130634699999995;7.240604599999999;49.85400390625;1673298046.336954;20.281116485595703;19.435775756835938;-46.89028549194336
230;1673298046.4875612;47.1306345;7.240604299999999;49.86900329589844;1673298046.5314972;20.409404754638672;20.115867614746094;-46.74348831176758
231;1673298046.6790035;47.1306343;7.240603999999999;49.88200378417969;1673298046.7172961;21.448265075683594;19.991962432861328;-46.41157150268555
232;1673298046.8574514;47.130634199999996;7.2406036;49.89500427246094;1673298046.9010663;14.139922142028809;20.221933364868164;-47.52493667602539
233;1673298047.054226;47.1306345;7.2406026;49.90300369262695;1673298047.0962734;-17.301658630371094;20.4495792388916;-49.02824401855469
234;1673298047.2682095;47.130635999999996;7.2405997;49.90300369262695;1673298047.3103;-45.67470932006836;12.255502700805664;-47.379669189453125
235;1673298047.4741597;47.1306395;7.240592899999999;49.887001037597656;1673298047.5162299;-48.20806121826172;5.98274040222168;-44.34170913696289
236;1673298047.6771882;47.1306449;7.240581799999999;49.849002838134766;1673298047.762189;-46.62699890136719;4.7598748207092285;-44.207881927490234
237;1673298047.9103794;47.130652;7.2405662;49.816001892089844;1673298047.947201;-49.23773956298828;10.195137977600098;-44.04080581665039
238;1673298048.0970123;47.1306608;7.2405466;49.80600357055664;1673298048.1335468;-52.80390167236328;15.562108993530273;-43.80799102783203
239;1673298048.2913353;47.1306717;7.2405237;49.802001953125;1673298048.3487418;-53.94086456298828;19.605899810791016;-43.28085708618164
240;1673298048.5012922;47.1306851;7.2404986;49.802001953125;1673298048.5404966;-54.08072280883789;18.756088256835938;-41.40695571899414
241;1673298048.6950371;47.1307006;7.2404712;49.797000885009766;1673298048.7313793;-53.47127151489258;21.58961296081543;-40.97844696044922
242;1673298048.8922834;47.130718099999996;7.2404424999999994;49.78700256347656;1673298048.9336257;-52.61067199707031;25.43913459777832;-39.95838165283203
243;1673298049.0812635;47.1307374;7.2404135;49.78600311279297;1673298049.1272345;-40.16215515136719;25.17154884338379;-34.501216888427734
244;1673298049.3085544;47.1307575;7.2403854;49.78400421142578;1673298049.346175;-1.8535354137420654;30.12288475036621;-33.15287399291992
245;1673298049.5045962;47.1307768;7.2403596;49.76400375366211;1673298049.5494034;37.61983108520508;17.229825973510742;-36.14133834838867
246;1673298049.693279;47.1307936;7.2403362;49.6400032043457;1673298049.7362053;17.567157745361328;3.7136800289154053;-41.750789642333984
247;1673298049.9068503;47.130806799999995;7.2403153;49.54300308227539;1673298049.9415028;27.37717056274414;6.586048603057861;-45.60655212402344
248;1673298050.0812306;47.1308174;7.2402964;49.49100112915039;1673298050.1282473;35.54285430908203;5.330500602722168;-45.68173599243164
249;1673298050.2965565;47.1308253;7.2402802;49.48200225830078;1673298050.3432655;44.442298889160156;6.677477836608887;-45.11564254760742
250;1673298050.5081654;47.1308302;7.2402672;49.50300216674805;1673298050.5462756;46.492977142333984;8.6758394241333;-44.927310943603516
251;1673298050.7136266;47.130832299999994;7.2402576;49.54600143432617;1673298050.755235;50.52199172973633;11.148336410522461;-43.74815368652344
252;1673298050.901303;47.130832;7.2402516;49.60400390625;1673298050.9381762;53.56629943847656;13.481842041015625;-43.392433166503906
253;1673298051.0729241;47.1308292;7.240249299999999;49.66200256347656;1673298051.115278;55.61062240600586;17.313222885131836;-43.1729736328125
254;1673298051.2661176;47.1308248;7.2402507;49.720001220703125;1673298051.3117464;56.504852294921875;20.009706497192383;-43.23869323730469
255;1673298051.4944506;47.130818999999995;7.2402554;49.78000259399414;1673298051.53711;55.209781646728516;22.14741325378418;-43.0221061706543
256;1673298051.694774;47.1308122;7.240263;49.83100128173828;1673298051.737282;48.48008346557617;22.79107093811035;-44.19019317626953
257;1673298051.8942306;47.130804999999995;7.240272399999999;49.86100387573242;1673298051.936746;34.66303634643555;20.651094436645508;-44.65442657470703
258;1673298052.0808296;47.130798;7.2402821;49.871002197265625;1673298052.1204197;19.637367248535156;18.42106819152832;-43.41679000854492
259;1673298052.2952304;47.1307915;7.240291;49.86600112915039;1673298052.330906;6.2737345695495605;16.992557525634766;-41.57756805419922
260;1673298052.476955;47.1307859;7.240297699999999;49.855003356933594;1673298052.5214756;-1.0783164501190186;14.707693099975586;-40.732566833496094
261;1673298052.6891074;47.1307815;7.2403024;49.84400177001953;1673298052.7317355;-5.465957164764404;18.967466354370117;-39.59181594848633
262;1673298052.893486;47.1307785;7.240305299999999;49.85100173950195;1673298052.9379625;-10.836474418640137;35.921653747558594;-39.79373550415039
263;1673298053.0765958;47.130777599999995;7.240307;49.8650016784668;1673298053.1215515;-6.390966892242432;40.52992630004883;-37.9943733215332
264;1673298053.2862163;47.1307786;7.2403083;49.87000274658203;1673298053.3279526;3.298264265060425;34.85152816772461;-39.36980056762695
265;1673298053.4828892;47.1307808;7.240309399999999;49.87000274658203;1673298053.5254955;13.959715843200684;26.879840850830078;-39.27649688720703
266;1673298053.6804771;47.1307833;7.2403102;49.87200164794922;1673298053.719194;13.078825950622559;28.72402000427246;-40.51036834716797
267;1673298053.868125;47.130786;7.2403109;49.85600280761719;1673298053.9196584;11.042906761169434;29.253698348999023;-41.33027648925781
268;1673298054.081721;47.1307888;7.2403110999999996;49.531002044677734;1673298054.1227708;-0.4595237970352173;19.09396743774414;-44.604583740234375
269;1673298054.2815084;47.1307915;7.2403109;48.84600067138672;1673298054.320133;-18.666156768798828;-4.672820091247559;-45.77718734741211
270;1673298054.4800186;47.1307942;7.2403105;47.77400207519531;1673298054.5166795;-37.89836502075195;-44.211490631103516;-35.999813079833984
271;1673298054.6704538;47.1307968;7.2403103;46.31200408935547;1673298054.7150245;-45.36257553100586;-91.11412048339844;-16.509817123413086
272;1673298054.870223;47.1307994;7.240310099999999;44.48400115966797;1673298054.9131799;-45.17564010620117;-116.49038696289062;-9.143575668334961
273;1673298055.093038;47.130801899999994;7.2403097;42.285003662109375;1673298055.1405237;-49.220062255859375;-108.24927520751953;-20.636587142944336
274;1673298055.300752;47.130804499999996;7.2403092;39.742000579833984;1673298055.3420107;-46.81356430053711;-60.49515914916992;-54.933597564697266
275;1673298055.4994245;47.1308072;7.240308799999999;36.85100173950195;1673298055.5410337;-21.37340545654297;-8.47248649597168;-75.88347625732422
276;1673298055.718086;47.13081;7.2403084;33.566001892089844;1673298055.762005;5.922430038452148;30.971664428710938;-74.15169525146484
277;1673298055.9109366;47.1308126;7.240307499999999;29.905000686645508;1673298055.9524734;19.728363037109375;50.88035583496094;-72.11460876464844
278;1673298056.108615;47.130815;7.240306299999999;25.895000457763672;1673298056.1467211;16.62807273864746;35.881187438964844;-84.5197525024414
279;1673298056.2910297;47.1308169;7.2403045;21.518001556396484;1673298056.3345275;-9.823426246643066;-0.8650176525115967;-100.50515747070312
280;1673298056.5003583;47.1308188;7.2403026;16.751001358032227;1673298056.5438747;-43.53917694091797;-36.616424560546875;-98.41351318359375
281;1673298056.6967874;47.1308211;7.2403008;11.624000549316406;1673298056.7413363;-57.555171966552734;-44.65224838256836;-99.10775756835938
282;1673298056.8873084;47.1308237;7.240298999999999;6.173000335693359;1673298056.9305787;-40.864013671875;-5.177277088165283;-126.20209503173828
283;1673298057.0993867;47.1308267;7.2402975;0.36400002241134644;1673298057.146939;-4.411900043487549;0.7346656322479248;-130.8245391845703
284;1673298057.3257651;47.130823799999995;7.240295199999999;0.5330000519752502;1673298057.3824854;-0.21947944164276123;-1.1955410242080688;-126.46699523925781
285;1673298057.5773714;47.130823199999995;7.240293899999999;0.8500000238418579;1673298057.608609;-0.8933711051940918;1.80182945728302;-125.54964447021484
286;1673298057.7493908;47.130823;7.2402926999999995;1.1890000104904175;1673298057.78843;-0.7726448178291321;1.071959376335144;-125.08831024169922
287;1673298057.964393;47.1308237;7.240292999999999;1.4200000762939453;1673298058.0034423;-0.35088878870010376;1.2564867734909058;-124.43317413330078
288;1673298058.1419241;47.1308247;7.240293899999999;1.5810000896453857;1673298058.179987;-0.04024742543697357;1.6272004842758179;-124.00393676757812
289;1673298058.3304145;47.130825699999995;7.2402947;1.690000057220459;1673298058.3733604;0.15368348360061646;2.255383253097534;-123.74130249023438
290;1673298058.518419;47.1308264;7.240295499999999;1.7670000791549683;1673298058.5609212;0.3443412482738495;2.8314168453216553;-123.49056243896484
291;1673298058.7090786;47.130827;7.240296099999999;1.8200000524520874;1673298058.7526655;0.43249645829200745;3.3837482929229736;-123.2580795288086
292;1673298058.9143972;47.1308272;7.2402964;1.9310001134872437;1673298058.9569314;0.5782812237739563;3.9144349098205566;-123.1051254272461
293;1673298059.108975;47.1308274;7.2402966;1.9930001497268677;1673298059.149028;0.7054882645606995;4.210392951965332;-122.9356689453125
294;1673298059.304931;47.1308277;7.2402969;2.0280001163482666;1673298059.347464;0.8335309028625488;4.340923309326172;-122.77751922607422
295;1673298059.4964788;47.1308279;7.240297099999999;2.0440001487731934;1673298059.5360613;0.916480302810669;4.474245071411133;-122.65596771240234
296;1673298059.6996496;47.130828099999995;7.2402973;2.0510001182556152;1673298059.7452068;1.0168800354003906;4.390008449554443;-122.53389739990234
297;1673298059.9043448;47.1308283;7.240297399999999;2.0510001182556152;1673298059.946377;1.0490715503692627;4.186825752258301;-122.39161682128906
298;1673298060.099486;47.1308284;7.2402975;2.0450000762939453;1673298060.14541;1.113840103149414;3.9843525886535645;-122.29393005371094
299;1673298060.3082504;47.1308285;7.240297699999999;2.0940001010894775;1673298060.3537273;1.117463231086731;3.8552803993225098;-122.24516296386719
300;1673298060.5048606;47.1308286;7.2402978;2.1110000610351562;1673298060.5485108;1.1777806282043457;3.596068859100342;-122.17796325683594
301;1673298060.7112672;47.1308286;7.2402978;2.1050000190734863;1673298060.7524989;1.1581840515136719;3.3944976329803467;-122.16332244873047
302;1673298060.9141343;47.130828699999995;7.2402979;2.0940001010894775;1673298060.959572;1.1377451419830322;3.2387583255767822;-122.11246490478516
303;1673298061.1017723;47.130828799999996;7.2402979;2.067000150680542;1673298061.1474755;1.1575217247009277;3.025442123413086;-122.08894348144531
304;1673298061.3061385;47.130828799999996;7.240297999999999;2.0360000133514404;1673298061.3496368;1.1244369745254517;2.848724603652954;-122.07118225097656
305;1673298061.48788;47.130829;7.2402982;2.0380001068115234;1673298061.5275156;1.1449989080429077;2.6916966438293457;-122.0755844116211
306;1673298061.6929595;47.130829;7.2402983;2.017000198364258;1673298061.738573;1.1030596494674683;2.5070412158966064;-122.04876708984375
307;1673298061.902062;47.1308291;7.2402983;1.9830000400543213;1673298061.9465485;1.0800635814666748;2.3580095767974854;-122.04801177978516
308;1673298062.1137812;47.1308291;7.2402982;1.9410001039505005;1673298062.1635847;1.0737875699996948;2.190669298171997;-122.04457092285156
309;1673298062.3316708;47.1308292;7.2402982;1.8930001258850098;1673298062.3816307;1.0280306339263916;2.044757843017578;-122.02815246582031
310;1673298062.5693214;47.1308292;7.2402980999999995;1.8380000591278076;1673298062.610609;0.9818595051765442;1.9122356176376343;-122.01931762695312
311;1673298062.7448442;47.1308292;7.240297999999999;1.78000009059906;1673298062.7799797;0.9817062616348267;1.769862174987793;-122.02754974365234
312;1673298062.930209;47.130829399999996;7.2402982;1.7390000820159912;1673298062.9722147;0.9339303374290466;1.6672842502593994;-121.9880599975586
313;1673298063.1284873;47.130829399999996;7.2402982;1.686000108718872;1673298063.1714282;0.9642907381057739;1.5454961061477661;-122.00660705566406
314;1673298063.310019;47.1308295;7.2402982;1.627000093460083;1673298063.3510802;0.9269751906394958;1.4163105487823486;-121.99950408935547
315;1673298063.5028114;47.1308295;7.2402980999999995;1.564000129699707;1673298063.5445125;0.881193220615387;1.333274483680725;-122.00397491455078
316;1673298063.6981263;47.1308295;7.2402979;1.4950001239776611;1673298063.7419302;0.8736908435821533;1.2514233589172363;-122.01358795166016
317;1673298063.9019632;47.130829399999996;7.2402979;1.440000057220459;1673298063.940585;0.8179224133491516;0.7789472341537476;-122.03118896484375
318;1673298064.0807233;47.1308296;7.240297999999999;1.4240000247955322;;;;
