;pos_time;latitude;longitude;altitude;alt_time;pitch;roll;yaw
0;1673295029.3535504;47.130642599999995;7.2406201;0.005000000353902578;1673295029.5087435;-0.048295699059963226;-0.35371512174606323;90.03935241699219
1;1673295029.5654585;47.130642599999995;7.2406201;0.005000000353902578;1673295029.6880689;0.14945773780345917;-0.3107575476169586;90.206787109375
2;1673295029.7560499;47.1306425;7.2406201;0.003000000026077032;1673295029.8964942;0.2711805999279022;-0.2577183246612549;90.163330078125
3;1673295029.9659138;47.1306425;7.24062;0.0010000000474974513;1673295030.1033797;0.3189671039581299;-0.16195707023143768;89.93992614746094
4;1673295030.1673381;47.1306424;7.24062;0.004000000189989805;1673295030.3094995;0.12467445433139801;-0.35583433508872986;90.20838165283203
5;1673295030.3760571;47.1306423;7.24062;0.005000000353902578;1673295030.492054;0.0659354105591774;-0.03715858235955238;90.0455093383789
6;1673295030.5565176;47.1306423;7.2406198999999996;0.003000000026077032;1673295030.6831775;0.12343636155128479;-0.20618711411952972;90.048095703125
7;1673295030.7540233;47.1306422;7.240619799999999;0.0010000000474974513;1673295030.8785615;0.06214466691017151;-0.2598732113838196;90.01399230957031
8;1673295030.9415905;47.1306423;7.2406198999999996;0.0010000000474974513;1673295031.0827043;-0.0896250456571579;-0.23052097856998444;90.03016662597656
9;1673295031.1447752;47.1306423;7.2406198999999996;0.0;1673295031.2790468;0.014200789853930473;-0.7866105437278748;90.19966125488281
10;1673295031.3417866;47.1306423;7.2406198999999996;0.0;1673295031.46596;-0.0315086729824543;-0.9649670720100403;90.04188537597656
11;1673295031.5309596;47.1306423;7.24062;0.0;1673295031.6820898;0.03917236253619194;-0.8586209416389465;90.14283752441406
12;1673295031.7402442;47.1306423;7.24062;0.0;1673295031.8815756;0.027169398963451385;-0.891154944896698;90.1917724609375
13;1673295031.9472852;47.1306424;7.24062;0.00800000037997961;1673295032.083911;-0.0323043167591095;-0.8065366744995117;90.19828796386719
14;1673295032.1508317;47.1306424;7.24062;0.012000000104308128;1673295032.2849007;-0.15182532370090485;-0.8661062121391296;90.15911865234375
15;1673295032.3499167;47.1306424;7.24062;0.012000000104308128;1673295032.4884434;-0.34924668073654175;-0.9966812133789062;89.9996337890625
16;1673295032.5548265;47.1306424;7.24062;0.01600000075995922;1673295032.6859813;-0.17434808611869812;-1.1278955936431885;90.13191223144531
17;1673295032.7507224;47.1306425;7.2406201;0.01900000125169754;1673295032.8757102;-0.34128525853157043;-1.031264305114746;90.12720489501953
18;1673295032.937909;47.1306425;7.2406201;-0.0010000000474974513;1673295033.0759327;-0.2028452455997467;-0.3805842697620392;90.12646484375
19;1673295033.137684;47.1306425;7.2406201;0.0;1673295033.2779503;-0.238352432847023;-0.4206377863883972;90.06983947753906
20;1673295033.340779;47.1306424;7.2406201999999995;-0.0010000000474974513;1673295033.478112;-0.31067612767219543;-0.5931670665740967;90.21526336669922
21;1673295033.5416582;47.1306424;7.2406201999999995;-0.0010000000474974513;1673295033.677811;-0.18110527098178864;-0.534593939781189;90.16285705566406
22;1673295033.7428517;47.1306424;7.2406201;-0.0020000000949949026;1673295033.8796768;-0.39078041911125183;-0.5449450016021729;90.2337875366211
23;1673295033.9460294;47.1306424;7.2406201;-0.0020000000949949026;1673295034.0846274;-0.3385826647281647;-0.6568792462348938;90.2884750366211
24;1673295034.1507154;47.1306425;7.2406201999999995;-0.005000000353902578;1673295034.2952688;-0.20295482873916626;-0.607620894908905;90.17733764648438
25;1673295034.3598087;47.130642599999995;7.2406201999999995;-0.003000000026077032;1673295034.48763;-0.09258159250020981;-0.5518226623535156;90.47168731689453
26;1673295034.5608213;47.130642599999995;7.2406203;0.0020000000949949026;1673295034.6967924;1.1010499000549316;0.30136987566947937;91.68712615966797
27;1673295034.7529247;47.1306429;7.2406206;0.00800000037997961;1673295034.885874;3.0774879455566406;1.8798565864562988;91.54978942871094
28;1673295034.953091;47.130643299999996;7.240621;0.02200000174343586;1673295035.0898397;6.794032573699951;5.255332946777344;90.34960174560547
29;1673295035.1540446;47.1306437;7.2406215;0.032999999821186066;1673295035.2842717;10.875706672668457;9.995923042297363;90.2363052368164
30;1673295035.3457732;47.1306442;7.2406222;0.04400000348687172;1673295035.4838047;13.138988494873047;13.300389289855957;90.90548706054688
31;1673295035.5487645;47.1306448;7.2406231;0.0690000057220459;1673295035.693833;13.415963172912598;14.594279289245605;91.32772827148438
32;1673295035.7618783;47.1306453;7.2406239999999995;0.10500000417232513;1673295035.9038649;14.675811767578125;14.555256843566895;91.57913208007812
33;1673295035.968848;47.130645699999995;7.240624899999999;0.15400001406669617;1673295036.0963874;16.286455154418945;15.117888450622559;91.77332305908203
34;1673295036.15125;47.130646;7.240625499999999;0.21700000762939453;1673295036.2943163;17.601085662841797;16.930919647216797;91.9664535522461
35;1673295036.3695085;47.130646;7.240626;0.2930000126361847;1673295036.520276;18.81889533996582;18.02758026123047;92.0307846069336
36;1673295036.5809712;47.130645799999996;7.240626;0.38600000739097595;1673295036.7054775;19.7138671875;14.888508796691895;91.32778930664062
37;1673295036.7715037;47.1306453;7.2406255999999996;0.49800002574920654;1673295036.905198;18.811878204345703;14.017364501953125;90.76374816894531
38;1673295036.962816;47.1306448;7.2406247;0.6240000128746033;1673295037.109011;17.02532196044922;15.353287696838379;89.94469451904297
39;1673295037.1690862;47.1306442;7.2406235;0.7560000419616699;1673295037.296515;15.396854400634766;10.552358627319336;88.3151626586914
40;1673295037.4005594;47.1306436;7.2406223;0.8940000534057617;1673295037.556736;14.138019561767578;9.625005722045898;87.14016723632812
41;1673295037.612522;47.130643199999994;7.2406212;1.0430001020431519;1673295037.727861;13.542573928833008;12.471071243286133;86.34535217285156
42;1673295037.7942955;47.130642699999996;7.2406203;1.2020000219345093;1673295037.9172566;13.096468925476074;9.57824420928955;85.0011215209961
43;1673295037.9847286;47.1306424;7.240619499999999;1.3760000467300415;1673295038.0946157;13.167590141296387;8.108423233032227;83.75650787353516
44;1673295038.1586087;47.1306422;7.240619;1.5570000410079956;1673295038.3114214;12.930779457092285;12.241461753845215;87.39108276367188
45;1673295038.3695376;47.1306422;7.2406188;1.7420001029968262;1673295038.5041933;14.068970680236816;11.119294166564941;85.72135162353516
46;1673295038.5604866;47.1306422;7.240618899999999;1.9280000925064087;1673295038.6859875;14.991251945495605;8.38463020324707;84.0682144165039
47;1673295038.7558432;47.1306423;7.240619199999999;2.123000144958496;1673295038.897069;15.78963565826416;11.17252254486084;83.187744140625
48;1673295038.984008;47.1306424;7.240619499999999;2.313000202178955;1673295039.1447008;16.64225959777832;11.677545547485352;82.50556182861328
49;1673295039.205214;47.1306423;7.2406197;2.501000165939331;1673295039.3283331;17.061128616333008;7.871042251586914;81.1693344116211
50;1673295039.385095;47.1306423;7.2406198999999996;2.695000171661377;1673295039.5050373;17.222444534301758;9.968330383300781;81.0634994506836
51;1673295039.560849;47.1306424;7.24062;2.8950002193450928;1673295039.6874166;17.219213485717773;12.081536293029785;81.38692474365234
52;1673295039.7515259;47.1306424;7.24062;3.0880000591278076;1673295039.8779807;17.294178009033203;8.088277816772461;81.02730560302734
53;1673295039.9411042;47.1306423;7.24062;3.2790000438690186;1673295040.0797684;16.721765518188477;8.965250015258789;80.96430969238281
54;1673295040.1463163;47.1306423;7.2406198999999996;3.4760000705718994;1673295040.2698495;16.489484786987305;11.968360900878906;81.45482635498047
55;1673295040.3329308;47.1306422;7.2406198999999996;3.6740002632141113;1673295040.4818053;16.45929527282715;8.451444625854492;81.10546112060547
56;1673295040.550994;47.1306422;7.2406197;3.869000196456909;1673295040.6997883;15.983906745910645;8.60485553741455;81.09716033935547
57;1673295040.7639372;47.1306422;7.2406196;4.065999984741211;1673295040.9080093;15.807416915893555;12.292579650878906;81.59722137451172
58;1673295040.9781368;47.1306423;7.240619499999999;4.258000373840332;1673295041.090946;16.094099044799805;9.662272453308105;81.41830444335938
59;1673295041.1540153;47.1306423;7.240619499999999;4.449000358581543;1673295041.3000443;16.075096130371094;8.451454162597656;81.21009063720703
60;1673295041.3623428;47.1306424;7.240619499999999;4.642000198364258;1673295041.5088165;16.024959564208984;12.259227752685547;81.58377838134766
61;1673295041.5708866;47.1306424;7.2406196;4.835000038146973;1673295041.705153;16.29949188232422;10.225504875183105;81.44566345214844
62;1673295041.782812;47.1306424;7.2406196;5.0360002517700195;1673295041.911237;16.170616149902344;8.326428413391113;81.1578369140625
63;1673295041.9693654;47.1306424;7.2406196;5.23900032043457;1673295042.099901;16.16071891784668;11.529269218444824;81.49769592285156
64;1673295042.1658556;47.1306425;7.2406196;5.443000316619873;1673295042.2964332;16.444372177124023;12.352798461914062;81.66136169433594
65;1673295042.3624623;47.1306425;7.2406196;5.644000053405762;1673295042.491962;16.423465728759766;8.335402488708496;81.28638458251953
66;1673295042.557952;47.1306425;7.2406197;5.842000484466553;1673295042.6883388;16.05907440185547;10.541497230529785;81.35348510742188
67;1673295042.7564845;47.1306425;7.2406196;6.0400004386901855;1673295042.8780942;16.193803787231445;11.996180534362793;81.60051727294922
68;1673295042.9489915;47.1306424;7.2406197;6.237000465393066;1673295043.0883515;16.28838348388672;8.366979598999023;81.07575988769531
69;1673295043.1563137;47.1306424;7.2406196;6.437000274658203;1673295043.2885418;16.07898712158203;9.727164268493652;81.20417785644531
70;1673295043.3545997;47.1306425;7.2406196;6.63800048828125;1673295043.4928024;16.19160270690918;12.52845287322998;81.49359130859375
71;1673295043.5571573;47.1306425;7.2406196;6.838000297546387;1673295043.6881926;16.358455657958984;9.73182201385498;81.18991088867188
72;1673295043.74533;47.1306425;7.2406196;7.033000469207764;1673295043.892837;16.131994247436523;8.82832145690918;81.03508758544922
73;1673295043.957352;47.130642599999995;7.2406196;7.2310004234313965;1673295044.0929453;16.105253219604492;12.62110424041748;81.487548828125
74;1673295044.1618192;47.1306425;7.2406197;7.425000190734863;1673295044.3011298;16.39984130859375;9.792757987976074;81.2298812866211
75;1673295044.3651314;47.1306424;7.240619799999999;7.621000289916992;1673295044.526276;16.36680030822754;8.02676010131836;80.95228576660156
76;1673295044.5819542;47.1306424;7.240619799999999;7.816000461578369;1673295044.7120273;16.07061004638672;11.769912719726562;81.4139404296875
77;1673295044.7791529;47.1306424;7.240619799999999;8.01200008392334;1673295044.8950052;16.422630310058594;10.87798023223877;81.44124603271484
78;1673295044.949237;47.1306424;7.240619799999999;8.208000183105469;1673295045.0688758;16.352336883544922;8.015888214111328;81.02169799804688
79;1673295045.130961;47.1306424;7.240619799999999;8.404000282287598;1673295045.2750342;16.137405395507812;11.094087600708008;81.3643798828125
80;1673295045.345149;47.1306424;7.2406198999999996;8.605000495910645;1673295045.4676569;16.48273468017578;11.714675903320312;81.60869598388672
81;1673295045.5381444;47.1306424;7.24062;8.805000305175781;1673295045.6793947;16.572284698486328;8.264012336730957;81.05690002441406
82;1673295045.7453387;47.1306425;7.24062;9.006000518798828;1673295045.883731;16.267885208129883;10.397747039794922;81.23825073242188
83;1673295045.9545844;47.1306425;7.24062;9.206000328063965;1673295046.0946586;16.17060089111328;12.503989219665527;81.54299926757812
84;1673295046.1576793;47.130642599999995;7.24062;9.405000686645508;1673295046.3001254;16.288719177246094;8.836359024047852;81.20059204101562
85;1673295046.3621612;47.130642599999995;7.2406198999999996;9.601000785827637;1673295046.4996262;16.117523193359375;9.586502075195312;81.20759582519531
86;1673295046.5538738;47.130642599999995;7.24062;9.800000190734863;1673295046.683283;16.24279022216797;12.552555084228516;81.68628692626953
87;1673295046.7571151;47.1306425;7.24062;9.996000289916992;1673295046.8971393;16.506921768188477;9.180228233337402;81.32135009765625
88;1673295046.9621356;47.1306425;7.24062;10.210000038146973;1673295047.0829399;15.950693130493164;10.054327011108398;81.62858581542969
89;1673295047.1530502;47.1306425;7.2406198999999996;10.519000053405762;1673295047.2864454;16.7175235748291;14.133058547973633;82.37167358398438
90;1673295047.3572807;47.1306423;7.2406197;10.891000747680664;1673295047.490548;16.364286422729492;12.374025344848633;82.06957244873047
91;1673295047.5565534;47.1306419;7.240619499999999;11.277000427246094;1673295047.6929803;15.781622886657715;8.409799575805664;81.68891143798828
92;1673295047.7532914;47.130641399999995;7.240619199999999;11.667000770568848;1673295047.8994586;14.87643814086914;9.885224342346191;81.7852783203125
93;1673295047.9606657;47.1306411;7.240619;12.06100082397461;1673295048.0881164;14.643514633178711;9.81249713897705;81.75743865966797
94;1673295048.1540644;47.130640799999995;7.240618899999999;12.458000183105469;1673295048.2844636;14.717072486877441;6.228191375732422;81.285400390625
95;1673295048.3496134;47.130640799999995;7.240618899999999;12.858000755310059;1673295048.500949;14.646074295043945;8.282919883728027;81.46733093261719
96;1673295048.5717463;47.130640899999996;7.2406188;13.26300048828125;1673295048.6999104;14.887175559997559;10.926671028137207;81.74618530273438
97;1673295048.7646732;47.1306411;7.240618899999999;13.660000801086426;1673295048.8980083;15.266192436218262;8.447966575622559;81.59892272949219
98;1673295048.964995;47.1306413;7.240619;14.04900074005127;1673295049.0945504;15.336241722106934;8.620824813842773;81.422119140625
99;1673295049.165371;47.130641499999996;7.2406191;14.440000534057617;1673295049.2988489;15.655179023742676;12.24496078491211;81.8145751953125
100;1673295049.3611276;47.1306416;7.2406193;14.832000732421875;1673295049.4995003;15.995946884155273;9.876449584960938;81.55150604248047
101;1673295049.5710957;47.1306418;7.2406194;15.225000381469727;1673295049.7071223;15.958877563476562;8.99254035949707;81.55367279052734
102;1673295049.7818203;47.1306419;7.2406194;15.61600112915039;1673295049.9092858;15.872636795043945;12.566546440124512;81.74394989013672
103;1673295049.9782305;47.130642099999996;7.2406194;16.006999969482422;1673295050.0999756;15.938713073730469;11.049939155578613;81.57347869873047
104;1673295050.157794;47.130642099999996;7.2406194;16.393001556396484;1673295050.283373;15.910836219787598;8.60342025756836;81.33502197265625
105;1673295050.3493543;47.130642099999996;7.2406194;16.777999877929688;1673295050.477832;15.610368728637695;11.230937957763672;81.79396057128906
106;1673295050.5427942;47.130641999999995;7.2406194;17.16900062561035;1673295050.6868968;15.689825057983398;11.826536178588867;81.9454345703125
107;1673295050.7578719;47.130641999999995;7.2406194;17.56100082397461;1673295050.900184;15.772418975830078;8.277841567993164;81.28367614746094
108;1673295050.9653437;47.130641999999995;7.2406194;17.95800018310547;1673295051.0930216;15.533185958862305;9.594884872436523;81.35645294189453
109;1673295051.1628408;47.130641999999995;7.2406194;18.35700035095215;1673295051.3090277;15.540653228759766;11.955282211303711;81.5734634399414
110;1673295051.378082;47.130642099999996;7.2406194;18.756000518798828;1673295051.518055;15.82437801361084;8.990193367004395;81.48707580566406
111;1673295051.5857718;47.130642099999996;7.2406194;19.147001266479492;1673295051.719201;15.586456298828125;9.111977577209473;81.44430541992188
112;1673295051.7904847;47.130642099999996;7.2406194;19.53700065612793;1673295051.9279122;15.529916763305664;12.218412399291992;81.87844848632812
113;1673295051.9949734;47.130642099999996;7.2406194;19.93000030517578;1673295052.1252513;15.740818977355957;9.688797950744629;81.64241027832031
114;1673295052.1809275;47.130642099999996;7.2406194;20.32900047302246;1673295052.312285;15.757721900939941;8.597177505493164;81.35196685791016
115;1673295052.3782704;47.1306422;7.2406194;20.736000061035156;1673295052.5203454;15.653427124023438;12.128478050231934;81.75308227539062
116;1673295052.5873027;47.1306422;7.2406194;21.139001846313477;1673295052.7313998;15.7019624710083;10.80703067779541;81.69760131835938
117;1673295052.795786;47.1306422;7.2406194;21.538000106811523;1673295052.91648;15.783984184265137;8.223590850830078;81.2314682006836
118;1673295052.9751625;47.1306422;7.2406194;21.93000030517578;1673295053.1026785;15.55892562866211;11.113704681396484;81.5246353149414
119;1673295053.166669;47.130642099999996;7.2406194;22.325000762939453;1673295053.2980022;15.673599243164062;10.903420448303223;81.66712188720703
120;1673295053.3669531;47.130642099999996;7.2406194;22.722002029418945;1673295053.4992747;15.732245445251465;8.144601821899414;81.34697723388672
121;1673295053.5593698;47.130642099999996;7.2406194;23.123001098632812;1673295053.6966116;15.448429107666016;10.8785400390625;81.70691680908203
122;1673295053.770436;47.1306422;7.2406193;23.5260009765625;1673295053.916597;15.647701263427734;11.844231605529785;81.75697326660156
123;1673295053.9800878;47.1306423;7.2406193;23.92300033569336;1673295054.1126044;15.698049545288086;8.472081184387207;81.23895263671875
124;1673295054.1747944;47.1306423;7.240619199999999;24.309001922607422;1673295054.3035567;15.42087459564209;9.898405075073242;81.27748107910156
125;1673295054.3656027;47.1306423;7.240619199999999;24.700000762939453;1673295054.5022168;15.361726760864258;12.209365844726562;81.83621978759766
126;1673295054.5643103;47.1306423;7.240619199999999;25.095001220703125;1673295054.6898372;15.64631175994873;9.328001022338867;81.46996307373047
127;1673295054.7588658;47.1306423;7.240619199999999;25.492000579833984;1673295054.8862855;15.5109281539917;9.31881332397461;81.47330474853516
128;1673295054.948393;47.1306424;7.2406191;25.889001846313477;1673295055.08865;15.42396354675293;12.676787376403809;81.86961364746094
129;1673295055.1643412;47.1306424;7.2406191;26.285001754760742;1673295055.3218985;15.701360702514648;10.337215423583984;81.67029571533203
130;1673295055.3918922;47.1306425;7.2406191;26.679000854492188;1673295055.5225687;15.611227989196777;8.75041389465332;81.29324340820312
131;1673295055.599289;47.1306424;7.240619199999999;27.064001083374023;1673295055.7272003;15.510202407836914;11.935187339782715;81.69173431396484
132;1673295055.7967217;47.1306423;7.240619199999999;27.453001022338867;1673295055.9286733;15.770671844482422;10.595521926879883;81.5311508178711
133;1673295055.9957337;47.1306423;7.2406193;27.849000930786133;1673295056.1281316;15.768110275268555;8.376580238342285;81.18241882324219
134;1673295056.1823523;47.1306424;7.2406193;28.248001098632812;1673295056.3200977;15.627303123474121;11.643816947937012;81.58439636230469
135;1673295056.3856728;47.1306425;7.2406193;28.644001007080078;1673295056.5150363;15.624860763549805;11.924906730651855;81.84526824951172
136;1673295056.58009;47.1306425;7.2406194;29.03700065612793;1673295056.704633;15.854429244995117;8.554949760437012;81.44834899902344
137;1673295056.7737353;47.1306424;7.2406194;29.420001983642578;1673295056.906736;15.715394020080566;10.40447998046875;81.48206329345703
138;1673295056.964848;47.1306424;7.240619499999999;29.808000564575195;1673295057.117965;15.644441604614258;11.986601829528809;81.63130950927734
139;1673295057.1977234;47.1306424;7.240619499999999;30.19700050354004;1673295057.3571274;15.895391464233398;8.661473274230957;81.23497009277344
140;1673295057.4127555;47.1306424;7.2406194;30.58700180053711;1673295057.517882;15.584004402160645;10.315825462341309;81.58951568603516
141;1673295057.5806227;47.1306425;7.2406194;30.983001708984375;1673295057.7212086;15.599654197692871;12.629664421081543;81.92949676513672
142;1673295057.7788029;47.1306425;7.2406194;31.374000549316406;1673295057.9077182;15.712890625;9.855475425720215;81.659423828125
143;1673295057.9728873;47.1306425;7.2406194;31.76500129699707;1673295058.1025872;15.58715534210205;9.361642837524414;81.40386962890625
144;1673295058.1623662;47.1306424;7.240619499999999;32.1510009765625;1673295058.3064284;15.438199043273926;12.281487464904785;81.83470153808594
145;1673295058.3744757;47.1306423;7.240619499999999;32.544002532958984;1673295058.501177;15.682878494262695;10.029192924499512;81.4823226928711
146;1673295058.5622923;47.1306423;7.240619499999999;32.94200134277344;1673295058.7095084;15.673177719116211;8.605584144592285;81.31243896484375
147;1673295058.7736216;47.1306424;7.240619499999999;33.34300231933594;1673295058.912481;15.5302152633667;11.748608589172363;81.69722747802734
148;1673295058.9833002;47.1306424;7.240619499999999;33.74300003051758;1673295059.1286423;15.72196102142334;11.07952880859375;81.59894561767578
149;1673295059.1896465;47.1306424;7.240619499999999;34.138999938964844;1673295059.3233109;15.794068336486816;8.341425895690918;81.26738739013672
150;1673295059.4339669;47.1306424;7.240619499999999;34.5260009765625;1673295059.5659242;15.617609024047852;10.280302047729492;81.5076675415039
151;1673295059.6281927;47.1306424;7.2406196;34.922000885009766;1673295059.7584238;15.503168106079102;12.143767356872559;81.97808837890625
152;1673295059.8180134;47.1306424;7.2406196;35.32200241088867;1673295059.9414105;15.693323135375977;9.609930992126465;81.71341705322266
153;1673295060.0068514;47.1306424;7.2406196;35.72100067138672;1673295060.127609;15.643890380859375;9.715860366821289;81.59925079345703
154;1673295060.1838517;47.1306425;7.2406196;36.12300109863281;1673295060.3054204;15.593653678894043;12.682920455932617;81.75009155273438
155;1673295060.3978808;47.130642599999995;7.2406196;36.52400207519531;1673295060.540083;15.909794807434082;10.243390083312988;81.58170318603516
156;1673295060.5979583;47.130642599999995;7.2406196;36.922000885009766;1673295060.7280302;15.839043617248535;8.996315002441406;81.35657501220703
157;1673295060.7949693;47.130642599999995;7.2406196;37.31100082397461;1673295060.9333265;15.507365226745605;12.224671363830566;81.71563720703125
158;1673295060.9943974;47.1306425;7.2406196;37.702003479003906;1673295061.1246305;15.69907283782959;10.372530937194824;81.40614318847656
159;1673295061.1858048;47.1306425;7.2406196;38.104000091552734;1673295061.3210106;15.73306655883789;8.463542938232422;81.07722473144531
160;1673295061.3919733;47.130642599999995;7.2406196;38.51100158691406;1673295061.5274687;15.379932403564453;11.90018081665039;81.52674865722656
161;1673295061.5905235;47.130642699999996;7.2406196;38.91800308227539;1673295061.7266278;15.56860065460205;11.663643836975098;81.73607635498047
162;1673295061.798614;47.130642699999996;7.2406196;39.319000244140625;1673295061.9217892;15.633630752563477;8.796602249145508;81.4889144897461
163;1673295061.9848814;47.130642699999996;7.2406196;39.71000289916992;1673295062.121305;15.544184684753418;10.862666130065918;81.55191802978516
164;1673295062.1825283;47.130642599999995;7.2406197;40.10600280761719;1673295062.3170655;15.647543907165527;12.190235137939453;81.76319122314453
165;1673295062.3831983;47.130642599999995;7.2406197;40.505001068115234;1673295062.5126827;15.935641288757324;8.956542015075684;81.32379150390625
166;1673295062.5774271;47.130642599999995;7.2406197;40.909000396728516;1673295062.7146661;15.712495803833008;10.391541481018066;81.64805603027344
167;1673295062.7723067;47.130642699999996;7.2406197;41.316001892089844;1673295062.9047725;15.46921443939209;12.775632858276367;81.87649536132812
168;1673295062.9937134;47.1306428;7.2406197;41.720001220703125;1673295063.1295702;15.743454933166504;9.87057876586914;81.59607696533203
169;1673295063.1955776;47.130642699999996;7.2406197;42.12000274658203;1673295063.3855586;15.790670394897461;9.241093635559082;81.32847595214844
170;1673295063.445821;47.130642599999995;7.2406197;42.512001037597656;1673295063.5992787;15.502416610717773;12.496598243713379;81.86180114746094
171;1673295063.6541376;47.1306425;7.2406197;42.91100311279297;1673295063.765162;15.673736572265625;10.118654251098633;81.54043579101562
172;1673295063.819835;47.1306425;7.2406196;43.31500244140625;1673295063.9492188;15.566278457641602;8.628988265991211;81.4452133178711
173;1673295064.0141776;47.1306425;7.2406196;43.72200393676758;1673295064.1892178;15.512362480163574;11.942277908325195;81.54718780517578
174;1673295064.2438993;47.1306425;7.2406196;44.12800216674805;1673295064.380534;15.645153999328613;10.92984676361084;81.56339263916016
175;1673295064.4381528;47.130642599999995;7.2406196;44.527000427246094;1673295064.5659752;15.691039085388184;8.415040969848633;81.29776000976562
176;1673295064.626179;47.1306425;7.2406196;44.913002014160156;1673295064.7499537;15.31662654876709;11.436670303344727;81.72950744628906
177;1673295064.8107939;47.1306425;7.2406196;45.30400085449219;1673295064.945053;15.60836124420166;11.328865051269531;81.7249526977539
178;1673295065.0002544;47.1306425;7.2406196;45.70100402832031;1673295065.142357;15.699338912963867;8.637995719909668;81.24357604980469
179;1673295065.2063646;47.1306425;7.2406196;46.10100173950195;1673295065.3269906;15.643379211425781;10.956497192382812;81.3781967163086
180;1673295065.387104;47.130642599999995;7.2406196;46.49700164794922;1673295065.5107708;15.491089820861816;12.480812072753906;81.8147964477539
181;1673295065.5739298;47.130642699999996;7.2406196;46.89400100708008;1673295065.7183652;15.752500534057617;9.320168495178223;81.52262878417969
182;1673295065.7849348;47.130642699999996;7.2406196;47.29300308227539;1673295065.9202693;15.459275245666504;10.384790420532227;81.5438232421875
183;1673295065.9863906;47.130642599999995;7.2406196;47.682003021240234;1673295066.1188457;15.439756393432617;12.476099014282227;81.83582305908203
184;1673295066.177129;47.130642599999995;7.2406196;48.07500076293945;1673295066.3113198;15.769015312194824;9.766985893249512;81.32396697998047
185;1673295066.3819637;47.130642599999995;7.2406196;48.43000411987305;1673295066.5204396;15.475180625915527;10.074359893798828;81.35563659667969
186;1673295066.5889647;47.130642699999996;7.2406197;48.733001708984375;1673295066.7206395;15.74441146850586;12.6216459274292;81.84127044677734
187;1673295066.791576;47.1306428;7.240619799999999;48.99500274658203;1673295066.9239705;16.002948760986328;10.011007308959961;81.4834976196289
188;1673295066.9900963;47.1306429;7.2406201;49.217002868652344;1673295067.1211104;19.04766273498535;9.49933910369873;80.82892608642578
189;1673295067.1811397;47.130643;7.2406203;49.38900375366211;1673295067.3163068;28.02223777770996;15.68953800201416;75.55989837646484
190;1673295067.3894305;47.1306429;7.2406201999999995;49.505001068115234;1673295067.5244849;30.632963180541992;11.99386215209961;61.86101150512695
191;1673295067.5893555;47.1306425;7.2406197;49.55400085449219;1673295067.7242994;20.230302810668945;3.0919957160949707;52.60033416748047
192;1673295067.7843392;47.1306418;7.240618899999999;49.612003326416016;1673295067.918388;26.864246368408203;2.1845884323120117;44.059722900390625
193;1673295067.989596;47.130641;7.240617899999999;49.665000915527344;1673295068.1173644;23.846752166748047;-2.0284128189086914;35.591068267822266
194;1673295068.1772485;47.13064;7.2406169;49.707000732421875;1673295068.3027244;20.4953670501709;-7.241435527801514;26.879192352294922
195;1673295068.3674529;47.1306389;7.240615699999999;49.746002197265625;1673295068.5174055;17.58233070373535;-10.529858589172363;18.396791458129883
196;1673295068.5794377;47.130637899999996;7.2406147999999995;49.77000045776367;1673295068.7134347;14.964455604553223;-12.3378324508667;9.297615051269531
197;1673295068.7742827;47.130637;7.240614;49.79300308227539;1673295068.9185011;12.416810035705566;-13.36691951751709;-0.09506057947874069
198;1673295068.9816318;47.1306364;7.2406136;49.81700134277344;1673295069.12361;8.641399383544922;-13.075190544128418;-9.826361656188965
199;1673295069.1925037;47.130635899999994;7.2406133;49.84100341796875;1673295069.3294268;4.347681999206543;-14.304364204406738;-19.927040100097656
200;1673295069.3913922;47.1306357;7.2406133;49.8650016784668;1673295069.529984;1.0030947923660278;-16.708667755126953;-29.59479522705078
201;1673295069.5945234;47.1306357;7.2406133;49.88500213623047;1673295069.7244225;-0.31393539905548096;-19.677961349487305;-38.90272521972656
202;1673295069.789461;47.130635999999996;7.240613199999999;49.89200210571289;1673295069.9211178;-1.8876336812973022;-22.09638214111328;-47.743778228759766
203;1673295069.994364;47.1306362;7.2406131;49.9010009765625;1673295070.1199968;-4.778670310974121;-22.039167404174805;-52.48481750488281
204;1673295070.1849482;47.1306365;7.2406128999999995;49.91400146484375;1673295070.319332;-4.163140296936035;-21.947967529296875;-49.9639778137207
205;1673295070.390246;47.1306368;7.2406127;49.93000411987305;1673295070.5174685;-1.2903265953063965;-21.290300369262695;-46.66714096069336
206;1673295070.5820563;47.1306371;7.240612499999999;49.94400405883789;1673295070.7294893;-0.3257351815700531;-20.698081970214844;-45.67745590209961
207;1673295070.7948937;47.130637199999995;7.240612199999999;49.95600128173828;1673295070.9269197;0.6604341268539429;-20.905101776123047;-45.63809585571289
208;1673295070.9889975;47.130637199999995;7.240611899999999;49.965003967285156;1673295071.130107;1.592612385749817;-22.307165145874023;-45.3821907043457
209;1673295071.1911645;47.130637;7.2406115;49.957000732421875;1673295071.3403265;1.521121621131897;-23.286500930786133;-45.12958908081055
210;1673295071.4096956;47.130636599999995;7.2406111;49.9530029296875;1673295071.546218;0.569526731967926;-22.641332626342773;-45.07575988769531
211;1673295071.6094813;47.130635999999996;7.2406108;49.952003479003906;1673295071.7455537;-1.0169540643692017;-20.44876480102539;-45.16813278198242
212;1673295071.7993243;47.1306355;7.2406105;49.95500183105469;1673295071.9332669;-2.2348055839538574;-18.292436599731445;-45.05351638793945
213;1673295072.0081687;47.1306351;7.2406104;49.957000732421875;1673295072.1356344;-2.6521847248077393;-17.312971115112305;-45.21940612792969
214;1673295072.2201045;47.130634799999996;7.2406102;49.957000732421875;1673295072.3528762;-13.381089210510254;-16.804794311523438;-45.845157623291016
215;1673295072.4199445;47.130634799999996;7.240609699999999;49.94700241088867;1673295072.5498788;-35.95030212402344;-12.499216079711914;-47.163330078125
216;1673295072.6298263;47.1306355;7.240608099999999;49.95100402832031;1673295072.758784;-51.14308166503906;-9.664456367492676;-48.28508758544922
217;1673295072.826672;47.130638;7.2406042;49.952003479003906;1673295072.9498258;-56.8352165222168;-9.719467163085938;-48.17851638793945
218;1673295073.0146487;47.130643;7.240597299999999;49.93700408935547;1673295073.129995;-54.161163330078125;-10.253185272216797;-49.22616195678711
219;1673295073.195085;47.1306503;7.2405873;49.92100143432617;1673295073.329829;-55.06652069091797;-7.602774620056152;-51.05524826049805
220;1673295073.4031277;47.130659699999995;7.240574499999999;49.915000915527344;1673295073.5358808;-55.32707595825195;-6.390829563140869;-50.84332275390625
221;1673295073.5946734;47.1306711;7.240559299999999;49.9160041809082;1673295073.7159505;-55.13243865966797;-8.29401683807373;-50.54794692993164
222;1673295073.7755122;47.130684099999996;7.240541899999999;49.90700149536133;1673295073.9067183;-53.63960266113281;-9.560176849365234;-50.218101501464844
223;1673295073.9742906;47.1306982;7.2405227;49.89400100708008;1673295074.1207435;-50.863311767578125;-12.237943649291992;-49.52802658081055
224;1673295074.1912591;47.1307131;7.240501999999999;49.887001037597656;1673295074.3334923;-51.59718704223633;-14.82620906829834;-50.183815002441406
225;1673295074.406572;47.1307285;7.24048;49.887001037597656;1673295074.5249617;-50.58027648925781;-13.759220123291016;-52.58041763305664
226;1673295074.5845733;47.1307441;7.2404569;49.88300323486328;1673295074.7216632;-48.50261306762695;-17.864147186279297;-52.069862365722656
227;1673295074.7857943;47.1307597;7.2404326;49.88100051879883;1673295074.9231317;-38.13955307006836;-24.477277755737305;-53.551300048828125
228;1673295074.9939132;47.1307745;7.2404077;49.884002685546875;1673295075.141247;4.785895824432373;-21.42434310913086;-57.63935470581055
229;1673295075.2011247;47.1307881;7.240383899999999;49.87700271606445;1673295075.3560593;26.783296585083008;-4.242019176483154;-61.07383346557617
230;1673295075.4209878;47.1308003;7.2403634;49.717002868652344;1673295075.564005;17.093994140625;-2.7829701900482178;-51.99709701538086
231;1673295075.660225;47.1308113;7.2403474999999995;49.44600296020508;1673295075.789161;14.825053215026855;-1.9964876174926758;-48.06024932861328
232;1673295075.8501968;47.130820799999995;7.240336;49.19600296020508;1673295075.992241;14.19512939453125;-3.1491799354553223;-47.742454528808594
233;1673295076.0480502;47.1308291;7.2403287999999995;49.06800079345703;1673295076.176133;23.051162719726562;-8.010197639465332;-47.83662796020508
234;1673295076.2300289;47.1308359;7.2403255;49.11300277709961;1673295076.3641925;38.927005767822266;-11.434967994689941;-46.6429328918457
235;1673295076.4502084;47.1308407;7.2403261;49.207000732421875;1673295076.5907795;41.74441146850586;-14.572235107421875;-45.1765251159668
236;1673295076.6507986;47.130843399999996;7.240329999999999;49.320003509521484;1673295076.7639434;48.082763671875;-21.64337921142578;-46.82405471801758
237;1673295076.8260705;47.130843399999996;7.240336999999999;49.445003509521484;1673295076.9609108;48.394432067871094;-25.89840316772461;-45.43924331665039
238;1673295077.017905;47.130840299999996;7.2403461;49.56300354003906;1673295077.147844;39.621124267578125;-29.56629180908203;-44.77983474731445
239;1673295077.2108932;47.1308347;7.240356299999999;49.673004150390625;1673295077.3809676;24.037109375;-31.953405380249023;-44.804176330566406
240;1673295077.4459965;47.130827499999995;7.2403663;49.74800109863281;1673295077.5594828;4.22878885269165;-27.046932220458984;-46.03662109375
241;1673295077.6142454;47.1308199;7.240375299999999;49.79300308227539;1673295077.7648685;-13.417552947998047;-20.18787956237793;-49.0455436706543
242;1673295077.82401;47.130812899999995;7.240383;49.82600402832031;1673295077.9488578;-24.5053653717041;-12.82601261138916;-51.05775451660156
243;1673295078.029436;47.1308072;7.2403888;49.855003356933594;1673295078.1638536;-20.730432510375977;-3.8397390842437744;-51.727569580078125
244;1673295078.2317424;47.1308033;7.2403930999999995;49.868003845214844;1673295078.3656447;-20.221357345581055;-3.1568126678466797;-51.9312744140625
245;1673295078.4380822;47.130801;7.2403963;49.87600326538086;1673295078.572639;-16.8509578704834;-3.9383585453033447;-51.50736618041992
246;1673295078.6391132;47.1308003;7.2403987999999995;49.88600158691406;1673295078.776082;-9.575501441955566;-7.3455963134765625;-50.877498626708984
247;1673295078.8395228;47.1308006;7.240400999999999;49.90500259399414;1673295078.9653409;-1.4398940801620483;-8.29259204864502;-50.5550651550293
248;1673295079.0221617;47.1308018;7.2404033;49.92100143432617;1673295079.1359198;5.053219795227051;-11.921551704406738;-50.63041687011719
249;1673295079.1922326;47.1308034;7.240405999999999;49.92500305175781;1673295079.339467;0.9466022849082947;-23.286468505859375;-51.10163879394531
250;1673295079.4034562;47.130805099999996;7.240409;49.6400032043457;1673295079.544736;-2.92293643951416;-26.931489944458008;-51.494956970214844
251;1673295079.6161811;47.130806899999996;7.2404120999999995;48.99100112915039;1673295079.7331042;-5.7488908767700195;-20.996509552001953;-52.449119567871094
252;1673295079.8020544;47.1308088;7.2404152999999996;47.98100280761719;1673295079.9414582;-6.515808582305908;-5.001642227172852;-54.36571502685547
253;1673295080.0031714;47.1308108;7.2404186;46.58500289916992;1673295080.1371226;-4.4412689208984375;18.046825408935547;-56.15607452392578
254;1673295080.201781;47.130812999999996;7.240422;44.77800369262695;1673295080.3533707;0.19405628740787506;40.45773696899414;-55.74852752685547
255;1673295080.417393;47.130815;7.2404255;42.595001220703125;1673295080.5498133;4.80890417098999;52.745487213134766;-53.20833206176758
256;1673295080.6174462;47.1308169;7.2404288999999995;40.044002532958984;1673295080.7557414;8.522067070007324;48.082340240478516;-50.863243103027344
257;1673295080.810984;47.1308187;7.2404322;37.12800216674805;1673295080.9309087;10.092941284179688;26.221799850463867;-51.458675384521484
258;1673295080.9949276;47.130820299999996;7.2404353;33.84000015258789;1673295081.1331787;7.640722274780273;-3.410013198852539;-53.37709426879883
259;1673295081.1971653;47.130821999999995;7.2404382;30.15900230407715;1673295081.3316293;1.7995058298110962;-23.452598571777344;-53.45978546142578
260;1673295081.3907356;47.130823899999996;7.2404414;26.090002059936523;1673295081.5171936;-3.736226797103882;-21.281919479370117;-52.90473556518555
261;1673295081.5939093;47.130826;7.240444699999999;21.62900161743164;1673295081.7320569;-5.827829837799072;2.2004358768463135;-54.42967987060547
262;1673295081.7951736;47.1308283;7.2404484;16.786001205444336;1673295081.9274895;-2.034832000732422;28.781923294067383;-55.251827239990234
263;1673295081.9895337;47.130830499999995;7.2404522;11.557000160217285;1673295082.1239684;3.823324203491211;35.93687057495117;-53.255287170410156
264;1673295082.1850123;47.130832399999996;7.2404557;5.965000152587891;1673295082.318517;7.739097595214844;16.804407119750977;-52.512542724609375
265;1673295082.3844738;47.1308341;7.240458899999999;0.009000000543892384;1673295082.5278041;-7.9745025634765625;1.352461576461792;-59.04609298706055
266;1673295082.5935314;47.1308375;7.240462099999999;0.2550000250339508;1673295082.7308435;-6.14022159576416;7.799872398376465;-62.11440658569336
267;1673295082.7988327;47.1308401;7.2404665999999995;0.4050000309944153;1673295082.9301796;-5.8757643699646;4.682130336761475;-62.738651275634766
268;1673295082.9932032;47.1308401;7.2404679;0.5080000162124634;1673295083.1286647;-6.013846397399902;4.182211875915527;-62.889408111572266
269;1673295083.1912725;47.1308394;7.2404673;0.5730000138282776;1673295083.336649;-6.011660575866699;3.559476375579834;-63.12223434448242
270;1673295083.4043753;47.1308383;7.2404658;0.6070000529289246;1673295083.5417602;-5.925079345703125;3.004751443862915;-63.28238296508789
271;1673295083.6061964;47.1308374;7.2404641;0.6260000467300415;1673295083.744872;-5.841242790222168;2.633462429046631;-63.476016998291016
272;1673295083.8059692;47.130836599999995;7.2404626;0.6370000243186951;1673295083.9325404;-5.714161396026611;2.221529245376587;-63.63089370727539
273;1673295083.99762;47.130836099999996;7.2404614;0.6420000195503235;1673295084.1328561;-5.57107400894165;2.089049816131592;-63.79692077636719
274;1673295084.2024546;47.1308365;7.240460199999999;0.675000011920929;1673295084.3509452;-5.413290977478027;1.922266960144043;-63.90867614746094
275;1673295084.4258716;47.130836599999995;7.2404594;0.690000057220459;1673295084.5727732;-5.260251522064209;1.7295271158218384;-63.98810577392578
276;1673295084.641165;47.1308364;7.2404587;0.6970000267028809;1673295084.7814631;-5.076913833618164;1.6812387704849243;-64.09390258789062
277;1673295084.8490262;47.1308362;7.240458299999999;0.6980000138282776;1673295084.9878237;-4.898075103759766;1.662451148033142;-64.20028686523438
278;1673295085.049437;47.130835999999995;7.240457999999999;0.6980000138282776;1673295085.1741784;-4.657076358795166;1.576918125152588;-64.27226257324219
279;1673295085.2305565;47.1308359;7.240457699999999;0.6970000267028809;1673295085.357861;-4.582307815551758;1.5631235837936401;-64.3321533203125
280;1673295085.4216754;47.130836599999995;7.240456699999999;0.7160000205039978;1673295085.55639;-4.423023700714111;1.5405489206314087;-64.40848541259766
281;1673295085.6185498;47.1308368;7.2404563;0.7230000495910645;1673295085.742226;-4.251408100128174;1.5374518632888794;-64.42245483398438
282;1673295085.8083131;47.1308368;7.240456099999999;0.7280000448226929;1673295085.9418893;-4.010106086730957;1.3791977167129517;-64.4365234375
283;1673295086.0092967;47.130836699999996;7.240456;0.7290000319480896;1673295086.1468136;-3.811116933822632;1.2098112106323242;-64.43690490722656
284;1673295086.2069378;47.1308365;7.240456099999999;0.7270000576972961;1673295086.3315227;-3.632575750350952;1.0530617237091064;-64.42047882080078
285;1673295086.3904283;47.1308364;7.2404562;0.7260000109672546;1673295086.5253627;-3.395961046218872;0.9917564392089844;-64.41889190673828
286;1673295086.5943506;47.1308363;7.2404562;0.7230000495910645;1673295086.728975;-3.3134450912475586;0.963153600692749;-64.43814086914062
287;1673295086.7969542;47.1308368;7.2404551999999995;0.7320000529289246;1673295086.949007;-3.0662591457366943;0.9054157137870789;-64.44198608398438
288;1673295087.017573;47.130837;7.2404549;0.7320000529289246;1673295087.1636744;-2.83355450630188;0.871070921421051;-64.46125793457031
289;1673295087.233411;47.1308369;7.2404549;0.7250000238418579;1673295087.3678954;-2.615201950073242;0.8301993608474731;-64.48816680908203
290;1673295087.4262793;47.130836699999996;7.2404551999999995;0.7160000205039978;1673295087.5606377;-2.412395477294922;0.769675076007843;-64.51258087158203
291;1673295087.626967;47.1308365;7.2404554;0.7020000219345093;1673295087.747357;-2.227325201034546;0.7236377000808716;-64.5289535522461
292;1673295087.8016527;47.1308363;7.2404557;0.6890000104904175;1673295087.9360495;-2.1467056274414062;0.690432071685791;-64.54745483398438
293;1673295088.012315;47.130836599999995;7.240455;0.6830000281333923;1673295088.1485865;-1.981577754020691;0.6665487885475159;-64.5743637084961
294;1673295088.2116613;47.130836599999995;7.2404549;0.6680000424385071;1673295088.3496337;-1.842984676361084;0.6197792887687683;-64.6063003540039
295;1673295088.4138615;47.1308364;7.2404551999999995;0.6480000019073486;1673295088.546734;-1.6334835290908813;0.5453578233718872;-64.6185073852539
296;1673295088.612706;47.1308362;7.2404556;0.6260000467300415;1673295088.7381878;-1.464171290397644;0.5046384930610657;-64.64944458007812
297;1673295088.8051422;47.130835999999995;7.240456;0.6020000576972961;1673295088.9496374;-1.3536511659622192;0.4798658490180969;-64.6607894897461
298;1673295089.0113628;47.1308358;7.2404563;0.5760000348091125;1673295089.1399593;-1.2681488990783691;0.41500595211982727;-64.6951904296875
299;1673295089.2022996;47.1308356;7.240456699999999;0.5540000200271606;1673295089.341214;-1.1771197319030762;-0.19396691024303436;-64.67487335205078
300;1673295089.4261463;47.1308356;7.2404563;0.5509999990463257;1673295089.565134;-1.034445881843567;-0.3817771375179291;-64.69384002685547
301;1673295089.6301188;47.1308356;7.2404563;-0.004000000189989805;1673295089.7652862;-0.9526529908180237;-0.5231721997261047;-64.71017456054688
302;1673295089.8241222;47.130835399999995;7.2404565;-0.018000001087784767;1673295089.9532418;-0.8445776700973511;-0.6557648181915283;-64.73983764648438
303;1673295090.0101151;47.1308353;7.2404568;-0.04100000113248825;1673295090.1370883;-0.77032470703125;-0.7622314095497131;-64.76541900634766
304;1673295090.1981883;47.1308351;7.2404570999999995;-0.06700000166893005;;;;
