;pos_time;latitude;longitude;altitude;alt_time;pitch;roll;yaw
0;1673295111.698707;47.1306424;7.240619799999999;-0.009000000543892384;1673295111.7406807;-0.04718703404068947;-0.21310248970985413;90.18701171875
1;1673295111.90075;47.1306424;7.2406198999999996;-0.009000000543892384;1673295111.9407766;0.04786759614944458;-0.05127231776714325;90.31920623779297
2;1673295112.0909655;47.1306424;7.2406198999999996;-0.00800000037997961;1673295112.13196;-0.006997528485953808;-0.14915095269680023;90.35569763183594
3;1673295112.293977;47.1306424;7.2406198999999996;-0.009000000543892384;1673295112.3349974;0.03737158328294754;-0.13187095522880554;90.3006591796875
4;1673295112.5024061;47.1306424;7.2406198999999996;-0.009000000543892384;1673295112.5366395;-0.16176418960094452;-0.04063112661242485;90.19408416748047
5;1673295112.6808248;47.1306424;7.2406198999999996;-0.005000000353902578;1673295112.7247434;-0.26675188541412354;-0.10861585289239883;90.16973114013672
6;1673295112.925424;47.1306424;7.2406198999999996;-0.004000000189989805;1673295112.9684765;-0.2179010957479477;-0.1177685409784317;90.3232192993164
7;1673295113.1283293;47.1306424;7.240619799999999;-0.009000000543892384;1673295113.1914427;-0.029936963692307472;0.01709243655204773;90.2995376586914
8;1673295113.3160436;47.1306424;7.240619799999999;-0.010000000707805157;1673295113.352758;0.05496526136994362;-0.08830312639474869;90.37288665771484
9;1673295113.5096233;47.1306424;7.240619799999999;-0.010000000707805157;1673295113.5443964;-0.24370327591896057;-0.12124688178300858;90.39605712890625
10;1673295113.718951;47.1306424;7.240619799999999;-0.01100000087171793;1673295113.759229;-0.2823452055454254;-0.0040856897830963135;90.23819732666016
11;1673295113.925573;47.1306423;7.2406198999999996;-0.012000000104308128;1673295113.9730754;-0.21262072026729584;-0.2172737419605255;90.37451934814453
12;1673295114.1036882;47.1306424;7.240619799999999;-0.013000000268220901;1673295114.1378417;0.03343166783452034;-0.10427884012460709;90.39368438720703
13;1673295114.2766204;47.1306424;7.240619799999999;-0.01600000075995922;1673295114.3216307;-0.07625129818916321;-0.08318879455327988;90.20047760009766
14;1673295114.4574516;47.1306424;7.2406198999999996;0.0;1673295114.4984512;-0.2703064978122711;-1.07300865650177;90.46024322509766
15;1673295114.6556432;47.1306424;7.2406198999999996;-0.003000000026077032;1673295114.6956923;-0.33911725878715515;-0.716711163520813;90.40902709960938
16;1673295114.8417346;47.1306424;7.2406198999999996;-0.0020000000949949026;1673295114.8882246;-0.005004393868148327;-0.796560525894165;90.3704605102539
17;1673295115.0441396;47.1306424;7.2406198999999996;-0.0010000000474974513;1673295115.0856946;-0.14264076948165894;-0.5956099033355713;90.28773498535156
18;1673295115.2496557;47.1306424;7.2406198999999996;-0.004000000189989805;1673295115.2955556;-0.15432722866535187;-0.7226403951644897;90.43992614746094
19;1673295115.462991;47.1306424;7.2406198999999996;-0.00800000037997961;1673295115.5084329;0.02379365637898445;-1.110324740409851;90.37189483642578
20;1673295115.6738355;47.1306425;7.2406198999999996;-0.014000000432133675;1673295115.7141612;-0.32479730248451233;-0.7227216958999634;90.62408447265625
21;1673295115.890494;47.1306425;7.24062;-0.01600000075995922;1673295115.929043;-0.3572666049003601;-0.6100505590438843;90.42109680175781
22;1673295116.069146;47.1306424;7.24062;-0.003000000026077032;1673295116.1153119;-0.35689935088157654;-0.9766263961791992;90.5180435180664
23;1673295116.2621586;47.1306425;7.2406198999999996;-0.003000000026077032;1673295116.3012283;-0.3492032587528229;-0.6375412344932556;90.52436065673828
24;1673295116.469668;47.1306425;7.2406198999999996;-0.003000000026077032;1673295116.511029;-0.37662291526794434;-0.7186188101768494;90.65272521972656
25;1673295116.6971416;47.1306424;7.2406198999999996;0.0;1673295116.7411444;-0.44622915983200073;-0.6205224990844727;90.49408721923828
26;1673295116.890162;47.1306425;7.2406198999999996;0.0010000000474974513;1673295116.9418914;-0.32390764355659485;-0.6608735918998718;90.70204162597656
27;1673295117.0921524;47.1306425;7.2406198999999996;-0.003000000026077032;1673295117.1340003;-0.6321713328361511;-0.6980015635490417;90.76502990722656
28;1673295117.281073;47.1306425;7.240619799999999;0.0;1673295117.3213542;-0.3439062833786011;-0.7691512703895569;91.38333892822266
29;1673295117.4671276;47.130642599999995;7.240619799999999;-0.0010000000474974513;1673295117.5132113;-0.5189389586448669;-0.7525358200073242;92.52400207519531
30;1673295117.6950948;47.1306428;7.24062;-0.006000000052154064;1673295117.7430346;0.016161920502781868;-0.17414559423923492;96.03633880615234
31;1673295117.8851812;47.1306431;7.2406204;-0.0020000000949949026;1673295117.9243264;0.7997552156448364;2.103349447250366;100.63884735107422
32;1673295118.0611694;47.1306436;7.240621099999999;0.007000000216066837;1673295118.1099315;3.226639986038208;5.693142414093018;97.53519439697266
33;1673295118.2582333;47.1306442;7.2406222;0.023000001907348633;1673295118.3040588;7.811700820922852;9.220831871032715;94.6171646118164
34;1673295118.4632094;47.1306449;7.240623599999999;0.04500000178813934;1673295118.505445;11.280152320861816;11.267948150634766;94.04949951171875
35;1673295118.6853254;47.1306456;7.2406251;0.07700000703334808;1673295118.7240427;12.149730682373047;12.660709381103516;93.77328491210938
36;1673295118.8690357;47.130646399999996;7.2406266;0.1210000067949295;1673295118.911045;13.103920936584473;14.616074562072754;93.5660629272461
37;1673295119.0610707;47.130646999999996;7.240628;0.17600001394748688;1673295119.0994015;14.36762809753418;15.039105415344238;93.27501678466797
38;1673295119.2519798;47.130647599999996;7.2406292;0.24300001561641693;1673295119.2936318;16.670957565307617;14.157033920288086;92.87065887451172
39;1673295119.4766607;47.130648;7.2406299999999995;0.3190000057220459;1673295119.5168166;18.343847274780273;15.988667488098145;92.6304931640625
40;1673295119.69616;47.130648199999996;7.2406304;0.40800002217292786;1673295119.7362428;19.04972267150879;18.983186721801758;92.3581771850586
41;1673295119.94229;47.130648199999996;7.240630299999999;0.5070000290870667;1673295119.9842463;20.95878791809082;18.033601760864258;91.76342010498047
42;1673295120.109483;47.1306477;7.2406296;0.612000048160553;1673295120.1446345;21.52425765991211;16.172697067260742;90.9383544921875
43;1673295120.2943468;47.130646899999995;7.240628399999999;0.7240000367164612;1673295120.330624;19.305036544799805;17.164100646972656;90.26447296142578
44;1673295120.4736948;47.130646;7.240626799999999;0.8470000624656677;1673295120.5137436;17.388744354248047;14.337797164916992;89.08080291748047
45;1673295120.6624484;47.130645099999995;7.2406251;0.9740000367164612;1673295120.708405;15.3646240234375;9.880073547363281;87.51012420654297
46;1673295120.8769088;47.1306443;7.2406234;1.1150000095367432;1673295120.944013;13.906947135925293;11.615865707397461;86.55901336669922
47;1673295121.0917919;47.1306437;7.2406219;1.2670000791549683;1673295121.1359494;12.865778923034668;11.256132125854492;85.39317321777344
48;1673295121.274554;47.130643199999994;7.240620799999999;1.4270000457763672;1673295121.3087194;12.544147491455078;7.497919082641602;83.70970153808594
49;1673295121.465866;47.1306428;7.2406201;1.596000075340271;1673295121.5078673;12.426504135131836;9.590214729309082;90.50193786621094
50;1673295121.6651804;47.1306425;7.2406197;1.7750000953674316;1673295121.7042208;12.428223609924316;11.787910461425781;88.46952056884766
51;1673295121.8605058;47.1306424;7.2406196;1.9650001525878906;1673295121.9039054;13.970540046691895;7.838985443115234;85.87223815917969
52;1673295122.0793512;47.1306424;7.2406197;2.1560001373291016;1673295122.1144788;14.735685348510742;9.311391830444336;84.25165557861328
53;1673295122.2992594;47.1306425;7.240619799999999;2.3470001220703125;1673295122.3405132;15.705546379089355;12.499927520751953;83.4355239868164
54;1673295122.5039065;47.130642599999995;7.24062;2.5380001068115234;1673295122.5431113;16.75065803527832;8.940996170043945;81.89349365234375
55;1673295122.7263858;47.130642599999995;7.2406201999999995;2.7280001640319824;1673295122.764641;17.35689353942871;8.24525260925293;80.94107055664062
56;1673295122.914484;47.130642599999995;7.2406204;2.9170000553131104;1673295122.9517496;17.312244415283203;11.290966987609863;81.09048461914062
57;1673295123.0934157;47.130642599999995;7.2406204999999995;3.1090002059936523;1673295123.1334198;17.37662696838379;9.211538314819336;81.06193542480469
58;1673295123.27346;47.130642599999995;7.2406204;3.3000001907348633;1673295123.313507;16.891948699951172;8.372713088989258;80.90675354003906
59;1673295123.4765215;47.130642599999995;7.2406201999999995;3.495000123977661;1673295123.520592;16.382308959960938;11.88663387298584;81.32966613769531
60;1673295123.6845605;47.130642699999996;7.2406201;3.690000057220459;1673295123.7246203;16.30868911743164;10.480375289916992;81.24683380126953
61;1673295123.8770893;47.130642599999995;7.24062;3.884000301361084;1673295123.9328809;16.23764991760254;8.008875846862793;80.95853424072266
62;1673295124.089049;47.1306425;7.24062;4.076000213623047;1673295124.1300428;16.119400024414062;10.638703346252441;81.45685577392578
63;1673295124.277799;47.1306424;7.24062;4.272000312805176;1673295124.3180492;16.06612777709961;10.975682258605957;81.52555084228516
64;1673295124.4800413;47.1306424;7.24062;4.4720001220703125;1673295124.5229936;16.118473052978516;7.811483860015869;81.15226745605469
65;1673295124.6600776;47.1306425;7.24062;4.670000076293945;1673295124.703056;16.01182746887207;10.90389633178711;81.33124542236328
66;1673295124.8573153;47.130642699999996;7.2406198999999996;4.871000289916992;1673295124.9022012;16.03897476196289;12.502460479736328;81.63656616210938
67;1673295125.082925;47.130642699999996;7.240619799999999;5.070000171661377;1673295125.1230845;15.989675521850586;8.973550796508789;81.30127716064453
68;1673295125.272646;47.130642699999996;7.240619799999999;5.265000343322754;1673295125.3116884;15.954516410827637;10.338459968566895;81.41273498535156
69;1673295125.473077;47.130642699999996;7.240619799999999;5.461000442504883;1673295125.5179818;15.856572151184082;12.629410743713379;81.67353057861328
70;1673295125.6813521;47.130642699999996;7.240619799999999;5.6570000648498535;1673295125.720455;16.038911819458008;9.166046142578125;81.33570861816406
71;1673295125.8676534;47.130642699999996;7.240619799999999;5.8520002365112305;1673295125.9068356;15.925432205200195;9.62120532989502;81.2074966430664
72;1673295126.062385;47.130642699999996;7.240619799999999;6.049000263214111;1673295126.1034222;15.952305793762207;13.059024810791016;81.68544006347656
73;1673295126.2564712;47.1306428;7.240619799999999;6.248000144958496;1673295126.2990022;16.04672622680664;10.08489990234375;81.41600036621094
74;1673295126.4547873;47.130642699999996;7.2406198999999996;6.441000461578369;1673295126.4963586;15.914285659790039;9.069238662719727;81.35681915283203
75;1673295126.6703062;47.130642599999995;7.24062;6.634000301361084;1673295126.711428;15.993875503540039;12.1088285446167;81.59420776367188
76;1673295126.899217;47.1306425;7.2406201;6.825000286102295;1673295126.9398992;16.3850154876709;9.944012641906738;81.4166259765625
77;1673295127.0857098;47.130642599999995;7.2406201;7.016000270843506;1673295127.1189148;16.27511215209961;8.403878211975098;81.07206726074219
78;1673295127.2743027;47.130642599999995;7.2406201;7.209000110626221;1673295127.3210847;16.183557510375977;12.1406831741333;81.45008087158203
79;1673295127.4676251;47.130642699999996;7.2406201;7.402000427246094;1673295127.5079148;16.20653533935547;11.661495208740234;81.39458465576172
80;1673295127.6668425;47.130642699999996;7.2406201999999995;7.598000526428223;1673295127.7097893;16.317523956298828;8.498828887939453;81.054931640625
81;1673295127.8616216;47.130642599999995;7.2406203;7.798000335693359;1673295127.9074187;16.025508880615234;11.281708717346191;81.41353607177734
82;1673295128.0500875;47.130642599999995;7.2406203;7.997000217437744;1673295128.1368136;16.24945831298828;11.854568481445312;81.56291198730469
83;1673295128.2753756;47.1306425;7.2406203;8.194000244140625;1673295128.317476;16.431215286254883;8.376486778259277;81.2388687133789
84;1673295128.4700403;47.130642599999995;7.2406203;8.390000343322754;1673295128.510203;16.010726928710938;10.22581672668457;81.29827880859375
85;1673295128.6518528;47.130642599999995;7.2406201999999995;8.589000701904297;1673295128.6910226;15.916863441467285;12.643756866455078;81.63917541503906
86;1673295128.8448713;47.130642699999996;7.2406201999999995;8.78600025177002;1673295128.885528;16.054569244384766;9.319738388061523;81.25513458251953
87;1673295129.049197;47.130642599999995;7.2406203;8.982000350952148;1673295129.0907857;15.967610359191895;9.399317741394043;81.23648071289062
88;1673295129.2456305;47.130642599999995;7.2406203;9.182000160217285;1673295129.2892435;16.226266860961914;12.565384864807129;81.70455932617188
89;1673295129.456031;47.130642599999995;7.2406203;9.379000663757324;1673295129.499515;16.41458511352539;9.940717697143555;81.37799072265625
90;1673295129.6625738;47.130642699999996;7.2406204;9.575000762939453;1673295129.710529;16.25753402709961;8.959888458251953;81.09978485107422
91;1673295129.8652499;47.130642699999996;7.2406204;9.769000053405762;1673295129.9045408;16.034648895263672;12.808384895324707;81.53833770751953
92;1673295130.0639558;47.130642699999996;7.2406204;9.963000297546387;1673295130.104504;16.30722427368164;10.611224174499512;81.394775390625
93;1673295130.2633133;47.130642699999996;7.2406204;10.16100025177002;1673295130.3041925;16.41892433166504;8.709914207458496;81.40483856201172
94;1673295130.4548292;47.1306425;7.2406203;10.43600082397461;1673295130.497151;16.431167602539062;12.747482299804688;82.1175308227539
95;1673295130.6669238;47.1306423;7.24062;10.803000450134277;1673295130.7143145;16.928489685058594;14.203055381774902;82.37793731689453
96;1673295130.8704317;47.130641999999995;7.2406197;11.183000564575195;1673295130.9096227;15.866133689880371;9.887935638427734;81.77501678466797
97;1673295131.071006;47.1306416;7.2406193;11.570000648498535;1673295131.116881;14.95134449005127;10.222750663757324;81.93075561523438
98;1673295131.2740452;47.1306413;7.240619;11.964000701904297;1673295131.3199809;14.332947731018066;11.426488876342773;81.98819732666016
99;1673295131.4652731;47.130641;7.240618899999999;12.360000610351562;1673295131.5102234;14.460404396057129;7.7710490226745605;81.3570556640625
100;1673295131.7106233;47.130640799999995;7.2406188;12.762001037597656;1673295131.7506847;14.3250732421875;7.24456262588501;81.33625793457031
101;1673295131.8739886;47.1306407;7.240618899999999;13.167000770568848;1673295131.915937;14.356818199157715;10.001583099365234;81.7745132446289
102;1673295132.073262;47.130640799999995;7.240618899999999;13.572000503540039;1673295132.121083;14.773493766784668;8.437769889831543;81.63538360595703
103;1673295132.2757401;47.1306411;7.240619;13.975000381469727;1673295132.3237922;15.01657772064209;8.132287979125977;81.48265075683594
104;1673295132.476024;47.1306413;7.2406191;14.37600040435791;1673295132.516137;15.127829551696777;12.11462688446045;81.85055541992188
105;1673295132.685124;47.1306416;7.240619199999999;14.779000282287598;1673295132.7524393;15.41099739074707;11.245590209960938;81.66925811767578
106;1673295132.9118645;47.1306418;7.2406193;15.187000274658203;1673295132.949041;15.691570281982422;9.343842506408691;81.4928970336914
107;1673295133.1152415;47.1306419;7.2406194;15.595000267028809;1673295133.1572616;15.532103538513184;12.123128890991211;81.97904205322266
108;1673295133.3106;47.1306419;7.2406194;16.00400161743164;1673295133.3516288;15.626893043518066;12.252067565917969;81.96556854248047
109;1673295133.5628455;47.130641999999995;7.2406194;16.41400146484375;1673295133.613468;15.595463752746582;9.180291175842285;81.60043334960938
110;1673295133.7569284;47.130641999999995;7.2406193;16.821001052856445;1673295133.8098989;15.431257247924805;10.871864318847656;81.7616195678711
111;1673295133.9530218;47.130641999999995;7.2406193;17.23400115966797;1673295134.0092077;15.269657135009766;12.493953704833984;81.9736328125
112;1673295134.1480093;47.130641999999995;7.2406193;17.642000198364258;1673295134.1871023;15.512118339538574;9.131369590759277;81.53439331054688
113;1673295134.3128374;47.1306419;7.2406194;18.056001663208008;1673295134.3489494;15.392134666442871;9.460577011108398;81.62255859375
114;1673295134.4819677;47.1306419;7.2406194;18.475000381469727;1673295134.525056;15.397950172424316;11.951432228088379;81.82740020751953
115;1673295134.693258;47.1306419;7.2406194;18.893001556396484;1673295134.7430358;15.457823753356934;9.177570343017578;81.58126831054688
116;1673295134.9047306;47.1306419;7.2406194;19.310001373291016;1673295134.9447777;15.375646591186523;8.796634674072266;81.3380355834961
117;1673295135.1259143;47.1306419;7.2406194;19.71700096130371;1673295135.1600764;15.253108024597168;12.211984634399414;81.80294799804688
118;1673295135.2870736;47.130641999999995;7.2406194;20.123001098632812;1673295135.3261127;15.584792137145996;10.046993255615234;81.47431182861328
119;1673295135.4751139;47.130642099999996;7.2406194;20.530000686645508;1673295135.5254238;15.530862808227539;8.429781913757324;81.30470275878906
120;1673295135.6887255;47.130642099999996;7.2406194;20.93800163269043;1673295135.7326376;15.31965446472168;11.419325828552246;81.6329345703125
121;1673295135.9017036;47.1306422;7.2406194;21.34600067138672;1673295135.947576;15.341724395751953;11.47256088256836;81.87759399414062
122;1673295136.0823393;47.1306423;7.2406193;21.75200080871582;1673295136.121421;15.349187850952148;9.008437156677246;81.54861450195312
123;1673295136.282872;47.1306424;7.2406193;22.152000427246094;1673295136.3220036;15.288216590881348;11.535979270935059;81.72586059570312
124;1673295136.4940696;47.1306425;7.2406193;22.554000854492188;1673295136.5477293;15.296141624450684;12.540792465209961;81.71621704101562
125;1673295136.7119062;47.1306425;7.2406193;22.95800018310547;1673295136.755934;15.498489379882812;9.16831111907959;81.41038513183594
126;1673295136.9081337;47.1306424;7.2406193;23.365001678466797;1673295136.9549809;15.348803520202637;10.410992622375488;81.62113952636719
127;1673295137.1192036;47.1306423;7.2406193;23.774002075195312;1673295137.1592546;15.399598121643066;12.24101734161377;81.89275360107422
128;1673295137.3121686;47.1306423;7.2406193;24.1820011138916;1673295137.3531597;15.354532241821289;9.79755973815918;81.66303253173828
129;1673295137.512245;47.1306423;7.2406193;24.586000442504883;1673295137.5622134;15.317099571228027;9.455385208129883;81.3184585571289
130;1673295137.712724;47.1306423;7.2406193;24.98200035095215;1673295137.7537785;15.386434555053711;12.475628852844238;81.72920227050781
131;1673295137.901879;47.1306424;7.2406193;25.38300132751465;1673295137.946056;15.483397483825684;9.919126510620117;81.50237274169922
132;1673295138.110746;47.1306423;7.2406193;25.782001495361328;1673295138.1508439;15.295096397399902;8.969834327697754;81.45249938964844
133;1673295138.3120928;47.1306423;7.2406193;26.187002182006836;1673295138.3452754;15.235280990600586;12.160138130187988;81.71212005615234
134;1673295138.488643;47.1306423;7.240619199999999;26.59400177001953;1673295138.528773;15.332075119018555;10.93803882598877;81.55583190917969
135;1673295138.7266147;47.1306424;7.240619199999999;27.001001358032227;1673295138.7667787;15.4493408203125;8.730086326599121;81.21367645263672
136;1673295138.918683;47.1306424;7.2406193;27.399002075195312;1673295138.9616616;15.135443687438965;11.865933418273926;81.68814849853516
137;1673295139.18908;47.1306425;7.2406193;27.797000885009766;1673295139.2203135;15.41552734375;12.052806854248047;81.76142883300781
138;1673295139.3566353;47.1306425;7.2406194;28.194002151489258;1673295139.4070163;15.509610176086426;8.978826522827148;81.5484848022461
139;1673295139.574441;47.1306424;7.2406194;28.590002059936523;1673295139.6349847;15.327160835266113;11.053723335266113;81.70863342285156
140;1673295139.768956;47.1306424;7.2406194;28.988000869750977;1673295139.8057728;15.43803882598877;12.17383098602295;81.66954040527344
141;1673295139.9360933;47.1306424;7.2406194;29.389001846313477;1673295139.9761522;15.46297550201416;9.0364990234375;81.41278076171875
142;1673295140.121706;47.1306424;7.2406194;29.788002014160156;1673295140.1647122;15.382843971252441;10.341371536254883;81.5525131225586
143;1673295140.3174002;47.1306424;7.2406194;30.1820011138916;1673295140.3565383;15.082036972045898;12.763778686523438;81.98181915283203
144;1673295140.5119133;47.1306424;7.2406194;30.578001022338867;1673295140.5548544;15.345295906066895;9.455552101135254;81.55960845947266
145;1673295140.7153373;47.1306423;7.2406194;30.981000900268555;1673295140.758282;15.300763130187988;9.501224517822266;81.50060272216797
146;1673295140.9137409;47.1306423;7.240619499999999;31.389001846313477;1673295140.953738;15.27751350402832;12.35505485534668;81.75126647949219
147;1673295141.1153805;47.1306423;7.240619499999999;31.798002243041992;1673295141.155361;15.415756225585938;10.19139575958252;81.69529724121094
148;1673295141.3070784;47.1306424;7.240619499999999;32.204002380371094;1673295141.3463283;15.393007278442383;8.678619384765625;81.44889831542969
149;1673295141.4993732;47.1306424;7.240619499999999;32.60200119018555;1673295141.545299;15.234440803527832;12.293652534484863;81.7260513305664
150;1673295141.7107537;47.1306425;7.240619499999999;33.00300216674805;1673295141.7556782;15.330184936523438;11.338289260864258;81.64269256591797
151;1673295141.8984914;47.1306425;7.2406196;33.40700149536133;1673295141.9463062;15.53999137878418;8.946925163269043;81.39550018310547
152;1673295142.102806;47.1306424;7.2406196;33.8129997253418;1673295142.1467288;15.399852752685547;11.415599822998047;81.69723510742188
153;1673295142.3127303;47.1306424;7.2406197;34.21800231933594;1673295142.3488345;15.464217185974121;11.983918190002441;81.8905258178711
154;1673295142.502434;47.1306425;7.2406197;34.62200164794922;1673295142.5468292;15.478355407714844;9.006757736206055;81.6163330078125
155;1673295142.697102;47.1306425;7.2406197;35.0260009765625;1673295142.7430623;15.404541015625;10.817718505859375;81.61640930175781
156;1673295142.8991644;47.1306425;7.2406197;35.42100143432617;1673295142.945037;15.423933982849121;12.466774940490723;81.8251953125
157;1673295143.0937812;47.1306425;7.2406197;35.81700134277344;1673295143.1337779;15.582014083862305;9.250886917114258;81.4522476196289
158;1673295143.2849967;47.1306425;7.2406197;36.21600341796875;1673295143.3397894;15.408214569091797;10.349303245544434;81.60328674316406
159;1673295143.4980605;47.1306425;7.2406197;36.61800003051758;1673295143.5422463;15.252825736999512;12.47761344909668;81.80120086669922
160;1673295143.7050524;47.130642599999995;7.2406196;37.018001556396484;1673295143.7422743;15.451555252075195;9.91254711151123;81.64530181884766
161;1673295143.8861494;47.130642699999996;7.2406196;37.419002532958984;1673295143.9301565;15.291804313659668;10.005645751953125;81.45721435546875
162;1673295144.097284;47.130642699999996;7.2406196;37.8120002746582;1673295144.1450932;15.214792251586914;13.060035705566406;81.9462890625
163;1673295144.296523;47.130642599999995;7.2406197;38.2030029296875;1673295144.3366876;15.35097599029541;10.37744140625;81.7314453125
164;1673295144.5018332;47.130642599999995;7.2406197;38.59700012207031;1673295144.549674;15.412593841552734;9.150158882141113;81.58562469482422
165;1673295144.7101789;47.1306425;7.2406197;38.99500274658203;1673295144.7570386;15.420385360717773;12.189061164855957;81.64924621582031
166;1673295144.9089074;47.130642599999995;7.240619799999999;39.397003173828125;1673295144.948619;15.63720989227295;11.271289825439453;81.5513916015625
167;1673295145.1036325;47.130642599999995;7.240619799999999;39.80000305175781;1673295145.1456852;15.667230606079102;8.886329650878906;81.31169128417969
168;1673295145.3013425;47.130642699999996;7.2406197;40.202003479003906;1673295145.3463056;15.311083793640137;11.74765682220459;81.82156372070312
169;1673295145.523093;47.130642699999996;7.2406197;40.59400177001953;1673295145.5682626;15.303637504577637;12.318629264831543;81.94819641113281
170;1673295145.7224398;47.130642599999995;7.2406197;40.98800277709961;1673295145.7614784;15.557469367980957;8.885025978088379;81.45945739746094
171;1673295145.9129152;47.1306425;7.2406197;41.38600158691406;1673295145.960769;15.287343978881836;10.458991050720215;81.40631866455078
172;1673295146.1493464;47.130642599999995;7.2406196;41.78700256347656;1673295146.1893635;15.308147430419922;12.5260591506958;81.66751861572266
173;1673295146.3745942;47.130642599999995;7.2406196;42.19000244140625;1673295146.4373002;15.354188919067383;9.528877258300781;81.39514923095703
174;1673295146.5657077;47.130642699999996;7.2406196;42.592002868652344;1673295146.6048923;15.441158294677734;9.866720199584961;81.3370132446289
175;1673295146.7699108;47.130642699999996;7.2406196;42.98200225830078;1673295146.809825;15.130237579345703;13.03354263305664;81.94181060791016
176;1673295146.9481912;47.130642699999996;7.240619499999999;43.371002197265625;1673295146.9902894;15.4401216506958;10.069091796875;81.50660705566406
177;1673295147.120967;47.130642699999996;7.240619499999999;43.762001037597656;1673295147.1737843;15.262114524841309;9.692167282104492;81.45496368408203
178;1673295147.3212116;47.130642699999996;7.240619499999999;44.160003662109375;1673295147.3624835;15.192081451416016;12.751373291015625;81.7066421508789
179;1673295147.5252821;47.1306428;7.240619499999999;44.557003021240234;1673295147.5682182;15.426277160644531;10.844923973083496;81.68539428710938
180;1673295147.723964;47.1306428;7.2406196;44.9530029296875;1673295147.762042;15.478141784667969;9.292078018188477;81.38743591308594
181;1673295147.9179046;47.1306428;7.2406196;45.34800338745117;1673295147.9610105;15.153557777404785;12.58026123046875;81.75260925292969
182;1673295148.110991;47.1306428;7.2406196;45.733001708984375;1673295148.1558948;15.480310440063477;11.387321472167969;81.65306854248047
183;1673295148.3418927;47.130642699999996;7.2406196;46.12000274658203;1673295148.380941;15.574172973632812;8.91026496887207;81.47089385986328
184;1673295148.5185227;47.130642599999995;7.2406196;46.51400375366211;1673295148.55464;15.294124603271484;11.110189437866211;81.5989761352539
185;1673295148.69162;47.130642599999995;7.2406196;46.909000396728516;1673295148.7346125;15.255006790161133;11.954285621643066;81.842529296875
186;1673295148.8845055;47.130642599999995;7.240619499999999;47.30400085449219;1673295148.928968;15.273958206176758;9.103684425354004;81.5362319946289
187;1673295149.0887957;47.130642599999995;7.240619499999999;47.69900131225586;1673295149.1294107;15.107314109802246;11.082854270935059;81.48817443847656
188;1673295149.287109;47.130642599999995;7.240619499999999;48.08500289916992;1673295149.3278282;15.150157928466797;12.341814041137695;81.61405944824219
189;1673295149.4936838;47.130642599999995;7.2406196;48.43600082397461;1673295149.5444877;15.48565673828125;9.402689933776855;81.29698181152344
190;1673295149.7186859;47.130642699999996;7.2406197;48.742000579833984;1673295149.7648654;15.283676147460938;10.818955421447754;81.66104888916016
191;1673295149.928712;47.1306428;7.240619799999999;49.00300216674805;1673295149.9757013;15.721173286437988;12.701018333435059;81.9288101196289
192;1673295150.1465662;47.130643;7.24062;49.22100067138672;1673295150.1847887;15.814323425292969;9.51774787902832;81.2479248046875
193;1673295150.331459;47.130643299999996;7.2406201999999995;49.406002044677734;1673295150.3844497;24.133502960205078;10.131728172302246;80.30863189697266
194;1673295150.5342429;47.130643299999996;7.2406201;49.53400421142578;1673295150.577549;30.926511764526367;18.929561614990234;72.61776733398438
195;1673295150.733462;47.130643;7.2406196;49.566001892089844;1673295150.7775524;24.83636474609375;9.709823608398438;58.20783233642578
196;1673295150.9165287;47.1306422;7.2406188;49.605003356933594;1673295150.9534767;22.27003288269043;3.0745925903320312;50.320709228515625
197;1673295151.097541;47.130641399999995;7.240617899999999;49.65500259399414;1673295151.1385152;26.340503692626953;1.928950548171997;41.53017807006836
198;1673295151.3018436;47.1306404;7.2406168;49.70000076293945;1673295151.349366;22.646135330200195;-2.912850856781006;32.80684280395508
199;1673295151.505598;47.1306393;7.240615699999999;49.74400329589844;1673295151.5455725;19.679868698120117;-7.875203609466553;24.276283264160156
200;1673295151.7256823;47.1306382;7.2406147;49.78400421142578;1673295151.763454;16.506553649902344;-10.943737983703613;15.650815963745117
201;1673295151.9244354;47.130637199999995;7.2406139;49.810001373291016;1673295151.96983;13.855165481567383;-12.451709747314453;6.603200912475586
202;1673295152.1146905;47.1306364;7.240613199999999;49.83400344848633;1673295152.1577785;11.442389488220215;-12.730497360229492;-2.80332088470459
203;1673295152.301432;47.130635899999994;7.2406127;49.855003356933594;1673295152.3474512;8.436779022216797;-12.565887451171875;-12.527750015258789
204;1673295152.5105014;47.1306356;7.240612499999999;49.87700271606445;1673295152.5485444;4.0229082107543945;-13.08444595336914;-22.255657196044922
205;1673295152.6966925;47.1306355;7.240612499999999;49.89600372314453;1673295152.7352223;0.4244394898414612;-15.575767517089844;-32.02527618408203
206;1673295152.884758;47.1306356;7.2406127;49.91400146484375;1673295152.9247742;-1.4626705646514893;-18.967844009399414;-41.29648971557617
207;1673295153.0958989;47.1306358;7.240613;49.93100357055664;1673295153.1379373;-3.0950815677642822;-21.870662689208984;-50.07797622680664
208;1673295153.292286;47.1306362;7.2406131;49.93700408935547;1673295153.3381877;-5.173571586608887;-21.673686981201172;-52.5705680847168
209;1673295153.5033271;47.1306365;7.240613;49.94600296020508;1673295153.5503333;-3.897331714630127;-21.57059669494629;-49.195247650146484
210;1673295153.7010555;47.1306369;7.2406128999999995;49.957000732421875;1673295153.7460644;-1.4498294591903687;-21.309589385986328;-46.34377670288086
211;1673295153.8987215;47.1306371;7.2406125999999995;49.97100067138672;1673295153.9427385;-0.3757185637950897;-20.680681228637695;-45.569644927978516
212;1673295154.098611;47.130637199999995;7.2406123;49.98100280761719;1673295154.1456206;0.5412300825119019;-20.71830177307129;-45.45330810546875
213;1673295154.3076484;47.130637199999995;7.240611899999999;49.987003326416016;1673295154.3526945;1.4512296915054321;-22.22710609436035;-45.39076232910156
214;1673295154.5130908;47.130637;7.2406114;49.980003356933594;1673295154.5560436;1.811194658279419;-23.186676025390625;-45.207481384277344
215;1673295154.7184794;47.1306367;7.2406109999999995;49.97600173950195;1673295154.7624748;1.4753532409667969;-22.896921157836914;-45.19633102416992
216;1673295154.9145617;47.1306364;7.2406106999999995;49.97900390625;1673295154.9616103;0.10839687287807465;-21.20752716064453;-45.13113021850586
217;1673295155.1282377;47.1306361;7.2406105;49.98200225830078;1673295155.1751716;-1.0302635431289673;-18.872875213623047;-44.9553337097168
218;1673295155.3223596;47.1306358;7.2406102;49.983001708984375;1673295155.3643446;-1.557239055633545;-17.227680206298828;-45.09395980834961
219;1673295155.518898;47.1306356;7.2406099;49.98200225830078;1673295155.5609095;-17.81016731262207;-17.008567810058594;-45.6085319519043
220;1673295155.7066362;47.1306358;7.2406089;49.987003326416016;1673295155.748924;-38.94563293457031;-12.227205276489258;-47.432979583740234
221;1673295155.9138396;47.1306377;7.240605899999999;49.9900016784668;1673295155.9577746;-52.712528228759766;-8.760208129882812;-48.59633255004883
222;1673295156.112282;47.130642099999996;7.2406;49.98800277709961;1673295156.153274;-56.360450744628906;-9.85285472869873;-48.92811965942383
223;1673295156.3157043;47.130649;7.2405911;49.98100280761719;1673295156.3621385;-54.839393615722656;-10.00178337097168;-49.797149658203125
224;1673295156.5164092;47.130657899999996;7.2405794;49.980003356933594;1673295156.5583715;-56.126522064208984;-7.883483409881592;-51.021690368652344
225;1673295156.7031727;47.130668799999995;7.2405652;49.97600173950195;1673295156.745755;-55.401485443115234;-7.343257427215576;-50.70712661743164
226;1673295156.9053426;47.1306813;7.2405485999999994;49.96800231933594;1673295156.9512935;-55.37980270385742;-9.694584846496582;-50.496212005615234
227;1673295157.1153762;47.130694999999996;7.2405301;49.948001861572266;1673295157.1602397;-52.438053131103516;-11.233325004577637;-50.09620666503906
228;1673295157.3124986;47.130709499999995;7.24051;49.922000885009766;1673295157.3602679;-51.21458435058594;-13.022276878356934;-49.689208984375
229;1673295157.510377;47.130724699999995;7.2404885;49.90900421142578;1673295157.5512288;-51.14253616333008;-14.687921524047852;-51.56068801879883
230;1673295157.7132883;47.1307401;7.240465599999999;49.897003173828125;1673295157.7562501;-49.857666015625;-13.847367286682129;-53.22014617919922
231;1673295157.9201682;47.1307556;7.2404417;49.88100051879883;1673295157.9673142;-46.878292083740234;-19.618473052978516;-52.335941314697266
232;1673295158.132376;47.1307708;7.2404169;49.880001068115234;1673295158.1773736;-31.81082534790039;-24.978153228759766;-55.446754455566406
233;1673295158.3263896;47.1307847;7.240392399999999;49.897003173828125;1673295158.3594527;14.831093788146973;-21.58387565612793;-58.8016471862793
234;1673295158.5145195;47.1307969;7.240371;49.80500411987305;1673295158.562166;23.78768539428711;-5.340648651123047;-60.77088928222656
235;1673295158.7175283;47.1308079;7.2403537;49.552001953125;1673295158.768313;16.20454216003418;-2.3829505443573;-51.14314270019531
236;1673295158.9333084;47.1308176;7.240341;49.28700256347656;1673295158.9783554;14.572019577026367;-0.2775207757949829;-48.39762496948242
237;1673295159.1342175;47.130826;7.2403325999999995;49.112003326416016;1673295159.1814284;13.251587867736816;-1.418623447418213;-48.5386962890625
238;1673295159.3232656;47.1308333;7.240328;49.07200241088867;1673295159.3664;18.27832794189453;-4.799717426300049;-48.15565872192383
239;1673295159.5213838;47.1308393;7.2403267;49.147003173828125;1673295159.56464;36.81307601928711;-11.594738006591797;-46.879234313964844
240;1673295159.7101154;47.1308432;7.2403289;49.25300216674805;1673295159.749397;43.717891693115234;-17.755691528320312;-46.50654602050781
241;1673295159.917962;47.130844599999996;7.2403341;49.37300109863281;1673295159.9622736;47.116329193115234;-23.906326293945312;-46.43895721435547
242;1673295160.1139948;47.130843299999995;7.2403417;49.493003845214844;1673295160.1546721;47.46772384643555;-30.453025817871094;-46.70289993286133
243;1673295160.3083234;47.130839099999996;7.2403509999999995;49.61300277709961;1673295160.3553798;40.68792724609375;-32.86460876464844;-45.81871795654297
244;1673295160.5273619;47.1308327;7.2403607999999995;49.71200180053711;1673295160.5652828;26.663345336914062;-33.48341369628906;-45.965003967285156
245;1673295160.7134411;47.130825099999996;7.2403701;49.781002044677734;1673295160.7574406;8.43856143951416;-28.926719665527344;-46.72092819213867
246;1673295160.9228063;47.130817199999996;7.2403784;49.82200241088867;1673295160.9628234;-9.01307487487793;-16.867305755615234;-48.29306411743164
247;1673295161.1230123;47.1308103;7.2403851999999995;49.85000228881836;1673295161.1679208;-23.408273696899414;-8.223413467407227;-51.00727462768555
248;1673295161.3291614;47.130805099999996;7.2403906;49.874000549316406;1673295161.3782783;-26.116943359375;-7.390139579772949;-51.517799377441406
249;1673295161.5457213;47.1308018;7.2403944;49.88600158691406;1673295161.5876882;-16.182634353637695;-5.499928951263428;-50.65514373779297
250;1673295161.762918;47.1308;7.2403973;49.89200210571289;1673295161.801149;-11.076602935791016;-3.3396472930908203;-51.17999267578125
251;1673295161.9581869;47.130799499999995;7.2403998;49.90200424194336;1673295162.005778;-8.211670875549316;-4.328386306762695;-52.089256286621094
252;1673295162.1570163;47.1307999;7.2404022999999995;49.91400146484375;1673295162.204959;-3.176976442337036;-6.294219017028809;-51.743343353271484
253;1673295162.3416991;47.130801;7.240405;49.926002502441406;1673295162.377928;13.673154830932617;-8.71914005279541;-51.153411865234375
254;1673295162.5472732;47.1308023;7.2404079999999995;49.68300247192383;1673295162.5882483;45.07078170776367;-4.905068874359131;-49.615966796875
255;1673295162.7453902;47.1308037;7.240411099999999;49.073001861572266;1673295162.7933812;71.74734497070312;15.59142017364502;-37.206600189208984
256;1673295162.948506;47.1308053;7.240414299999999;48.09800338745117;1673295162.994377;80.34397888183594;108.71913146972656;42.053287506103516
257;1673295163.1457145;47.130807;7.2404174999999995;46.759002685546875;1673295163.1855428;74.51626586914062;150.14276123046875;64.15270233154297
258;1673295163.3381548;47.1308088;7.2404208;45.05500030517578;1673295163.384137;79.60209655761719;151.8778076171875;43.497535705566406
259;1673295163.5450525;47.1308106;7.2404243;42.996002197265625;1673295163.585121;73.35807800292969;40.720848083496094;-91.05018615722656
260;1673295163.738146;47.1308125;7.2404275;40.57100296020508;1673295163.7792583;34.495609283447266;28.83765411376953;-125.45943450927734
261;1673295163.933781;47.130814;7.2404307;37.76900100708008;1673295163.9740398;-10.589662551879883;31.265321731567383;-147.72738647460938
262;1673295164.1921244;47.1308156;7.2404344;34.58300018310547;1673295164.2452016;-45.4795036315918;33.98076248168945;-168.10687255859375
263;1673295164.3948562;47.1308173;7.2404385;31.04100227355957;1673295164.4354267;-59.495513916015625;16.667518615722656;-172.8770751953125
264;1673295164.5786345;47.1308193;7.2404429;27.161001205444336;1673295164.6167886;-42.066951751708984;-15.82231330871582;-167.27322387695312
265;1673295164.7662275;47.1308216;7.2404473;22.928001403808594;1673295164.8043032;-0.7658036947250366;-33.471031188964844;176.8872833251953
266;1673295164.9550636;47.1308241;7.240451299999999;18.303001403808594;1673295164.997065;38.74742889404297;-45.50990295410156;149.38836669921875
267;1673295165.1527386;47.130826299999995;7.240455;13.332000732421875;1673295165.1957154;57.71022033691406;-38.33340835571289;132.4229736328125
268;1673295165.3420553;47.130828199999996;7.240458899999999;8.03600025177002;1673295165.3859868;43.819828033447266;2.5604939460754395;144.6851043701172
269;1673295165.5543098;47.1308298;7.2404632;2.3930001258850098;1673295165.5933893;-1.9838849306106567;25.290237426757812;136.92977905273438
270;1673295165.7394862;47.1308234;7.2404673;-0.02200000174343586;1673295165.7795634;-11.550466537475586;12.292847633361816;131.7238311767578
271;1673295165.938882;47.1308096;7.240469099999999;-0.05300000309944153;1673295165.984771;-10.376276969909668;18.319080352783203;127.78858184814453
272;1673295166.1385276;47.130795;7.240469399999999;-0.07900000363588333;1673295166.1854248;-9.739935874938965;13.728887557983398;128.00062561035156
273;1673295166.3294742;47.130779399999994;7.2404695;-0.12800000607967377;1673295166.380571;-9.509634971618652;14.992932319641113;127.87220001220703
274;1673295166.534677;47.1307626;7.2404695;-0.1850000023841858;1673295166.5756698;-9.31578254699707;14.691036224365234;127.77945709228516
275;1673295166.740878;47.130744799999995;7.2404695;-0.24800001084804535;1673295166.7819195;-9.173540115356445;14.594740867614746;127.57717895507812
276;1673295166.9415526;47.130725999999996;7.240469399999999;-0.31700000166893005;1673295166.9854724;-9.066622734069824;14.761177062988281;127.41976928710938
277;1673295167.1361616;47.1307064;7.240469099999999;-0.38700002431869507;1673295167.181066;-8.928380012512207;14.78616714477539;127.29283142089844
278;1673295167.3632789;47.130685799999995;7.2404687;-0.45900002121925354;1673295167.406712;-8.830668449401855;14.978263854980469;127.17823791503906
279;1673295167.6179585;47.1306642;7.2404682;-0.5660000443458557;1673295167.6541457;-8.746333122253418;15.157614707946777;127.11360931396484
280;1673295167.7901392;47.1306419;7.2404674;-0.6620000600814819;1673295167.828139;-8.663239479064941;15.258560180664062;127.06007385253906
281;1673295167.9819732;47.1306187;7.240466499999999;-0.7470000386238098;1673295168.0189505;-8.562129974365234;15.32042407989502;127.00334167480469
282;1673295168.1698945;47.1305957;7.2404657;-0.8260000348091125;1673295168.2161112;-8.458634376525879;15.275368690490723;126.92068481445312
283;1673295168.3672822;47.1305711;7.2404645;-0.8980000615119934;1673295168.4099286;-8.399954795837402;15.204620361328125;126.91710662841797
284;1673295168.558991;47.1305458;7.2404630999999995;-0.971000075340271;1673295168.6001067;-8.28125286102295;15.111473083496094;126.93329620361328
285;1673295168.764375;47.1305197;7.2404616;-1.0420000553131104;1673295168.8050482;-8.217423439025879;15.01806354522705;126.91463470458984
286;1673295168.9631283;47.1304924;7.2404598;-1.1610000133514404;1673295169.006135;-8.171479225158691;14.9215669631958;126.89336395263672
287;1673295169.1935887;47.130464499999995;7.2404578;-1.2640000581741333;1673295169.2289915;-8.106374740600586;14.880881309509277;126.8798828125
288;1673295169.385942;47.1304361;7.240455799999999;-1.3420000076293945;1673295169.425271;-8.018109321594238;14.715156555175781;126.85649871826172
289;1673295169.5850503;47.1304072;7.2404535;-1.4070000648498535;1673295169.625036;-7.952383041381836;14.53685474395752;126.87482452392578
290;1673295169.8228323;47.130377599999996;7.2404511;-1.467000126838684;1673295169.8650675;-7.881360054016113;14.398364067077637;126.84510040283203
291;1673295170.0081966;47.1303474;7.2404486;-1.5180001258850098;1673295170.0432281;-7.75485372543335;14.198269844055176;126.8654556274414
292;1673295170.1850486;47.1303157;7.2404458;-1.6220000982284546;1673295170.2209756;-7.792457580566406;14.130125045776367;126.80492401123047
293;1673295170.3591871;47.1302835;7.240442799999999;-1.7040001153945923;1673295170.4011507;-7.689996719360352;14.020263671875;126.79816436767578
294;1673295170.5470755;47.130251;7.2404398;-1.7570000886917114;1673295170.5910668;-7.609107971191406;13.863007545471191;126.78196716308594
295;1673295170.7560496;47.130218;7.2404366;-1.7920000553131104;1673295170.793081;-7.56402587890625;13.750442504882812;126.7702865600586
296;1673295170.9472184;47.130184299999996;7.240433299999999;-1.8220001459121704;1673295170.992086;-7.483931541442871;13.599831581115723;126.76057434082031
297;1673295171.162153;47.130169099999996;7.240431699999999;-1.8410000801086426;1673295171.205198;-7.448298454284668;13.50350570678711;126.75045013427734
298;1673295173.2172294;47.1308132;7.240466;29.226001739501953;1673295171.4011579;-7.369707107543945;13.398642539978027;126.7750244140625
299;;;;;1673295171.6098986;-7.384089946746826;13.346607208251953;126.72146606445312
300;;;;;1673295171.8098679;-7.325485706329346;13.2489013671875;126.75039672851562
301;;;;;1673295172.0072284;-7.267817974090576;13.14752197265625;126.75836181640625
302;;;;;1673295172.2072716;-7.24108362197876;13.063093185424805;126.70738220214844
303;;;;;1673295172.393109;-7.252187728881836;13.253337860107422;126.70661163330078
304;;;;;1673295172.5999541;-7.095396041870117;13.703150749206543;126.66990661621094
305;;;;;1673295172.8041384;-7.070651054382324;13.937121391296387;126.60551452636719
306;;;;;1673295172.9907923;-7.059375286102295;14.12800407409668;126.55094146728516
307;;;;;1673295173.1980755;-7.073768138885498;14.275349617004395;126.47490692138672
