;pos_time;latitude;longitude;altitude;alt_time;pitch;roll;yaw
0;1673298833.3173857;47.1306425;7.24062;-0.007000000216066837;1673298833.4633846;-0.07408491522073746;0.03530456870794296;90.0718002319336
1;1673298833.5215197;47.1306425;7.24062;-0.006000000052154064;1673298833.6674683;-0.08679810911417007;0.10263481736183167;90.09579467773438
2;1673298833.7283647;47.1306425;7.2406198999999996;-0.005000000353902578;1673298833.880439;0.07619690895080566;0.008139410987496376;90.13611602783203
3;1673298833.9406624;47.1306425;7.2406198999999996;-0.007000000216066837;1673298834.0744762;0.11961483210325241;0.14256267249584198;90.1075210571289
4;1673298834.1254692;47.1306425;7.240619799999999;-0.01100000087171793;1673298834.2554557;-0.16509735584259033;0.010682259686291218;90.24298858642578
5;1673298834.3203816;47.130642599999995;7.2406197;-0.013000000268220901;1673298834.477316;0.018123993650078773;0.07294879108667374;90.14714050292969
6;1673298834.536451;47.130642599999995;7.240619799999999;-0.014000000432133675;1673298834.6672947;0.22337086498737335;0.02997995726764202;90.08572387695312
7;1673298834.7242117;47.130642599999995;7.240619799999999;-0.015000000596046448;1673298834.8673162;0.08098692446947098;-0.14311860501766205;90.31086730957031
8;1673298834.9217308;47.130642599999995;7.240619799999999;-0.015000000596046448;1673298835.078399;-0.2150842696428299;-0.139754518866539;90.17769622802734
9;1673298835.1290834;47.1306425;7.2406198999999996;-0.014000000432133675;1673298835.262361;-0.4755285084247589;-0.03039339929819107;90.2173843383789
10;1673298835.3153865;47.1306425;7.24062;0.0010000000474974513;1673298835.4605565;-0.3499990999698639;-0.027263648808002472;90.09734344482422
11;1673298835.517549;47.1306425;7.24062;0.0010000000474974513;1673298835.6514478;-0.22709906101226807;-0.21234916150569916;90.05374145507812
12;1673298835.7057693;47.1306425;7.2406201;-0.0020000000949949026;1673298835.8528364;-0.2879648506641388;-0.1077374592423439;90.16326904296875
13;1673298835.914454;47.130642599999995;7.24062;-0.007000000216066837;1673298836.0560908;0.043456386774778366;-0.09543274343013763;90.1932144165039
14;1673298836.1214678;47.130642599999995;7.24062;-0.010000000707805157;1673298836.2893004;-0.32369035482406616;-0.1921749860048294;90.28044128417969
15;1673298836.3505147;47.130642599999995;7.24062;-0.012000000104308128;1673298836.5071752;-0.5810644626617432;0.026975618675351143;90.05695343017578
16;1673298836.5618858;47.130642599999995;7.24062;-0.01600000075995922;1673298836.6994052;-0.7116129398345947;0.3107679486274719;90.36418914794922
17;1673298836.7474775;47.130642599999995;7.24062;-0.017000000923871994;1673298836.877408;-0.8341774940490723;-0.30845344066619873;90.3594741821289
18;1673298836.9292538;47.130642599999995;7.2406201;0.0010000000474974513;1673298837.061364;-0.9239928722381592;0.0006126622320152819;90.24989318847656
19;1673298837.1174397;47.1306425;7.2406201;0.0010000000474974513;1673298837.2543528;-0.9193249344825745;0.14037880301475525;90.31466674804688
20;1673298837.3072627;47.1306425;7.2406201;0.0;1673298837.440677;-0.5658088326454163;-0.18043749034404755;90.29602813720703
21;1673298837.4974627;47.1306425;7.2406201;0.0;1673298837.6406825;-0.9027970433235168;-0.14938050508499146;90.27870178222656
22;1673298837.6927395;47.1306425;7.2406201999999995;0.0;1673298837.8485577;-1.0736804008483887;-0.128877654671669;90.28028106689453
23;1673298837.9127219;47.1306425;7.2406201999999995;-0.0010000000474974513;1673298838.0763686;-1.2965530157089233;-0.13495202362537384;90.2934799194336
24;1673298838.137236;47.1306425;7.2406201999999995;0.0;1673298838.279448;-1.982582926750183;-0.09270203113555908;90.29451751708984
25;1673298838.3261764;47.1306425;7.2406201999999995;0.0010000000474974513;1673298838.4486194;1.5462102890014648;-0.21579647064208984;88.58833312988281
26;1673298838.5124202;47.1306425;7.2406209;0.003000000026077032;1673298838.6609514;3.9719247817993164;-0.12282635271549225;88.33402252197266
27;1673298838.7173808;47.1306425;7.2406226;0.012000000104308128;1673298838.8764338;9.680819511413574;-0.13572517037391663;88.14815521240234
28;1673298838.9383776;47.1306425;7.240625199999999;0.02200000174343586;1673298839.0827148;16.206167221069336;-0.2923749089241028;88.3580093383789
29;1673298839.135406;47.1306425;7.240628699999999;0.030000001192092896;1673298839.2595208;16.170764923095703;-0.3324953317642212;88.69781494140625
30;1673298839.3143725;47.1306425;7.240633099999999;0.052000001072883606;1673298839.452536;16.402816772460938;-0.22837099432945251;88.87586975097656
31;1673298839.5134153;47.130642599999995;7.240638;0.0860000029206276;1673298839.6553845;17.69744300842285;-0.1787256896495819;89.0819320678711
32;1673298839.7142584;47.130642699999996;7.2406435;0.13500000536441803;1673298839.8557396;19.401927947998047;-0.0878782644867897;89.19385528564453
33;1673298839.9173417;47.1306429;7.2406492;0.1990000158548355;1673298840.0605469;21.263538360595703;0.09097666293382645;89.31165313720703
34;1673298840.1304705;47.1306431;7.2406551;0.2770000100135803;1673298840.2773852;23.225893020629883;0.06450983881950378;89.41083526611328
35;1673298840.3395736;47.130643199999994;7.2406608;0.3720000088214874;1673298840.4824283;25.269092559814453;0.12588150799274445;89.53425598144531
36;1673298840.5414352;47.130643199999994;7.2406663;0.46700000762939453;1673298840.6804268;27.3729248046875;0.43432047963142395;89.66835021972656
37;1673298840.7374818;47.130643299999996;7.2406714999999995;0.5410000085830688;1673298840.8816538;29.48676109313965;0.13958942890167236;89.66636657714844
38;1673298840.9312773;47.1306434;7.240676199999999;0.6060000061988831;1673298841.0643332;31.60922622680664;0.09437961876392365;89.69245910644531
39;1673298841.1122904;47.1306434;7.2406802;0.6600000262260437;1673298841.258388;33.76968002319336;0.5765563249588013;89.8809585571289
40;1673298841.3404932;47.1306435;7.2406834;0.7110000252723694;1673298841.4995754;35.96510696411133;0.47995439171791077;89.96018981933594
41;1673298841.5854404;47.1306435;7.240685699999999;0.7600000500679016;1673298841.703441;38.12092971801758;0.2658624053001404;89.94049835205078
42;1673298841.7572377;47.1306436;7.2406868;0.8010000586509705;1673298841.8823423;40.343536376953125;0.7701455950737;90.12102508544922
43;1673298841.9324563;47.1306436;7.2406868;0.8400000333786011;1673298842.089522;42.5155143737793;0.7526963353157043;90.06803894042969
44;1673298842.1434648;47.1306435;7.2406855;0.8750000596046448;1673298842.2814276;44.769432067871094;0.44476979970932007;90.03483581542969
45;1673298842.3328187;47.1306434;7.2406828;0.9020000696182251;1673298842.4674044;46.929805755615234;0.5760776996612549;90.02716827392578
46;1673298842.53013;47.1306434;7.2406786;0.9280000329017639;1673298842.6982155;47.43536376953125;0.4775330126285553;90.10420227050781
47;1673298842.7854536;47.130643199999994;7.2406728;0.9480000734329224;1673298842.9395752;43.06391525268555;0.3878137171268463;89.96452331542969
48;1673298842.9996793;47.1306431;7.2406659;0.9590000510215759;1673298843.1234286;38.28557205200195;0.09523718059062958;89.9266357421875
49;1673298843.1763995;47.130643;7.2406584;0.9640000462532043;1673298843.3087218;31.804288864135742;0.15240399539470673;89.9948959350586
50;1673298843.3703551;47.1306429;7.2406508;1.0080000162124634;1673298843.502348;30.589887619018555;-0.35814952850341797;89.88090515136719
51;1673298843.5545614;47.1306428;7.2406435;1.099000096321106;1673298843.691429;23.794450759887695;-0.2399664670228958;89.97859954833984
52;1673298843.7422569;47.130642699999996;7.240636899999999;1.2000000476837158;1673298843.8925047;20.58521842956543;0.034239403903484344;90.10803985595703
53;1673298843.94851;47.130642599999995;7.2406315999999995;1.312000036239624;1673298844.0874164;18.921396255493164;-0.08286070823669434;90.0068588256836
54;1673298844.142451;47.130642599999995;7.2406277;1.4270000457763672;1673298844.293391;19.10453224182129;-0.5448505282402039;89.73483276367188
55;1673298844.3474295;47.130642599999995;7.240625199999999;1.5500000715255737;1673298844.4882746;20.86576271057129;1.5579231977462769;101.49381256103516
56;1673298844.5474055;47.130642599999995;7.2406238;1.689000129699707;1673298844.6905892;22.685258865356445;0.6328207850456238;100.91311645507812
57;1673298844.7453418;47.130642599999995;7.2406232;1.8410000801086426;1673298844.8747935;24.55716323852539;-1.8160827159881592;100.06319427490234
58;1673298844.9254541;47.1306425;7.2406232;2.003000020980835;1673298845.0534017;26.520347595214844;1.1227303743362427;100.58203125
59;1673298845.1163912;47.1306425;7.2406234;2.1740000247955322;1673298845.260455;27.944927215576172;1.3474323749542236;100.55783081054688
60;1673298845.3247368;47.130642599999995;7.240623599999999;2.3600001335144043;1673298845.4706194;29.17993927001953;-0.6272904872894287;99.61272430419922
61;1673298845.5324705;47.130642699999996;7.2406238;2.552000045776367;1673298845.6843882;29.54594612121582;1.614333987236023;100.04737854003906
62;1673298845.7383618;47.1306428;7.2406238;2.747000217437744;1673298845.8810601;29.614669799804688;3.013338565826416;100.49976348876953
63;1673298845.9396503;47.1306429;7.2406235;2.945000171661377;1673298846.066589;29.272409439086914;0.15828365087509155;99.71632385253906
64;1673298846.1202815;47.1306429;7.2406231;3.1490001678466797;1673298846.271585;28.794204711914062;0.5778892636299133;99.87161254882812
65;1673298846.3262548;47.130642599999995;7.2406226;3.3520002365112305;1673298846.4649706;28.518714904785156;1.7054238319396973;100.38601684570312
66;1673298846.5176907;47.1306423;7.2406220999999995;3.55400013923645;1673298846.6662354;27.896703720092773;-1.2731095552444458;99.75102233886719
67;1673298846.724795;47.130642099999996;7.2406216;3.755000114440918;1673298846.862342;27.531219482421875;-1.2463513612747192;99.76912689208984
68;1673298846.9180114;47.130641999999995;7.2406212;3.954000234603882;1673298847.0647566;27.29134750366211;1.6940279006958008;100.60977172851562
69;1673298847.1215734;47.130641999999995;7.240620799999999;4.151000022888184;1673298847.2679396;27.005022048950195;-0.7420562505722046;99.93042755126953
70;1673298847.330458;47.1306419;7.2406204999999995;4.3460001945495605;1673298847.4758675;27.091087341308594;-1.434071660041809;99.62689208984375
71;1673298847.527658;47.1306418;7.2406203;4.5420002937316895;1673298847.6664314;27.14802360534668;1.4538103342056274;100.53105926513672
72;1673298847.7165394;47.1306417;7.2406201999999995;4.738000392913818;1673298847.8640409;27.076419830322266;-0.32082831859588623;100.0086441040039
73;1673298847.9198356;47.1306418;7.2406201;4.934000015258789;1673298848.0644522;27.241928100585938;-1.1409742832183838;99.61659240722656
74;1673298848.1191804;47.1306419;7.2406201;5.130000114440918;1673298848.25447;27.271272659301758;2.102614641189575;100.51322174072266
75;1673298848.3087015;47.130641999999995;7.2406201;5.323000431060791;1673298848.4567263;27.328304290771484;1.1648592948913574;100.37042236328125
76;1673298848.5208578;47.130642099999996;7.2406201;5.51800012588501;1673298848.669906;27.473556518554688;-0.6528716087341309;99.68737030029297
77;1673298848.7370167;47.1306422;7.24062;5.712000370025635;1673298848.8793821;27.408910751342773;2.02835750579834;100.31562805175781
78;1673298848.9379768;47.130642099999996;7.2406201;5.908000469207764;1673298849.0767605;27.57680320739746;1.3343489170074463;100.24758911132812
79;1673298849.1275537;47.130642099999996;7.2406201;6.107000350952148;1673298849.2694383;27.652645111083984;-0.9184379577636719;99.61827850341797
80;1673298849.3289948;47.1306422;7.2406201999999995;6.307000160217285;1673298849.4594216;27.650697708129883;1.8140672445297241;100.39322662353516
81;1673298849.511948;47.1306422;7.2406201999999995;6.504000186920166;1673298849.6727428;27.595422744750977;2.1335854530334473;100.54322052001953
82;1673298849.7322943;47.1306422;7.2406201999999995;6.702000141143799;1673298849.8759673;27.526782989501953;-0.7775553464889526;99.62459564208984
83;1673298849.9366288;47.1306422;7.2406201999999995;6.902000427246094;1673298850.0833378;27.654067993164062;1.049267053604126;100.14576721191406
84;1673298850.1381392;47.130642099999996;7.2406203;7.1010003089904785;1673298850.2870147;27.658443450927734;1.9891915321350098;100.54403686523438
85;1673298850.3696558;47.130642099999996;7.2406204;7.301000118255615;1673298850.4914284;27.671607971191406;-0.8648853302001953;99.71366119384766
86;1673298850.591799;47.130642099999996;7.2406204;7.500000476837158;1673298850.7395928;27.66023063659668;0.4587709605693817;100.00395965576172
87;1673298850.7879956;47.130642099999996;7.2406204999999995;7.699000358581543;1673298850.9202998;27.718706130981445;2.269592046737671;100.59123992919922
88;1673298850.9746556;47.130642099999996;7.2406204999999995;7.897000312805176;1673298851.1127;27.706924438476562;-0.47854986786842346;99.76873016357422
89;1673298851.1665385;47.130642099999996;7.2406204999999995;8.096000671386719;1673298851.3057215;27.683664321899414;0.008384184911847115;99.82173156738281
90;1673298851.3642895;47.130641999999995;7.2406204999999995;8.295000076293945;1673298851.494237;27.751930236816406;2.3338849544525146;100.59809875488281
91;1673298851.5408223;47.130641999999995;7.2406204999999995;8.498000144958496;1673298851.6777873;27.7657470703125;-0.05380978435277939;99.96039581298828
92;1673298851.7376127;47.130642099999996;7.2406204999999995;8.700000762939453;1673298851.91668;27.768749237060547;-0.1866796314716339;99.82491302490234
93;1673298851.9648502;47.130642099999996;7.2406206;8.906000137329102;1673298852.112663;27.695528030395508;2.7028250694274902;100.56669616699219
94;1673298852.1671;47.1306422;7.2406204999999995;9.110000610351562;1673298852.3025448;27.612817764282227;0.8820030093193054;100.11876678466797
95;1673298852.354448;47.1306423;7.2406204999999995;9.308000564575195;1673298852.4918861;27.65828514099121;-0.3247807025909424;99.69212341308594
96;1673298852.5485375;47.1306422;7.2406204999999995;9.509000778198242;1673298852.7177918;27.709583282470703;2.4625298976898193;100.57131958007812
97;1673298852.8121321;47.1306422;7.2406204999999995;9.711000442504883;1673298852.9410062;27.743165969848633;1.0640774965286255;100.22264862060547
98;1673298852.9835987;47.1306422;7.2406204999999995;9.91100025177002;1673298853.0974987;27.624387741088867;-0.6575735211372375;99.68124389648438
99;1673298853.1453362;47.1306422;7.2406204999999995;10.11400032043457;1673298853.292067;27.622621536254883;2.057373046875;100.46863555908203
100;1673298853.3644552;47.1306422;7.2406204;10.37600040435791;1673298853.5248272;27.574420928955078;1.595563530921936;100.3770523071289
101;1673298853.5893316;47.1306422;7.240619799999999;10.75100040435791;1673298853.7519612;28.166587829589844;-0.49024897813796997;99.66374969482422
102;1673298853.8111093;47.1306422;7.240619199999999;11.152000427246094;1673298853.9296951;26.31772804260254;1.118903636932373;100.23308563232422
103;1673298853.9769335;47.1306422;7.2406185999999995;11.56100082397461;1673298854.0946984;25.797725677490234;1.8490445613861084;100.47118377685547
104;1673298854.1416826;47.1306422;7.2406182;11.970000267028809;1673298854.2710774;25.298114776611328;-0.8945934176445007;99.66382598876953
105;1673298854.3302376;47.1306422;7.240617899999999;12.379000663757324;1673298854.4856002;25.01582908630371;0.1625259518623352;99.91854858398438
106;1673298854.5455132;47.1306422;7.2406177;12.789000511169434;1673298854.7081282;25.289979934692383;2.0662496089935303;100.50520324707031
107;1673298854.7649367;47.1306423;7.2406177;13.196001052856445;1673298854.9039774;25.55196762084961;-0.5062675476074219;99.79672241210938
108;1673298854.9570713;47.1306423;7.240617899999999;13.60200023651123;1673298855.1031547;25.996421813964844;0.415940523147583;99.94142150878906
109;1673298855.1490436;47.1306424;7.2406181;14.012001037597656;1673298855.2790344;26.332714080810547;2.5361127853393555;100.49864196777344
110;1673298855.3298526;47.1306425;7.2406184;14.422000885009766;1673298855.4764066;26.61803436279297;0.25621315836906433;99.86698913574219
111;1673298855.5333645;47.130642599999995;7.2406187;14.831000328063965;1673298855.6727712;26.999248504638672;0.7408807277679443;99.88451385498047
112;1673298855.7372916;47.130642699999996;7.240619;15.23900032043457;1673298855.8833349;27.131601333618164;3.1707022190093994;100.6187515258789
113;1673298855.9379492;47.130642699999996;7.240619199999999;15.646000862121582;1673298856.0862427;27.056129455566406;0.6923234462738037;100.06416320800781
114;1673298856.1369956;47.130642699999996;7.2406193;16.04800033569336;1673298856.2767298;27.118480682373047;0.2220449000597;99.85152435302734
115;1673298856.329509;47.130642699999996;7.2406193;16.452001571655273;1673298856.4658453;26.900671005249023;2.6530303955078125;100.51123809814453
116;1673298856.517266;47.130642699999996;7.2406194;16.861000061035156;1673298856.6759648;26.983020782470703;0.860129177570343;100.06859588623047
117;1673298856.7307057;47.1306428;7.2406194;17.26500129699707;1673298856.8706183;26.81949806213379;0.12112459540367126;99.73697662353516
118;1673298856.9297311;47.1306428;7.2406194;17.667001724243164;1673298857.0811503;26.925098419189453;2.6721062660217285;100.48220825195312
119;1673298857.1377566;47.130642699999996;7.2406194;18.07000160217285;1673298857.2927911;26.747604370117188;0.9206574559211731;100.1325454711914
120;1673298857.3494494;47.130642699999996;7.2406193;18.46900177001953;1673298857.4942305;26.669692993164062;-0.6315457224845886;99.608642578125
121;1673298857.5537663;47.130642599999995;7.240619199999999;18.86600112915039;1673298857.6965466;26.56328582763672;1.9565489292144775;100.37962341308594
122;1673298857.7581406;47.130642599999995;7.240619199999999;19.270000457763672;1673298857.9241898;26.550661087036133;1.2077692747116089;100.29610443115234
123;1673298857.9760745;47.130642599999995;7.240619199999999;19.674001693725586;1673298858.094896;26.569257736206055;-0.4934711158275604;99.61039733886719
124;1673298858.1534557;47.130642699999996;7.240619199999999;20.078001022338867;1673298858.2953472;26.498083114624023;2.0256619453430176;100.27542877197266
125;1673298858.348084;47.130642699999996;7.240619199999999;20.481000900268555;1673298858.491893;26.662412643432617;2.006042242050171;100.4286880493164
126;1673298858.544582;47.130642699999996;7.240619199999999;20.885000228881836;1673298858.6769037;26.69019317626953;-0.39901620149612427;99.71694946289062
127;1673298858.7345986;47.130642699999996;7.240619199999999;21.284000396728516;1673298858.8764155;26.777076721191406;1.3337246179580688;100.13280487060547
128;1673298858.9356265;47.1306428;7.2406193;21.68800163269043;1673298859.0814905;26.666458129882812;2.3944475650787354;100.48943328857422
129;1673298859.1381657;47.1306428;7.2406193;22.095001220703125;1673298859.2867324;26.759769439697266;-0.13131876289844513;99.72492980957031
130;1673298859.3522472;47.1306428;7.2406194;22.50400161743164;1673298859.489124;26.830297470092773;1.1304267644882202;99.95055389404297
131;1673298859.543766;47.1306428;7.2406194;22.91200065612793;1673298859.6942372;26.770401000976562;2.6486189365386963;100.4936294555664
132;1673298859.7382774;47.1306428;7.2406194;23.316001892089844;1673298859.8812938;26.80978775024414;-0.15377740561962128;99.86734008789062
133;1673298859.9447634;47.130642699999996;7.2406194;23.71200180053711;1673298860.091217;26.795021057128906;1.0568952560424805;100.09583282470703
134;1673298860.15091;47.130642699999996;7.2406194;24.110000610351562;1673298860.2966034;26.739160537719727;2.7011730670928955;100.53706359863281
135;1673298860.3668628;47.130642699999996;7.240619499999999;24.509000778198242;1673298860.5114448;26.80082893371582;0.1404924839735031;99.86019897460938
136;1673298860.566383;47.1306428;7.240619499999999;24.913002014160156;1673298860.7086306;26.667829513549805;0.7412315607070923;99.9727783203125
137;1673298860.7663136;47.130642699999996;7.240619499999999;25.319002151489258;1673298860.8960888;26.867408752441406;2.8811821937561035;100.57483673095703
138;1673298860.953122;47.130642699999996;7.240619499999999;25.722002029418945;1673298861.09526;26.834400177001953;0.7820766568183899;100.06356811523438
139;1673298861.1529222;47.130642699999996;7.240619499999999;26.125001907348633;1673298861.2937953;26.826065063476562;0.0015202552312985063;99.74405670166016
140;1673298861.3474746;47.130642699999996;7.2406196;26.5210018157959;1673298861.497225;26.819637298583984;2.684385299682617;100.3672103881836
141;1673298861.552857;47.130642699999996;7.2406196;26.920001983642578;1673298861.6992612;26.760986328125;1.1730144023895264;100.0106201171875
142;1673298861.7550077;47.130642699999996;7.2406196;27.32000160217285;1673298861.8959856;26.91497802734375;-0.08686444908380508;99.63876342773438
143;1673298861.970283;47.130642699999996;7.2406196;27.72300148010254;1673298862.1082358;26.796945571899414;2.668459177017212;100.45907592773438
144;1673298862.1738358;47.130642699999996;7.2406196;28.126001358032227;1673298862.331628;26.802162170410156;1.6987696886062622;100.2403335571289
145;1673298862.3858747;47.130642699999996;7.2406197;28.52800178527832;1673298862.5152774;26.78340721130371;-0.3611486256122589;99.69376373291016
146;1673298862.5730217;47.130642699999996;7.2406197;28.924001693725586;1673298862.7058957;26.812055587768555;2.0150182247161865;100.2784652709961
147;1673298862.7548254;47.130642699999996;7.2406197;29.32000160217285;1673298862.8885562;26.814638137817383;2.4222936630249023;100.46293640136719
148;1673298862.945165;47.130642699999996;7.2406197;29.720001220703125;1673298863.0890281;26.84499168395996;-0.1293620616197586;99.74351501464844
149;1673298863.1495047;47.1306428;7.2406197;30.119001388549805;1673298863.2971778;26.804426193237305;1.785416603088379;100.19137573242188
150;1673298863.355879;47.130642699999996;7.2406197;30.520002365112305;1673298863.4888985;26.85027503967285;2.4628312587738037;100.44161224365234
151;1673298863.5445302;47.130642699999996;7.2406197;30.923002243041992;1673298863.702058;26.84662628173828;0.0414409413933754;99.86309814453125
152;1673298863.7627947;47.130642699999996;7.2406197;31.33100128173828;1673298863.9064322;26.789527893066406;0.9322426319122314;99.97334289550781
153;1673298863.9642015;47.130642699999996;7.2406197;31.73200225830078;1673298864.122528;26.731037139892578;2.781856060028076;100.57821655273438
154;1673298864.1772287;47.130642699999996;7.2406197;32.13300323486328;1673298864.3453844;26.769960403442383;0.45886242389678955;99.9387435913086
155;1673298864.4005842;47.130642699999996;7.240619799999999;32.538002014160156;1673298864.5498123;26.834449768066406;0.6075049638748169;99.8829574584961
156;1673298864.5967836;47.1306428;7.240619799999999;32.94499969482422;1673298864.742956;26.755029678344727;2.9638559818267822;100.5825424194336
157;1673298864.7981696;47.1306428;7.240619799999999;33.35000228881836;1673298864.9334671;26.74150848388672;1.362950325012207;100.10443878173828
158;1673298864.9852538;47.1306428;7.240619799999999;33.75300216674805;1673298865.126976;26.832965850830078;0.011473890393972397;99.6527328491211
159;1673298865.1805022;47.1306428;7.240619799999999;34.14800262451172;1673298865.3221438;26.697771072387695;2.255762815475464;100.33784484863281
160;1673298865.3738785;47.1306428;7.240619799999999;34.54600143432617;1673298865.510529;26.80674171447754;2.052408456802368;100.35362243652344
161;1673298865.5634007;47.1306428;7.240619799999999;34.95100021362305;1673298865.709094;26.703615188598633;-0.060778163373470306;99.58314514160156
162;1673298865.7609828;47.1306428;7.240619799999999;35.35600280761719;1673298865.9022062;26.81005096435547;2.2859044075012207;100.22554779052734
163;1673298865.9511826;47.130642699999996;7.240619799999999;35.76000213623047;1673298866.09673;26.82132339477539;2.121502161026001;100.36744689941406
164;1673298866.1495113;47.130642699999996;7.240619799999999;36.16400146484375;1673298866.2947226;26.784509658813477;-0.13546940684318542;99.67256164550781
165;1673298866.366241;47.130642699999996;7.240619799999999;36.56800079345703;1673298866.5087903;26.877153396606445;1.8281461000442505;100.08085632324219
166;1673298866.5665243;47.1306428;7.240619799999999;36.9640007019043;1673298866.7073832;26.831411361694336;2.8121185302734375;100.48152923583984
167;1673298866.7669168;47.1306428;7.240619799999999;37.36000061035156;1673298866.9108534;26.843582153320312;0.15486055612564087;99.68638610839844
168;1673298866.9658465;47.1306428;7.240619799999999;37.763999938964844;1673298867.098198;26.73373031616211;1.4745548963546753;100.0787353515625
169;1673298867.155978;47.130642699999996;7.240619799999999;38.16800308227539;1673298867.2948165;26.808977127075195;2.9652910232543945;100.53911590576172
170;1673298867.3485103;47.130642699999996;7.2406198999999996;38.57200241088867;1673298867.5002985;26.896854400634766;0.23385483026504517;99.80650329589844
171;1673298867.5567257;47.130642699999996;7.2406198999999996;38.97500228881836;1673298867.7015498;26.893508911132812;0.9485589861869812;99.91563415527344
172;1673298867.7810285;47.130642699999996;7.2406198999999996;39.36800003051758;1673298867.9115424;26.82901954650879;3.1181395053863525;100.56879425048828
173;1673298867.9731169;47.130642699999996;7.2406198999999996;39.76300048828125;1673298868.1303997;26.821060180664062;0.642530620098114;99.9706802368164
174;1673298868.1883097;47.130642699999996;7.2406198999999996;40.16200256347656;1673298868.323544;26.88747787475586;0.6489677429199219;99.86053466796875
175;1673298868.384058;47.130642699999996;7.2406198999999996;40.5620002746582;1673298868.538522;26.815616607666016;2.929713487625122;100.54762268066406
176;1673298868.5922108;47.130642599999995;7.2406198999999996;40.9630012512207;1673298868.7241054;26.940786361694336;0.8827474117279053;100.1114730834961
177;1673298868.7807188;47.130642599999995;7.2406198999999996;41.3640022277832;1673298868.9106286;26.76923942565918;0.16064772009849548;99.8364028930664
178;1673298868.9732869;47.130642599999995;7.240619799999999;41.762001037597656;1673298869.1142077;26.727514266967773;2.9485385417938232;100.55192565917969
179;1673298869.1679397;47.130642599999995;7.240619799999999;42.15300369262695;1673298869.303669;26.793149948120117;1.2011713981628418;100.15290832519531
180;1673298869.3593564;47.130642599999995;7.240619799999999;42.54500198364258;1673298869.5051174;26.825315475463867;0.0056207929737865925;99.6962890625
181;1673298869.566605;47.1306425;7.240619799999999;42.945003509521484;1673298869.7015464;26.643028259277344;2.687741279602051;100.45620727539062
182;1673298869.776878;47.1306425;7.2406197;43.35000228881836;1673298869.9079661;26.70024299621582;1.5937165021896362;100.226318359375
183;1673298869.9578476;47.1306425;7.2406197;43.75700378417969;1673298870.0993886;26.722455978393555;-0.19460006058216095;99.65369415283203
184;1673298870.1524255;47.130642599999995;7.2406197;44.163002014160156;1673298870.2882733;26.702171325683594;2.4904181957244873;100.3343505859375
185;1673298870.3425527;47.130642599999995;7.2406197;44.55800247192383;1673298870.483117;26.684730529785156;2.0081398487091064;100.2927474975586
186;1673298870.5363653;47.130642699999996;7.2406197;44.95500183105469;1673298870.689993;26.683345794677734;0.07092087715864182;99.62543487548828
187;1673298870.7453244;47.130642699999996;7.2406197;45.35600280761719;1673298870.8964705;26.64961051940918;2.3734445571899414;100.3198013305664
188;1673298870.9528365;47.130642699999996;7.2406197;45.75700378417969;1673298871.0884247;26.61271095275879;2.569032669067383;100.40603637695312
189;1673298871.1426485;47.130642699999996;7.2406197;46.159000396728516;1673298871.283743;26.749736785888672;-0.022991187870502472;99.75935363769531
190;1673298871.3449235;47.130642699999996;7.2406197;46.564002990722656;1673298871.503377;26.67449188232422;1.9212497472763062;100.19361877441406
191;1673298871.5610557;47.130642699999996;7.2406197;46.97100067138672;1673298871.6983578;26.747249603271484;2.8933374881744385;100.5372314453125
192;1673298871.7555032;47.130642699999996;7.2406197;47.368003845214844;1673298871.894654;26.677474975585938;0.16381849348545074;99.7943344116211
193;1673298871.9488852;47.130642699999996;7.2406197;47.768001556396484;1673298872.085747;26.832345962524414;1.2580715417861938;99.92779541015625
194;1673298872.1375186;47.130642599999995;7.240619799999999;48.1670036315918;1673298872.2717834;26.909353256225586;2.6980679035186768;100.70404052734375
195;1673298872.330969;47.130642599999995;7.2406198999999996;48.522003173828125;1673298872.4861257;26.9327449798584;0.5115237236022949;99.87687683105469
196;1673298872.554933;47.130642699999996;7.2406201999999995;48.823001861572266;1673298872.6979747;27.166114807128906;1.3298929929733276;99.94585418701172
197;1673298872.7594848;47.1306428;7.2406206;49.077003479003906;1673298872.9001584;27.545654296875;3.626955270767212;100.65257263183594
198;1673298872.9653811;47.1306428;7.240621099999999;49.27900314331055;1673298873.1009018;31.124412536621094;5.370638370513916;100.25980377197266
199;1673298873.1574762;47.130642699999996;7.2406215;49.45500183105469;1673298873.299402;36.1177864074707;9.565328598022461;96.44816589355469
200;1673298873.3571594;47.1306424;7.2406216;49.566001892089844;1673298873.5063083;35.00146484375;4.873281478881836;82.63227844238281
201;1673298873.5625856;47.1306416;7.240621399999999;49.60600280761719;1673298873.7007754;27.642864227294922;-12.739006042480469;72.84773254394531
202;1673298873.75848;47.1306404;7.240620799999999;49.6660041809082;1673298873.909765;30.746078491210938;-11.77466869354248;64.39134979248047
203;1673298873.965585;47.130639099999996;7.2406201;49.71600341796875;1673298874.097382;26.348535537719727;-17.373882293701172;54.79328536987305
204;1673298874.156704;47.1306377;7.240619199999999;49.75700378417969;1673298874.29261;20.57872772216797;-23.090917587280273;45.68049240112305
205;1673298874.3494062;47.1306365;7.2406182;49.78600311279297;1673298874.4996626;14.645613670349121;-27.12734603881836;36.2703742980957
206;1673298874.5571144;47.130635299999994;7.2406172;49.81300354003906;1673298874.7155108;8.248542785644531;-29.918081283569336;26.5601863861084
207;1673298874.7816906;47.1306343;7.2406162;49.84100341796875;1673298874.9168017;2.3911726474761963;-30.164562225341797;16.839141845703125
208;1673298874.9743707;47.130633599999996;7.2406153;49.86900329589844;1673298875.1155229;-3.1104209423065186;-29.173086166381836;7.511178016662598
209;1673298875.1671019;47.1306332;7.240614399999999;49.893001556396484;1673298875.3316116;-7.955022811889648;-27.048463821411133;-1.6019227504730225
210;1673298875.384636;47.130632999999996;7.2406136;49.915000915527344;1673298875.5366378;-11.81989860534668;-24.891075134277344;-10.511591911315918
211;1673298875.600684;47.130632999999996;7.2406128999999995;49.928001403808594;1673298875.719657;-14.367396354675293;-23.039777755737305;-19.19624137878418
212;1673298875.7690115;47.1306332;7.240612199999999;49.94300079345703;1673298875.9003441;-16.12858009338379;-21.98866081237793;-27.738924026489258
213;1673298875.957498;47.1306334;7.240611599999999;49.9630012512207;1673298876.0927765;-18.375890731811523;-20.883216857910156;-36.348350524902344
214;1673298876.1549976;47.130633599999996;7.2406112;49.98400115966797;1673298876.286748;-20.75311279296875;-19.750816345214844;-44.77462387084961
215;1673298876.3418365;47.1306337;7.2406109;50.005001068115234;1673298876.489692;-22.52155113220215;-16.736370086669922;-51.75689697265625
216;1673298876.5469813;47.1306338;7.2406108;50.025001525878906;1673298876.6881647;-23.21550178527832;-15.627737998962402;-50.02928924560547
217;1673298876.7441988;47.1306339;7.2406108;50.0420036315918;1673298876.8828087;-22.95085334777832;-15.674479484558105;-46.403446197509766
218;1673298876.936746;47.1306339;7.2406109;50.04500198364258;1673298877.0856;-22.698396682739258;-15.42039966583252;-45.77475357055664
219;1673298877.1392446;47.1306339;7.2406109;50.044002532958984;1673298877.2850218;-22.76462173461914;-16.662508010864258;-45.23857879638672
220;1673298877.341862;47.1306338;7.2406109;50.04500198364258;1673298877.4915845;-22.40212631225586;-19.003202438354492;-44.61598205566406
221;1673298877.5542464;47.130633599999996;7.2406109;50.05000305175781;1673298877.6866555;-22.383394241333008;-20.33141326904297;-44.25794219970703
222;1673298877.7373862;47.130633499999995;7.2406109;50.05900192260742;1673298877.8760772;-22.52830696105957;-20.33002471923828;-44.22993469238281
223;1673298877.9385686;47.1306334;7.2406108;50.06800079345703;1673298878.0952628;-22.95973777770996;-18.457134246826172;-44.51862716674805
224;1673298878.1614876;47.1306333;7.2406106999999995;50.06200408935547;1673298878.3174584;-32.792022705078125;-15.167320251464844;-45.69683837890625
225;1673298878.3745084;47.1306332;7.2406104;50.06300354003906;1673298878.5217519;-48.708099365234375;-10.261011123657227;-46.35442352294922
226;1673298878.5776083;47.1306337;7.240609;50.07600402832031;1673298878.7224765;-58.43203353881836;-7.583085536956787;-47.34022521972656
227;1673298878.7812364;47.1306357;7.240605599999999;50.08400344848633;1673298878.9162745;-60.24559783935547;-4.772619247436523;-49.851707458496094
228;1673298878.9686103;47.130639599999995;7.2405995;50.073001861572266;1673298879.1086042;-54.3139762878418;-3.896372079849243;-51.073394775390625
229;1673298879.1655028;47.130645;7.2405912;50.044002532958984;1673298879.308526;-50.86244201660156;-5.194828510284424;-50.33729553222656
230;1673298879.3642907;47.1306515;7.240581199999999;50.01100158691406;1673298879.5086427;-53.08306121826172;-4.150246620178223;-49.715633392333984
231;1673298879.571504;47.130659099999995;7.240570399999999;49.97500228881836;1673298879.7043574;-51.38703155517578;-4.973764419555664;-48.731510162353516
232;1673298879.7565835;47.1306675;7.2405585;49.93400192260742;1673298879.904348;-49.828243255615234;-5.60949182510376;-48.77901077270508
233;1673298879.9623206;47.1306766;7.2405456;49.897003173828125;1673298880.104479;-48.3975715637207;-5.893543720245361;-48.6154899597168
234;1673298880.1537879;47.1306862;7.2405322;49.867000579833984;1673298880.2972662;-47.31156539916992;-6.718470096588135;-49.327640533447266
235;1673298880.3523529;47.130696199999996;7.240518499999999;49.85400390625;1673298880.4952686;-49.3526611328125;-5.986532211303711;-50.62643814086914
236;1673298880.5533357;47.130706499999995;7.2405044;49.85300064086914;1673298880.7033303;-49.47024917602539;-6.702380657196045;-50.101680755615234
237;1673298880.7625349;47.1307173;7.240490299999999;49.849002838134766;1673298880.935546;-48.91093063354492;-7.77708625793457;-49.898155212402344
238;1673298880.9897277;47.1307283;7.2404758;49.84700393676758;1673298881.1322012;-48.65578079223633;-9.171565055847168;-49.78507995605469
239;1673298881.1973581;47.130739399999996;7.2404608999999995;49.85300064086914;1673298881.3614655;-47.92787551879883;-10.608105659484863;-49.842777252197266
240;1673298881.4202938;47.1307504;7.240445599999999;49.868003845214844;1673298881.5594661;-47.761077880859375;-12.91403865814209;-49.71500778198242
241;1673298881.6084118;47.130761299999996;7.24043;49.884002685546875;1673298881.7275784;-47.15116882324219;-16.589265823364258;-49.754066467285156
242;1673298881.7794797;47.1307719;7.2404139999999995;49.897003173828125;1673298881.9253585;-44.5446662902832;-26.425813674926758;-48.93910598754883
243;1673298881.9843736;47.1307818;7.2403974;49.90500259399414;1673298882.1352034;-34.6733283996582;-35.88994598388672;-52.757530212402344
244;1673298882.1943767;47.1307901;7.2403803;49.89800262451172;1673298882.339331;-3.0183355808258057;-36.63501739501953;-59.83527374267578
245;1673298882.397585;47.1307962;7.240364;49.85900115966797;1673298882.5787659;11.62552547454834;-14.767735481262207;-55.405357360839844
246;1673298882.6285641;47.130800199999996;7.240350899999999;49.762001037597656;1673298882.7661242;13.66751766204834;-12.473443984985352;-46.775611877441406
247;1673298882.8252227;47.1308024;7.2403425;49.70900344848633;1673298882.9566505;28.161876678466797;-21.1135196685791;-46.37024688720703
248;1673298883.0122917;47.1308028;7.240338599999999;49.715003967285156;1673298883.154369;28.568683624267578;-23.53453826904297;-43.5028076171875
249;1673298883.2082338;47.1308009;7.240338599999999;49.73200225830078;1673298883.3473923;23.186378479003906;-31.8920955657959;-42.633419036865234
250;1673298883.3943486;47.1307966;7.2403412;49.77300262451172;1673298883.51351;6.902947902679443;-32.77314758300781;-44.05103302001953
251;1673298883.559448;47.1307906;7.2403452999999995;49.83500289916992;1673298883.703876;-2.0214552879333496;-32.331321716308594;-47.1805534362793
252;1673298883.7600505;47.130783799999996;7.240349999999999;49.88800048828125;1673298883.9200284;-0.4802173972129822;-32.387020111083984;-48.09517288208008
253;1673298883.9849918;47.130776399999995;7.2403547999999995;49.927001953125;1673298884.126019;5.832570552825928;-34.60321807861328;-48.24673080444336
254;1673298884.1892884;47.1307682;7.240359799999999;49.954002380371094;1673298884.3484256;7.750083923339844;-37.497337341308594;-47.686744689941406
255;1673298884.4041257;47.1307592;7.240364899999999;49.97100067138672;1673298884.540312;4.676819801330566;-37.893585205078125;-47.689476013183594
256;1673298884.6049275;47.1307493;7.2403699999999995;49.980003356933594;1673298884.7516034;4.692173004150391;-28.22529411315918;-48.3614387512207
257;1673298884.802529;47.1307389;7.2403751;49.97900390625;1673298884.9253974;6.478835582733154;-3.503464460372925;-48.360477447509766
258;1673298884.9771247;47.1307286;7.2403811;49.97100067138672;1673298885.1039488;-8.460700035095215;21.788671493530273;-50.83545684814453
259;1673298885.1557298;47.130719299999996;7.240388899999999;49.945003509521484;1673298885.3096077;-14.191585540771484;29.681974411010742;-44.827423095703125
260;1673298885.370882;47.1307109;7.240397799999999;49.685001373291016;1673298885.5127873;-20.11474609375;44.39546585083008;-39.578514099121094
261;1673298885.5637732;47.1307026;7.2404069;49.0420036315918;1673298885.6944146;-26.029775619506836;61.78866958618164;-35.18497848510742
262;1673298885.748668;47.130694299999995;7.2404161;48.01900100708008;1673298885.8970172;-31.563980102539062;73.51680755615234;-29.92205238342285
263;1673298885.9569373;47.1306861;7.2404252;46.61100387573242;1673298886.119741;-36.226261138916016;71.66365051269531;-20.390230178833008
264;1673298886.1773443;47.130677999999996;7.2404342999999995;44.84100341796875;1673298886.3128972;-35.61639404296875;51.931060791015625;-3.5150134563446045
265;1673298886.3691063;47.1306699;7.240443399999999;42.70800018310547;1673298886.5094473;-25.89691925048828;21.896236419677734;11.223773002624512
266;1673298886.5663342;47.1306619;7.2404522;40.19600296020508;1673298886.7134933;-10.529871940612793;-6.541089057922363;19.77051544189453
267;1673298886.7707171;47.1306538;7.2404611;37.290000915527344;1673298886.905995;1.3311049938201904;-23.925020217895508;22.555316925048828
268;1673298886.970318;47.130645799999996;7.2404702;33.99100112915039;1673298887.109978;2.912193536758423;-23.435821533203125;27.912826538085938
269;1673298887.1700592;47.130637899999996;7.240479799999999;30.31100082397461;1673298887.3044488;-7.815789222717285;-6.7776007652282715;36.05133819580078
270;1673298887.3635437;47.1306301;7.2404896999999995;26.238000869750977;1673298887.5037785;-25.24697494506836;14.211379051208496;40.16510009765625
271;1673298887.560989;47.1306224;7.2404997;21.773000717163086;1673298887.7121124;-36.018558502197266;24.205242156982422;42.40451431274414
272;1673298887.7692654;47.1306146;7.2405095;16.933000564575195;1673298887.9119196;-31.620119094848633;12.244384765625;50.6307487487793
273;1673298887.9687543;47.1306069;7.240518799999999;11.731000900268555;1673298888.1145985;-12.124349594116211;-8.879592895507812;56.707157135009766
274;1673298888.1718853;47.1305993;7.2405278;6.145000457763672;1673298888.3111846;6.87589168548584;-21.48551368713379;56.92276382446289
275;1673298888.3712797;47.1305915;7.2405371;0.16300000250339508;1673298888.5241652;4.396251201629639;9.894652366638184;26.63604736328125
276;1673298888.5852768;47.130589;7.2405368;0.690000057220459;1673298888.733748;5.907238483428955;15.80629825592041;-6.701330661773682
277;1673298888.7903886;47.1305876;7.2405357;0.8720000386238098;1673298888.9440544;3.333191394805908;-2.2827141284942627;-22.702823638916016
278;1673298888.9978828;47.1305875;7.2405354;0.9950000643730164;1673298889.1445603;3.803412437438965;2.4581429958343506;-21.716249465942383
279;1673298889.195848;47.1305875;7.240536;1.0880000591278076;1673298889.3439505;3.7909653186798096;1.8332322835922241;-21.203399658203125
280;1673298889.3958378;47.1305877;7.2405368;1.1490000486373901;1673298889.5232828;3.499404191970825;1.858267903327942;-20.920101165771484
281;1673298889.570689;47.1305877;7.2405374;1.1950000524520874;1673298889.703973;3.387132406234741;1.7239538431167603;-20.793277740478516
282;1673298889.7633307;47.1305876;7.240538;1.227000117301941;1673298889.9164596;3.354166030883789;1.85663640499115;-20.8052921295166
283;1673298889.9778318;47.1305872;7.240538399999999;1.2910000085830688;1673298890.1162565;3.292097330093384;1.6557221412658691;-20.54234504699707
284;1673298890.1727452;47.1305869;7.2405387999999995;1.343000054359436;1673298890.3110955;3.2203099727630615;1.4166462421417236;-20.398639678955078
285;1673298890.3663895;47.130586699999995;7.2405390999999995;1.3700001239776611;1673298890.5153522;3.0586626529693604;1.607210636138916;-20.396926879882812
286;1673298890.5677824;47.1305866;7.240539399999999;1.3850001096725464;1673298890.715934;2.9054219722747803;1.5517529249191284;-20.168312072753906
287;1673298890.7804763;47.1305864;7.2405396;1.3910000324249268;1673298890.9177883;2.8815383911132812;1.3982079029083252;-20.012170791625977
288;1673298890.9710772;47.1305863;7.2405398;1.3940000534057617;1673298891.1123476;2.8893260955810547;1.0101591348648071;-19.890064239501953
289;1673298891.1667047;47.1305858;7.2405401;1.4260001182556152;1673298891.3039105;2.5706238746643066;1.3786457777023315;-19.866342544555664
290;1673298891.3720357;47.1305854;7.240540299999999;1.4470000267028809;1673298891.5323956;2.6290342807769775;1.4516916275024414;-19.782760620117188
291;1673298891.5829804;47.1305852;7.2405403999999995;1.4520000219345093;1673298891.7240522;2.3812286853790283;1.0833032131195068;-19.683374404907227
292;1673298891.7807045;47.1305851;7.2405405;1.4510000944137573;1673298891.9246862;2.417245864868164;0.875197172164917;-19.630048751831055
293;1673298891.9799786;47.1305851;7.2405406;1.4450000524520874;1673298892.1500003;2.1124367713928223;0.8573199510574341;-19.61153221130371
294;1673298892.2019112;47.130584999999996;7.2405406;1.433000087738037;1673298892.3733194;1.9454840421676636;0.7992376089096069;-19.597389221191406
295;1673298892.4260328;47.130584999999996;7.2405406999999995;1.4160000085830688;1673298892.5678236;1.8506413698196411;0.9011477828025818;-19.386402130126953
296;1673298892.621509;47.1305846;7.2405409999999994;1.4200000762939453;1673298892.7630582;1.8948403596878052;0.9397581219673157;-19.438678741455078
297;1673298892.8241785;47.130584299999995;7.2405412;1.4170000553131104;1673298892.9803863;1.7267414331436157;0.847848117351532;-19.28242301940918
298;1673298893.0360944;47.1305842;7.240541299999999;1.402000069618225;1673298893.1762838;1.7003716230392456;1.1932244300842285;-19.346168518066406
299;1673298893.2263374;47.130584299999995;7.2405414;1.38100004196167;1673298893.341136;1.3628253936767578;1.4996111392974854;-19.17084503173828
300;1673298893.3938408;47.1305844;7.2405414;1.3540000915527344;1673298893.5271895;1.3266732692718506;1.2949132919311523;-19.139728546142578
301;1673298893.5903296;47.1305846;7.2405414;1.3250000476837158;1673298893.749333;1.1663860082626343;1.3755124807357788;-19.070674896240234
302;1673298893.8071752;47.1305844;7.2405417;1.3100000619888306;1673298893.9351788;1.0518627166748047;1.4646148681640625;-18.901870727539062
303;1673298893.9963655;47.130584299999995;7.240541899999999;1.2890000343322754;1673298894.1402407;1.01919424533844;1.6176385879516602;-18.950510025024414
304;1673298894.1990192;47.1305844;7.240541899999999;1.2610000371932983;1673298894.3261757;0.882697343826294;1.9438817501068115;-18.831756591796875
305;1673298894.3904572;47.1305845;7.240541899999999;1.2290000915527344;1673298894.5479314;1.0046789646148682;1.6100445985794067;-18.84091567993164
306;1673298894.6135309;47.1305847;7.2405418;1.196000099182129;1673298894.7580602;0.7470885515213013;1.7150832414627075;-18.828548431396484
307;1673298894.8137574;47.130584899999995;7.2405418;1.1600000858306885;1673298894.9424734;0.5400611758232117;1.9068505764007568;-18.774396896362305
308;1673298894.996403;47.130584999999996;7.2405417;1.121000051498413;1673298895.1291072;0.49639102816581726;2.027994155883789;-18.776599884033203
309;1673298895.1850243;47.130584899999995;7.2405418;1.0880000591278076;1673298895.3203015;0.5281704664230347;1.0376362800598145;-18.59950828552246
310;1673298895.378881;47.130584899999995;7.240541899999999;1.0760000944137573;1673298895.524035;0.45052164793014526;0.7700175046920776;-18.5892276763916
311;1673298895.581968;47.130584999999996;7.240541899999999;-0.009000000543892384;1673298895.7201958;0.440557062625885;0.8634436726570129;-18.626972198486328
312;1673298895.780106;47.1305851;7.2405418;-0.036000002175569534;1673298895.9280193;0.33965107798576355;0.7811346054077148;-18.50019073486328
313;1673298895.9872227;47.1305853;7.2405417;-0.07100000232458115;1673298896.1230912;0.3855189383029938;0.6235321164131165;-18.476451873779297
314;1673298896.1850863;47.1305854;7.240541599999999;-0.10900000482797623;;;;
