;pos_time;latitude;longitude;altitude;alt_time;pitch;roll;yaw
0;1673296076.2398362;47.1306425;7.240619799999999;-0.017000000923871994;1673296076.3458846;-0.05061323940753937;0.16427816450595856;90.37734985351562
1;1673296076.4381847;47.1306425;7.240619799999999;-0.017000000923871994;1673296076.5383515;0.1403065174818039;0.1858811229467392;90.30366516113281
2;1673296076.6252353;47.1306425;7.240619799999999;-0.015000000596046448;1673296076.726536;0.0034663791302591562;0.01892964169383049;90.54146575927734
3;1673296076.8256564;47.1306424;7.240619799999999;-0.014000000432133675;1673296076.9366364;-0.07450885325670242;0.31614676117897034;90.32433319091797
4;1673296077.0458996;47.1306424;7.240619799999999;-0.014000000432133675;1673296077.1511176;-0.10191411525011063;0.07697036117315292;90.35614013671875
5;1673296077.294515;47.1306424;7.240619799999999;-0.014000000432133675;1673296077.3933227;-0.1136414185166359;0.056513555347919464;90.59820556640625
6;1673296077.4866126;47.1306424;7.2406197;-0.01600000075995922;1673296077.57795;-0.10357104241847992;0.12586921453475952;90.51608276367188
7;1673296077.66656;47.1306424;7.2406196;-0.018000001087784767;1673296077.7547078;-0.17020578682422638;0.1338973343372345;90.35848236083984
8;1673296077.8428361;47.1306424;7.240619499999999;-0.01900000125169754;1673296077.9459605;0.048118531703948975;-0.033848680555820465;90.43001556396484
9;1673296078.0491347;47.1306424;7.240619499999999;-0.01600000075995922;1673296078.1513958;0.049242567270994186;-0.013862064108252525;90.55026245117188
10;1673296078.2468767;47.1306424;7.240619499999999;-0.014000000432133675;1673296078.3459938;0.0958087220788002;-0.01957712136209011;90.51885986328125
11;1673296078.465975;47.1306424;7.2406196;-0.013000000268220901;1673296078.567545;-0.03625642508268356;0.16464924812316895;90.3826675415039
12;1673296078.6638198;47.1306424;7.2406196;-0.01600000075995922;1673296078.7611835;-0.20226044952869415;-0.030590880662202835;90.50346374511719
13;1673296078.8612738;47.1306424;7.2406196;-0.01900000125169754;1673296078.9668286;-0.2689859867095947;0.013122204691171646;90.55045318603516
14;1673296079.0616477;47.1306424;7.2406196;0.0;1673296079.1763496;-0.1924581378698349;-0.7398125529289246;90.39106750488281
15;1673296079.2654061;47.1306425;7.240619499999999;-0.003000000026077032;1673296079.3950067;-0.14264218509197235;-0.6697860956192017;90.43973541259766
16;1673296079.4855037;47.1306425;7.240619499999999;-0.005000000353902578;1673296079.5817003;0.2743969261646271;-0.562300443649292;90.29127502441406
17;1673296079.6867914;47.1306425;7.2406196;-0.006000000052154064;1673296079.80805;0.24051976203918457;-0.7630590200424194;90.55874633789062
18;1673296079.8935099;47.1306425;7.2406196;-0.006000000052154064;1673296079.9885979;-0.03129896521568298;-0.6429044604301453;90.43534088134766
19;1673296080.0935411;47.1306425;7.2406197;-0.006000000052154064;1673296080.1934776;0.13540513813495636;-0.7651203274726868;90.32911682128906
20;1673296080.2854843;47.1306425;7.2406197;-0.00800000037997961;1673296080.3814425;0.12266473472118378;-1.3419758081436157;90.3680648803711
21;1673296080.4686863;47.1306424;7.240619799999999;-0.010000000707805157;1673296080.565668;0.29400143027305603;-1.2526646852493286;90.48342895507812
22;1673296080.6615922;47.1306424;7.240619799999999;0.0;1673296080.7654636;0.13308162987232208;-0.8600494861602783;90.15553283691406
23;1673296080.8654585;47.1306424;7.2406198999999996;0.0;1673296080.969475;0.25144726037979126;-0.9280570149421692;90.1436767578125
24;1673296081.0935197;47.1306425;7.24062;0.0020000000949949026;1673296081.1873612;0.0530717596411705;-0.49537193775177;89.91788482666016
25;1673296081.272508;47.1306425;7.24062;0.004000000189989805;1673296081.3737023;0.40504151582717896;-0.4937339723110199;89.54920196533203
26;1673296081.4773579;47.1306425;7.24062;0.0;1673296081.5984352;0.4088411331176758;-0.6740580201148987;89.06171417236328
27;1673296081.6935387;47.130642599999995;7.24062;-0.003000000026077032;1673296081.7919807;1.0872641801834106;-0.7811781764030457;88.64851379394531
28;1673296081.8815098;47.130642699999996;7.2406198999999996;0.0;1673296081.9716127;2.0226616859436035;-0.759807825088501;88.12492370605469
29;1673296082.0664365;47.130642699999996;7.240619799999999;0.012000000104308128;1673296082.1715968;2.8375117778778076;-0.30664682388305664;85.95503234863281
30;1673296082.268424;47.1306429;7.2406197;0.018000001087784767;1673296082.360537;-0.16903793811798096;0.7198672890663147;74.42313385009766
31;1673296082.4507651;47.1306434;7.240619;0.01600000075995922;1673296082.5665333;-0.21835963428020477;2.871577739715576;72.42404174804688
32;1673296082.6555166;47.1306441;7.2406179999999996;0.021000001579523087;1673296082.744481;-2.3500757217407227;5.963315486907959;79.31083679199219
33;1673296082.8335195;47.1306447;7.2406166999999995;0.03200000151991844;1673296082.928541;-6.926450252532959;9.123416900634766;83.3012924194336
34;1673296083.023604;47.1306455;7.240615099999999;0.05100000277161598;1673296083.1333594;-10.6632661819458;12.366697311401367;83.9306869506836
35;1673296083.2423985;47.130646299999995;7.2406133;0.08000000566244125;1673296083.3451943;-11.969127655029297;14.022329330444336;84.24992370605469
36;1673296083.454424;47.130646999999996;7.2406115;0.12200000882148743;1673296083.5595028;-13.044787406921387;15.427258491516113;84.4507827758789
37;1673296083.6515574;47.1306477;7.2406099;0.17500001192092896;1673296083.750549;-14.610946655273438;15.352778434753418;84.85985565185547
38;1673296083.8495176;47.1306483;7.2406086;0.23500001430511475;1673296083.9537966;-16.784786224365234;15.425887107849121;85.2078857421875
39;1673296084.0495238;47.130648699999995;7.240607799999999;0.30800002813339233;1673296084.1562116;-18.070241928100586;17.98150634765625;85.25755310058594
40;1673296084.248655;47.130648799999996;7.2406074;0.39500001072883606;1673296084.3459444;-18.9146728515625;20.244556427001953;85.3609619140625
41;1673296084.4529805;47.130648699999995;7.2406076;0.492000013589859;1673296084.5612233;-20.850082397460938;19.216781616210938;85.8247299194336
42;1673296084.6584256;47.1306483;7.2406085;0.5990000367164612;1673296084.7577639;-19.402978897094727;16.542940139770508;86.6256332397461
43;1673296084.851147;47.130647599999996;7.2406099;0.7150000333786011;1673296084.9572542;-17.108789443969727;19.035633087158203;86.0270767211914
44;1673296085.0567963;47.1306467;7.2406117;0.8350000381469727;1673296085.1583698;-14.312520027160645;14.71130657196045;86.72351837158203
45;1673296085.2537742;47.130645699999995;7.2406136;0.9610000252723694;1673296085.3507204;-12.981579780578613;11.249016761779785;87.26313781738281
46;1673296085.4399219;47.1306448;7.240615399999999;1.0980000495910645;1673296085.5393572;-10.879070281982422;13.592966079711914;86.39039611816406
47;1673296085.6366947;47.130643899999995;7.2406169;1.25;1673296085.7419124;-9.708898544311523;12.736465454101562;86.24102020263672
48;1673296085.8376682;47.1306434;7.2406179999999996;1.4130001068115234;1673296085.9452524;-9.607998847961426;8.979606628417969;86.7068862915039
49;1673296086.042446;47.1306431;7.2406188;1.5840001106262207;1673296086.148447;-9.272102355957031;13.136537551879883;80.42855834960938
50;1673296086.2495525;47.1306428;7.240619199999999;1.7650001049041748;1673296086.3516958;-10.18517780303955;13.740402221679688;81.3961181640625
51;1673296086.4636858;47.130642599999995;7.240619199999999;1.9580000638961792;1673296086.5608814;-11.173836708068848;11.122676849365234;82.51490783691406
52;1673296086.6545198;47.1306425;7.2406191;2.1500000953674316;1673296086.7816172;-12.125571250915527;12.25467586517334;82.6575698852539
53;1673296086.8756483;47.1306425;7.240618899999999;2.3460001945495605;1673296087.0088074;-12.407130241394043;16.237051010131836;82.13736724853516
54;1673296087.1412866;47.130642599999995;7.2406185999999995;2.5450000762939453;1673296087.2248433;-12.994577407836914;12.803452491760254;83.23716735839844
55;1673296087.3059452;47.1306429;7.2406185;2.746000051498413;1673296087.3964608;-13.504034996032715;13.322389602661133;83.2083740234375
56;1673296087.4723017;47.130643;7.2406184;2.945000171661377;1673296087.5577874;-13.271743774414062;17.588653564453125;82.5926284790039
57;1673296087.6458373;47.130643;7.2406184;3.13700008392334;1673296087.740569;-13.241782188415527;14.422181129455566;82.94869995117188
58;1673296087.8328621;47.1306429;7.2406185;3.326000213623047;1673296087.9331143;-13.349740982055664;12.370695114135742;83.55988311767578
59;1673296088.0333629;47.1306428;7.2406187;3.513000249862671;1673296088.1351714;-12.7267484664917;15.56085205078125;82.62142944335938
60;1673296088.2294147;47.130642699999996;7.240619;3.701000213623047;1673296088.3326209;-11.948884010314941;16.244152069091797;82.57426452636719
61;1673296088.4259179;47.1306428;7.2406193;3.8950002193450928;1673296088.5270047;-12.152201652526855;11.881292343139648;83.51631164550781
62;1673296088.6212351;47.1306428;7.240619499999999;4.094000339508057;1673296088.7303882;-11.77455997467041;14.845231056213379;82.90769958496094
63;1673296088.8236678;47.1306428;7.2406197;4.296000003814697;1673296088.9308162;-11.329788208007812;16.55940818786621;82.48534393310547
64;1673296089.0300233;47.130642699999996;7.240619799999999;4.498000144958496;1673296089.133255;-11.66384506225586;12.852683067321777;83.17841339111328
65;1673296089.2257433;47.130642699999996;7.240619799999999;4.696000099182129;1673296089.3298166;-12.015325546264648;12.20319652557373;83.3052978515625
66;1673296089.478358;47.130642599999995;7.240619799999999;4.895000457763672;1673296089.5740204;-11.663578987121582;16.320051193237305;82.38943481445312
67;1673296089.6948369;47.130642599999995;7.2406197;5.0960001945495605;1673296089.7882757;-11.878969192504883;14.31511402130127;82.8602523803711
68;1673296089.8820236;47.1306428;7.2406196;5.299000263214111;1673296089.9719293;-12.412209510803223;12.747834205627441;83.31871795654297
69;1673296090.066808;47.1306429;7.2406196;5.500000476837158;1673296090.2248948;-12.157995223999023;16.990619659423828;82.59180450439453
70;1673296090.3320966;47.130643;7.240619499999999;5.697000503540039;1673296090.415746;-12.108954429626465;16.189294815063477;82.80928039550781
71;1673296090.5036314;47.130643;7.240619499999999;5.895000457763672;1673296090.5992796;-12.483569145202637;12.647611618041992;83.40819549560547
72;1673296090.6942303;47.1306429;7.240619499999999;6.091000080108643;1673296090.784656;-12.639836311340332;15.480180740356445;82.79563903808594
73;1673296090.9006257;47.1306428;7.240619499999999;6.289000511169434;1673296091.003391;-11.963004112243652;16.973512649536133;82.52190399169922
74;1673296091.10174;47.1306428;7.240619499999999;6.488000392913818;1673296091.195147;-12.353924751281738;12.890528678894043;83.33110046386719
75;1673296091.2845032;47.1306429;7.240619499999999;6.683000087738037;1673296091.4302325;-12.413466453552246;13.990036964416504;82.97112274169922
76;1673296091.511605;47.1306429;7.2406196;6.875000476837158;1673296091.5994785;-11.870345115661621;17.391937255859375;82.44735717773438
77;1673296091.6928453;47.1306428;7.2406197;7.069000244140625;1673296091.8372724;-11.9137544631958;13.650928497314453;83.04508209228516
78;1673296091.9228234;47.1306428;7.2406197;7.266000270843506;1673296092.0137649;-12.355724334716797;12.551860809326172;83.27664184570312
79;1673296092.123016;47.130642699999996;7.240619799999999;7.464000225067139;1673296092.2503393;-11.724282264709473;16.469186782836914;82.3980941772461
80;1673296092.3528006;47.130642699999996;7.2406198999999996;7.660000324249268;1673296092.459901;-11.55982494354248;15.123884201049805;82.85934448242188
81;1673296092.534325;47.1306428;7.2406198999999996;7.8600006103515625;1673296092.6195295;-12.125101089477539;12.406559944152832;83.31242370605469
82;1673296092.7375271;47.1306429;7.24062;8.0600004196167;1673296092.860006;-11.947299003601074;16.809953689575195;82.65454864501953
83;1673296092.9386182;47.1306429;7.2406198999999996;8.254000663757324;1673296093.0157816;-11.699190139770508;15.946919441223145;82.73797607421875
84;1673296093.0915036;47.1306428;7.2406198999999996;8.450000762939453;1673296093.1779957;-12.147829055786133;12.69848346710205;83.23794555664062
85;1673296093.2654152;47.1306428;7.2406198999999996;8.644000053405762;1673296093.3645952;-12.314970016479492;15.182852745056152;82.82440185546875
86;1673296093.4530199;47.130642699999996;7.24062;8.835000038146973;1673296093.551309;-11.67707633972168;16.731977462768555;82.47075653076172
87;1673296093.645543;47.1306428;7.24062;9.02500057220459;1673296093.7477596;-11.915152549743652;12.420230865478516;83.40425872802734
88;1673296093.8455732;47.1306429;7.2406201;9.21500015258789;1673296093.9535515;-12.085455894470215;14.572033882141113;83.01048278808594
89;1673296094.060833;47.1306429;7.2406201999999995;9.405000686645508;1673296094.161299;-11.484198570251465;17.47447967529297;82.38001251220703
90;1673296094.262;47.1306428;7.2406201999999995;9.595000267028809;1673296094.364209;-11.656643867492676;13.60429859161377;83.17262268066406
91;1673296094.46529;47.1306428;7.2406201999999995;9.78700065612793;1673296094.5634508;-12.10754680633545;12.651750564575195;83.39962005615234
92;1673296094.6587396;47.130642699999996;7.2406201999999995;9.980000495910645;1673296094.755982;-11.613311767578125;16.504459381103516;82.44486999511719
93;1673296094.854451;47.130642599999995;7.2406201999999995;10.182000160217285;1673296094.9566128;-11.325311660766602;14.068779945373535;82.79436492919922
94;1673296095.0823395;47.130642599999995;7.2406203;10.47800064086914;1673296095.1773798;-13.310896873474121;13.854326248168945;83.3567123413086
95;1673296095.277807;47.130642599999995;7.2406204999999995;10.848000526428223;1673296095.3791869;-12.189390182495117;17.296092987060547;83.12602996826172
96;1673296095.4720054;47.1306423;7.240620799999999;11.22700023651123;1673296095.561607;-11.314114570617676;15.736589431762695;82.74052429199219
97;1673296095.6734369;47.130642099999996;7.2406212;11.616000175476074;1673296095.775683;-11.22559928894043;11.910983085632324;83.20325469970703
98;1673296095.8682263;47.1306418;7.2406215;12.008000373840332;1673296095.9647493;-10.785510063171387;13.115546226501465;83.00332641601562
99;1673296096.0577435;47.1306416;7.2406216;12.405000686645508;1673296096.1607907;-10.06302261352539;14.931674003601074;82.40873718261719
100;1673296096.2717278;47.1306416;7.240621699999999;12.809000968933105;1673296096.379645;-10.364480972290039;11.498602867126465;83.07560729980469
101;1673296096.47178;47.1306416;7.240621699999999;13.2160005569458;1673296096.5709777;-10.804478645324707;12.174829483032227;83.1538314819336
102;1673296096.6749697;47.1306417;7.2406215;13.622000694274902;1673296096.7760808;-10.822245597839355;16.22865104675293;82.51326751708984
103;1673296096.8744304;47.1306418;7.2406213;14.024001121520996;1673296096.9886239;-11.04151725769043;13.442985534667969;82.88463592529297
104;1673296097.0850208;47.1306419;7.240621;14.422000885009766;1673296097.1891146;-11.885890007019043;12.385177612304688;83.23075103759766
105;1673296097.2736607;47.1306419;7.240620799999999;14.821001052856445;1673296097.3640027;-11.670881271362305;15.514321327209473;82.65705108642578
106;1673296097.453401;47.1306419;7.2406207;15.227001190185547;1673296097.5546505;-11.613739013671875;16.05124855041504;82.72135925292969
107;1673296097.646555;47.130642099999996;7.2406206;15.640000343322754;1673296097.7525005;-12.082700729370117;12.35479736328125;83.36798858642578
108;1673296097.8507607;47.1306422;7.2406206;16.054000854492188;1673296097.961439;-11.737746238708496;15.178610801696777;82.95306396484375
109;1673296098.068549;47.1306423;7.2406206;16.468000411987305;1673296098.1610427;-11.397976875305176;16.41992950439453;82.60252380371094
110;1673296098.2571821;47.1306423;7.2406206;16.87700080871582;1673296098.362285;-11.514533996582031;13.213059425354004;83.16096496582031
111;1673296098.4580069;47.1306423;7.2406206;17.286001205444336;1673296098.5637128;-11.570384979248047;13.689058303833008;83.15596771240234
112;1673296098.669788;47.1306422;7.2406206;17.689001083374023;1673296098.7681324;-10.887967109680176;16.311023712158203;82.46892547607422
113;1673296098.869999;47.1306422;7.2406206;18.08300018310547;1673296098.9609447;-11.041951179504395;13.728789329528809;82.91326904296875
114;1673296099.060576;47.1306423;7.2406206;18.477001190185547;1673296099.1632931;-11.537934303283691;12.240490913391113;83.25916290283203
115;1673296099.258539;47.1306423;7.2406204999999995;18.87200164794922;1673296099.3607569;-11.145458221435547;16.299930572509766;82.64483642578125
116;1673296099.460956;47.1306423;7.2406204999999995;19.26500129699707;1673296099.5652075;-11.111320495605469;15.281051635742188;82.6474380493164
117;1673296099.6593728;47.1306423;7.2406204;19.654001235961914;1673296099.7608054;-11.560454368591309;13.134232521057129;83.09291076660156
118;1673296099.8546383;47.1306423;7.2406203;20.045000076293945;1673296099.9558063;-11.6948881149292;13.579967498779297;83.14537048339844
119;1673296100.0639484;47.1306423;7.2406201999999995;20.43800163269043;1673296100.154933;-11.275630950927734;16.304363250732422;82.4685287475586
120;1673296100.2443674;47.1306423;7.2406201999999995;20.836000442504883;1673296100.3444638;-11.440032005310059;13.991471290588379;82.92779541015625
121;1673296100.4416509;47.1306424;7.2406201;21.231000900268555;1673296100.5566456;-11.846481323242188;12.553228378295898;83.32301330566406
122;1673296100.656421;47.1306425;7.24062;21.62200164794922;1673296100.7961125;-11.456655502319336;16.71071434020996;82.6068115234375
123;1673296100.889483;47.130642599999995;7.24062;22.01300048828125;1673296100.9924903;-11.250816345214844;15.651129722595215;82.8425064086914
124;1673296101.088898;47.130642699999996;7.2406198999999996;22.407001495361328;1673296101.1935909;-11.769621849060059;13.305583953857422;83.2658462524414
125;1673296101.2846253;47.130642699999996;7.2406198999999996;22.804000854492188;1673296101.3780577;-11.542412757873535;15.30412769317627;82.90475463867188
126;1673296101.4764876;47.130642599999995;7.2406198999999996;23.20400047302246;1673296101.569817;-11.152422904968262;16.751766204833984;82.56417846679688
127;1673296101.6671357;47.1306425;7.2406198999999996;23.606000900268555;1673296101.7645323;-11.399585723876953;12.969943046569824;83.20027160644531
128;1673296101.8569045;47.1306425;7.240619799999999;24.006000518798828;1673296101.9603498;-11.738602638244629;13.603229522705078;82.99262237548828
129;1673296102.0577486;47.1306425;7.240619799999999;24.40300178527832;1673296102.168628;-11.233985900878906;17.223098754882812;82.52125549316406
130;1673296102.2659154;47.1306425;7.240619799999999;24.795001983642578;1673296102.3592303;-11.113341331481934;13.673064231872559;83.01421356201172
131;1673296102.4545865;47.130642599999995;7.240619799999999;25.191001892089844;1673296102.5597186;-11.640511512756348;13.452995300292969;83.22528839111328
132;1673296102.6650598;47.1306425;7.240619799999999;25.58700180053711;1673296102.7643158;-11.36232852935791;16.34404182434082;82.55487823486328
133;1673296102.8543942;47.1306424;7.2406197;25.98400115966797;1673296102.9644938;-11.141446113586426;15.25526237487793;82.75191497802734
134;1673296103.0645792;47.1306424;7.2406197;26.387001037597656;1673296103.1783822;-11.77570629119873;12.678638458251953;83.19891357421875
135;1673296103.2736053;47.1306424;7.2406196;26.78700065612793;1673296103.371872;-11.326395988464355;15.695897102355957;82.65293884277344
136;1673296103.4720724;47.1306425;7.2406197;27.184001922607422;1673296103.5663831;-11.369071960449219;16.815147399902344;82.66717529296875
137;1673296103.6626148;47.1306425;7.2406196;27.584001541137695;1673296103.7735107;-11.3237886428833;12.87159538269043;83.2855224609375
138;1673296103.8628805;47.1306424;7.2406196;27.98400115966797;1673296103.9698524;-11.639615058898926;14.054388046264648;82.9903335571289
139;1673296104.066907;47.1306423;7.2406196;28.382001876831055;1673296104.1687934;-11.283075332641602;16.595502853393555;82.47248840332031
140;1673296104.2671268;47.1306422;7.240619499999999;28.782001495361328;1673296104.367363;-11.301742553710938;14.198824882507324;82.90926361083984
141;1673296104.46872;47.1306422;7.240619499999999;29.183000564575195;1673296104.5689325;-12.008476257324219;12.615655899047852;83.38937377929688
142;1673296104.6742463;47.1306422;7.240619499999999;29.58100128173828;1673296104.777995;-11.363334655761719;16.556982040405273;82.74897003173828
143;1673296104.8694975;47.1306422;7.2406196;29.976001739501953;1673296104.9645343;-11.415260314941406;15.273043632507324;82.8348388671875
144;1673296105.0690386;47.1306423;7.2406196;30.374000549316406;1673296105.171077;-11.684886932373047;13.062785148620605;83.24678039550781
145;1673296105.276793;47.1306423;7.2406196;30.774002075195312;1673296105.373302;-11.748006820678711;15.620233535766602;82.80611419677734
146;1673296105.4785132;47.130642099999996;7.2406196;31.177001953125;1673296105.581689;-11.11185359954834;16.02401351928711;82.49505615234375
147;1673296105.6802099;47.130642099999996;7.2406196;31.58100128173828;1673296105.7774193;-11.367431640625;13.348901748657227;83.02626037597656
148;1673296105.88482;47.130642099999996;7.2406196;31.983001708984375;1673296105.996284;-11.69759750366211;13.734431266784668;82.97256469726562
149;1673296106.1048064;47.130642099999996;7.2406196;32.38199996948242;1673296106.2089818;-11.3037109375;17.222312927246094;82.4872055053711
150;1673296106.30368;47.1306422;7.2406196;32.78600311279297;1673296106.408235;-11.381710052490234;13.516873359680176;83.0782699584961
151;1673296106.5034761;47.1306423;7.2406197;33.19000244140625;1673296106.5992033;-11.626852035522461;13.461837768554688;83.07735443115234
152;1673296106.700865;47.1306423;7.2406197;33.592002868652344;1673296106.8010893;-11.292338371276855;16.399700164794922;82.51742553710938
153;1673296106.8924544;47.1306422;7.2406197;33.99300003051758;1673296106.9880831;-10.967324256896973;15.139970779418945;82.75476837158203
154;1673296107.1272616;47.1306423;7.240619799999999;34.395999908447266;1673296107.2134988;-11.636472702026367;12.483119010925293;83.31354522705078
155;1673296107.303067;47.1306424;7.240619799999999;34.79600143432617;1673296107.396554;-11.353391647338867;15.774630546569824;82.66697692871094
156;1673296107.4947977;47.1306424;7.240619799999999;35.19200134277344;1673296107.6001005;-11.117183685302734;16.930583953857422;82.70867919921875
157;1673296107.6935287;47.1306425;7.240619799999999;35.59400177001953;1673296107.794898;-11.36398983001709;13.126859664916992;83.14773559570312
158;1673296107.904038;47.130642599999995;7.240619799999999;35.996002197265625;1673296108.0091753;-11.573177337646484;15.079224586486816;82.9078140258789
159;1673296108.1551857;47.130642599999995;7.2406198999999996;36.395999908447266;1673296108.2362115;-10.836536407470703;16.81982421875;82.41050720214844
160;1673296108.3544073;47.1306425;7.2406198999999996;36.79800033569336;1673296108.4354327;-11.196318626403809;14.081267356872559;83.0479507446289
161;1673296108.5409033;47.1306425;7.2406198999999996;37.19700241088867;1673296108.6238968;-11.614151000976562;13.370214462280273;83.24620056152344
162;1673296108.7065153;47.1306425;7.2406198999999996;37.59100341796875;1673296108.8312957;-11.156689643859863;16.889921188354492;82.6691665649414
163;1673296108.9099603;47.130642599999995;7.24062;37.987003326416016;1673296109.0018594;-10.971418380737305;15.322296142578125;82.8372573852539
164;1673296109.0995562;47.130642599999995;7.24062;38.387001037597656;1673296109.2016187;-11.408169746398926;13.166662216186523;83.13032531738281
165;1673296109.2912204;47.130642599999995;7.24062;38.784000396728516;1673296109.394376;-11.348413467407227;15.751151084899902;82.86009216308594
166;1673296109.506304;47.130642599999995;7.24062;39.18000030517578;1673296109.6083999;-10.811044692993164;16.486791610717773;82.63323974609375
167;1673296109.702744;47.1306425;7.24062;39.5780029296875;1673296109.79879;-11.338296890258789;12.9096040725708;83.33416748046875
168;1673296109.8914301;47.1306425;7.24062;39.974002838134766;1673296109.9925807;-11.52044677734375;14.412884712219238;82.99734497070312
169;1673296110.0870552;47.1306425;7.2406198999999996;40.36600112915039;1673296110.1926465;-11.059224128723145;17.368358612060547;82.47817993164062
170;1673296110.2921278;47.130642599999995;7.2406198999999996;40.76300048828125;1673296110.3897614;-11.126477241516113;13.753744125366211;82.91890716552734
171;1673296110.4845376;47.130642699999996;7.240619799999999;41.16200256347656;1673296110.5905733;-11.697999000549316;14.08492374420166;83.13218688964844
172;1673296110.692974;47.130642599999995;7.240619799999999;41.55900192260742;1673296110.795131;-11.292093276977539;16.988590240478516;82.6804428100586
173;1673296110.8796043;47.1306425;7.240619799999999;41.957000732421875;1673296110.9807854;-11.297979354858398;14.815765380859375;82.9658203125
174;1673296111.0838966;47.1306425;7.2406197;42.35300064086914;1673296111.1845975;-11.600150108337402;12.63853645324707;83.32415771484375
175;1673296111.270089;47.1306424;7.2406197;42.74400329589844;1673296111.3688848;-11.330775260925293;16.22641944885254;82.5638427734375
176;1673296111.4661298;47.1306424;7.2406197;43.13900375366211;1673296111.5652602;-11.17596435546875;15.950913429260254;82.54720306396484
177;1673296111.6655266;47.1306424;7.2406196;43.53600311279297;1673296111.7688162;-11.687898635864258;12.887846946716309;83.11101531982422
178;1673296111.8705175;47.1306425;7.2406196;43.93600082397461;1673296111.9733446;-11.697471618652344;15.191154479980469;83.03507995605469
179;1673296112.072769;47.1306425;7.2406196;44.33700180053711;1673296112.1720293;-11.053369522094727;16.676105499267578;82.62035369873047
180;1673296112.2663002;47.1306425;7.2406196;44.7390022277832;1673296112.3618047;-11.219870567321777;13.718469619750977;83.10006713867188
181;1673296112.4736211;47.1306425;7.2406196;45.13800048828125;1673296112.5773246;-11.644502639770508;13.919842720031738;83.0584716796875
182;1673296112.6798587;47.1306425;7.2406196;45.534000396728516;1673296112.781921;-11.038257598876953;17.235595703125;82.51676177978516
183;1673296112.8772633;47.1306425;7.2406196;45.935001373291016;1673296112.982339;-11.194489479064941;14.531813621520996;82.90120697021484
184;1673296113.0883987;47.130642599999995;7.2406196;46.33700180053711;1673296113.1936102;-11.667884826660156;13.470890998840332;83.25269317626953
185;1673296113.2859712;47.130642599999995;7.240619499999999;46.73400115966797;1673296113.4007528;-11.536110877990723;16.521717071533203;82.74884033203125
186;1673296113.503034;47.130642599999995;7.240619499999999;47.13100051879883;1673296113.5980384;-11.229806900024414;15.719865798950195;82.67821502685547
187;1673296113.6983576;47.1306425;7.240619499999999;47.525001525878906;1673296113.8052998;-11.739912033081055;12.700958251953125;83.23221588134766
188;1673296113.8998518;47.1306425;7.240619499999999;47.915000915527344;1673296114.0053425;-11.290921211242676;16.29029083251953;82.52859497070312
189;1673296114.0886314;47.1306424;7.240619499999999;48.288002014160156;1673296114.1986845;-11.421119689941406;16.584707260131836;82.87733459472656
190;1673296114.2938967;47.1306425;7.2406194;48.61300277709961;1673296114.3998473;-11.652641296386719;13.222793579101562;83.4342269897461
191;1673296114.495318;47.130642699999996;7.2406193;48.8900032043457;1673296114.5925174;-11.631721496582031;16.188234329223633;82.97393035888672
192;1673296114.6858058;47.1306428;7.2406191;49.12000274658203;1673296114.7956853;-11.409987449645996;16.784704208374023;82.65084838867188
193;1673296114.8899987;47.1306429;7.240618899999999;49.310001373291016;1673296114.9917412;-6.830297470092773;16.91731834411621;83.1307373046875
194;1673296115.1079733;47.1306431;7.2406185;49.458003997802734;1673296115.2073715;1.8236908912658691;26.081674575805664;76.15105438232422
195;1673296115.298252;47.1306431;7.2406175;49.53300094604492;1673296115.3995748;1.2002108097076416;23.34245491027832;62.595218658447266
196;1673296115.4977775;47.1306424;7.240615999999999;49.586002349853516;1673296115.5910473;-3.13565731048584;18.463733673095703;52.23591995239258
197;1673296115.685327;47.1306417;7.2406147;49.6410026550293;1673296115.7809007;6.582201957702637;21.38001251220703;43.597007751464844
198;1673296115.8702073;47.130641;7.2406133;49.69400405883789;1673296115.9675357;6.983098983764648;22.152217864990234;34.06333541870117
199;1673296116.065253;47.130640199999995;7.240611899999999;49.7390022277832;1673296116.165188;8.680630683898926;21.45850372314453;25.309791564941406
200;1673296116.261217;47.1306394;7.240610599999999;49.77900314331055;1673296116.3661215;10.413269996643066;19.401439666748047;16.097122192382812
201;1673296116.459226;47.1306387;7.2406095;49.80600357055664;1673296116.55185;12.391352653503418;15.733433723449707;7.127313613891602
202;1673296116.6451116;47.130638;7.240608699999999;49.83000183105469;1673296116.7491477;15.10158634185791;12.499342918395996;-1.4994405508041382
203;1673296116.851072;47.1306374;7.2406082;49.85000228881836;1673296116.9553385;17.24054718017578;10.931246757507324;-9.955056190490723
204;1673296117.0673344;47.130637;7.2406079;49.871002197265625;1673296117.173122;17.49683380126953;11.33566665649414;-18.52717399597168
205;1673296117.2654085;47.1306368;7.2406077;49.89200210571289;1673296117.3662753;16.239309310913086;9.153325080871582;-27.455278396606445
206;1673296117.4731874;47.130636599999995;7.2406076;49.91400146484375;1673296117.5800521;17.07986068725586;1.9214558601379395;-36.217254638671875
207;1673296117.685309;47.130636599999995;7.240607499999999;49.93300247192383;1673296117.782422;19.034513473510742;-2.1717920303344727;-44.45695495605469
208;1673296117.8878024;47.130636599999995;7.2406073;49.94700241088867;1673296117.993169;19.427837371826172;-1.9778151512145996;-50.97056579589844
209;1673296118.0886514;47.1306367;7.240607;49.965003967285156;1673296118.183364;18.720691680908203;-1.8432583808898926;-50.75201416015625
210;1673296118.265462;47.1306369;7.2406064;49.980003356933594;1673296118.3616652;19.948816299438477;-0.03796122595667839;-47.746360778808594
211;1673296118.4697628;47.1306369;7.240605899999999;49.992000579833984;1673296118.5782144;20.859704971313477;-0.2229425609111786;-46.31947326660156
212;1673296118.6908247;47.1306368;7.2406054;50.00100326538086;1673296118.784224;22.437631607055664;-2.50100040435791;-46.04581069946289
213;1673296118.8794606;47.130636599999995;7.2406049999999995;50.00300216674805;1673296118.9704466;22.80047607421875;-1.2490414381027222;-45.69794464111328
214;1673296119.0647337;47.1306363;7.2406048;50.000003814697266;1673296119.170766;21.404117584228516;1.688676118850708;-45.40151596069336
215;1673296119.2650118;47.1306362;7.2406048;50.00200271606445;1673296119.3682127;19.87200355529785;2.1921372413635254;-45.22331619262695
216;1673296119.4655309;47.1306361;7.240604899999999;50.01000213623047;1673296119.5778294;19.378469467163086;0.679328203201294;-45.15212631225586
217;1673296119.6976097;47.130635999999996;7.2406049999999995;50.02000427246094;1673296119.8098252;20.108394622802734;-1.578389048576355;-45.13512420654297
218;1673296119.902634;47.130635899999994;7.2406052;50.02800369262695;1673296120.0048978;21.093332290649414;-1.169826865196228;-45.3121452331543
219;1673296120.0964937;47.130635899999994;7.2406054;50.03300094604492;1673296120.1922321;3.0497729778289795;1.6444528102874756;-46.55154800415039
220;1673296120.295261;47.1306363;7.2406049999999995;50.03000259399414;1673296120.4023166;-33.69363021850586;1.9238102436065674;-48.04173278808594
221;1673296120.499478;47.130637799999995;7.240602699999999;49.98500061035156;1673296120.6016746;-36.57255935668945;-0.06000738963484764;-47.49238967895508
222;1673296120.7027512;47.1306411;7.2405973999999995;49.90500259399414;1673296120.806973;-38.41463088989258;-2.8330392837524414;-46.253475189208984
223;1673296120.9011753;47.130646399999996;7.240588799999999;49.85700225830078;1673296121.012342;-43.290382385253906;-3.6490519046783447;-45.78242874145508
224;1673296121.1175814;47.1306535;7.2405767;49.832000732421875;1673296121.2060452;-45.842430114746094;-2.7866785526275635;-45.52063751220703
225;1673296121.3079386;47.1306626;7.2405611;49.8280029296875;1673296121.4216883;-49.350547790527344;-1.8105112314224243;-45.840091705322266
226;1673296121.5170314;47.130673599999994;7.240542199999999;49.84300231933594;1673296121.617177;-52.738067626953125;-0.44679683446884155;-45.90834045410156
227;1673296121.7058997;47.1306867;7.2405202;49.85700225830078;1673296121.8240979;-53.405025482177734;2.1836893558502197;-46.396446228027344
228;1673296121.9165661;47.130701599999995;7.240494999999999;49.86900329589844;1673296122.0170445;-55.109840393066406;5.275846481323242;-46.793609619140625
229;1673296122.1033762;47.1307185;7.240467199999999;49.89200210571289;1673296122.210172;-51.316749572753906;5.067728042602539;-46.613895416259766
230;1673296122.3423586;47.1307371;7.2404375;49.91200256347656;1673296122.4376228;-28.160388946533203;6.473330020904541;-45.86053466796875
231;1673296122.5632713;47.1307561;7.2404077;49.91100311279297;1673296122.657169;16.110443115234375;4.5908355712890625;-45.05353546142578
232;1673296122.7572415;47.1307742;7.24038;49.89600372314453;1673296122.8564677;35.222930908203125;1.3779233694076538;-47.35675048828125
233;1673296122.9371092;47.1307902;7.240355699999999;49.74800109863281;1673296123.0251946;20.867389678955078;-0.6551721096038818;-46.50865936279297
234;1673296123.1331346;47.1308033;7.2403357999999995;49.669002532958984;1673296123.22909;44.207279205322266;-0.30962544679641724;-46.979434967041016
235;1673296123.3210921;47.1308138;7.2403201;49.66400146484375;1673296123.4130669;56.33212661743164;-2.5477612018585205;-48.038002014160156
236;1673296123.5070512;47.1308205;7.2403102;49.749000549316406;1673296123.6131976;60.973873138427734;-1.4928433895111084;-47.876182556152344
237;1673296123.7060237;47.1308235;7.2403062;49.84600067138672;1673296123.809227;59.113834381103516;-1.3783211708068848;-46.88087844848633
238;1673296123.897296;47.1308234;7.240307;49.935001373291016;1673296123.9900293;57.57130432128906;-1.6657227277755737;-46.88870620727539
239;1673296124.0802584;47.130820899999996;7.240311299999999;50.00600051879883;1673296124.188046;52.482730865478516;-1.6032973527908325;-46.448360443115234
240;1673296124.2872286;47.130816499999995;7.240317999999999;50.052001953125;1673296124.405327;44.33955001831055;-1.390434741973877;-46.53443908691406
241;1673296124.5244358;47.130811099999995;7.2403261;50.07600402832031;1673296124.6113348;31.68099021911621;-1.6390295028686523;-46.73014450073242
242;1673296124.7089887;47.1308053;7.2403346;50.0780029296875;1673296124.8011644;18.72626495361328;-0.5897104144096375;-46.84249496459961
243;1673296124.9010034;47.1307998;7.240342399999999;50.066001892089844;1673296125.0024343;8.912677764892578;-0.1771705597639084;-46.99519729614258
244;1673296125.1183586;47.130795;7.240348999999999;50.044002532958984;1673296125.216303;1.6684738397598267;-0.4975925385951996;-46.906944274902344
245;1673296125.3132656;47.1307913;7.2403539;50.02100372314453;1673296125.4143202;-5.617588043212891;2.212069511413574;-47.2033805847168
246;1673296125.492147;47.1307889;7.2403569;49.993003845214844;1673296125.5844326;-17.854389190673828;3.660841226577759;-46.986053466796875
247;1673296125.6777105;47.1307882;7.2403574;49.96000289916992;1673296125.790488;-13.214373588562012;4.903526782989502;-45.45126724243164
248;1673296125.895708;47.130789;7.2403562;49.927001953125;1673296125.9841344;15.24141788482666;-4.62416934967041;-45.85375213623047
249;1673296126.0813034;47.130790499999996;7.240354099999999;49.928001403808594;1673296126.1853323;20.156444549560547;-1.120134711265564;-45.27570343017578
250;1673296126.3061416;47.130792;7.240351899999999;49.952003479003906;1673296126.4054246;25.11556053161621;0.6614521145820618;-45.61812973022461
251;1673296126.5069125;47.130793399999995;7.240349999999999;49.98200225830078;1673296126.6114411;28.069059371948242;2.21032977104187;-46.42901611328125
252;1673296126.712685;47.1307944;7.2403486;50.00700378417969;1673296126.8169048;28.395530700683594;2.6969223022460938;-46.337928771972656
253;1673296126.91403;47.1307949;7.2403479;50.02300262451172;1673296127.0122826;26.918703079223633;1.62074613571167;-45.93476486206055
254;1673296127.1049206;47.1307951;7.2403476;49.974002838134766;1673296127.2354443;6.395596504211426;17.108943939208984;-44.829532623291016
255;1673296127.332631;47.130795299999996;7.240347099999999;49.583003997802734;1673296127.432719;-21.565645217895508;33.08529281616211;-52.50701141357422
256;1673296127.5230894;47.1307956;7.240346499999999;48.81700134277344;1673296127.6066148;-48.418052673339844;56.69765853881836;-76.09626770019531
257;1673296127.6921148;47.1307957;7.2403457;47.67000198364258;1673296127.784517;-60.43095016479492;95.68702697753906;-122.81404876708984
258;1673296127.8866436;47.1307957;7.240344899999999;46.15400314331055;1673296127.989721;-59.18383026123047;116.93900299072266;-158.2684326171875
259;1673296128.1086;47.1307958;7.2403439999999994;44.27400207519531;1673296128.213372;-61.31259536743164;101.6685791015625;-162.29464721679688
260;1673296128.3214774;47.130795899999995;7.240342999999999;42.03600311279297;1673296128.4158068;-58.18790817260742;45.445533752441406;-128.5066680908203
261;1673296128.5002859;47.130796;7.2403423;39.45100021362305;1673296128.5925636;-27.32585906982422;-2.6169676780700684;-105.7693099975586
262;1673296128.6829736;47.1307963;7.2403417999999995;36.48500061035156;1673296128.8108299;14.746691703796387;-24.708736419677734;-106.76025390625
263;1673296128.9050813;47.1307968;7.2403413;33.12700271606445;1673296129.0297189;45.25934600830078;-28.88495635986328;-114.50113677978516
264;1673296129.1152554;47.1307974;7.2403403;29.407001495361328;1673296129.2078907;52.47777557373047;-4.677645683288574;-106.95931243896484
265;1673296129.3051872;47.1307982;7.2403387;25.340002059936523;1673296129.4092298;27.776695251464844;24.368898391723633;-103.79757690429688
266;1673296129.4976215;47.1307988;7.2403366;20.909000396728516;1673296129.6045504;-11.739315032958984;41.045040130615234;-120.65230560302734
267;1673296129.7097137;47.1307993;7.2403344999999995;16.111000061035156;1673296129.8088808;-41.349449157714844;46.06748580932617;-141.4866485595703
268;1673296129.9053488;47.130799599999996;7.240332899999999;10.9660005569458;1673296130.0055935;-48.01923751831055;17.947322845458984;-136.289306640625
269;1673296130.105149;47.130800099999995;7.240331899999999;5.485000133514404;1673296130.2178123;-17.196632385253906;-13.820398330688477;-126.55472564697266
270;1673296130.3150842;47.130801299999995;7.240330999999999;-0.052000001072883606;1673296130.4170036;2.4230258464813232;18.340503692626953;-128.49282836914062
271;1673296130.5152404;47.130802499999994;7.240331599999999;0.2200000137090683;1673296130.604803;1.8996206521987915;4.81645393371582;-130.5450897216797
272;1673296130.698684;47.1308024;7.2403327;0.3490000069141388;1673296130.7959862;1.862679362297058;13.300024032592773;-130.6826629638672
273;1673296130.8892534;47.1308021;7.2403337;0.4740000367164612;1673296130.9855196;1.7741621732711792;11.045308113098145;-130.5982666015625
274;1673296131.07456;47.1308022;7.2403336;0.5480000376701355;1673296131.176622;1.6903489828109741;11.317681312561035;-130.47543334960938
275;1673296131.27395;47.130802499999994;7.240332899999999;0.5960000157356262;1673296131.3770382;1.5860515832901;11.462347030639648;-130.3505859375
276;1673296131.48651;47.1308029;7.2403322;0.6230000257492065;1673296131.583562;1.584595799446106;11.816247940063477;-130.27041625976562
277;1673296131.6829088;47.1308034;7.2403314;0.6380000114440918;1673296131.7849324;1.576906681060791;12.107662200927734;-130.21578979492188
278;1673296131.8821194;47.130804;7.2403305;0.6540000438690186;1673296131.9901893;1.6214983463287354;12.454669952392578;-130.1798553466797
279;1673296132.1030412;47.1308048;7.240329699999999;0.6770000457763672;1673296132.1993053;1.5806430578231812;12.705345153808594;-130.1281280517578
280;1673296132.3015265;47.1308052;7.240329099999999;0.687000036239624;1673296132.4084718;1.5750935077667236;12.696908950805664;-130.0713348388672
281;1673296132.4888484;47.1308054;7.2403287;0.6920000314712524;1673296132.5909078;1.5599124431610107;12.551843643188477;-130.00244140625
282;1673296132.6900685;47.130805599999995;7.2403284999999995;0.6940000057220459;1673296132.7913327;1.5813941955566406;12.375004768371582;-129.9161376953125
283;1673296132.893739;47.130805699999996;7.2403283;0.6950000524520874;1673296133.0017629;1.5760449171066284;12.113049507141113;-129.82774353027344
284;1673296133.1044788;47.1308058;7.240328099999999;0.6920000314712524;1673296133.202409;1.5717432498931885;11.787217140197754;-129.76377868652344
285;1673296133.2969282;47.130806299999996;7.2403277;0.6920000314712524;1673296133.3999937;1.607107400894165;11.586356163024902;-129.69688415527344
286;1673296133.5291858;47.1308073;7.2403268999999995;0.6960000395774841;1673296133.6371086;1.585733413696289;11.196897506713867;-129.6557159423828
287;1673296133.7246904;47.130807499999996;7.2403265999999995;0.6970000267028809;1673296133.8230886;1.5887305736541748;10.727559089660645;-129.60406494140625
288;1673296133.9623995;47.130807499999996;7.2403267;0.6980000138282776;1673296134.0740278;1.6208163499832153;10.294898986816406;-129.59278869628906
289;1673296134.1512077;47.1308073;7.2403268;0.7020000219345093;1673296134.230395;1.6055734157562256;9.943657875061035;-129.59854125976562
290;1673296134.3131092;47.1308071;7.240327;0.7050000429153442;1673296134.4258955;1.5857923030853271;9.508872032165527;-129.63108825683594
291;1673296134.518193;47.1308072;7.240327;0.7100000381469727;1673296134.6252618;1.5785801410675049;9.242671012878418;-129.62039184570312
292;1673296134.7215602;47.1308078;7.2403265;0.7170000076293945;1673296134.8286288;1.5684847831726074;8.892172813415527;-129.6593780517578
293;1673296134.9268153;47.1308078;7.2403265999999995;0.7220000624656677;1673296135.0281167;1.5519100427627563;8.507699012756348;-129.65170288085938
294;1673296135.1245196;47.130807499999996;7.2403268;0.7270000576972961;1673296135.2301493;1.5610443353652954;8.202654838562012;-129.67417907714844
295;1673296135.3427372;47.1308071;7.240327199999999;0.7300000190734863;1673296135.4219284;1.5682549476623535;7.871774673461914;-129.7023162841797
296;1673296135.5093267;47.130806799999995;7.240327499999999;0.7290000319480896;1673296135.6142955;1.5537720918655396;7.567407131195068;-129.72129821777344
297;1673296135.6993065;47.1308064;7.240327799999999;0.7240000367164612;1673296135.79559;1.5332106351852417;7.282681941986084;-129.7687530517578
298;1673296135.8935363;47.1308064;7.2403279;0.7190000414848328;1673296135.9943988;1.5204386711120605;7.096096038818359;-129.78199768066406
299;1673296136.0907872;47.130806799999995;7.240327499999999;0.7130000591278076;1673296136.1930192;1.4935401678085327;6.807116985321045;-129.7978973388672
300;1673296136.2901952;47.130806799999995;7.2403276;0.7090000510215759;1673296136.3869364;1.43667733669281;6.5420613288879395;-129.84202575683594
301;1673296136.4896429;47.1308066;7.2403277;0.7020000219345093;1673296136.593815;1.3921191692352295;6.301383972167969;-129.87831115722656
302;1673296136.684668;47.130806299999996;7.240328;0.6910000443458557;1673296136.7867823;1.45236337184906;6.039896488189697;-129.9098663330078
303;1673296136.8791437;47.130806;7.2403281999999995;0.6780000329017639;1673296136.9856546;1.3412563800811768;5.822235107421875;-129.9431610107422
304;1673296137.0947359;47.130806;7.2403281999999995;0.6610000133514404;1673296137.1940691;1.3510395288467407;5.04450798034668;-129.95449829101562
305;1673296137.2859323;47.130806299999996;7.2403279;0.6530000567436218;1673296137.4013069;1.3502167463302612;4.656506061553955;-129.97972106933594
306;1673296137.5015323;47.130806299999996;7.2403279;-0.0020000000949949026;1673296137.6135683;1.3683420419692993;4.337565898895264;-130.0041961669922
307;1673296137.7364938;47.1308061;7.240328;-0.018000001087784767;1673296137.8439367;1.3210843801498413;3.9954991340637207;-130.0586700439453
308;1673296137.9480517;47.1308059;7.2403281999999995;-0.04400000348687172;;;;
