;pos_time;latitude;longitude;altitude;alt_time;pitch;roll;yaw
0;1673298917.490725;47.1306425;7.2406201;-0.017000000923871994;1673298917.6587796;-0.07961257547140121;-0.404400497674942;90.39411163330078
1;1673298917.678299;47.1306425;7.24062;-0.014000000432133675;1673298917.8690703;-0.08926985412836075;-0.4666614532470703;90.27362823486328
2;1673298917.8876503;47.1306424;7.24062;-0.009000000543892384;1673298918.0801523;0.08483786135911942;-0.43936747312545776;90.44690704345703
3;1673298918.095769;47.1306424;7.24062;-0.007000000216066837;1673298918.280402;0.0877690538764;-0.3957464396953583;90.42837524414062
4;1673298918.2960112;47.1306424;7.24062;-0.006000000052154064;1673298918.481063;0.06655537337064743;-0.3569967448711395;90.31936645507812
5;1673298918.49668;47.1306424;7.2406201;-0.004000000189989805;1673298918.662987;-0.04237404093146324;-0.2783968150615692;90.27377319335938
6;1673298918.6795785;47.1306424;7.2406201999999995;0.003000000026077032;1673298918.8771787;-0.0014443048276007175;-0.40826526284217834;90.38166046142578
7;1673298918.892805;47.1306424;7.2406201999999995;0.01100000087171793;1673298919.0719368;-0.036982182413339615;-0.33533772826194763;90.49573516845703
8;1673298919.0895426;47.1306423;7.2406201999999995;0.015000000596046448;1673298919.2841632;-0.2103830873966217;-0.352245569229126;90.4181900024414
9;1673298919.3116577;47.1306423;7.2406201999999995;0.018000001087784767;1673298919.4987848;-0.25725916028022766;-0.3787837326526642;90.52867126464844
10;1673298919.5163636;47.1306423;7.2406201999999995;0.020000001415610313;1673298919.710673;-0.036595381796360016;-0.36403271555900574;90.46971130371094
11;1673298919.7302263;47.1306423;7.2406201999999995;0.021000001579523087;1673298919.9043355;-0.0035194549709558487;-0.35790371894836426;90.51422882080078
12;1673298919.9209654;47.1306423;7.2406201;0.021000001579523087;1673298920.1042871;-0.22354885935783386;-0.28337544202804565;90.40326690673828
13;1673298920.1201336;47.1306423;7.2406201;0.020000001415610313;1673298920.296533;-0.2918476164340973;-0.3725321888923645;90.40966033935547
14;1673298920.31313;47.1306423;7.2406201999999995;0.020000001415610313;1673298920.4970665;-0.2377084195613861;-0.2612840533256531;90.44586181640625
15;1673298920.516632;47.1306423;7.2406201;0.003000000026077032;1673298920.6755335;-0.10095398128032684;-0.41429197788238525;90.40069580078125
16;1673298920.6921263;47.1306423;7.2406201;0.0020000000949949026;1673298920.8837867;-0.019767509773373604;-0.09693340212106705;90.32500457763672
17;1673298920.900376;47.1306423;7.2406201;0.0;1673298921.1062021;-0.1454130858182907;-0.3395059406757355;90.2372055053711
18;1673298921.1208658;47.1306422;7.2406201;0.0;1673298921.300252;-0.06287581473588943;-0.23005419969558716;90.2175064086914
19;1673298921.3162916;47.1306422;7.2406201;0.0010000000474974513;1673298921.4961882;-0.2639414966106415;-0.3582959771156311;90.54338073730469
20;1673298921.516184;47.1306422;7.2406201999999995;0.003000000026077032;1673298921.7001956;-0.4660778343677521;0.44673335552215576;90.33428192138672
21;1673298921.715204;47.1306423;7.2406203;0.005000000353902578;1673298921.8905442;-0.48869311809539795;-0.039766885340213776;90.42430114746094
22;1673298921.9053388;47.1306423;7.2406203;0.003000000026077032;1673298922.0991373;-0.81402987241745;-0.42000728845596313;90.43238067626953
23;1673298922.1161518;47.1306423;7.2406204;0.0;1673298922.2904623;-0.849547803401947;0.00023961655097082257;90.52001953125
24;1673298922.3061578;47.1306423;7.2406204;-0.0020000000949949026;1673298922.4843833;-0.8180263638496399;0.4635460376739502;90.42839050292969
25;1673298922.5014975;47.1306423;7.2406203;-0.0020000000949949026;1673298922.6923916;-0.7144302725791931;0.02296287938952446;90.74504089355469
26;1673298922.7081141;47.1306423;7.2406203;-0.003000000026077032;1673298922.8903852;-0.776042103767395;-0.08256913721561432;90.34595489501953
27;1673298922.9092777;47.1306423;7.2406203;-0.0020000000949949026;1673298923.1025288;-1.0419989824295044;-0.09245259314775467;90.3064956665039
28;1673298923.1182628;47.1306423;7.2406203;-0.004000000189989805;1673298923.2993386;-1.2380619049072266;-0.07474885880947113;90.27284240722656
29;1673298923.3133519;47.1306422;7.2406203;-0.007000000216066837;1673298923.498129;-1.805498480796814;-0.08836918324232101;89.86846160888672
30;1673298923.517309;47.1306422;7.2406204;-0.00800000037997961;1673298923.7047167;-0.6894668936729431;0.09127598255872726;84.47279357910156
31;1673298923.7205327;47.1306422;7.240620799999999;-0.01100000087171793;1673298923.9252338;2.9785499572753906;-0.37043359875679016;84.24907684326172
32;1673298923.9523878;47.1306422;7.2406222;-0.005000000353902578;1673298924.1355367;7.681234359741211;-0.7147596478462219;84.44525146484375
33;1673298924.1513312;47.1306423;7.2406245;0.004000000189989805;1673298924.3239355;14.231903076171875;-0.3987893760204315;85.21786499023438
34;1673298924.3371706;47.1306424;7.2406277999999995;0.017000000923871994;1673298924.5083869;16.19371223449707;-1.0871680974960327;85.94656372070312
35;1673298924.5242722;47.1306424;7.240632;0.03800000250339508;1673298924.7203639;16.711292266845703;-1.402868628501892;86.60466003417969
36;1673298924.736282;47.1306425;7.240636899999999;0.06700000166893005;1673298924.915452;18.035343170166016;-1.0166031122207642;87.18763732910156
37;1673298924.9342732;47.130642599999995;7.2406422;0.10700000822544098;1673298925.1181679;19.674274444580078;-0.4645746648311615;87.67025756835938
38;1673298925.135271;47.1306428;7.2406479;0.15800000727176666;1673298925.3228853;21.524784088134766;-0.7130357027053833;87.94557189941406
39;1673298925.341962;47.130643;7.2406536;0.22800001502037048;1673298925.514285;23.502614974975586;-0.5783950090408325;88.25465393066406
40;1673298925.5304255;47.130643199999994;7.2406593;0.31700000166893005;1673298925.7129986;25.54295539855957;-0.04113008826971054;88.5522232055664
41;1673298925.741487;47.1306434;7.2406647;0.42000001668930054;1673298925.9070654;27.64577865600586;0.07292177528142929;88.74249267578125
42;1673298925.9226959;47.1306435;7.2406698;0.5139999985694885;1673298926.099936;29.767000198364258;-0.23309652507305145;88.76599884033203
43;1673298926.1165776;47.1306436;7.2406744;0.5920000076293945;1673298926.307823;31.90048599243164;0.24983929097652435;88.99807739257812
44;1673298926.3269594;47.1306437;7.240678399999999;0.6600000262260437;1673298926.5074594;34.050811767578125;0.14169374108314514;89.02853393554688
45;1673298926.5250192;47.1306438;7.2406815;0.718000054359436;1673298926.7364511;36.228919982910156;0.16011543571949005;89.06932067871094
46;1673298926.7530437;47.1306438;7.240683799999999;0.76500004529953;1673298926.9485903;38.404666900634766;0.3615180552005768;89.14273834228516
47;1673298926.9661555;47.1306438;7.240685099999999;0.8030000329017639;1673298927.1429727;40.625328063964844;0.26062682271003723;89.17330169677734
48;1673298927.1595924;47.1306438;7.240685099999999;0.8360000252723694;1673298927.3710291;42.80536651611328;0.1957547515630722;89.16354370117188
49;1673298927.386646;47.1306437;7.2406839;0.8660000562667847;1673298927.553636;44.99570083618164;0.38027477264404297;89.32785034179688
50;1673298927.5703015;47.1306436;7.2406812;0.8970000147819519;1673298927.7399855;47.17660903930664;0.34193313121795654;89.4090347290039
51;1673298927.7555866;47.1306435;7.2406771;0.9240000247955322;1673298927.93126;46.501731872558594;0.174083411693573;89.37926483154297
52;1673298927.94706;47.130643299999996;7.2406714999999995;0.9430000185966492;1673298928.1157498;41.72506332397461;0.15890897810459137;89.4710922241211
53;1673298928.1294806;47.1306431;7.2406647;0.956000030040741;1673298928.2970552;36.873600006103516;-0.09274356812238693;89.577392578125
54;1673298928.3126886;47.1306429;7.2406573;0.9600000381469727;1673298928.4925427;32.33168411254883;-0.28766268491744995;89.53516387939453
55;1673298928.5101817;47.130642699999996;7.2406498;1.03000009059906;1673298928.6827233;29.219154357910156;-0.1249006912112236;89.66143035888672
56;1673298928.6993165;47.130642599999995;7.2406426999999995;1.1360000371932983;1673298928.8973804;23.100936889648438;-0.36841028928756714;89.56134796142578
57;1673298928.9129975;47.1306424;7.2406364;1.25;1673298929.1028292;20.221599578857422;-0.6754297614097595;89.53209686279297
58;1673298929.1224477;47.1306423;7.2406311;1.3690000772476196;1673298929.3090916;18.730253219604492;-0.11185310781002045;89.65898132324219
59;1673298929.3258498;47.1306423;7.2406272;1.4950001239776611;1673298929.496964;19.06793212890625;0.4519699811935425;104.05994415283203
60;1673298929.5135872;47.1306422;7.240624599999999;1.6290000677108765;1673298929.6930609;20.858484268188477;-2.648742914199829;102.7015380859375
61;1673298929.7106397;47.130641999999995;7.2406231;1.7710000276565552;1673298929.8953059;22.837060928344727;-1.3731656074523926;103.152587890625
62;1673298929.9158018;47.1306418;7.2406226;1.9280000925064087;1673298930.1061904;25.02535629272461;0.3183046877384186;102.84815979003906
63;1673298930.1247365;47.1306419;7.2406226;2.0970001220703125;1673298930.3099551;26.629350662231445;-1.7351692914962769;101.58056640625
64;1673298930.3255825;47.130642099999996;7.2406229;2.2760000228881836;1673298930.5129292;28.120635986328125;1.5822632312774658;101.73519897460938
65;1673298930.5314817;47.1306425;7.240623299999999;2.4610002040863037;1673298930.7153738;29.01558494567871;3.982347011566162;102.30262756347656
66;1673298930.729055;47.1306428;7.2406235;2.6470000743865967;1673298930.9056191;29.426239013671875;0.90483158826828;101.54450225830078
67;1673298930.933699;47.130643;7.240623599999999;2.8310000896453857;1673298931.1096117;29.429903030395508;1.698707938194275;101.7085189819336
68;1673298931.1291535;47.1306429;7.2406234;3.0240001678466797;1673298931.321338;29.21067237854004;3.5136959552764893;102.357421875
69;1673298931.3414035;47.130642699999996;7.2406231;3.2190001010894775;1673298931.513031;29.090377807617188;-0.7047029733657837;101.31462097167969
70;1673298931.530653;47.1306424;7.2406228;3.4190001487731934;1673298931.7231975;28.657888412475586;-0.3666459619998932;101.59831237792969
71;1673298931.7399442;47.130642099999996;7.2406223999999995;3.6150002479553223;1673298931.9190073;28.418445587158203;1.4067025184631348;102.2161636352539
72;1673298931.9374206;47.1306417;7.2406219;3.811000108718872;1673298932.128619;27.961679458618164;-1.3947794437408447;101.58577728271484
73;1673298932.1457496;47.130641399999995;7.2406215;4.003000259399414;1673298932.3211725;27.68494987487793;-2.052384376525879;101.41663360595703
74;1673298932.3383079;47.1306412;7.240621099999999;4.194000244140625;1673298932.5138147;27.42779541015625;1.214813232421875;102.44550323486328
75;1673298932.5304525;47.1306411;7.240620799999999;4.38700008392334;1673298932.715213;27.18819236755371;-1.0216370820999146;101.76644897460938
76;1673298932.7337723;47.1306411;7.2406204;4.581000328063965;1673298932.9268997;27.047529220581055;-1.6460806131362915;101.57241821289062
77;1673298932.9430687;47.1306411;7.2406201999999995;4.77400016784668;1673298933.1272993;26.9169979095459;1.875229835510254;102.3085708618164
78;1673298933.14198;47.1306413;7.24062;4.968000411987305;1673298933.3165524;26.90182876586914;1.2929607629776;102.08296203613281
79;1673298933.3321793;47.130641499999996;7.2406198999999996;5.160000324249268;1673298933.5459213;27.077608108520508;-0.6977859139442444;101.40020751953125
80;1673298933.5605612;47.1306417;7.2406198999999996;5.3510003089904785;1673298933.7402253;27.157283782958984;2.52484393119812;102.28350067138672
81;1673298933.7656238;47.1306418;7.2406198999999996;5.5420002937316895;1673298933.9341989;27.301652908325195;2.583040237426758;102.34025573730469
82;1673298933.947423;47.1306419;7.24062;5.736000061035156;1673298934.1207724;27.45931625366211;-0.1744750440120697;101.37922668457031
83;1673298934.140831;47.130641999999995;7.2406201;5.933000087738037;1673298934.3236675;27.647117614746094;2.526564359664917;102.14949035644531
84;1673298934.3412724;47.130642099999996;7.2406201999999995;6.128000259399414;1673298934.5177581;27.587932586669922;3.0088486671447754;102.34709167480469
85;1673298934.5372891;47.130642099999996;7.2406203;6.323000431060791;1673298934.7168837;27.745738983154297;-0.30465203523635864;101.39765930175781
86;1673298934.7327552;47.130642099999996;7.2406204;6.51800012588501;1673298934.9155667;27.868215560913086;1.2871663570404053;101.74285125732422
87;1673298934.9332283;47.130641999999995;7.2406204999999995;6.713000297546387;1673298935.1151228;27.815902709960938;2.8736109733581543;102.39402770996094
88;1673298935.1289158;47.1306419;7.2406204999999995;6.907000541687012;1673298935.307762;27.9252872467041;-0.5323054790496826;101.54402923583984
89;1673298935.3263063;47.1306418;7.2406206;7.1020002365112305;1673298935.5046067;27.922094345092773;0.73600172996521;101.78086853027344
90;1673298935.521201;47.1306418;7.2406206;7.300000190734863;1673298935.696803;27.932758331298828;2.96230411529541;102.46063995361328
91;1673298935.71163;47.1306418;7.2406207;7.497000217437744;1673298935.8961961;27.96629524230957;0.022857554256916046;101.66277313232422
92;1673298935.9147913;47.1306418;7.2406207;7.695000171661377;1673298936.1008806;27.838226318359375;0.2665172517299652;101.7313461303711
93;1673298936.1174595;47.1306418;7.2406206;7.890000343322754;1673298936.3023589;27.73640251159668;2.9267966747283936;102.42964172363281
94;1673298936.3179746;47.1306418;7.2406206;8.086000442504883;1673298936.532378;27.618619918823242;0.9178797006607056;101.8455581665039
95;1673298936.5456755;47.1306419;7.2406204999999995;8.280000686645508;1673298936.7479873;27.584636688232422;0.12832799553871155;101.48330688476562
96;1673298936.7636042;47.1306419;7.2406204;8.47800064086914;1673298936.936242;27.515625;3.2709639072418213;102.4359130859375
97;1673298936.9494712;47.1306419;7.2406203;8.677000045776367;1673298937.1195943;27.49546241760254;1.3813097476959229;101.9946517944336
98;1673298937.1344867;47.1306419;7.2406203;8.880000114440918;1673298937.3037353;27.425880432128906;-0.363339900970459;101.33036041259766
99;1673298937.320326;47.1306418;7.2406201999999995;9.083000183105469;1673298937.4973106;27.556293487548828;2.490137815475464;102.22695922851562
100;1673298937.5139186;47.1306417;7.2406201999999995;9.288000106811523;1673298937.6989207;27.61741828918457;1.6652612686157227;102.10941314697266
101;1673298937.716592;47.1306417;7.2406201999999995;9.49000072479248;1673298937.9046185;27.55995750427246;-0.4517097771167755;101.51512908935547
102;1673298937.9221897;47.1306417;7.2406201999999995;9.695000648498535;1673298938.107681;27.653865814208984;2.3657548427581787;102.23851013183594
103;1673298938.1254735;47.1306417;7.2406201999999995;9.903000831604004;1673298938.3226066;27.73644256591797;2.2217442989349365;102.27913665771484
104;1673298938.337248;47.1306417;7.2406201999999995;10.110000610351562;1673298938.5078754;27.265466690063477;0.031940147280693054;101.72596740722656
105;1673298938.5246735;47.1306417;7.2406201;10.374000549316406;1673298938.7149818;28.01948356628418;1.4451713562011719;102.16414642333984
106;1673298938.7345455;47.1306417;7.2406196;10.744000434875488;1673298938.923434;27.7356014251709;2.71921968460083;102.4468765258789
107;1673298938.9429274;47.1306418;7.240619;11.143000602722168;1673298939.1155827;26.104944229125977;-0.09401986002922058;101.50717163085938
108;1673298939.1321745;47.130641999999995;7.2406184;11.544000625610352;1673298939.2993007;25.542190551757812;0.9708251357078552;101.71866607666016
109;1673298939.314912;47.130641999999995;7.240617899999999;11.954000473022461;1673298939.4868207;24.95843505859375;2.5166032314300537;102.23397064208984
110;1673298939.5043886;47.130641999999995;7.240617599999999;12.366000175476074;1673298939.6891873;25.074954986572266;-0.36106568574905396;101.51619720458984
111;1673298939.70578;47.130641999999995;7.2406175;12.777000427246094;1673298939.8932672;25.35392951965332;0.39608466625213623;101.69341278076172
112;1673298939.9139452;47.130641999999995;7.240617599999999;13.1850004196167;1673298940.0954344;25.819562911987305;2.879805564880371;102.35574340820312
113;1673298940.113001;47.130641999999995;7.240617899999999;13.592000961303711;1673298940.294768;26.068405151367188;0.385444700717926;101.72230529785156
114;1673298940.310386;47.130642099999996;7.2406182;13.993000984191895;1673298940.4921243;26.529312133789062;0.5798172354698181;101.65098571777344
115;1673298940.5098572;47.1306422;7.2406185;14.397000312805176;1673298940.699719;26.81095314025879;3.3461999893188477;102.3302001953125
116;1673298940.7164755;47.1306423;7.2406188;14.804000854492188;1673298940.9081013;27.122222900390625;1.21743905544281;101.88485717773438
117;1673298940.9258258;47.1306424;7.240619;15.210000991821289;1673298941.1095078;27.201074600219727;0.5095632672309875;101.58053588867188
118;1673298941.1262329;47.1306424;7.240619199999999;15.61600112915039;1673298941.31856;27.18629264831543;3.3279874324798584;102.28416442871094
119;1673298941.333215;47.1306424;7.2406194;16.02400016784668;1673298941.5040991;27.1073055267334;1.7294598817825317;101.9520034790039
120;1673298941.5216663;47.1306425;7.2406194;16.429000854492188;1673298941.6967216;27.024456024169922;0.180312842130661;101.52001190185547
121;1673298941.713315;47.1306425;7.2406194;16.826000213623047;1673298941.893292;26.870975494384766;2.9850871562957764;102.26405334472656
122;1673298941.908297;47.1306425;7.2406194;17.227001190185547;1673298942.103151;26.733644485473633;1.7978706359863281;102.09122467041016
123;1673298942.122672;47.1306425;7.2406194;17.631000518798828;1673298942.3089533;26.727914810180664;-0.11822038888931274;101.48690795898438
124;1673298942.3255458;47.1306424;7.2406193;18.036001205444336;1673298942.5158405;26.509010314941406;2.6552727222442627;102.23371124267578
125;1673298942.535375;47.1306424;7.2406193;18.440000534057617;1673298942.72795;26.5661563873291;1.9223203659057617;102.05986022949219
126;1673298942.7446778;47.1306424;7.2406193;18.843000411987305;1673298942.9232926;26.569656372070312;-0.20410434901714325;101.3763427734375
127;1673298942.9437966;47.1306425;7.2406193;19.240001678466797;1673298943.128109;26.627761840820312;2.7456443309783936;102.1849136352539
128;1673298943.1438453;47.1306425;7.2406193;19.643001556396484;1673298943.3256788;26.508543014526367;2.572807788848877;102.3013687133789
129;1673298943.34423;47.130642599999995;7.2406193;20.047000885009766;1673298943.5440366;26.702356338500977;0.08396746963262558;101.57823944091797
130;1673298943.56084;47.1306425;7.2406193;20.455001831054688;1673298943.7405062;26.726346969604492;2.0563066005706787;101.9572982788086
131;1673298943.7532108;47.1306425;7.2406194;20.862001419067383;1673298943.9235713;26.738277435302734;3.2335803508758545;102.31996154785156
132;1673298943.939198;47.130642599999995;7.2406194;21.267000198364258;1673298944.112288;26.719738006591797;0.35219067335128784;101.57771301269531
133;1673298944.1278958;47.130642599999995;7.240619499999999;21.671001434326172;1673298944.3229165;26.90977668762207;1.4637218713760376;101.80585479736328
134;1673298944.338542;47.130642599999995;7.240619499999999;22.06800079345703;1673298944.514375;26.627729415893555;3.3677749633789062;102.31382751464844
135;1673298944.5299902;47.130642599999995;7.240619499999999;22.46900177001953;1673298944.7081356;26.77132225036621;0.7908094525337219;101.6494369506836
136;1673298944.726716;47.1306425;7.240619499999999;22.874000549316406;1673298944.930211;26.757448196411133;0.7471989393234253;101.58736419677734
137;1673298944.94779;47.1306425;7.2406196;23.2760009765625;1673298945.1265543;26.911571502685547;3.4244837760925293;102.3471450805664
138;1673298945.1441283;47.1306425;7.2406197;23.677001953125;1673298945.326016;26.902807235717773;1.6648324728012085;101.92915344238281
139;1673298945.3435884;47.1306425;7.2406197;24.075000762939453;1673298945.5379899;26.82996368408203;0.5147414803504944;101.54630279541016
140;1673298945.5641792;47.1306425;7.2406197;24.466001510620117;1673298945.741895;26.9366397857666;3.0296823978424072;102.2816162109375
141;1673298945.7635832;47.1306425;7.240619799999999;24.860000610351562;1673298945.9301958;26.84886360168457;2.0911202430725098;102.07257843017578
142;1673298945.9448304;47.1306425;7.240619799999999;25.259000778198242;1673298946.123856;26.942493438720703;0.15561680495738983;101.52967071533203
143;1673298946.1434047;47.1306424;7.240619799999999;25.660001754760742;1673298946.3082066;26.815683364868164;2.6920039653778076;102.07989501953125
144;1673298946.323833;47.1306425;7.240619799999999;26.06100082397461;1673298946.5108967;26.77403450012207;2.5587167739868164;102.16851043701172
145;1673298946.5294285;47.1306425;7.240619799999999;26.463001251220703;1673298946.7005014;26.805418014526367;0.2311205416917801;101.52404022216797
146;1673298946.7190459;47.1306425;7.240619799999999;26.869001388549805;1673298946.8948534;26.746028900146484;2.431163787841797;102.1064224243164
147;1673298946.9114437;47.1306424;7.240619799999999;27.26700210571289;1673298947.1030643;26.770071029663086;2.8021297454833984;102.28056335449219
148;1673298947.1215944;47.1306424;7.240619799999999;27.66900062561035;1673298947.3083847;26.83387565612793;-0.03584471344947815;101.53900146484375
149;1673298947.3249896;47.1306423;7.240619799999999;28.073001861572266;1673298947.5120795;26.820419311523438;1.8197646141052246;101.97003173828125
150;1673298947.530679;47.1306423;7.2406198999999996;28.47800064086914;1673298947.721555;26.785615921020508;2.9752700328826904;102.26948547363281
151;1673298947.7391427;47.1306423;7.2406198999999996;28.88300132751465;1673298947.9136887;26.861988067626953;0.33542171120643616;101.68798065185547
152;1673298947.9322476;47.1306424;7.240619799999999;29.288002014160156;1673298948.1255538;26.70701026916504;1.606017827987671;101.9314193725586
153;1673298948.141188;47.1306424;7.240619799999999;29.687002182006836;1673298948.3242278;26.662105560302734;3.2286417484283447;102.31478118896484
154;1673298948.3458035;47.1306424;7.240619799999999;30.09200096130371;1673298948.5273063;26.73097801208496;0.4852723777294159;101.67811584472656
155;1673298948.545026;47.1306424;7.240619799999999;30.498001098632812;1673298948.734661;26.671146392822266;1.3471440076828003;101.76444244384766
156;1673298948.751264;47.1306425;7.240619799999999;30.902002334594727;1673298948.9192674;26.677894592285156;3.656984329223633;102.46807098388672
157;1673298948.9338913;47.130642599999995;7.2406198999999996;31.306001663208008;1673298949.117412;26.741214752197266;1.3392020463943481;101.7038803100586
158;1673298949.1349814;47.130642599999995;7.2406198999999996;31.7080020904541;1673298949.3230653;26.864269256591797;1.1262717247009277;101.60092163085938
159;1673298949.3445385;47.130642599999995;7.24062;32.10900115966797;1673298949.5207894;26.70560646057129;3.4322216510772705;102.32034301757812
160;1673298949.5393775;47.1306425;7.24062;32.50300216674805;1673298949.7077549;26.863096237182617;1.3930604457855225;101.9323959350586
161;1673298949.722382;47.1306425;7.24062;32.90500259399414;1673298949.903434;26.83169174194336;0.5986241102218628;101.67011260986328
162;1673298949.9219613;47.1306425;7.24062;33.30900192260742;1673298950.1155972;26.771400451660156;3.4100191593170166;102.23345947265625
163;1673298950.13609;47.1306425;7.24062;33.70900344848633;1673298950.3166935;26.73524284362793;1.9239164590835571;101.95684051513672
164;1673298950.3332777;47.130642599999995;7.24062;34.11000061035156;1673298950.5305371;26.87262725830078;0.5686827898025513;101.50550842285156
165;1673298950.5484066;47.130642599999995;7.2406201;34.51300048828125;1673298950.7275927;26.80448341369629;3.112929582595825;102.2451400756836
166;1673298950.746136;47.1306425;7.2406201;34.909000396728516;1673298950.9882655;26.843225479125977;2.1750502586364746;102.1385726928711
167;1673298951.0116887;47.1306425;7.24062;35.31300354003906;1673298951.1708763;26.904218673706055;0.3088390827178955;101.57139587402344
168;1673298951.189424;47.1306425;7.2406201;35.71900177001953;1673298951.3568802;26.78313446044922;3.0599205493927;102.17095184326172
169;1673298951.3730385;47.130642599999995;7.2406201;36.125;1673298951.5430062;26.70050621032715;3.0048959255218506;102.16127014160156
170;1673298951.55865;47.130642599999995;7.2406201;36.52799987792969;1673298951.7255256;26.893335342407227;0.3143559992313385;101.47352600097656
171;1673298951.740252;47.130642599999995;7.2406201;36.93100357055664;1673298951.9361198;26.82390022277832;2.3964908123016357;101.98380279541016
172;1673298951.951851;47.130642599999995;7.2406201;37.33500289916992;1673298952.1369176;26.859315872192383;3.1884255409240723;102.15919494628906
173;1673298952.1516356;47.130642599999995;7.2406201;37.72800064086914;1673298952.3260562;26.785181045532227;0.2981279194355011;101.4991683959961
174;1673298952.3416944;47.1306425;7.24062;38.12800216674805;1673298952.5117779;26.843700408935547;2.078653573989868;101.91510772705078
175;1673298952.530307;47.130642599999995;7.24062;38.52800369262695;1673298952.71657;26.685388565063477;3.5428466796875;102.35458374023438
176;1673298952.7332249;47.130642599999995;7.24062;38.93100357055664;1673298952.9145565;26.7363338470459;0.5624892115592957;101.63408660888672
177;1673298952.9372458;47.130642599999995;7.2406198999999996;39.33500289916992;1673298953.1162176;26.547382354736328;1.7414253950119019;101.9044189453125
178;1673298953.1310053;47.130642599999995;7.2406198999999996;39.74100112915039;1673298953.3191774;26.605857849121094;3.6264400482177734;102.40105438232422
179;1673298953.3377244;47.130642599999995;7.2406198999999996;40.13500213623047;1673298953.533003;26.673748016357422;1.1941254138946533;101.85538482666016
180;1673298953.5496411;47.130642599999995;7.2406198999999996;40.53300094604492;1673298953.7405298;26.863521575927734;1.3646291494369507;101.78052520751953
181;1673298953.7551703;47.130642599999995;7.24062;40.93300247192383;1673298953.9315257;26.58056640625;3.7232613563537598;102.37779235839844
182;1673298953.947137;47.130642699999996;7.24062;41.33400344848633;1673298954.1440623;26.760290145874023;1.6728533506393433;101.83377838134766
183;1673298954.1618648;47.130642699999996;7.24062;41.7390022277832;1673298954.3394954;26.7392635345459;1.030381202697754;101.61011505126953
184;1673298954.354136;47.130642699999996;7.24062;42.14400100708008;1673298954.533209;26.62877655029297;3.6166136264801025;102.36804962158203
185;1673298954.5491345;47.130642699999996;7.24062;42.54800033569336;1673298954.7310588;26.706315994262695;2.2740373611450195;102.14983367919922
186;1673298954.7476594;47.130642699999996;7.24062;42.94200134277344;1673298954.9314222;26.690370559692383;0.7088022232055664;101.53385162353516
187;1673298954.9499683;47.130642699999996;7.24062;43.342002868652344;1673298955.1354582;26.64059066772461;3.6466927528381348;102.21276092529297
188;1673298955.154003;47.130642699999996;7.24062;43.74500274658203;1673298955.330322;26.731754302978516;2.2953693866729736;101.87892150878906
189;1673298955.3449612;47.130642699999996;7.24062;44.14900207519531;1673298955.5185528;26.761442184448242;0.5277156233787537;101.45169067382812
190;1673298955.533333;47.130642699999996;7.24062;44.55800247192383;1673298955.7078216;26.695316314697266;3.4373528957366943;102.1708984375
191;1673298955.729067;47.130642699999996;7.24062;44.9630012512207;1673298955.915673;26.76372528076172;2.377795457839966;102.10459899902344
192;1673298955.9342184;47.130642699999996;7.24062;45.35700225830078;1673298956.1385126;26.729434967041016;0.6216968297958374;101.57500457763672
193;1673298956.1541295;47.130642599999995;7.24062;45.75600051879883;1673298956.3341897;26.831090927124023;3.188652515411377;102.18515014648438
194;1673298956.349804;47.130642599999995;7.2406201;46.159000396728516;1673298956.5355465;26.74901008605957;2.9169180393218994;102.17500305175781
195;1673298956.5542347;47.130642599999995;7.2406201;46.560001373291016;1673298956.7297423;26.789756774902344;0.33879077434539795;101.48280334472656
196;1673298956.7463474;47.130642599999995;7.2406201;46.96200180053711;1673298956.9311385;26.766342163085938;2.4041199684143066;102.01097106933594
197;1673298956.950711;47.1306425;7.2406201;47.3650016784668;1673298957.1480258;26.74512481689453;3.4470596313476562;102.33902740478516
198;1673298957.162661;47.130642599999995;7.2406201;47.76900100708008;1673298957.3521235;26.7659969329834;0.5631811022758484;101.39978790283203
199;1673298957.3687365;47.130642599999995;7.2406201999999995;48.15700149536133;1673298957.5481362;26.939016342163086;2.8561441898345947;102.22444915771484
200;1673298957.5657504;47.130642599999995;7.2406203;48.50400161743164;1673298957.7490282;26.794174194335938;3.823500394821167;102.34684753417969
201;1673298957.7646325;47.130642599999995;7.2406204999999995;48.80000305175781;1673298957.9437463;27.17488670349121;0.8235225081443787;101.54386138916016
202;1673298957.961332;47.130642599999995;7.240620799999999;49.05000305175781;1673298958.1667557;27.496599197387695;2.2241830825805664;101.96324157714844
203;1673298958.1868982;47.1306425;7.2406213;49.26100158691406;1673298958.3641458;35.20823287963867;3.3097474575042725;99.81409454345703
204;1673298958.385244;47.1306425;7.240621699999999;49.439002990722656;1673298958.5615842;39.060272216796875;7.65609884262085;90.40570068359375
205;1673298958.57952;47.1306424;7.2406216;49.5420036315918;1673298958.7577386;33.799415588378906;2.46034574508667;76.7322998046875
206;1673298958.7734265;47.1306416;7.2406212;49.56500244140625;1673298958.96058;28.18633460998535;-13.365939140319824;68.76675415039062
207;1673298958.98776;47.130640299999996;7.2406204999999995;49.595001220703125;1673298959.17587;27.987974166870117;-17.400123596191406;60.0817756652832
208;1673298959.1886349;47.130638999999995;7.2406197;49.64400100708008;1673298959.3465972;25.21000862121582;-20.629140853881836;50.68476104736328
209;1673298959.3637898;47.1306376;7.2406188;49.68600082397461;1673298959.5375752;17.763729095458984;-24.689680099487305;41.767677307128906
210;1673298959.5514188;47.1306363;7.2406177;49.72600173950195;1673298959.725816;11.651080131530762;-27.603254318237305;32.081295013427734
211;1673298959.7397873;47.1306351;7.2406165;49.76000213623047;1673298959.9397247;5.32588529586792;-29.165409088134766;22.382808685302734
212;1673298959.9577093;47.130634199999996;7.240615399999999;49.78000259399414;1673298960.1568644;-0.551827609539032;-29.47768783569336;12.820459365844727
213;1673298960.1765711;47.130633599999996;7.2406143;49.802001953125;1673298960.350626;-5.579206466674805;-28.651269912719727;3.634042978286743
214;1673298960.3677335;47.1306332;7.240613499999999;49.82500076293945;1673298960.5597246;-9.939774513244629;-26.98475456237793;-5.526332855224609
215;1673298960.5797198;47.130632899999995;7.2406127;49.85000228881836;1673298960.7715027;-13.525347709655762;-23.642793655395508;-14.266471862792969
216;1673298960.7900457;47.130632899999995;7.240612199999999;49.871002197265625;1673298960.9679062;-16.083255767822266;-20.860769271850586;-23.009906768798828
217;1673298960.9942577;47.1306331;7.2406117;49.89400100708008;1673298961.2162752;-17.997140884399414;-19.416675567626953;-31.6608829498291
218;1673298961.2318947;47.1306333;7.2406114;49.90500259399414;1673298961.376104;-20.067720413208008;-18.70612144470215;-40.1574821472168
219;1673298961.3897676;47.130633499999995;7.2406112;49.922000885009766;1673298961.5382404;-22.52177619934082;-17.03870964050293;-48.877803802490234
220;1673298961.5549834;47.130633599999996;7.2406111;49.941001892089844;1673298961.7435236;-23.389039993286133;-16.209598541259766;-51.637908935546875
221;1673298961.7592487;47.130633599999996;7.2406111;49.96000289916992;1673298961.9407005;-23.736074447631836;-16.8156795501709;-47.552974700927734
222;1673298961.956316;47.130633599999996;7.2406111;49.97500228881836;1673298962.1284;-23.439191818237305;-16.06716537475586;-45.67180633544922
223;1673298962.1449914;47.130633599999996;7.2406111;49.987003326416016;1673298962.3275774;-23.484783172607422;-14.660361289978027;-45.740360260009766
224;1673298962.3441708;47.130633599999996;7.2406112;49.996002197265625;1673298962.5366733;-23.23181915283203;-14.564199447631836;-45.539981842041016
225;1673298962.5532677;47.1306337;7.2406112;49.9900016784668;1673298962.741785;-22.59977912902832;-17.62019157409668;-44.680423736572266
226;1673298962.7574008;47.1306338;7.2406112;49.996002197265625;1673298962.9399378;-22.205900192260742;-20.000255584716797;-44.1733512878418
227;1673298962.9586372;47.1306339;7.2406112;50.00600051879883;1673298963.1383433;-22.221446990966797;-20.74678611755371;-44.01896286010742
228;1673298963.153891;47.1306339;7.2406112;50.012001037597656;1673298963.344153;-22.465330123901367;-19.731962203979492;-44.197731018066406
229;1673298963.3613894;47.1306338;7.2406109999999995;50.01400375366211;1673298963.5478048;-32.4608039855957;-16.630956649780273;-45.15550231933594
230;1673298963.5654614;47.1306337;7.2406106999999995;50.01300048828125;1673298963.7350001;-48.498329162597656;-10.318613052368164;-46.41829299926758
231;1673298963.7498214;47.130634099999995;7.2406096;50.01400375366211;1673298963.9409592;-58.25370407104492;-7.439659118652344;-47.522743225097656
232;1673298963.9587393;47.130635899999994;7.2406067;50.02300262451172;1673298964.1477673;-60.113468170166016;-4.950311183929443;-49.65154266357422
233;1673298964.1645148;47.1306395;7.2406011999999995;50.02300262451172;1673298964.3421237;-54.674747467041016;-4.352545261383057;-50.94667434692383
234;1673298964.3558497;47.1306446;7.2405933;49.996002197265625;1673298964.5429757;-51.734886169433594;-4.985499858856201;-50.62169647216797
235;1673298964.5908043;47.1306507;7.2405835;49.952003479003906;1673298964.7790565;-52.80918884277344;-3.9288833141326904;-49.66012954711914
236;1673298964.8149364;47.1306576;7.2405724;49.90400314331055;1673298964.9889395;-51.51256561279297;-3.8444900512695312;-48.92197799682617
237;1673298965.0096912;47.1306655;7.2405602;49.86100387573242;1673298965.1809626;-48.5102653503418;-5.154224872589111;-48.10439682006836
238;1673298965.1979244;47.1306744;7.2405477;49.81700134277344;1673298965.36497;-47.991153717041016;-5.636778831481934;-48.392581939697266
239;1673298965.3879995;47.1306837;7.240534599999999;49.781002044677734;1673298965.5401323;-48.517860412597656;-5.707718849182129;-49.85488510131836
240;1673298965.5578127;47.1306934;7.240520999999999;49.75600051879883;1673298965.7269993;-48.26511764526367;-5.340171813964844;-50.34660339355469
241;1673298965.7439141;47.130703399999994;7.240507;49.74400329589844;1673298965.9162185;-48.67218780517578;-6.141915798187256;-49.751808166503906
242;1673298965.9389951;47.130713799999995;7.2404927;49.74100112915039;1673298966.1281066;-49.22764205932617;-6.917857646942139;-49.59449005126953
243;1673298966.1469808;47.1307245;7.2404782999999995;49.750003814697266;1673298966.3399162;-48.97654724121094;-8.42933464050293;-49.382774353027344
244;1673298966.3598497;47.1307355;7.2404639;49.759002685546875;1673298966.5382664;-48.5684700012207;-10.162970542907715;-49.34123992919922
245;1673298966.5630672;47.130746599999995;7.2404489;49.775001525878906;1673298966.7430131;-47.94070053100586;-12.27955150604248;-49.34001159667969
246;1673298966.7667897;47.1307575;7.2404335;49.7910041809082;1673298966.9402292;-47.3015022277832;-15.031216621398926;-49.541202545166016
247;1673298966.9559379;47.1307683;7.2404176;49.80800247192383;1673298967.1299684;-45.856407165527344;-25.154006958007812;-47.92435836791992
248;1673298967.150797;47.1307786;7.240401299999999;49.82100296020508;1673298967.337752;-35.282230377197266;-33.46809005737305;-52.351654052734375
249;1673298967.3570259;47.1307876;7.240384199999999;49.823001861572266;1673298967.540046;-3.3244991302490234;-37.030513763427734;-57.982765197753906
250;1673298967.555853;47.130794599999994;7.240367699999999;49.80400085449219;1673298967.7477536;13.525731086730957;-15.504557609558105;-54.977115631103516
251;1673298967.7709386;47.1307993;7.240353799999999;49.71200180053711;1673298967.9564445;13.280920028686523;-11.080342292785645;-47.192352294921875
252;1673298967.9720476;47.1308023;7.2403445;49.62900161743164;1673298968.1480715;24.35232925415039;-19.713825225830078;-46.59326934814453
253;1673298968.1647658;47.1308035;7.2403398;49.60000228881836;1673298968.333453;23.714282989501953;-22.40229606628418;-43.79417419433594
254;1673298968.357442;47.1308029;7.240339;49.59100341796875;1673298968.5521097;23.16289710998535;-32.72648239135742;-42.53024673461914
255;1673298968.5706546;47.1308004;7.240341399999999;49.6140022277832;1673298968.7620387;6.497941493988037;-34.85462951660156;-43.06692886352539
256;1673298968.7776558;47.1307958;7.2403452999999995;49.663002014160156;1673298968.9595716;-5.869152069091797;-31.997804641723633;-46.65085220336914
257;1673298968.976394;47.130789799999995;7.2403493999999995;49.717002868652344;1673298969.2010288;0.8777084350585938;-28.95806121826172;-49.26810836791992
258;1673298969.2156682;47.130783199999996;7.240353799999999;49.7650032043457;1673298969.390762;7.821016311645508;-29.768835067749023;-47.89578628540039
259;1673298969.406449;47.130776;7.2403587;49.80600357055664;1673298969.5559683;14.339099884033203;-30.93795394897461;-47.1507568359375
260;1673298969.5706048;47.130767899999995;7.2403642999999995;49.8380012512207;1673298969.7610755;14.07563304901123;-32.28994369506836;-46.37858200073242
261;1673298969.7766995;47.1307589;7.2403707;49.85900115966797;1673298969.9466698;7.27738618850708;-33.46934127807617;-46.77699279785156
262;1673298969.9614735;47.130749099999996;7.2403775999999995;49.87300109863281;1673298970.157812;-0.3801770806312561;-25.50048065185547;-47.27544021606445
263;1673298970.1871552;47.130738799999996;7.2403847;49.87300109863281;1673298970.3688786;-7.851150035858154;-3.1289680004119873;-47.977821350097656
264;1673298970.382546;47.1307289;7.240391799999999;49.867000579833984;1673298970.5661843;-7.527836322784424;42.33464431762695;-47.56431579589844
265;1673298970.581952;47.130719299999996;7.2403995;49.62000274658203;1673298970.7615576;-7.389446258544922;93.67650604248047;-45.79670715332031
266;1673298970.7771735;47.130709599999996;7.240407299999999;48.99100112915039;1673298970.9435177;-8.614282608032227;134.62860107421875;-43.57765197753906
267;1673298970.9567654;47.130699899999996;7.240415;48.00300216674805;1673298971.1391954;-10.139497756958008;157.05203247070312;-39.32088088989258
268;1673298971.1563358;47.1306903;7.240423;46.652000427246094;1673298971.3480027;-14.665759086608887;160.35829162597656;-37.88269805908203
269;1673298971.3646317;47.130680999999996;7.2404312;44.92000198364258;1673298971.5448117;-21.279638290405273;143.76853942871094;-36.03115463256836
270;1673298971.5604734;47.130671899999996;7.2404397;42.79300308227539;1673298971.739124;-33.101383209228516;100.96931457519531;-27.566207885742188
271;1673298971.7591848;47.130663;7.240448499999999;40.31300354003906;1673298971.9297278;-26.82187271118164;27.141887664794922;-1.7525843381881714
272;1673298971.9465036;47.130654;7.2404570999999995;37.48400115966797;1673298972.1392128;-0.056783635169267654;-37.02595901489258;-1.0436688661575317
273;1673298972.156457;47.1306449;7.240465599999999;34.24800109863281;1673298972.3410842;14.058250427246094;-76.35105895996094;-13.364465713500977
274;1673298972.3577323;47.130635999999996;7.2404746;30.63300132751465;1673298972.5448794;20.870088577270508;-77.89039611816406;-14.822049140930176
275;1673298972.5659068;47.1306273;7.2404839;26.68600082397461;1673298972.753072;16.568649291992188;-36.301727294921875;3.6833555698394775
276;1673298972.7726004;47.1306187;7.2404933;22.417001724243164;1673298972.9521103;-14.689852714538574;25.560495376586914;10.493779182434082
277;1673298972.9696624;47.130610499999996;7.2405032;17.761001586914062;1673298973.1542673;-37.192138671875;83.28826904296875;-10.252822875976562
278;1673298973.1700847;47.1306022;7.2405127;12.731000900268555;1673298973.3574235;-47.313804626464844;94.04020690917969;-18.812475204467773
279;1673298973.373041;47.130593999999995;7.2405221;7.40000057220459;1673298973.5566468;-44.348289489746094;31.36605453491211;19.179180145263672
280;1673298973.5742178;47.1305858;7.2405314;1.7720000743865967;1673298973.7485833;-14.427387237548828;-9.721619606018066;25.796974182128906
281;1673298973.7637634;47.1305921;7.2405319;-0.242000013589859;1673298973.9331434;-13.703409194946289;-11.415677070617676;30.585834503173828
282;1673298973.9503272;47.1306061;7.2405317;-0.6610000133514404;1673298974.1400917;-13.504255294799805;-11.410748481750488;30.35477638244629
283;1673298974.161536;47.130621;7.2405323;-1.0860000848770142;1673298974.352325;-13.436028480529785;-11.376030921936035;30.049930572509766
284;1673298974.3698924;47.130635399999996;7.240532399999999;-1.527000069618225;1673298974.5624614;-13.129222869873047;-10.4345703125;29.67679786682129
285;1673298974.5771625;47.1306496;7.2405319;-1.9720001220703125;1673298974.763912;-13.18503189086914;-10.773554801940918;29.256912231445312
286;1673298974.7807028;47.1306659;7.2405306;-2.4050002098083496;1673298974.9443755;-13.282581329345703;-10.403836250305176;28.840749740600586
287;1673298974.9615245;47.1306836;7.2405288;-2.8490002155303955;1673298975.1361654;-13.407689094543457;-10.41103744506836;28.669734954833984
288;1673298975.1528156;47.1307025;7.2405265;-3.2830002307891846;1673298975.3321295;-13.492690086364746;-10.357150077819824;28.34331703186035
289;1673298975.3477378;47.1307225;7.2405237;-3.703000068664551;1673298975.5401654;-13.56582260131836;-10.315858840942383;28.00025749206543
290;1673298975.561913;47.130742999999995;7.2405206;-4.052999973297119;1673298975.7462063;-13.278849601745605;-9.84713077545166;27.701784133911133
291;1673298975.7641332;47.130762999999995;7.240517;-4.171000003814697;1673298975.9514267;-13.097126007080078;-9.609498023986816;27.4036865234375
292;1673298975.9684086;47.1307834;7.240513099999999;-4.111000061035156;1673298976.161938;-12.888218879699707;-9.59326457977295;27.432815551757812
293;1673298976.186157;47.130804499999996;7.2405086999999995;-3.9190001487731934;1673298976.3591907;-12.75503158569336;-9.370370864868164;27.173351287841797
294;1673298976.3741603;47.1308267;7.240504;-3.6460001468658447;1673298976.5490084;-12.928025245666504;-9.129300117492676;26.99188232421875
295;1673298976.5677269;47.1308502;7.240499;-3.3530001640319824;1673298976.7610502;-12.683238983154297;-9.291131019592285;26.80449676513672
296;1673298976.7763162;47.1308748;7.2404936;-3.134000062942505;1673298976.953023;-12.741693496704102;-9.39968490600586;26.5479793548584
297;1673298976.9702528;47.130900399999994;7.2404879;-2.8950002193450928;1673298977.147909;-12.71297550201416;-9.263803482055664;26.228900909423828
298;1673298977.1642895;47.130927;7.2404817999999995;-2.6670000553131104;1673298977.3387938;-12.642791748046875;-9.372305870056152;26.098329544067383
299;1673298977.357232;47.1309545;7.240475399999999;-2.4590001106262207;1673298977.5460663;-12.675639152526855;-9.132678031921387;25.865617752075195
300;1673298977.564306;47.1309829;7.2404686;-2.2800002098083496;1673298977.7784526;-12.608482360839844;-9.029358863830566;25.659433364868164
301;1673298977.7933578;47.1310122;7.240461499999999;-2.133000135421753;1673298977.9733536;-12.625513076782227;-8.91165542602539;25.459016799926758
302;1673298977.988441;47.1310423;7.2404541;-2.00600004196167;1673298978.1724474;-12.56173038482666;-9.034831047058105;25.382423400878906
303;1673298978.1882467;47.1310733;7.2404464;-1.909000039100647;1673298978.3614135;-12.565291404724121;-8.88994026184082;25.129247665405273
304;1673298978.3780918;47.1311051;7.2404383;-1.8130000829696655;1673298978.563296;-12.48846435546875;-9.29301643371582;25.052799224853516
305;1673298978.580173;47.1311378;7.2404299;-1.718000054359436;1673298978.7651453;-12.504537582397461;-9.036678314208984;24.87168312072754
306;1673298978.781368;47.1311713;7.2404211;-1.630000114440918;1673298978.971263;-12.501044273376465;-9.010744094848633;24.683334350585938
307;1673298978.9879968;47.1312056;7.240412;-1.5430001020431519;1673298979.156858;-12.328194618225098;-9.319133758544922;24.5801944732666
308;1673298979.1732652;47.1312406;7.2404025999999995;-1.4580000638961792;1673298979.3490145;-12.436841011047363;-9.234455108642578;24.408456802368164
309;1673298979.3681233;47.1312693;7.2403948;-1.3940000534057617;1673298979.5544102;-12.46468734741211;-9.1273832321167;24.418689727783203
310;;;;;1673298979.7455606;-12.158178329467773;-9.056279182434082;24.205114364624023
311;;;;;1673298979.9464068;-12.216841697692871;-9.147709846496582;24.140546798706055
312;;;;;1673298980.151142;-12.233599662780762;-8.488038063049316;23.807844161987305
313;;;;;1673298980.378399;-12.261319160461426;-8.89324951171875;23.802377700805664
