sep=,
CUSTOM.date [local], CUSTOM.updateTime [local], OSD.flyTime, OSD.flyTime [s], OSD.latitude, OSD.longitude, OSD.height [ft], OSD.heightMax [ft], OSD.vpsHeight [ft], OSD.altitude [ft], OSD.hSpeed [MPH], OSD.hSpeedMax [MPH], OSD.xSpeed [MPH], OSD.xSpeedMax [MPH], OSD.ySpeed [MPH], OSD.ySpeedMax [MPH], OSD.zSpeed [MPH], OSD.zSpeedMax [MPH], OSD.pitch, OSD.roll, OSD.yaw, OSD.yaw [360], OSD.flycState, OSD.flycCommand, OSD.flightAction, OSD.gpsNum, OSD.gpsLevel, OSD.isGPSUsed, OSD.nonGPSCause, OSD.droneType, OSD.isSwaveWork, OSD.waveError, OSD.goHomeStatus, OSD.batteryType, OSD.ctrlDevice, OSD.isOnGround, OSD.isMotorOn, OSD.isMotorBlocked, OSD.motorStartFailedCause, OSD.motorFailReason, OSD.isImuPreheated, OSD.imuInitFailReason, OSD.isAcceletorOverRange, OSD.isBarometerDeadInAir, OSD.isCompassError, OSD.isGoHomeHeightModified, OSD.canIOCWork, OSD.isNotEnoughForce, OSD.isOutOfLimit, OSD.isPropellerCatapult, OSD.isVibrating, OSD.isVisionUsed, OSD.voltageWarning, GIMBAL.mode, GIMBAL.pitch, GIMBAL.roll, GIMBAL.yaw, GIMBAL.yaw [360], GIMBAL.isPitchAtLimit, GIMBAL.isRollAtLimit, GIMBAL.isYawAtLimit, GIMBAL.isStuck, CAMERA.isPhoto, CAMERA.isVideo, CAMERA.filename, CAMERA.sdCardIsInserted, CAMERA.sdCardState, RC.downlinkSignal, RC.uplinkSignal, RC.aileron, RC.elevator, RC.throttle, RC.rudder, RC.mode, RC.goHomeDepressed, RC.recordDepressed, RC.shutterDepressed, RC.playbackDepressed, RC.wheelDepressed, RC.wheelOffset, RC.custom1Depressed, RC.custom2Depressed, RC.custom3Depressed, RC.custom4Depressed, BATTERY.chargeLevel, BATTERY.currentPV [V], BATTERY.currentCapacity [mAh], BATTERY.fullCapacity [mAh], BATTERY.voltage [V], BATTERY.isCellVoltageEstimated, BATTERY.cellVoltage1 [V], BATTERY.cellVoltage2 [V], BATTERY.cellVoltage3 [V], BATTERY.cellVoltage4 [V], BATTERY.cellVoltage5 [V], BATTERY.cellVoltage6 [V], BATTERY.maxCellVoltageDeviation, BATTERY.isCellVoltageDeviationHigh, BATTERY.isVoltageLow, BATTERY.current [A], BATTERY.temperature [F], BATTERY.minTemperature [F], BATTERY.maxTemperature [F], BATTERY.usefulTime [s], BATTERY.goHomeTime [s], BATTERY.landTime [s], BATTERY.goHomeBattery, BATTERY.landBattery, BATTERY.safeFlyRadius, BATTERY.volumeConsume, BATTERY.status, BATTERY.goHomeStatus, BATTERY.goHomeCountdown, BATTERY.lowWarning, BATTERY.lowWarningGoHome, BATTERY.seriousLowWarning, BATTERY.seriousLowWarningLanding, BATTERY.timesCharged, MC.failSafeAction, HOME.latitude, HOME.longitude, HOME.distance [ft], HOME.height [ft], HOME.heightLimit [ft], HOME.isHomeRecord, HOME.goHomeMode, HOME.aircraftHeadDirection, HOME.isDynamicHomePointEnabled, HOME.isReachedLimitDistance, HOME.isReachedLimitHeight, HOME.isCompassCeleing, HOME.compassCeleStatus, HOME.isMultipleFlightModeEnabled, HOME.isBeginnerMode, HOME.isIOCEnabled, HOME.iocMode, HOME.goHomeHeight [ft], HOME.courseLockAngle, HOME.forceLandingHeight [ft], HOME.wind, HOME.dataRecorderFileIndex, RECOVER.appType, RECOVER.appVersion, RECOVER.aircraftName, RECOVER.aircraftSerial, RECOVER.cameraSerial, RECOVER.rcSerial, RECOVER.batterySerial, DETAILS.totalTime [s], DETAILS.totalDistance [ft], DETAILS.maxHeight [ft], DETAILS.maxHorizontalSpeed [MPH], DETAILS.maxVerticalSpeed [MPH], DETAILS.photoNum, DETAILS.videoTime [s], DETAILS.aircraftName, DETAILS.aircraftSerial, DETAILS.cameraSerial, DETAILS.rcSerial, DETAILS.batterySerial, DETAILS.appName, DETAILS.appType, DETAILS.appVersion, APPGPS.latitude, APPGPS.longitude, APPGPS.accuracy, APP.message, APP.tip, APP.warning
8/25/2022,8:45:29.89 AM,0m 0.0s,0.0,46.97551562,7.18034194,0,0,0.7,1429,0,0,0,0,0,0,0,0,-0.4,0.1,-37.8,322.2,Starting Motors,Other,Waypoint Mission,17,10,True,,Matrice 300 RTK,True,False,,Smart,RC,True,True,False,,,True,,False,False,False,False,False,False,False,False,False,False,0,Free,0,0,0,0,False,False,False,False,False,False,,False,Normal,,100,1024,1024,1024,1024,1,False,False,False,False,False,0,False,False,False,False,52,46.404,5437,10462,46.404,True,,,,,,,,False,False,0.726,103.3,103.3,103.3,,,,,,,,,Idle,,,True,,False,,Go Home,,,,,,False,,,False,False,False,False,0,False,False,False,,,,,Calm,,Android, 4.1.1,M300 RTK,1ZNBJ8700C01MC,,1ZMBHAN003009A,1Z6PHBKDA01Y41,185.4,1.8,259.2,36.6,7.4,0,0,M300 RTK,1ZNBJ8700C01MC,,1ZMBHAN003009A,1Z6PHBKDA01Y41,DJI Pilot,Android, 4.1.1,46.97544267,7.180408,487.2,,,
8/25/2022,8:45:29.99 AM,0m 0.1s,0.1,46.97551563,7.18034194,0,0,0.7,1429,0,0,0,0,0,0,0,0,-0.4,0.1,-37.8,322.2,Starting Motors,Other,Waypoint Mission,17,10,True,,Matrice 300 RTK,True,False,,Smart,RC,True,True,False,,,True,,False,False,False,False,False,False,False,False,False,False,0,Free,0,0,0,0,False,False,False,False,False,False,,False,Normal,,100,1024,1024,1024,1024,1,False,False,False,False,False,0,False,False,False,False,52,46.404,5437,10462,46.404,True,,,,,,,,False,False,0.726,103.3,103.3,103.3,,,,,,,,,Idle,,,True,,False,,Go Home,,,,,,False,,,False,False,False,False,0,False,False,False,,,,,Calm,,Android, 4.1.1,M300 RTK,1ZNBJ8700C01MC,,1ZMBHAN003009A,1Z6PHBKDA01Y41,185.4,1.8,259.2,36.6,7.4,0,0,M300 RTK,1ZNBJ8700C01MC,,1ZMBHAN003009A,1Z6PHBKDA01Y41,DJI Pilot,Android, 4.1.1,46.97544267,7.180408,487.2,,,
8/25/2022,8:45:30.09 AM,0m 0.2s,0.2,46.97551563,7.18034194,0,0,0.7,1429,0,0,0,0,0,0,0,0,-0.4,0.1,-37.8,322.2,Starting Motors,Other,Waypoint Mission,17,10,True,,Matrice 300 RTK,True,False,,Smart,RC,True,True,False,,,True,,False,False,False,False,False,False,False,False,False,False,0,Free,0,0,0,0,False,False,False,False,False,False,,False,Normal,,100,1024,1024,1024,1024,1,False,False,False,False,False,0,False,False,False,False,52,46.404,5437,10462,46.404,True,,,,,,,,False,False,0.726,103.3,103.3,103.3,,,,,,,,,Idle,,,True,,False,,Go Home,,,,,,False,,,False,False,False,False,0,False,False,False,,,,,Calm,,Android, 4.1.1,M300 RTK,1ZNBJ8700C01MC,,1ZMBHAN003009A,1Z6PHBKDA01Y41,185.4,1.8,259.2,36.6,7.4,0,0,M300 RTK,1ZNBJ8700C01MC,,1ZMBHAN003009A,1Z6PHBKDA01Y41,DJI Pilot,Android, 4.1.1,46.97544267,7.180408,487.2,,,
8/25/2022,8:45:30.29 AM,0m 0.3s,0.3,46.97551563,7.18034195,0,0,0.7,1429,0,0,0,0,0,0,0,0,-0.4,0.1,-37.8,322.2,Starting Motors,Other,Waypoint Mission,17,10,True,,Matrice 300 RTK,True,False,,Smart,RC,True,True,False,,,True,,False,False,False,False,False,False,False,False,False,False,0,Free,0,0,0,0,False,False,False,False,False,False,,False,Normal,100,100,1024,1024,1024,1024,1,False,False,False,False,False,0,False,False,False,False,52,46.404,5437,10462,46.351,True,,,,,,,,False,False,0.726,103.3,103.3,103.3,0,53,0,10,5,5529.5,737.27,,Idle,0,30,False,10,True,,Go Home,46.97551562,7.18034194,0.0,1223.2,262.5,True,1,1,False,False,False,False,0,False,False,False,Course Lock,262.5,,23.0,Calm,23,Android, 4.1.1,M300 RTK,1ZNBJ8700C01MC,,1ZMBHAN003009A,1Z6PHBKDA01Y41,185.4,1.8,259.2,36.6,7.4,0,0,M300 RTK,1ZNBJ8700C01MC,,1ZMBHAN003009A,1Z6PHBKDA01Y41,DJI Pilot,Android, 4.1.1,46.97544267,7.180408,487.2,Data Recorder File Index is 23.,,
8/25/2022,8:45:30.31 AM,0m 0.4s,0.4,46.97551562,7.18034196,0,0,0.7,1429,0,0,0,0,0,0,0,0,-0.4,0.1,-37.8,322.2,Starting Motors,Other,Waypoint Mission,17,10,True,,Matrice 300 RTK,True,False,,Smart,RC,True,True,False,,,True,,False,False,False,False,False,False,False,False,False,False,0,Free,0,0,0,0,False,False,False,False,False,False,,False,Normal,100,100,1024,1024,1024,1024,1,False,False,False,False,False,0,False,False,False,False,52,46.404,5437,10462,46.351,True,,,,,,,,False,False,0.726,103.3,103.3,103.3,0,53,0,10,5,5529.5,737.27,,Idle,0,30,False,10,True,,Go Home,46.97551562,7.18034194,0.0,1223.2,262.5,True,1,1,False,False,False,False,0,False,False,False,Course Lock,262.5,,23.0,Calm,23,Android, 4.1.1,M300 RTK,1ZNBJ8700C01MC,,1ZMBHAN003009A,1Z6PHBKDA01Y41,185.4,1.8,259.2,36.6,7.4,0,0,M300 RTK,1ZNBJ8700C01MC,,1ZMBHAN003009A,1Z6PHBKDA01Y41,DJI Pilot,Android, 4.1.1,46.97544267,7.180408,487.2,,,
8/25/2022,8:45:30.33 AM,0m 0.5s,0.5,46.97551562,7.18034197,0,0,0.7,1429,0,0,0,0,0,0,0,0,-0.4,0.1,-37.8,322.2,Starting Motors,Other,Waypoint Mission,17,10,True,,Matrice 300 RTK,True,False,,Smart,RC,True,True,False,,,True,,False,False,False,False,False,False,False,False,False,False,0,Free,0,0,0,0,False,False,False,False,False,False,,False,Normal,100,100,1024,1024,1024,1024,1,False,False,False,False,False,0,False,False,False,False,52,46.404,5437,10462,46.351,True,,,,,,,,False,False,0.726,103.3,103.3,103.3,0,53,0,10,5,5529.5,737.27,,Idle,0,30,False,10,True,,Go Home,46.97551562,7.18034194,0.0,1223.2,262.5,True,1,1,False,False,False,False,0,False,False,False,Course Lock,262.5,,23.0,Calm,23,Android, 4.1.1,M300 RTK,1ZNBJ8700C01MC,,1ZMBHAN003009A,1Z6PHBKDA01Y41,185.4,1.8,259.2,36.6,7.4,0,0,M300 RTK,1ZNBJ8700C01MC,,1ZMBHAN003009A,1Z6PHBKDA01Y41,DJI Pilot,Android, 4.1.1,46.97544267,7.180408,487.2,,,
8/25/2022,8:45:30.50 AM,0m 0.6s,0.6,46.97551562,7.18034197,0,0,0.7,1429,0,0,0,0,0,0,0,0,-0.4,0.1,-37.8,322.2,Starting Motors,Other,Waypoint Mission,17,10,True,,Matrice 300 RTK,True,False,,Smart,RC,True,True,False,,,True,,False,False,False,False,False,False,False,False,False,False,0,Free,0,0,0,0,False,False,False,False,False,False,,False,Normal,100,100,1024,1024,1024,1024,1,False,False,False,False,False,0,False,False,False,False,52,46.404,5437,10462,46.351,True,,,,,,,,False,False,0.726,103.3,103.3,103.3,0,53,0,10,5,5529.5,737.27,,Idle,0,30,False,10,True,,Go Home,46.97551562,7.18034194,0.0,1223.2,262.5,True,1,1,False,False,False,False,0,False,False,False,Course Lock,262.5,,23.0,Calm,23,Android, 4.1.1,M300 RTK,1ZNBJ8700C01MC,,1ZMBHAN003009A,1Z6PHBKDA01Y41,185.4,1.8,259.2,36.6,7.4,0,0,M300 RTK,1ZNBJ8700C01MC,,1ZMBHAN003009A,1Z6PHBKDA01Y41,DJI Pilot,Android, 4.1.1,46.97544267,7.180408,487.2,,,
8/25/2022,8:45:30.60 AM,0m 0.7s,0.7,46.97551562,7.18034198,0,0,0.7,1429,0,0,0,0,0,0,0,0,-0.4,0.1,-37.8,322.2,Starting Motors,Other,Waypoint Mission,17,10,True,,Matrice 300 RTK,True,False,,Smart,RC,True,True,False,,,True,,False,False,False,False,False,False,False,False,False,False,0,Free,0,0,0,0,False,False,False,False,False,False,,False,Normal,100,100,1024,1024,1024,1024,1,False,False,False,False,False,0,False,False,False,False,52,46.404,5437,10462,46.351,True,,,,,,,,False,False,0.726,103.3,103.3,103.3,0,53,0,10,5,5529.5,737.27,,Idle,0,30,False,10,True,,Go Home,46.97551562,7.18034194,0.0,1223.2,262.5,True,1,1,False,False,False,False,0,False,False,False,Course Lock,262.5,,23.0,Calm,23,Android, 4.1.1,M300 RTK,1ZNBJ8700C01MC,,1ZMBHAN003009A,1Z6PHBKDA01Y41,185.4,1.8,259.2,36.6,7.4,0,0,M300 RTK,1ZNBJ8700C01MC,,1ZMBHAN003009A,1Z6PHBKDA01Y41,DJI Pilot,Android, 4.1.1,46.97544267,7.180408,487.2,,,
8/25/2022,8:45:30.71 AM,0m 0.8s,0.8,46.97551562,7.18034199,0,0,0.7,1429,0,0,0,0,0,0,0,0,-0.3,0.1,-37.9,322.1,Starting Motors,Other,Waypoint Mission,17,10,True,,Matrice 300 RTK,True,False,,Smart,RC,True,True,False,,,True,,False,False,False,False,False,False,False,False,False,False,0,Free,0,0,0,0,False,False,False,False,False,False,,False,Normal,100,100,1024,1024,1024,1024,1,False,False,False,False,False,0,False,False,False,False,52,46.404,5437,10462,46.351,True,,,,,,,,False,False,0.726,103.3,103.3,103.3,0,53,0,10,5,5529.5,737.27,,Idle,0,30,False,10,True,,Go Home,46.97551562,7.18034194,0.0,1223.2,262.5,True,1,1,False,False,False,False,0,False,False,False,Course Lock,262.5,,23.0,Calm,23,Android, 4.1.1,M300 RTK,1ZNBJ8700C01MC,,1ZMBHAN003009A,1Z6PHBKDA01Y41,185.4,1.8,259.2,36.6,7.4,0,0,M300 RTK,1ZNBJ8700C01MC,,1ZMBHAN003009A,1Z6PHBKDA01Y41,DJI Pilot,Android, 4.1.1,46.97544267,7.180408,487.2,,,
8/25/2022,8:45:30.80 AM,0m 0.9s,0.9,46.97551563,7.18034199,0,0,0.7,1429,0,0,0,0,0,0,0,0,-0.4,0.1,-37.9,322.1,Starting Motors,Other,Waypoint Mission,17,10,True,,Matrice 300 RTK,True,False,,Smart,RC,True,True,False,,,True,,False,False,False,False,False,False,False,False,False,False,0,Free,0,0,0,0,False,False,False,False,False,False,,False,Normal,100,100,1024,1024,1024,1024,1,False,False,False,False,False,0,False,False,False,False,52,46.392,5437,10462,46.351,True,,,,,,,,False,False,0.726,103.3,103.3,103.3,0,53,0,10,5,5529.5,737.27,,Idle,0,30,False,10,True,,Go Home,46.97551562,7.18034194,0.0,1223.2,262.5,True,1,1,False,False,False,False,0,False,False,False,Course Lock,262.5,,23.0,Calm,23,Android, 4.1.1,M300 RTK,1ZNBJ8700C01MC,,1ZMBHAN003009A,1Z6PHBKDA01Y41,185.4,1.8,259.2,36.6,7.4,0,0,M300 RTK,1ZNBJ8700C01MC,,1ZMBHAN003009A,1Z6PHBKDA01Y41,DJI Pilot,Android, 4.1.1,46.97544267,7.180408,487.2,,,
8/25/2022,8:45:30.82 AM,0m 1.0s,1.0,46.97551563,7.18034199,0,0,0.7,1429,0,0,0,0,0,0,0,0,-0.4,0.1,-37.8,322.2,Starting Motors,Other,Waypoint Mission,17,10,True,,Matrice 300 RTK,True,False,,Smart,RC,True,True,False,,,True,,False,False,False,False,False,False,False,False,False,False,0,Free,0,0,0,0,False,False,False,False,False,False,,False,Normal,100,100,1024,1024,1024,1024,1,False,False,False,False,False,0,False,False,False,False,52,46.392,5437,10462,46.351,True,,,,,,,,False,False,0.726,103.3,103.3,103.3,0,53,0,10,5,5529.5,737.27,,Idle,0,30,False,10,True,,Go Home,46.97551562,7.18034194,0.0,1223.2,262.5,True,1,1,False,False,False,False,0,False,False,False,Course Lock,262.5,,23.0,Calm,23,Android, 4.1.1,M300 RTK,1ZNBJ8700C01MC,,1ZMBHAN003009A,1Z6PHBKDA01Y41,185.4,1.8,259.2,36.6,7.4,0,0,M300 RTK,1ZNBJ8700C01MC,,1ZMBHAN003009A,1Z6PHBKDA01Y41,DJI Pilot,Android, 4.1.1,46.97544267,7.180408,487.2,,,
8/25/2022,8:45:31.10 AM,0m 1.1s,1.1,46.97551562,7.180342,0,0,0.7,1429,0,0,0,0,0,0,0,0,-0.4,0,-37.8,322.2,Starting Motors,Other,Waypoint Mission,17,10,True,,Matrice 300 RTK,True,False,,Smart,RC,True,True,False,,,True,,False,False,False,False,False,False,False,False,False,False,0,Free,0,0,0,0,False,False,False,False,False,False,,False,Normal,100,100,1024,1024,1024,1024,1,False,False,False,False,False,0,False,False,False,False,52,46.392,5437,10462,46.351,True,,,,,,,,False,False,0.726,103.3,103.3,103.3,0,53,0,10,5,5529.5,737.27,,Idle,0,30,False,10,True,,Go Home,46.97551562,7.18034194,0.0,1223.2,262.5,True,1,1,False,False,False,False,0,False,False,False,Course Lock,262.5,,23.0,Calm,23,Android, 4.1.1,M300 RTK,1ZNBJ8700C01MC,,1ZMBHAN003009A,1Z6PHBKDA01Y41,185.4,1.8,259.2,36.6,7.4,0,0,M300 RTK,1ZNBJ8700C01MC,,1ZMBHAN003009A,1Z6PHBKDA01Y41,DJI Pilot,Android, 4.1.1,46.97544267,7.180408,487.2,,,
8/25/2022,8:45:31.12 AM,0m 1.2s,1.2,46.97551562,7.18034199,0,0,0.7,1429,0,0,0,0,0,0,0,0,-0.5,0.1,-37.8,322.2,Starting Motors,Other,Waypoint Mission,17,10,True,,Matrice 300 RTK,True,False,,Smart,RC,True,True,False,,,True,,False,False,False,False,False,False,False,False,False,False,0,Free,0,0,0,0,False,False,False,False,False,False,,False,Normal,100,100,1024,1024,1024,1024,1,False,False,False,False,False,0,False,False,False,False,52,46.392,5437,10462,46.351,True,,,,,,,,False,False,0.726,103.3,103.3,103.3,0,53,0,10,5,5529.5,737.27,,Idle,0,30,False,10,True,,Go Home,46.97551562,7.18034194,0.0,1223.2,262.5,True,1,1,False,False,False,False,0,False,False,False,Course Lock,262.5,,23.0,Calm,23,Android, 4.1.1,M300 RTK,1ZNBJ8700C01MC,,1ZMBHAN003009A,1Z6PHBKDA01Y41,185.4,1.8,259.2,36.6,7.4,0,0,M300 RTK,1ZNBJ8700C01MC,,1ZMBHAN003009A,1Z6PHBKDA01Y41,DJI Pilot,Android, 4.1.1,46.97544267,7.180408,487.2,,,
8/25/2022,8:45:31.20 AM,0m 1.3s,1.3,46.97551562,7.18034199,0,0,0.7,1429,0,0,0,0,0,0,0,0,-0.4,0.1,-37.8,322.2,Starting Motors,Other,Waypoint Mission,17,10,True,,Matrice 300 RTK,True,False,,Smart,RC,True,True,False,,,True,,False,False,False,False,False,False,False,False,False,False,0,Free,0,0,0,0,False,False,False,False,False,False,,False,Normal,100,100,1024,1024,1024,1024,1,False,False,False,False,False,0,False,False,False,False,52,46.392,5437,10462,46.432,True,,,,,,,,False,False,0.726,103.3,103.3,103.3,0,53,0,10,5,5509.8,734.64,,Idle,0,30,False,10,True,,Go Home,46.97551562,7.18034194,0.0,1223.2,262.5,True,1,1,False,False,False,False,0,False,False,False,Course Lock,262.5,,23.0,Calm,23,Android, 4.1.1,M300 RTK,1ZNBJ8700C01MC,,1ZMBHAN003009A,1Z6PHBKDA01Y41,185.4,1.8,259.2,36.6,7.4,0,0,M300 RTK,1ZNBJ8700C01MC,,1ZMBHAN003009A,1Z6PHBKDA01Y41,DJI Pilot,Android, 4.1.1,46.97544267,7.180408,487.2,,,
8/25/2022,8:45:31.30 AM,0m 1.4s,1.4,46.97551561,7.18034198,0,0,0.7,1429,0,0,0,0,0,0,0,0,-0.3,0.1,-37.8,322.2,Starting Motors,Other,Waypoint Mission,17,10,True,,Matrice 300 RTK,True,False,,Smart,RC,True,True,False,,,True,,False,False,False,False,False,False,False,False,False,False,0,Free,0,0,0,0,False,False,False,False,False,False,,False,Normal,100,100,1024,1024,1024,1024,1,False,False,False,False,False,0,False,False,False,False,52,46.392,5437,10462,46.432,True,,,,,,,,False,False,0.726,103.3,103.3,103.3,0,53,0,10,5,5509.8,734.64,,Idle,0,30,False,10,True,,Go Home,46.97551562,7.18034194,0.0,1223.2,262.5,True,1,1,False,False,False,False,0,False,False,False,Course Lock,262.5,,23.0,Calm,23,Android, 4.1.1,M300 RTK,1ZNBJ8700C01MC,,1ZMBHAN003009A,1Z6PHBKDA01Y41,185.4,1.8,259.2,36.6,7.4,0,0,M300 RTK,1ZNBJ8700C01MC,,1ZMBHAN003009A,1Z6PHBKDA01Y41,DJI Pilot,Android, 4.1.1,46.97544267,7.180408,487.2,,,
8/25/2022,8:45:31.32 AM,0m 1.5s,1.5,46.9755156,7.18034198,0,0,0.7,1429,0,0,0,0,0,0,0,0,-0.4,0.1,-37.8,322.2,Starting Motors,Other,Waypoint Mission,17,10,True,,Matrice 300 RTK,True,False,,Smart,RC,True,True,False,,,True,,False,False,False,False,False,False,False,False,False,False,0,Free,0,0,0,0,False,False,False,False,False,False,,False,Normal,100,100,1024,1024,1024,1024,1,False,False,False,False,False,0,False,False,False,False,52,46.392,5437,10462,46.432,True,,,,,,,,False,False,0.726,103.3,103.3,103.3,0,53,0,10,5,5509.8,734.64,,Idle,0,30,False,10,True,,Go Home,46.97551562,7.18034194,0.0,1223.2,262.5,True,1,1,False,False,False,False,0,False,False,False,Course Lock,262.5,,23.0,Calm,23,Android, 4.1.1,M300 RTK,1ZNBJ8700C01MC,,1ZMBHAN003009A,1Z6PHBKDA01Y41,185.4,1.8,259.2,36.6,7.4,0,0,M300 RTK,1ZNBJ8700C01MC,,1ZMBHAN003009A,1Z6PHBKDA01Y41,DJI Pilot,Android, 4.1.1,46.97544267,7.180408,487.2,,,
8/25/2022,8:45:31.51 AM,0m 1.6s,1.6,46.9755156,7.18034198,0,0,0.7,1429,0,0,0,0,0,0,0,0,-0.4,0.1,-37.8,322.2,Starting Motors,Other,Waypoint Mission,17,10,True,,Matrice 300 RTK,True,False,,Smart,RC,True,True,False,,,True,,False,False,False,False,False,False,False,False,False,False,0,Free,0,0,0,0,False,False,False,False,False,False,,False,Normal,100,100,1024,1024,1024,1024,1,False,False,False,False,False,0,False,False,False,False,52,46.392,5437,10462,46.432,True,,,,,,,,False,False,0.726,103.3,103.3,103.3,0,53,0,10,5,5509.8,734.64,,Idle,0,30,False,10,True,,Go Home,46.97551562,7.18034194,0.0,1223.2,262.5,True,1,1,False,False,False,False,0,False,False,False,Course Lock,262.5,,23.0,Calm,23,Android, 4.1.1,M300 RTK,1ZNBJ8700C01MC,,1ZMBHAN003009A,1Z6PHBKDA01Y41,185.4,1.8,259.2,36.6,7.4,0,0,M300 RTK,1ZNBJ8700C01MC,,1ZMBHAN003009A,1Z6PHBKDA01Y41,DJI Pilot,Android, 4.1.1,46.97544267,7.180408,487.2,,,
8/25/2022,8:45:31.61 AM,0m 1.7s,1.7,46.97551559,7.18034198,0,0,0.7,1429,0,0,0,0,0,0,0,0,-0.4,0,-37.8,322.2,Starting Motors,Other,Waypoint Mission,17,10,True,,Matrice 300 RTK,True,False,,Smart,RC,True,True,False,,,True,,False,False,False,False,False,False,False,False,False,False,0,Free,0,0,0,0,False,False,False,False,False,False,,False,Normal,100,100,1024,1024,1024,1024,1,False,False,False,False,False,0,False,False,False,False,52,46.392,5437,10462,46.432,True,,,,,,,,False,False,0.726,103.3,103.3,103.3,0,53,0,10,5,5509.8,734.64,,Idle,0,30,False,10,True,,Go Home,46.97551562,7.18034194,0.0,1223.2,262.5,True,1,1,False,False,False,False,0,False,False,False,Course Lock,262.5,,23.0,Calm,23,Android, 4.1.1,M300 RTK,1ZNBJ8700C01MC,,1ZMBHAN003009A,1Z6PHBKDA01Y41,185.4,1.8,259.2,36.6,7.4,0,0,M300 RTK,1ZNBJ8700C01MC,,1ZMBHAN003009A,1Z6PHBKDA01Y41,DJI Pilot,Android, 4.1.1,46.97544267,7.180408,487.2,,,
8/25/2022,8:45:31.72 AM,0m 1.8s,1.8,46.97551558,7.18034198,0,0,0.7,1429,0,0,0,0,0,0,0,0,-0.3,0.1,-37.8,322.2,Starting Motors,Other,Waypoint Mission,17,10,True,,Matrice 300 RTK,True,False,,Smart,RC,True,True,False,,,True,,False,False,False,False,False,False,False,False,False,False,0,Free,0,0,0,0,False,False,False,False,False,False,,False,Normal,100,100,1024,1024,1024,1024,1,False,False,False,False,False,0,False,False,False,False,52,46.392,5437,10462,46.432,True,,,,,,,,False,False,0.726,103.3,103.3,103.3,0,53,0,10,5,5509.8,734.64,,Idle,0,30,False,10,True,,Go Home,46.97551562,7.18034194,0.0,1223.2,262.5,True,1,1,False,False,False,False,0,False,False,False,Course Lock,262.5,,23.0,Calm,23,Android, 4.1.1,M300 RTK,1ZNBJ8700C01MC,,1ZMBHAN003009A,1Z6PHBKDA01Y41,185.4,1.8,259.2,36.6,7.4,0,0,M300 RTK,1ZNBJ8700C01MC,,1ZMBHAN003009A,1Z6PHBKDA01Y41,DJI Pilot,Android, 4.1.1,46.97544267,7.180408,487.2,,,
8/25/2022,8:45:31.81 AM,0m 1.9s,1.9,46.97551558,7.18034199,0,0,0.7,1429,0,0,0,0,0,0,0,0,-0.3,0.1,-37.8,322.2,Starting Motors,Other,Waypoint Mission,17,10,True,,Matrice 300 RTK,True,False,,Smart,RC,True,True,False,,,True,,False,False,False,False,False,False,False,False,False,False,0,Free,0,0,0,0,False,False,False,False,False,False,,False,Normal,100,100,1024,1024,1024,1024,1,False,False,False,False,False,0,False,False,False,False,52,46.404,5437,10462,46.432,True,,,,,,,,False,False,6.066,103.3,103.3,103.3,0,53,0,10,5,5509.8,734.64,,Idle,0,30,False,10,True,,Go Home,46.97551562,7.18034194,0.0,1223.2,262.5,True,1,1,False,False,False,False,0,False,False,False,Course Lock,262.5,,23.0,Calm,23,Android, 4.1.1,M300 RTK,1ZNBJ8700C01MC,,1ZMBHAN003009A,1Z6PHBKDA01Y41,185.4,1.8,259.2,36.6,7.4,0,0,M300 RTK,1ZNBJ8700C01MC,,1ZMBHAN003009A,1Z6PHBKDA01Y41,DJI Pilot,Android, 4.1.1,46.97544267,7.180408,487.2,,,
8/25/2022,8:45:31.91 AM,0m 2.0s,2.0,46.97551558,7.18034198,0,0,0.7,1429,0,0,0,0,0,0,0,0,-0.4,0.1,-37.8,322.2,Auto Takeoff,Other,Waypoint Mission,17,10,True,,Matrice 300 RTK,True,False,,Smart,RC,True,True,False,,,True,,False,False,False,False,False,False,False,False,False,False,0,Free,0,0,0,0,False,False,False,False,False,False,,False,Normal,100,100,1024,1024,1024,1024,1,False,False,False,False,False,0,False,False,False,False,52,46.404,5437,10462,46.432,True,,,,,,,,False,False,6.066,103.3,103.3,103.3,0,53,0,10,5,5509.8,734.64,,Idle,0,30,False,10,True,,Go Home,46.97551562,7.18034194,0.0,1223.2,262.5,True,1,1,False,False,False,False,0,False,False,False,Course Lock,262.5,,23.0,Calm,23,Android, 4.1.1,M300 RTK,1ZNBJ8700C01MC,,1ZMBHAN003009A,1Z6PHBKDA01Y41,185.4,1.8,259.2,36.6,7.4,0,0,M300 RTK,1ZNBJ8700C01MC,,1ZMBHAN003009A,1Z6PHBKDA01Y41,DJI Pilot,Android, 4.1.1,46.97544033,7.18040917,487.4,,,
8/25/2022,8:45:32.01 AM,0m 2.1s,2.1,46.97551558,7.18034198,0,0,0.7,1429,0,0,0,0,0,0,0,0,-0.3,0.1,-37.8,322.2,Auto Takeoff,Other,Waypoint Mission,17,10,True,,Matrice 300 RTK,True,False,,Smart,RC,True,True,False,,,True,,False,False,False,False,False,False,False,False,False,False,0,Free,0,0,0,0,False,False,False,False,False,False,,False,Normal,100,100,1024,1024,1024,1024,1,False,False,False,False,False,0,False,False,False,False,52,46.404,5437,10462,46.432,True,,,,,,,,False,False,6.066,103.3,103.3,103.3,0,53,0,10,5,5509.8,734.64,,Idle,0,30,False,10,True,,Go Home,46.97551562,7.18034194,0.0,1223.2,262.5,True,1,1,False,False,False,False,0,False,False,False,Course Lock,262.5,,23.0,Calm,23,Android, 4.1.1,M300 RTK,1ZNBJ8700C01MC,,1ZMBHAN003009A,1Z6PHBKDA01Y41,185.4,1.8,259.2,36.6,7.4,0,0,M300 RTK,1ZNBJ8700C01MC,,1ZMBHAN003009A,1Z6PHBKDA01Y41,DJI Pilot,Android, 4.1.1,46.97544033,7.18040917,487.4,,,
8/25/2022,8:45:32.11 AM,0m 2.2s,2.2,46.97551559,7.18034198,0,0,0.7,1429,0,0,0,0,0,0,0,0,-0.2,0.1,-37.9,322.1,Auto Takeoff,Other,Waypoint Mission,17,10,True,,Matrice 300 RTK,True,False,,Smart,RC,True,True,False,,,True,,False,False,False,False,False,False,False,False,False,False,0,Free,0,0,0,0,False,False,False,False,False,False,,False,Normal,100,100,1024,1024,1024,1024,1,False,False,False,False,False,0,False,False,False,False,52,46.404,5437,10462,46.432,True,,,,,,,,False,False,6.066,103.3,103.3,103.3,0,53,0,10,5,5509.8,734.64,,Idle,0,30,False,10,True,,Go Home,46.97551562,7.18034194,0.0,1223.2,262.5,True,1,1,False,False,False,False,0,False,False,False,Course Lock,262.5,,23.0,Calm,23,Android, 4.1.1,M300 RTK,1ZNBJ8700C01MC,,1ZMBHAN003009A,1Z6PHBKDA01Y41,185.4,1.8,259.2,36.6,7.4,0,0,M300 RTK,1ZNBJ8700C01MC,,1ZMBHAN003009A,1Z6PHBKDA01Y41,DJI Pilot,Android, 4.1.1,46.97544033,7.18040917,487.4,,,
8/25/2022,8:45:32.22 AM,0m 2.3s,2.3,46.97551559,7.18034198,0,0,0.7,1429,0,0,0,0,0,0,0,0,-0.2,0.1,-37.8,322.2,Auto Takeoff,Other,Waypoint Mission,17,10,True,,Matrice 300 RTK,True,False,,Smart,RC,True,True,False,,,True,,False,False,False,False,False,False,False,False,False,False,0,Free,0,0,0,0,False,False,False,False,False,False,,False,Normal,100,100,1024,1024,1024,1024,1,False,False,False,False,False,0,False,False,False,False,52,46.404,5437,10462,46.364,True,,,,,,,,False,False,6.066,103.3,103.3,103.3,0,53,0,10,5,6296.2,839.50,,Idle,0,30,False,10,True,,Go Home,46.97551562,7.18034194,0.0,1223.2,262.5,True,1,1,False,False,False,False,0,False,False,False,Course Lock,262.5,,23.0,Calm,23,Android, 4.1.1,M300 RTK,1ZNBJ8700C01MC,,1ZMBHAN003009A,1Z6PHBKDA01Y41,185.4,1.8,259.2,36.6,7.4,0,0,M300 RTK,1ZNBJ8700C01MC,,1ZMBHAN003009A,1Z6PHBKDA01Y41,DJI Pilot,Android, 4.1.1,46.97544033,7.18040917,487.4,,,
8/25/2022,8:45:32.32 AM,0m 2.4s,2.4,46.97551559,7.18034199,0,0,0.7,1429,0,0,0,0,0,0,0,0,-0.1,0.2,-37.9,322.1,Auto Takeoff,Other,Waypoint Mission,17,10,True,,Matrice 300 RTK,True,False,,Smart,RC,True,True,False,,,True,,False,False,False,False,False,False,False,False,False,False,0,Free,0,0,0,0,False,False,False,False,False,False,,False,Normal,100,100,1024,1024,1024,1024,1,False,False,False,False,False,0,False,False,False,False,52,46.404,5437,10462,46.364,True,,,,,,,,False,False,6.066,103.3,103.3,103.3,0,53,0,10,5,6296.2,839.50,,Idle,0,30,False,10,True,,Go Home,46.97551562,7.18034194,0.0,1223.2,262.5,True,1,1,False,False,False,False,0,False,False,False,Course Lock,262.5,,23.0,Calm,23,Android, 4.1.1,M300 RTK,1ZNBJ8700C01MC,,1ZMBHAN003009A,1Z6PHBKDA01Y41,185.4,1.8,259.2,36.6,7.4,0,0,M300 RTK,1ZNBJ8700C01MC,,1ZMBHAN003009A,1Z6PHBKDA01Y41,DJI Pilot,Android, 4.1.1,46.97544033,7.18040917,487.4,,,
8/25/2022,8:45:32.42 AM,0m 2.5s,2.5,46.97551559,7.180342,0,0,0.7,1429,0,0,0,0,0,0,0,0,0,0.3,-37.8,322.2,Auto Takeoff,Other,Waypoint Mission,17,10,True,,Matrice 300 RTK,True,False,,Smart,RC,True,True,False,,,True,,False,False,False,False,False,False,False,False,False,False,0,Free,0,0,0,0,False,False,False,False,False,False,,False,Normal,100,100,1024,1024,1024,1024,1,False,False,False,False,False,0,False,False,False,False,52,46.404,5437,10462,46.364,True,,,,,,,,False,False,6.066,103.3,103.3,103.3,0,53,0,10,5,6296.2,839.50,,Idle,0,30,False,10,True,,Go Home,46.97551562,7.18034194,0.0,1223.2,262.5,True,1,1,False,False,False,False,0,False,False,False,Course Lock,262.5,,23.0,Calm,23,Android, 4.1.1,M300 RTK,1ZNBJ8700C01MC,,1ZMBHAN003009A,1Z6PHBKDA01Y41,185.4,1.8,259.2,36.6,7.4,0,0,M300 RTK,1ZNBJ8700C01MC,,1ZMBHAN003009A,1Z6PHBKDA01Y41,DJI Pilot,Android, 4.1.1,46.97544033,7.18040917,487.4,,,
8/25/2022,8:45:32.52 AM,0m 2.6s,2.6,46.97551559,7.180342,0,0,0.7,1429,0,0,0,0,0,0,0,0,0.1,0.3,-37.9,322.1,Auto Takeoff,Other,Waypoint Mission,17,10,True,,Matrice 300 RTK,True,False,,Smart,RC,True,True,False,,,True,,False,False,False,False,False,False,False,False,False,False,0,Free,0,0,0,0,False,False,False,False,False,False,,False,Normal,100,100,1024,1024,1024,1024,1,False,False,False,False,False,0,False,False,False,False,52,46.404,5437,10462,46.364,True,,,,,,,,False,False,6.066,103.3,103.3,103.3,0,53,0,10,5,6296.2,839.50,,Idle,0,30,False,10,True,,Go Home,46.97551562,7.18034194,0.0,1223.2,262.5,True,1,1,False,False,False,False,0,False,False,False,Course Lock,262.5,,23.0,Calm,23,Android, 4.1.1,M300 RTK,1ZNBJ8700C01MC,,1ZMBHAN003009A,1Z6PHBKDA01Y41,185.4,1.8,259.2,36.6,7.4,0,0,M300 RTK,1ZNBJ8700C01MC,,1ZMBHAN003009A,1Z6PHBKDA01Y41,DJI Pilot,Android, 4.1.1,46.97544033,7.18040917,487.4,,,
8/25/2022,8:45:32.62 AM,0m 2.7s,2.7,46.97551558,7.18034201,0,0,0.7,1429,0,0,0,0,0,0,0,0,0.3,0.4,-37.8,322.2,Auto Takeoff,Other,Waypoint Mission,17,10,True,,Matrice 300 RTK,True,False,,Smart,RC,True,True,False,,,True,,False,False,False,False,False,False,False,False,False,False,0,Free,0,0,0,0,False,False,False,False,False,False,,False,Normal,100,100,1024,1024,1024,1024,1,False,False,False,False,False,0,False,False,False,False,52,46.404,5437,10462,46.364,True,,,,,,,,False,False,6.066,103.3,103.3,103.3,0,53,0,10,5,6296.2,839.50,,Idle,0,30,False,10,True,,Go Home,46.97551562,7.18034194,0.0,1223.2,262.5,True,1,1,False,False,False,False,0,False,False,False,Course Lock,262.5,,23.0,Calm,23,Android, 4.1.1,M300 RTK,1ZNBJ8700C01MC,,1ZMBHAN003009A,1Z6PHBKDA01Y41,185.4,1.8,259.2,36.6,7.4,0,0,M300 RTK,1ZNBJ8700C01MC,,1ZMBHAN003009A,1Z6PHBKDA01Y41,DJI Pilot,Android, 4.1.1,46.97544033,7.18040917,487.4,,,
8/25/2022,8:45:32.72 AM,0m 2.8s,2.8,46.97551555,7.18034204,0,0,0.7,1429,0,0,0,0,0,0,0,0,0.8,0.6,-37.8,322.2,Auto Takeoff,Other,Waypoint Mission,17,10,True,,Matrice 300 RTK,True,False,,Smart,RC,True,True,False,,,True,,False,False,False,False,False,False,False,False,False,False,0,Free,0,0,0,0,False,False,False,False,False,False,,False,Normal,100,100,1024,1024,1024,1024,1,False,False,False,False,False,0,False,False,False,False,52,46.404,5437,10462,46.364,True,,,,,,,,False,False,6.066,103.3,103.3,103.3,0,53,0,10,5,6296.2,839.50,,Idle,0,30,False,10,True,,Go Home,46.97551562,7.18034194,0.0,1223.2,262.5,True,1,1,False,False,False,False,0,False,False,False,Course Lock,262.5,,23.0,Calm,23,Android, 4.1.1,M300 RTK,1ZNBJ8700C01MC,,1ZMBHAN003009A,1Z6PHBKDA01Y41,185.4,1.8,259.2,36.6,7.4,0,0,M300 RTK,1ZNBJ8700C01MC,,1ZMBHAN003009A,1Z6PHBKDA01Y41,DJI Pilot,Android, 4.1.1,46.97544033,7.18040917,487.4,,,
8/25/2022,8:45:32.82 AM,0m 2.9s,2.9,46.97551552,7.1803421,0,0,0.7,1429,0,0,0,0,0,0,-0.2,0,2,1.2,-37.5,322.5,Auto Takeoff,Other,Waypoint Mission,17,10,True,,Matrice 300 RTK,True,False,,Smart,RC,True,True,False,,,True,,False,False,False,False,False,False,False,False,False,False,0,Free,0,0,0,0,False,False,False,False,False,False,,False,Normal,100,100,1024,1024,1024,1024,1,False,False,False,False,False,0,False,False,False,False,52,46.404,5437,10462,46.364,True,,,,,,,,False,False,2.878,103.3,103.3,103.3,0,53,0,10,5,6296.2,839.50,,Idle,0,30,False,10,True,,Go Home,46.97551562,7.18034194,0.0,1223.2,262.5,True,1,1,False,False,False,False,0,False,False,False,Course Lock,262.5,,23.0,Calm,23,Android, 4.1.1,M300 RTK,1ZNBJ8700C01MC,,1ZMBHAN003009A,1Z6PHBKDA01Y41,185.4,1.8,259.2,36.6,7.4,0,0,M300 RTK,1ZNBJ8700C01MC,,1ZMBHAN003009A,1Z6PHBKDA01Y41,DJI Pilot,Android, 4.1.1,46.97544033,7.18040917,487.4,,,
8/25/2022,8:45:32.84 AM,0m 3.0s,3.0,46.97551547,7.18034223,0,0,0.7,1429,0,0,0,0,0.2,0.2,-0.5,0,3.2,2,-37,323,Auto Takeoff,Other,Waypoint Mission,17,10,True,,Matrice 300 RTK,True,False,,Smart,RC,False,True,False,,,True,,False,False,False,False,False,False,False,False,False,False,0,Free,0,0,0,0,False,False,False,False,False,False,,False,Normal,100,100,1024,1024,1024,1024,1,False,False,False,False,False,0,False,False,False,False,52,46.404,5437,10462,46.364,True,,,,,,,,False,False,2.878,103.3,103.3,103.3,0,53,0,10,5,6296.2,839.50,,Idle,0,30,False,10,True,,Go Home,46.97551562,7.18034194,0.0,1223.2,262.5,True,1,1,False,False,False,False,0,False,False,False,Course Lock,262.5,,23.0,Calm,23,Android, 4.1.1,M300 RTK,1ZNBJ8700C01MC,,1ZMBHAN003009A,1Z6PHBKDA01Y41,185.4,1.8,259.2,36.6,7.4,0,0,M300 RTK,1ZNBJ8700C01MC,,1ZMBHAN003009A,1Z6PHBKDA01Y41,DJI Pilot,Android, 4.1.1,46.97544033,7.18040917,487.4,,,
8/25/2022,8:45:33.02 AM,0m 3.1s,3.1,46.9755154,7.18034246,0.3,0.3,0.7,1429,0,0,-0.2,0,0.5,0.5,-0.9,0,2.3,1.2,-36.6,323.4,Auto Takeoff,Other,Waypoint Mission,17,10,True,,Matrice 300 RTK,True,False,,Smart,RC,False,True,False,,,True,,False,False,False,False,False,False,False,False,False,False,0,Free,0,0,0,0,False,False,False,False,False,False,,False,Normal,100,100,1024,1024,1024,1024,1,False,False,False,False,False,0,False,False,False,False,52,46.404,5437,10462,46.364,True,,,,,,,,False,False,2.878,103.3,103.3,103.3,0,53,0,10,5,6296.2,839.50,,Idle,0,30,False,10,True,,Go Home,46.97551562,7.18034194,0.0,1223.2,262.5,True,1,1,False,False,False,False,0,False,False,False,Course Lock,262.5,,23.0,Calm,23,Android, 4.1.1,M300 RTK,1ZNBJ8700C01MC,,1ZMBHAN003009A,1Z6PHBKDA01Y41,185.4,1.8,259.2,36.6,7.4,0,0,M300 RTK,1ZNBJ8700C01MC,,1ZMBHAN003009A,1Z6PHBKDA01Y41,DJI Pilot,Android, 4.1.1,46.97544033,7.18040917,487.4,,,
8/25/2022,8:45:33.04 AM,0m 3.2s,3.2,46.97551531,7.18034275,0.3,0.3,1.0,1429,0,0,-0.2,0,0.5,0.5,-1.1,0,0.2,-0.1,-36.4,323.6,Auto Takeoff,Other,Waypoint Mission,17,10,True,,Matrice 300 RTK,True,False,,Smart,RC,False,True,False,,,True,,False,False,False,False,False,False,False,False,False,False,0,Free,0,0,0,0,False,False,False,False,False,False,,False,Normal,100,100,1024,1024,1024,1024,1,False,False,False,False,False,0,False,False,False,False,52,46.404,5437,10462,46.364,True,,,,,,,,False,False,2.878,103.3,103.3,103.3,0,53,0,10,5,6296.2,839.50,,Idle,0,30,False,10,True,,Go Home,46.97551562,7.18034194,0.0,1223.2,262.5,True,1,1,False,False,False,False,0,False,False,False,Course Lock,262.5,,23.0,Calm,23,Android, 4.1.1,M300 RTK,1ZNBJ8700C01MC,,1ZMBHAN003009A,1Z6PHBKDA01Y41,185.4,1.8,259.2,36.6,7.4,0,0,M300 RTK,1ZNBJ8700C01MC,,1ZMBHAN003009A,1Z6PHBKDA01Y41,DJI Pilot,Android, 4.1.1,46.97544033,7.18040917,487.4,,,
8/25/2022,8:45:33.23 AM,0m 3.3s,3.3,46.97551519,7.18034308,0.7,0.7,1.0,1430,0,0,-0.2,0,0.5,0.5,-1.3,0,-1.2,-0.7,-36.4,323.6,Auto Takeoff,Other,Waypoint Mission,17,10,True,,Matrice 300 RTK,True,False,,Smart,RC,False,True,False,,,True,,False,False,False,False,False,False,False,False,False,False,0,Free,0,0,0,0,False,False,False,False,False,False,,False,Normal,100,100,1024,1024,1024,1024,1,False,False,False,False,False,0,False,False,False,False,52,46.404,5437,10462,46.324,True,,,,,,,,False,False,2.878,103.3,103.3,103.3,0,53,0,11,6,8665.1,1155.34,,Idle,0,30,False,10,True,,Go Home,46.97551562,7.18034194,0.3,1223.2,262.5,True,1,1,False,False,False,False,0,False,False,False,Course Lock,262.5,,23.0,Calm,23,Android, 4.1.1,M300 RTK,1ZNBJ8700C01MC,,1ZMBHAN003009A,1Z6PHBKDA01Y41,185.4,1.8,259.2,36.6,7.4,0,0,M300 RTK,1ZNBJ8700C01MC,,1ZMBHAN003009A,1Z6PHBKDA01Y41,DJI Pilot,Android, 4.1.1,46.97544033,7.18040917,487.4,,,
8/25/2022,8:45:33.33 AM,0m 3.4s,3.4,46.97551508,7.18034338,0.7,0.7,1.3,1430,0,0,-0.2,0,0.5,0.5,-1.3,0,-3.1,-1.1,-36.5,323.5,Auto Takeoff,Other,Waypoint Mission,17,10,True,,Matrice 300 RTK,True,False,,Smart,RC,False,True,False,,,True,,False,False,False,False,False,False,False,False,False,False,0,Free,0,0,0,0,False,False,False,False,False,False,,False,Normal,100,100,1024,1024,1024,1024,1,False,False,False,False,False,0,False,False,False,False,52,46.404,5437,10462,46.324,True,,,,,,,,False,False,2.878,103.3,103.3,103.3,0,53,0,11,6,8665.1,1155.34,,Idle,0,30,False,10,True,,Go Home,46.97551562,7.18034194,0.4,1223.2,262.5,True,1,1,False,False,False,False,0,False,False,False,Course Lock,262.5,,23.0,Calm,23,Android, 4.1.1,M300 RTK,1ZNBJ8700C01MC,,1ZMBHAN003009A,1Z6PHBKDA01Y41,185.4,1.8,259.2,36.6,7.4,0,0,M300 RTK,1ZNBJ8700C01MC,,1ZMBHAN003009A,1Z6PHBKDA01Y41,DJI Pilot,Android, 4.1.1,46.97544033,7.18040917,487.4,,,
8/25/2022,8:45:33.35 AM,0m 3.5s,3.5,46.97551499,7.18034367,1.0,1.0,1.6,1430,0,0,-0.2,0,0.2,0.5,-1.3,0,-3.4,-1.1,-36.5,323.5,Auto Takeoff,Other,Waypoint Mission,17,10,True,,Matrice 300 RTK,True,False,,Smart,RC,False,True,False,,,True,,False,False,False,False,False,False,False,False,False,False,0,Free,0,0,0,0,False,False,False,False,False,False,,False,Normal,100,100,1024,1024,1024,1024,1,False,False,False,False,False,0,False,False,False,False,52,46.404,5437,10462,46.324,True,,,,,,,,False,False,2.878,103.3,103.3,103.3,0,53,0,11,6,8665.1,1155.34,,Idle,0,30,False,10,True,,Go Home,46.97551562,7.18034194,0.4,1223.2,262.5,True,1,1,False,False,False,False,0,False,False,False,Course Lock,262.5,,23.0,Calm,23,Android, 4.1.1,M300 RTK,1ZNBJ8700C01MC,,1ZMBHAN003009A,1Z6PHBKDA01Y41,185.4,1.8,259.2,36.6,7.4,0,0,M300 RTK,1ZNBJ8700C01MC,,1ZMBHAN003009A,1Z6PHBKDA01Y41,DJI Pilot,Android, 4.1.1,46.97544033,7.18040917,487.4,,,
8/25/2022,8:45:33.53 AM,0m 3.6s,3.6,46.9755149,7.18034385,1.3,1.3,1.6,1430,0,0,0,0,0.2,0.5,-1.6,0,-2.6,-1.1,-36.6,323.4,Auto Takeoff,Other,Waypoint Mission,17,10,True,,Matrice 300 RTK,True,False,,Smart,RC,False,True,False,,,True,,False,False,False,False,False,False,False,False,False,False,0,Free,0,0,0,0,False,False,False,False,False,False,,False,Normal,100,100,1024,1024,1024,1024,1,False,False,False,False,False,0,False,False,False,False,52,46.404,5437,10462,46.324,True,,,,,,,,False,False,2.878,103.3,103.3,103.3,0,53,0,11,6,8665.1,1155.34,,Idle,0,30,False,10,True,,Go Home,46.97551562,7.18034194,0.5,1223.2,262.5,True,1,1,False,False,False,False,0,False,False,False,Course Lock,262.5,,23.0,Calm,23,Android, 4.1.1,M300 RTK,1ZNBJ8700C01MC,,1ZMBHAN003009A,1Z6PHBKDA01Y41,185.4,1.8,259.2,36.6,7.4,0,0,M300 RTK,1ZNBJ8700C01MC,,1ZMBHAN003009A,1Z6PHBKDA01Y41,DJI Pilot,Android, 4.1.1,46.97544033,7.18040917,487.4,,,
8/25/2022,8:45:33.55 AM,0m 3.7s,3.7,46.97551483,7.18034399,1.3,1.3,2.0,1430,1.1,1.1,0,0,0,0.5,-1.3,0,-1.8,-1.1,-36.6,323.4,Auto Takeoff,Other,Waypoint Mission,17,10,True,,Matrice 300 RTK,True,False,,Smart,RC,False,True,False,,,True,,False,False,False,False,False,False,False,False,False,False,0,Free,0,0,0,0,False,False,False,False,False,False,,False,Normal,100,100,1024,1024,1024,1024,1,False,False,False,False,False,0,False,False,False,False,52,46.404,5437,10462,46.324,True,,,,,,,,False,False,2.878,103.3,103.3,103.3,0,53,0,11,6,8665.1,1155.34,,Idle,0,30,False,10,True,,Go Home,46.97551562,7.18034194,0.6,1223.2,262.5,True,1,1,False,False,False,False,0,False,False,False,Course Lock,262.5,,23.0,Calm,23,Android, 4.1.1,M300 RTK,1ZNBJ8700C01MC,,1ZMBHAN003009A,1Z6PHBKDA01Y41,185.4,1.8,259.2,36.6,7.4,0,0,M300 RTK,1ZNBJ8700C01MC,,1ZMBHAN003009A,1Z6PHBKDA01Y41,DJI Pilot,Android, 4.1.1,46.97544033,7.18040917,487.4,,,
8/25/2022,8:45:33.73 AM,0m 3.8s,3.8,46.97551476,7.18034408,1.6,1.6,2.3,1431,0,1.1,0,0,0,0.5,-1.3,0,-1.5,-1,-36.6,323.4,Auto Takeoff,Other,Waypoint Mission,17,10,True,,Matrice 300 RTK,True,False,,Smart,RC,False,True,False,,,True,,False,False,False,False,False,False,False,False,False,False,0,Free,0,0,0,0,False,False,False,False,False,False,,False,Normal,100,100,1024,1024,1024,1024,1,False,False,False,False,False,0,False,False,False,False,52,46.404,5437,10462,46.324,True,,,,,,,,False,False,2.878,103.3,103.3,103.3,0,53,0,11,6,8665.1,1155.34,,Idle,0,30,False,10,True,,Go Home,46.97551562,7.18034194,0.6,1223.2,262.5,True,1,1,False,False,False,False,0,False,False,False,Course Lock,262.5,,23.0,Calm,23,Android, 4.1.1,M300 RTK,1ZNBJ8700C01MC,,1ZMBHAN003009A,1Z6PHBKDA01Y41,185.4,1.8,259.2,36.6,7.4,0,0,M300 RTK,1ZNBJ8700C01MC,,1ZMBHAN003009A,1Z6PHBKDA01Y41,DJI Pilot,Android, 4.1.1,46.97544033,7.18040917,487.4,,,
8/25/2022,8:45:33.84 AM,0m 3.9s,3.9,46.97551471,7.1803441,2.0,2.0,2.3,1431,0,1.1,0,0,0,0.5,-1.3,0,-1.7,-0.7,-36.6,323.4,Auto Takeoff,Other,Waypoint Mission,17,10,True,,Matrice 300 RTK,True,False,,Smart,RC,False,True,False,,,True,,False,False,False,False,False,False,False,False,False,False,0,Free,0,0,0,0,False,False,False,False,False,False,,False,Normal,100,100,1024,1024,1024,1024,1,False,False,False,False,False,0,False,False,False,False,52,46.26,5437,10462,46.324,True,,,,,,,,False,False,6.286,103.3,103.3,103.3,0,53,0,11,6,8665.1,1155.34,,Idle,0,30,False,10,True,,Go Home,46.97551562,7.18034194,0.6,1223.2,262.5,True,1,1,False,False,False,False,0,False,False,False,Course Lock,262.5,,23.0,Calm,23,Android, 4.1.1,M300 RTK,1ZNBJ8700C01MC,,1ZMBHAN003009A,1Z6PHBKDA01Y41,185.4,1.8,259.2,36.6,7.4,0,0,M300 RTK,1ZNBJ8700C01MC,,1ZMBHAN003009A,1Z6PHBKDA01Y41,DJI Pilot,Android, 4.1.1,46.97544033,7.18040917,487.4,,,
8/25/2022,8:45:33.86 AM,0m 4.0s,4.0,46.97551464,7.18034414,2.0,2.0,2.6,1431,0,1.1,0,0,0,0.5,-1.3,0,-2,-0.6,-36.7,323.3,Auto Takeoff,Other,Waypoint Mission,17,10,True,,Matrice 300 RTK,True,False,,Smart,RC,False,True,False,,,True,,False,False,False,False,False,False,False,False,False,False,0,Free,0,0,0,0,False,False,False,False,False,False,,False,Normal,100,100,1024,1024,1024,1024,1,False,False,False,False,False,0,False,False,False,False,52,46.26,5437,10462,46.324,True,,,,,,,,False,False,6.286,103.3,103.3,103.3,0,53,0,11,6,8665.1,1155.34,,Idle,0,30,False,10,True,,Go Home,46.97551562,7.18034194,0.7,1223.2,262.5,True,1,1,False,False,False,False,0,False,False,False,Course Lock,262.5,,23.0,Calm,23,Android, 4.1.1,M300 RTK,1ZNBJ8700C01MC,,1ZMBHAN003009A,1Z6PHBKDA01Y41,185.4,1.8,259.2,36.6,7.4,0,0,M300 RTK,1ZNBJ8700C01MC,,1ZMBHAN003009A,1Z6PHBKDA01Y41,DJI Pilot,Android, 4.1.1,46.97544033,7.18040917,487.4,,,
8/25/2022,8:45:34.04 AM,0m 4.1s,4.1,46.97551457,7.18034416,2.3,2.3,2.6,1431,0,1.1,0,0,0,0.5,-1.1,0,-2.1,-0.4,-36.8,323.2,Auto Takeoff,Other,Waypoint Mission,17,10,True,,Matrice 300 RTK,True,False,,Smart,RC,False,True,False,,,True,,False,False,False,False,False,False,False,False,False,False,0,Free,0,0,0,0,False,False,False,False,False,False,,False,Normal,100,100,1024,1024,1024,1024,1,False,False,False,False,False,0,False,False,False,False,52,46.26,5437,10462,46.324,True,,,,,,,,False,False,6.286,103.3,103.3,103.3,0,53,0,11,6,8665.1,1155.34,,Idle,0,30,False,10,True,,Go Home,46.97551562,7.18034194,0.7,1223.2,262.5,True,1,1,False,False,False,False,0,False,False,False,Course Lock,262.5,,23.0,Calm,23,Android, 4.1.1,M300 RTK,1ZNBJ8700C01MC,,1ZMBHAN003009A,1Z6PHBKDA01Y41,185.4,1.8,259.2,36.6,7.4,0,0,M300 RTK,1ZNBJ8700C01MC,,1ZMBHAN003009A,1Z6PHBKDA01Y41,DJI Pilot,Android, 4.1.1,46.97544033,7.18040917,487.4,,,
8/25/2022,8:45:34.06 AM,0m 4.2s,4.2,46.97551455,7.18034416,2.3,2.3,3.0,1431,0,1.1,0,0,0,0.5,-1.1,0,-1.9,0,-36.9,323.1,Auto Takeoff,Other,Waypoint Mission,17,10,True,,Matrice 300 RTK,True,False,,Smart,RC,False,True,False,,,True,,False,False,False,False,False,False,False,False,False,False,0,Free,0,0,0,0,False,False,False,False,False,False,,False,Normal,100,100,1024,1024,1024,1024,1,False,False,False,False,False,0,False,False,False,False,52,46.26,5437,10462,46.324,True,,,,,,,,False,False,6.286,103.3,103.3,103.3,0,53,0,11,6,8665.1,1155.34,,Idle,0,30,False,10,True,,Go Home,46.97551562,7.18034194,0.6,1223.2,262.5,True,1,1,False,False,False,False,0,False,False,False,Course Lock,262.5,,23.0,Calm,23,Android, 4.1.1,M300 RTK,1ZNBJ8700C01MC,,1ZMBHAN003009A,1Z6PHBKDA01Y41,185.4,1.8,259.2,36.6,7.4,0,0,M300 RTK,1ZNBJ8700C01MC,,1ZMBHAN003009A,1Z6PHBKDA01Y41,DJI Pilot,Android, 4.1.1,46.97544033,7.18040917,487.4,,,
8/25/2022,8:45:34.24 AM,0m 4.3s,4.3,46.97551452,7.18034415,2.6,2.6,3.0,1432,0,1.1,0,0,0,0.5,-1.1,0,-1.8,0.4,-36.9,323.1,Auto Takeoff,Other,Waypoint Mission,17,10,True,,Matrice 300 RTK,True,False,,Smart,RC,False,True,False,,,True,,False,False,False,False,False,False,False,False,False,False,0,Free,0,0,0,0,False,False,False,False,False,False,,False,Normal,100,100,1024,1024,1024,1024,1,False,False,False,False,False,0,False,False,False,False,52,46.26,5437,10462,46.303,True,,,,,,,,False,False,6.286,103.3,103.3,103.3,0,53,0,11,6,12215.8,1628.77,,Idle,0,30,False,10,True,,Go Home,46.97551562,7.18034194,0.7,1223.2,262.5,True,1,1,False,False,False,False,0,False,False,False,Course Lock,262.5,,23.0,Calm,23,Android, 4.1.1,M300 RTK,1ZNBJ8700C01MC,,1ZMBHAN003009A,1Z6PHBKDA01Y41,185.4,1.8,259.2,36.6,7.4,0,0,M300 RTK,1ZNBJ8700C01MC,,1ZMBHAN003009A,1Z6PHBKDA01Y41,DJI Pilot,Android, 4.1.1,46.97544033,7.18040917,487.4,,,
8/25/2022,8:45:34.34 AM,0m 4.4s,4.4,46.9755145,7.18034416,2.6,2.6,3.3,1432,0,1.1,0,0,0,0.5,-1.1,0,-1.9,0.3,-36.9,323.1,Auto Takeoff,Other,Waypoint Mission,17,10,True,,Matrice 300 RTK,True,False,,Smart,RC,False,True,False,,,True,,False,False,False,False,False,False,False,False,False,False,0,Free,0,0,0,0,False,False,False,False,False,False,,False,Normal,100,100,1024,1024,1024,1024,1,False,False,False,False,False,0,False,False,False,False,52,46.26,5437,10462,46.303,True,,,,,,,,False,False,6.286,103.3,103.3,103.3,0,53,0,11,6,12215.8,1628.77,,Idle,0,30,False,10,True,,Go Home,46.97551562,7.18034194,0.7,1223.2,262.5,True,1,1,False,False,False,False,0,False,False,False,Course Lock,262.5,,23.0,Calm,23,Android, 4.1.1,M300 RTK,1ZNBJ8700C01MC,,1ZMBHAN003009A,1Z6PHBKDA01Y41,185.4,1.8,259.2,36.6,7.4,0,0,M300 RTK,1ZNBJ8700C01MC,,1ZMBHAN003009A,1Z6PHBKDA01Y41,DJI Pilot,Android, 4.1.1,46.97544033,7.18040917,487.4,,,
8/25/2022,8:45:34.36 AM,0m 4.5s,4.5,46.97551448,7.18034417,3.0,3.0,3.3,1432,0,1.1,0,0,0,0.5,-1.1,0,-2.1,0,-36.9,323.1,Auto Takeoff,Other,Waypoint Mission,17,10,True,,Matrice 300 RTK,True,False,,Smart,RC,False,True,False,,,True,,False,False,False,False,False,False,False,False,False,False,0,Free,0,0,0,0,False,False,False,False,False,False,,False,Normal,100,100,1024,1024,1024,1024,1,False,False,False,False,False,0,False,False,False,False,52,46.26,5437,10462,46.303,True,,,,,,,,False,False,6.286,103.3,103.3,103.3,0,53,0,11,6,12215.8,1628.77,,Idle,0,30,False,10,True,,Go Home,46.97551562,7.18034194,0.7,1223.2,262.5,True,1,1,False,False,False,False,0,False,False,False,Course Lock,262.5,,23.0,Calm,23,Android, 4.1.1,M300 RTK,1ZNBJ8700C01MC,,1ZMBHAN003009A,1Z6PHBKDA01Y41,185.4,1.8,259.2,36.6,7.4,0,0,M300 RTK,1ZNBJ8700C01MC,,1ZMBHAN003009A,1Z6PHBKDA01Y41,DJI Pilot,Android, 4.1.1,46.97544033,7.18040917,487.4,,,
8/25/2022,8:45:34.55 AM,0m 4.6s,4.6,46.97551447,7.18034419,3.0,3.0,3.6,1432,0,1.1,0,0,0,0.5,-0.9,0,-1.7,-0.2,-36.9,323.1,Waypoints,Other,Waypoint Mission,17,10,True,,Matrice 300 RTK,True,False,,Smart,RC,False,True,False,,,True,,False,False,False,False,False,False,False,False,False,False,0,Free,0,0,0,0,False,False,False,False,False,False,,False,Normal,100,100,1024,1024,1024,1024,1,False,False,False,False,False,0,False,False,False,False,52,46.26,5437,10462,46.303,True,,,,,,,,False,False,6.286,103.3,103.3,103.3,0,53,0,11,6,12215.8,1628.77,,Idle,0,30,False,10,True,,Go Home,46.97551562,7.18034194,0.7,1223.2,262.5,True,1,1,False,False,False,False,0,False,False,False,Course Lock,262.5,,23.0,Calm,23,Android, 4.1.1,M300 RTK,1ZNBJ8700C01MC,,1ZMBHAN003009A,1Z6PHBKDA01Y41,185.4,1.8,259.2,36.6,7.4,0,0,M300 RTK,1ZNBJ8700C01MC,,1ZMBHAN003009A,1Z6PHBKDA01Y41,DJI Pilot,Android, 4.1.1,46.97544033,7.18040917,487.4,,,
8/25/2022,8:45:34.57 AM,0m 4.7s,4.7,46.97551448,7.18034416,3.0,3.0,3.6,1432,0,1.1,0,0,0,0.5,-0.7,0,0.2,0.6,-36.7,323.3,Waypoints,Other,Waypoint Mission,17,10,True,,Matrice 300 RTK,True,False,,Smart,RC,False,True,False,,,True,,False,False,False,False,False,False,False,False,False,False,0,Free,0,0,0,0,False,False,False,False,False,False,,False,Normal,100,100,1024,1024,1024,1024,1,False,False,False,False,False,0,False,False,False,False,52,46.26,5437,10462,46.303,True,,,,,,,,False,False,6.286,103.3,103.3,103.3,0,53,0,11,6,12215.8,1628.77,,Idle,0,30,False,10,True,,Go Home,46.97551562,7.18034194,0.7,1223.2,262.5,True,1,1,False,False,False,False,0,False,False,False,Course Lock,262.5,,23.0,Calm,23,Android, 4.1.1,M300 RTK,1ZNBJ8700C01MC,,1ZMBHAN003009A,1Z6PHBKDA01Y41,185.4,1.8,259.2,36.6,7.4,0,0,M300 RTK,1ZNBJ8700C01MC,,1ZMBHAN003009A,1Z6PHBKDA01Y41,DJI Pilot,Android, 4.1.1,46.97544033,7.18040917,487.4,,,
8/25/2022,8:45:34.75 AM,0m 4.8s,4.8,46.97551447,7.18034418,3.3,3.3,3.6,1432,0,1.1,0,0,0,0.5,-0.5,0,0,0.5,-36.6,323.4,Waypoints,Other,Waypoint Mission,17,10,True,,Matrice 300 RTK,True,False,,Smart,RC,False,True,False,,,True,,False,False,False,False,False,False,False,False,False,False,0,Free,0,0,0,0,False,False,False,False,False,False,,False,Normal,100,100,1024,1024,1024,1024,1,False,False,False,False,False,0,False,False,False,False,52,46.26,5437,10462,46.303,True,,,,,,,,False,False,6.286,103.3,103.3,103.3,0,53,0,11,6,12215.8,1628.77,,Idle,0,30,False,10,True,,Go Home,46.97551562,7.18034194,0.7,1223.2,262.5,True,1,1,False,False,False,False,0,False,False,False,Course Lock,262.5,,23.0,Calm,23,Android, 4.1.1,M300 RTK,1ZNBJ8700C01MC,,1ZMBHAN003009A,1Z6PHBKDA01Y41,185.4,1.8,259.2,36.6,7.4,0,0,M300 RTK,1ZNBJ8700C01MC,,1ZMBHAN003009A,1Z6PHBKDA01Y41,DJI Pilot,Android, 4.1.1,46.97544033,7.18040917,487.4,,,
8/25/2022,8:45:34.85 AM,0m 4.9s,4.9,46.97551444,7.18034429,3.3,3.3,3.9,1432,0,1.1,0,0,0,0.5,-0.5,0,-0.7,0.1,-36.7,323.3,Waypoints,Other,Waypoint Mission,17,10,True,,Matrice 300 RTK,True,False,,Smart,RC,False,True,False,,,True,,False,False,False,False,False,False,False,False,False,False,0,Free,0,0,0,0,False,False,False,False,False,False,,False,Normal,100,100,1024,1024,1024,1024,1,False,False,False,False,False,0,False,False,False,False,52,46.332,5437,10462,46.303,True,,,,,,,,False,False,13.888,103.3,103.3,103.3,0,53,0,11,6,12215.8,1628.77,,Idle,0,30,False,10,True,,Go Home,46.97551562,7.18034194,0.8,1223.2,262.5,True,1,1,False,False,False,False,0,False,False,False,Course Lock,262.5,,23.0,Calm,23,Android, 4.1.1,M300 RTK,1ZNBJ8700C01MC,,1ZMBHAN003009A,1Z6PHBKDA01Y41,185.4,1.8,259.2,36.6,7.4,0,0,M300 RTK,1ZNBJ8700C01MC,,1ZMBHAN003009A,1Z6PHBKDA01Y41,DJI Pilot,Android, 4.1.1,46.97544033,7.18040917,487.4,,,
8/25/2022,8:45:34.87 AM,0m 5.0s,5.0,46.97551442,7.18034436,3.3,3.3,3.9,1432,1.1,1.1,0,0,0,0.5,-0.5,0,-1.2,-0.4,-36.6,323.4,Waypoints,Other,Waypoint Mission,17,10,True,,Matrice 300 RTK,True,False,,Smart,RC,False,True,False,,,True,,False,False,False,False,False,False,False,False,False,False,0,Free,0,0,0,0,False,False,False,False,False,False,,False,Normal,100,100,1024,1024,1024,1024,1,False,False,False,False,False,0,False,False,False,False,52,46.332,5437,10462,46.303,True,,,,,,,,False,False,13.888,103.3,103.3,103.3,0,53,0,11,6,12215.8,1628.77,,Idle,0,30,False,10,True,,Go Home,46.97551562,7.18034194,0.8,1223.2,262.5,True,1,1,False,False,False,False,0,False,False,False,Course Lock,262.5,,23.0,Calm,23,Android, 4.1.1,M300 RTK,1ZNBJ8700C01MC,,1ZMBHAN003009A,1Z6PHBKDA01Y41,185.4,1.8,259.2,36.6,7.4,0,0,M300 RTK,1ZNBJ8700C01MC,,1ZMBHAN003009A,1Z6PHBKDA01Y41,DJI Pilot,Android, 4.1.1,46.97544033,7.18040917,487.4,,,
8/25/2022,8:45:35.06 AM,0m 5.1s,5.1,46.97551439,7.18034441,3.3,3.3,3.9,1432,0,1.1,0,0,0,0.5,-0.5,0,-1.3,-0.6,-36.6,323.4,Waypoints,Other,Waypoint Mission,17,10,True,,Matrice 300 RTK,True,False,,Smart,RC,False,True,False,,,True,,False,False,False,False,False,False,False,False,False,False,0,Free,0,0,0,0,False,False,False,False,False,False,,False,Normal,100,100,1024,1024,1024,1024,1,False,False,False,False,False,0,False,False,False,False,52,46.332,5437,10462,46.303,True,,,,,,,,False,False,13.888,103.3,103.3,103.3,0,53,0,11,6,12215.8,1628.77,,Idle,0,30,False,10,True,,Go Home,46.97551562,7.18034194,0.7,1223.2,262.5,True,1,1,False,False,False,False,0,False,False,False,Course Lock,262.5,,23.0,Calm,23,Android, 4.1.1,M300 RTK,1ZNBJ8700C01MC,,1ZMBHAN003009A,1Z6PHBKDA01Y41,185.4,1.8,259.2,36.6,7.4,0,0,M300 RTK,1ZNBJ8700C01MC,,1ZMBHAN003009A,1Z6PHBKDA01Y41,DJI Pilot,Android, 4.1.1,46.97544033,7.18040917,487.4,,,
8/25/2022,8:45:35.08 AM,0m 5.2s,5.2,46.97551436,7.18034447,3.3,3.3,3.9,1432,1.1,1.1,0,0,0,0.5,-0.5,0,-1.1,-0.4,-36.5,323.5,Waypoints,Other,Waypoint Mission,17,10,True,,Matrice 300 RTK,True,False,,Smart,RC,False,True,False,,,True,,False,False,False,False,False,False,False,False,False,False,0,Free,0,0,0,0,False,False,False,False,False,False,,False,Normal,100,100,1024,1024,1024,1024,1,False,False,False,False,False,0,False,False,False,False,52,46.332,5437,10462,46.303,True,,,,,,,,False,False,13.888,103.3,103.3,103.3,0,53,0,11,6,12215.8,1628.77,,Idle,0,30,False,10,True,,Go Home,46.97551562,7.18034194,0.8,1223.2,262.5,True,1,1,False,False,False,False,0,False,False,False,Course Lock,262.5,,23.0,Calm,23,Android, 4.1.1,M300 RTK,1ZNBJ8700C01MC,,1ZMBHAN003009A,1Z6PHBKDA01Y41,185.4,1.8,259.2,36.6,7.4,0,0,M300 RTK,1ZNBJ8700C01MC,,1ZMBHAN003009A,1Z6PHBKDA01Y41,DJI Pilot,Android, 4.1.1,46.97544033,7.18040917,487.4,,,
8/25/2022,8:45:35.26 AM,0m 5.3s,5.3,46.97551434,7.18034457,3.6,3.6,4.3,1432,0,1.1,0,0,0,0.5,-0.7,0,-1,-0.2,-36.5,323.5,Waypoints,Other,Waypoint Mission,17,10,True,,Matrice 300 RTK,True,False,,Smart,RC,False,True,False,,,True,,False,False,False,False,False,False,False,False,False,False,0,Free,0,0,0,0,False,False,False,False,False,False,,False,Normal,100,100,1024,1024,1024,1024,1,False,False,False,False,False,0,False,False,False,False,52,46.332,5437,10462,46.248,True,,,,,,,,False,False,13.888,103.3,103.3,103.3,0,52,0,11,6,17930.7,2390.76,,Idle,0,30,False,10,True,,Go Home,46.97551562,7.18034194,0.8,1223.2,262.5,True,1,1,False,False,False,False,0,False,False,False,Course Lock,262.5,,23.0,Calm,23,Android, 4.1.1,M300 RTK,1ZNBJ8700C01MC,,1ZMBHAN003009A,1Z6PHBKDA01Y41,185.4,1.8,259.2,36.6,7.4,0,0,M300 RTK,1ZNBJ8700C01MC,,1ZMBHAN003009A,1Z6PHBKDA01Y41,DJI Pilot,Android, 4.1.1,46.97544033,7.18040917,487.4,,,
8/25/2022,8:45:35.28 AM,0m 5.4s,5.4,46.9755143,7.18034461,3.6,3.6,4.3,1432,0,1.1,0,0,0,0.5,-1.1,0,-1,-0.3,-36.5,323.5,Waypoints,Other,Waypoint Mission,17,10,True,,Matrice 300 RTK,True,False,,Smart,RC,False,True,False,,,True,,False,False,False,False,False,False,False,False,False,False,0,Free,0,0,0,0,False,False,False,False,False,False,,False,Normal,100,100,1024,1024,1024,1024,1,False,False,False,False,False,0,False,False,False,False,52,46.332,5437,10462,46.248,True,,,,,,,,False,False,13.888,103.3,103.3,103.3,0,52,0,11,6,17930.7,2390.76,,Idle,0,30,False,10,True,,Go Home,46.97551562,7.18034194,0.8,1223.2,262.5,True,1,1,False,False,False,False,0,False,False,False,Course Lock,262.5,,23.0,Calm,23,Android, 4.1.1,M300 RTK,1ZNBJ8700C01MC,,1ZMBHAN003009A,1Z6PHBKDA01Y41,185.4,1.8,259.2,36.6,7.4,0,0,M300 RTK,1ZNBJ8700C01MC,,1ZMBHAN003009A,1Z6PHBKDA01Y41,DJI Pilot,Android, 4.1.1,46.97544033,7.18040917,487.4,,,
8/25/2022,8:45:35.37 AM,0m 5.5s,5.5,46.97551423,7.18034465,3.9,3.9,4.6,1433,0,1.1,0,0,0,0.5,-1.3,0,-1.1,-0.2,-36.5,323.5,Waypoints,Other,Waypoint Mission,17,10,True,,Matrice 300 RTK,True,False,,Smart,RC,False,True,False,,,True,,False,False,False,False,False,False,False,False,False,False,0,Free,0,0,0,0,False,False,False,False,False,False,,False,Normal,100,100,1024,1024,1024,1024,1,False,False,False,False,False,0,False,False,False,False,52,46.332,5437,10462,46.248,True,,,,,,,,False,False,13.888,103.3,103.3,103.3,0,52,0,11,6,17930.7,2390.76,,Idle,0,30,False,10,True,,Go Home,46.97551562,7.18034194,0.8,1223.2,262.5,True,1,1,False,False,False,False,0,False,False,False,Course Lock,262.5,,23.0,Calm,23,Android, 4.1.1,M300 RTK,1ZNBJ8700C01MC,,1ZMBHAN003009A,1Z6PHBKDA01Y41,185.4,1.8,259.2,36.6,7.4,0,0,M300 RTK,1ZNBJ8700C01MC,,1ZMBHAN003009A,1Z6PHBKDA01Y41,DJI Pilot,Android, 4.1.1,46.97544033,7.18040917,487.4,,,
8/25/2022,8:45:35.48 AM,0m 5.6s,5.6,46.9755141,7.18034474,3.9,3.9,4.6,1433,0,1.1,0,0,0,0.5,-1.8,0,-1.2,-0.1,-36.5,323.5,Waypoints,Other,Waypoint Mission,17,10,True,,Matrice 300 RTK,True,False,,Smart,RC,False,True,False,,,True,,False,False,False,False,False,False,False,False,False,False,0,Free,0,0,0,0,False,False,False,False,False,False,,False,Normal,100,100,1024,1024,1024,1024,1,False,False,False,False,False,0,False,False,False,False,52,46.332,5437,10462,46.248,True,,,,,,,,False,False,13.888,103.3,103.3,103.3,0,52,0,11,6,17930.7,2390.76,,Idle,0,30,False,10,True,,Go Home,46.97551562,7.18034194,0.9,1223.2,262.5,True,1,1,False,False,False,False,0,False,False,False,Course Lock,262.5,,23.0,Calm,23,Android, 4.1.1,M300 RTK,1ZNBJ8700C01MC,,1ZMBHAN003009A,1Z6PHBKDA01Y41,185.4,1.8,259.2,36.6,7.4,0,0,M300 RTK,1ZNBJ8700C01MC,,1ZMBHAN003009A,1Z6PHBKDA01Y41,DJI Pilot,Android, 4.1.1,46.97544033,7.18040917,487.4,,,
8/25/2022,8:45:35.57 AM,0m 5.7s,5.7,46.97551403,7.18034478,4.3,4.3,4.9,1433,0,1.1,0,0,0,0.5,-2.5,0,-1.3,0,-36.6,323.4,Waypoints,Other,Waypoint Mission,17,10,True,,Matrice 300 RTK,True,False,,Smart,RC,False,True,False,,,True,,False,False,False,False,False,False,False,False,False,False,0,Free,0,0,0,0,False,False,False,False,False,False,,False,Normal,100,100,1024,1024,1024,1024,1,False,False,False,False,False,0,False,False,False,False,52,46.332,5437,10462,46.248,True,,,,,,,,False,False,13.888,103.3,103.3,103.3,0,52,0,11,6,17930.7,2390.76,,Idle,0,30,False,10,True,,Go Home,46.97551562,7.18034194,0.9,1223.2,262.5,True,1,1,False,False,False,False,0,False,False,False,Course Lock,262.5,,23.0,Calm,23,Android, 4.1.1,M300 RTK,1ZNBJ8700C01MC,,1ZMBHAN003009A,1Z6PHBKDA01Y41,185.4,1.8,259.2,36.6,7.4,0,0,M300 RTK,1ZNBJ8700C01MC,,1ZMBHAN003009A,1Z6PHBKDA01Y41,DJI Pilot,Android, 4.1.1,46.97544033,7.18040917,487.4,,,
8/25/2022,8:45:35.69 AM,0m 5.8s,5.8,46.97551398,7.18034482,4.6,4.6,5.6,1433,0,1.1,0,0,0,0.5,-3.1,0,-1.4,0,-36.5,323.5,Waypoints,Other,Waypoint Mission,17,10,True,,Matrice 300 RTK,True,False,,Smart,RC,False,True,False,,,True,,False,False,False,False,False,False,False,False,False,False,0,Free,0,0,0,0,False,False,False,False,False,False,,False,Normal,100,100,1024,1024,1024,1024,1,False,False,False,False,False,0,False,False,False,False,52,46.332,5437,10462,46.248,True,,,,,,,,False,False,13.888,103.3,103.3,103.3,0,52,0,11,6,17930.7,2390.76,,Idle,0,30,False,10,True,,Go Home,46.97551562,7.18034194,0.9,1223.2,262.5,True,1,1,False,False,False,False,0,False,False,False,Course Lock,262.5,,23.0,Calm,23,Android, 4.1.1,M300 RTK,1ZNBJ8700C01MC,,1ZMBHAN003009A,1Z6PHBKDA01Y41,185.4,1.8,259.2,36.6,7.4,0,0,M300 RTK,1ZNBJ8700C01MC,,1ZMBHAN003009A,1Z6PHBKDA01Y41,DJI Pilot,Android, 4.1.1,46.97544033,7.18040917,487.4,,,
8/25/2022,8:45:35.78 AM,0m 5.9s,5.9,46.97551395,7.18034486,5.2,5.2,5.9,1434,0,1.1,0,0,0,0.5,-3.8,0,-1.4,0,-36.5,323.5,Waypoints,Other,Waypoint Mission,17,10,True,,Matrice 300 RTK,True,False,,Smart,RC,False,True,False,,,True,,False,False,False,False,False,False,False,False,False,False,0,Free,0,0,0,0,False,False,False,False,False,False,,False,Normal,100,100,1024,1024,1024,1024,1,False,False,False,False,False,0,False,False,False,False,52,45.804,5437,10462,46.248,True,,,,,,,,False,False,14.348,103.3,103.3,103.3,0,52,0,11,6,17930.7,2390.76,,Idle,0,30,False,10,True,,Go Home,46.97551562,7.18034194,1.0,1223.2,262.5,True,1,1,False,False,False,False,0,False,False,False,Course Lock,262.5,,23.0,Calm,23,Android, 4.1.1,M300 RTK,1ZNBJ8700C01MC,,1ZMBHAN003009A,1Z6PHBKDA01Y41,185.4,1.8,259.2,36.6,7.4,0,0,M300 RTK,1ZNBJ8700C01MC,,1ZMBHAN003009A,1Z6PHBKDA01Y41,DJI Pilot,Android, 4.1.1,46.97544033,7.18040917,487.4,,,
8/25/2022,8:45:35.98 AM,0m 6.0s,6.0,46.97551394,7.18034491,5.9,5.9,6.6,1435,0,1.1,0,0,0,0.5,-4.5,0,-1.5,0,-36.4,323.6,Waypoints,Other,Waypoint Mission,17,10,True,,Matrice 300 RTK,True,False,,Smart,RC,False,True,False,,,True,,False,False,False,False,False,False,False,False,False,False,0,Free,0,0,0,0,False,False,False,False,False,False,,False,Normal,100,100,1024,1024,1024,1024,1,False,False,False,False,False,0,False,False,False,False,52,45.804,5437,10462,46.248,True,,,,,,,,False,False,14.348,103.3,103.3,103.3,0,52,0,11,6,17930.7,2390.76,,Idle,0,30,False,10,True,,Go Home,46.97551562,7.18034194,1.0,1223.2,262.5,True,1,1,False,False,False,False,0,False,False,False,Course Lock,262.5,,23.0,Calm,23,Android, 4.1.1,M300 RTK,1ZNBJ8700C01MC,,1ZMBHAN003009A,1Z6PHBKDA01Y41,185.4,1.8,259.2,36.6,7.4,0,0,M300 RTK,1ZNBJ8700C01MC,,1ZMBHAN003009A,1Z6PHBKDA01Y41,DJI Pilot,Android, 4.1.1,46.97544033,7.18040917,487.4,,,
8/25/2022,8:45:36.00 AM,0m 6.1s,6.1,46.97551394,7.18034493,6.6,6.6,7.2,1435,0,1.1,0,0,0,0.5,-5.1,0,-1.4,-0.2,-36.4,323.6,Waypoints,Other,Waypoint Mission,17,10,True,,Matrice 300 RTK,True,False,,Smart,RC,False,True,False,,,True,,False,False,False,False,False,False,False,False,False,False,0,Free,0,0,0,0,False,False,False,False,False,False,,False,Normal,100,100,1024,1024,1024,1024,1,False,False,False,False,False,0,False,False,False,False,52,45.804,5437,10462,46.248,True,,,,,,,,False,False,14.348,103.3,103.3,103.3,0,52,0,11,6,17930.7,2390.76,,Idle,0,30,False,10,True,,Go Home,46.97551562,7.18034194,1.0,1223.2,262.5,True,1,1,False,False,False,False,0,False,False,False,Course Lock,262.5,,23.0,Calm,23,Android, 4.1.1,M300 RTK,1ZNBJ8700C01MC,,1ZMBHAN003009A,1Z6PHBKDA01Y41,185.4,1.8,259.2,36.6,7.4,0,0,M300 RTK,1ZNBJ8700C01MC,,1ZMBHAN003009A,1Z6PHBKDA01Y41,DJI Pilot,Android, 4.1.1,46.97544033,7.18040917,487.4,,,
