sep=,
CUSTOM.date [local], CUSTOM.updateTime [local], OSD.flyTime, OSD.flyTime [s], OSD.latitude, OSD.longitude, OSD.height [ft], OSD.heightMax [ft], OSD.vpsHeight [ft], OSD.altitude [ft], OSD.hSpeed [MPH], OSD.hSpeedMax [MPH], OSD.xSpeed [MPH], OSD.xSpeedMax [MPH], OSD.ySpeed [MPH], OSD.ySpeedMax [MPH], OSD.zSpeed [MPH], OSD.zSpeedMax [MPH], OSD.pitch, OSD.roll, OSD.yaw, OSD.yaw [360], OSD.flycState, OSD.flycCommand, OSD.flightAction, OSD.gpsNum, OSD.gpsLevel, OSD.isGPSUsed, OSD.nonGPSCause, OSD.droneType, OSD.isSwaveWork, OSD.waveError, OSD.goHomeStatus, OSD.batteryType, OSD.ctrlDevice, OSD.isOnGround, OSD.isMotorOn, OSD.isMotorBlocked, OSD.motorStartFailedCause, OSD.motorFailReason, OSD.isImuPreheated, OSD.imuInitFailReason, OSD.isAcceletorOverRange, OSD.isBarometerDeadInAir, OSD.isCompassError, OSD.isGoHomeHeightModified, OSD.canIOCWork, OSD.isNotEnoughForce, OSD.isOutOfLimit, OSD.isPropellerCatapult, OSD.isVibrating, OSD.isVisionUsed, OSD.voltageWarning, GIMBAL.mode, GIMBAL.pitch, GIMBAL.roll, GIMBAL.yaw, GIMBAL.yaw [360], GIMBAL.isPitchAtLimit, GIMBAL.isRollAtLimit, GIMBAL.isYawAtLimit, GIMBAL.isStuck, CAMERA.isPhoto, CAMERA.isVideo, CAMERA.filename, CAMERA.sdCardIsInserted, CAMERA.sdCardState, RC.downlinkSignal, RC.uplinkSignal, RC.aileron, RC.elevator, RC.throttle, RC.rudder, RC.mode, RC.goHomeDepressed, RC.recordDepressed, RC.shutterDepressed, RC.playbackDepressed, RC.wheelDepressed, RC.wheelOffset, RC.custom1Depressed, RC.custom2Depressed, RC.custom3Depressed, RC.custom4Depressed, BATTERY.chargeLevel, BATTERY.currentPV [V], BATTERY.currentCapacity [mAh], BATTERY.fullCapacity [mAh], BATTERY.voltage [V], BATTERY.isCellVoltageEstimated, BATTERY.cellVoltage1 [V], BATTERY.cellVoltage2 [V], BATTERY.cellVoltage3 [V], BATTERY.cellVoltage4 [V], BATTERY.cellVoltage5 [V], BATTERY.cellVoltage6 [V], BATTERY.maxCellVoltageDeviation, BATTERY.isCellVoltageDeviationHigh, BATTERY.isVoltageLow, BATTERY.current [A], BATTERY.temperature [F], BATTERY.minTemperature [F], BATTERY.maxTemperature [F], BATTERY.usefulTime [s], BATTERY.goHomeTime [s], BATTERY.landTime [s], BATTERY.goHomeBattery, BATTERY.landBattery, BATTERY.safeFlyRadius, BATTERY.volumeConsume, BATTERY.status, BATTERY.goHomeStatus, BATTERY.goHomeCountdown, BATTERY.lowWarning, BATTERY.lowWarningGoHome, BATTERY.seriousLowWarning, BATTERY.seriousLowWarningLanding, BATTERY.timesCharged, MC.failSafeAction, HOME.latitude, HOME.longitude, HOME.distance [ft], HOME.height [ft], HOME.heightLimit [ft], HOME.isHomeRecord, HOME.goHomeMode, HOME.aircraftHeadDirection, HOME.isDynamicHomePointEnabled, HOME.isReachedLimitDistance, HOME.isReachedLimitHeight, HOME.isCompassCeleing, HOME.compassCeleStatus, HOME.isMultipleFlightModeEnabled, HOME.isBeginnerMode, HOME.isIOCEnabled, HOME.iocMode, HOME.goHomeHeight [ft], HOME.courseLockAngle, HOME.forceLandingHeight [ft], HOME.wind, HOME.dataRecorderFileIndex, RECOVER.appType, RECOVER.appVersion, RECOVER.aircraftName, RECOVER.aircraftSerial, RECOVER.cameraSerial, RECOVER.rcSerial, RECOVER.batterySerial, DETAILS.totalTime [s], DETAILS.totalDistance [ft], DETAILS.maxHeight [ft], DETAILS.maxHorizontalSpeed [MPH], DETAILS.maxVerticalSpeed [MPH], DETAILS.photoNum, DETAILS.videoTime [s], DETAILS.aircraftName, DETAILS.aircraftSerial, DETAILS.cameraSerial, DETAILS.rcSerial, DETAILS.batterySerial, DETAILS.appName, DETAILS.appType, DETAILS.appVersion, APPGPS.latitude, APPGPS.longitude, APPGPS.accuracy, APP.message, APP.tip, APP.warning
8/25/2022,8:38:42.56 AM,0m 0.0s,0.0,46.9755256,7.18034262,0,0,0.7,1429,0,0,0,0,0,0,0,0,-1.8,0,-50.8,309.2,Starting Motors,Other,Takeoff (RC Assisted),18,10,True,,Matrice 300 RTK,True,False,,Smart,RC,True,True,False,,,True,,False,False,False,False,False,False,False,False,False,False,0,Free,0,0,0,0,False,False,False,False,False,False,,False,Normal,,,1650,364,364,364,1,False,False,False,False,False,0,False,False,False,False,63,47.508,6587,10462,47.508,True,,,,,,,,False,False,0.734,101.5,101.5,101.5,,,,,,,,,Idle,,,True,,False,,Go Home,,,,,,False,,,False,False,False,False,0,False,False,False,,,,,Calm,,Android, 4.1.1,M300 RTK,1ZNBJ8700C01MC,,1ZMBHAN003009A,1Z6PHBKDA01Y41,127.6,1.8,229.7,36.6,9.0,0,0,M300 RTK,1ZNBJ8700C01MC,,1ZMBHAN003009A,1Z6PHBKDA01Y41,DJI Pilot,Android, 4.1.1,46.97543167,7.180384,483.4,,Your aircraft is flying in an Altitude Zone (500m). Please fly with caution.,
8/25/2022,8:38:42.66 AM,0m 0.1s,0.1,46.9755256,7.18034263,0,0,0.7,1429,0,0,0,0,0,0,0,0,-1.8,0,-50.8,309.2,Starting Motors,Other,Takeoff (RC Assisted),18,10,True,,Matrice 300 RTK,True,False,,Smart,RC,True,True,False,,,True,,False,False,False,False,False,False,False,False,False,False,0,Free,0,0,0,0,False,False,False,False,False,False,,False,Normal,,,1647,364,364,364,1,False,False,False,False,False,0,False,False,False,False,63,47.508,6587,10462,47.508,True,,,,,,,,False,False,0.734,101.5,101.5,101.5,,,,,,,,,Idle,,,True,,False,,Go Home,,,,,,False,,,False,False,False,False,0,False,False,False,,,,,Calm,,Android, 4.1.1,M300 RTK,1ZNBJ8700C01MC,,1ZMBHAN003009A,1Z6PHBKDA01Y41,127.6,1.8,229.7,36.6,9.0,0,0,M300 RTK,1ZNBJ8700C01MC,,1ZMBHAN003009A,1Z6PHBKDA01Y41,DJI Pilot,Android, 4.1.1,46.97543167,7.180384,483.4,,,
8/25/2022,8:38:42.68 AM,0m 0.2s,0.2,46.9755256,7.18034262,0,0,0.7,1429,1.1,1.1,0,0,0,0,0,0,-1.8,0,-50.8,309.2,Starting Motors,Other,Takeoff (RC Assisted),18,10,True,,Matrice 300 RTK,True,False,,Smart,RC,True,True,False,,,True,,False,False,False,False,False,False,False,False,False,False,0,Free,0,0,0,0,False,False,False,False,False,False,,False,Normal,,100,1647,364,364,364,1,False,False,False,False,False,0,False,False,False,False,63,47.508,6587,10462,47.489,True,,,,,,,,False,False,0.734,101.5,101.5,101.5,0,53,0,10,5,5555.2,740.69,,Idle,0,30,False,10,True,,Go Home,,,,,,False,,,False,False,False,False,0,False,False,False,,,,,Calm,,Android, 4.1.1,M300 RTK,1ZNBJ8700C01MC,,1ZMBHAN003009A,1Z6PHBKDA01Y41,127.6,1.8,229.7,36.6,9.0,0,0,M300 RTK,1ZNBJ8700C01MC,,1ZMBHAN003009A,1Z6PHBKDA01Y41,DJI Pilot,Android, 4.1.1,46.97543167,7.180384,483.4,,,
8/25/2022,8:38:42.87 AM,0m 0.3s,0.3,46.9755256,7.18034262,0,0,0.7,1429,2.1,2.1,0,0,0,0,0,0,-1.8,0,-50.8,309.2,Starting Motors,Other,Takeoff (RC Assisted),18,10,True,,Matrice 300 RTK,True,False,,Smart,RC,True,True,False,,,True,,False,False,False,False,False,False,False,False,False,False,0,Free,0,0,0,0,False,False,False,False,False,False,,False,Normal,100,100,1647,364,364,364,1,False,False,False,False,False,0,False,False,False,False,63,47.508,6587,10462,47.489,True,,,,,,,,False,False,0.734,101.5,101.5,101.5,0,53,0,10,5,5555.2,740.69,,Idle,0,30,False,10,True,,Go Home,46.9755256,7.18034262,0.3,1221.6,262.5,True,1,1,False,False,False,False,0,False,False,False,Course Lock,262.5,,23.0,Calm,21,Android, 4.1.1,M300 RTK,1ZNBJ8700C01MC,,1ZMBHAN003009A,1Z6PHBKDA01Y41,127.6,1.8,229.7,36.6,9.0,0,0,M300 RTK,1ZNBJ8700C01MC,,1ZMBHAN003009A,1Z6PHBKDA01Y41,DJI Pilot,Android, 4.1.1,46.97543167,7.180384,483.4,Data Recorder File Index is 21.,,
8/25/2022,8:38:42.97 AM,0m 0.4s,0.4,46.97552559,7.18034262,0,0,0.7,1429,0,2.1,0,0,0,0,0,0,-1.8,0,-50.8,309.2,Starting Motors,Other,Takeoff (RC Assisted),18,10,True,,Matrice 300 RTK,True,False,,Smart,RC,True,True,False,,,True,,False,False,False,False,False,False,False,False,False,False,0,Free,0,0,0,0,False,False,False,False,False,False,,False,Normal,100,100,1642,364,364,364,1,False,False,False,False,False,0,False,False,False,False,63,47.508,6587,10462,47.489,True,,,,,,,,False,False,0.734,101.5,101.5,101.5,0,53,0,10,5,5555.2,740.69,,Idle,0,30,False,10,True,,Go Home,46.9755256,7.18034262,0.0,1221.6,262.5,True,1,1,False,False,False,False,0,False,False,False,Course Lock,262.5,,23.0,Calm,21,Android, 4.1.1,M300 RTK,1ZNBJ8700C01MC,,1ZMBHAN003009A,1Z6PHBKDA01Y41,127.6,1.8,229.7,36.6,9.0,0,0,M300 RTK,1ZNBJ8700C01MC,,1ZMBHAN003009A,1Z6PHBKDA01Y41,DJI Pilot,Android, 4.1.1,46.97543167,7.180384,483.4,,,
8/25/2022,8:38:43.07 AM,0m 0.5s,0.5,46.97552558,7.18034261,0,0,0.7,1429,0,2.1,0,0,0,0,0,0,-1.8,0,-50.8,309.2,Starting Motors,Other,Takeoff (RC Assisted),18,10,True,,Matrice 300 RTK,True,False,,Smart,RC,True,True,False,,,True,,False,False,False,False,False,False,False,False,False,False,0,Free,0,0,0,0,False,False,False,False,False,False,,False,Normal,100,100,1394,435,380,394,1,False,False,False,False,False,0,False,False,False,False,63,47.508,6587,10462,47.489,True,,,,,,,,False,False,0.734,101.5,101.5,101.5,0,53,0,10,5,5555.2,740.69,,Idle,0,30,False,10,True,,Go Home,46.9755256,7.18034262,0.0,1221.6,262.5,True,1,1,False,False,False,False,0,False,False,False,Course Lock,262.5,,23.0,Calm,21,Android, 4.1.1,M300 RTK,1ZNBJ8700C01MC,,1ZMBHAN003009A,1Z6PHBKDA01Y41,127.6,1.8,229.7,36.6,9.0,0,0,M300 RTK,1ZNBJ8700C01MC,,1ZMBHAN003009A,1Z6PHBKDA01Y41,DJI Pilot,Android, 4.1.1,46.97543167,7.180384,483.4,,,
8/25/2022,8:38:43.17 AM,0m 0.6s,0.6,46.97552558,7.18034261,0,0,0.7,1429,0,2.1,0,0,0,0,0,0,-1.8,0,-50.8,309.2,Starting Motors,Other,Takeoff (RC Assisted),18,10,True,,Matrice 300 RTK,True,False,,Smart,RC,True,True,False,,,True,,False,False,False,False,False,False,False,False,False,False,0,Free,0,0,0,0,False,False,False,False,False,False,,False,Normal,100,100,1024,1024,935,905,1,False,False,False,False,False,0,False,False,False,False,63,47.508,6587,10462,47.489,True,,,,,,,,False,False,0.734,101.5,101.5,101.5,0,53,0,10,5,5555.2,740.69,,Idle,0,30,False,10,True,,Go Home,46.9755256,7.18034262,0.0,1221.6,262.5,True,1,1,False,False,False,False,0,False,False,False,Course Lock,262.5,,23.0,Calm,21,Android, 4.1.1,M300 RTK,1ZNBJ8700C01MC,,1ZMBHAN003009A,1Z6PHBKDA01Y41,127.6,1.8,229.7,36.6,9.0,0,0,M300 RTK,1ZNBJ8700C01MC,,1ZMBHAN003009A,1Z6PHBKDA01Y41,DJI Pilot,Android, 4.1.1,46.97543167,7.180384,483.4,,,
8/25/2022,8:38:43.27 AM,0m 0.7s,0.7,46.97552557,7.18034261,0,0,0.7,1429,0,2.1,0,0,0,0,0,0,-1.8,0,-50.8,309.2,Starting Motors,Other,Takeoff (RC Assisted),18,10,True,,Matrice 300 RTK,True,False,,Smart,RC,True,True,False,,,True,,False,False,False,False,False,False,False,False,False,False,0,Free,0,0,0,0,False,False,False,False,False,False,,False,Normal,100,100,1024,1024,935,905,1,False,False,False,False,False,0,False,False,False,False,63,47.508,6587,10462,47.489,True,,,,,,,,False,False,0.734,101.5,101.5,101.5,0,53,0,10,5,5555.2,740.69,,Idle,0,30,False,10,True,,Go Home,46.9755256,7.18034262,0.3,1221.6,262.5,True,1,1,False,False,False,False,0,False,False,False,Course Lock,262.5,,23.0,Calm,21,Android, 4.1.1,M300 RTK,1ZNBJ8700C01MC,,1ZMBHAN003009A,1Z6PHBKDA01Y41,127.6,1.8,229.7,36.6,9.0,0,0,M300 RTK,1ZNBJ8700C01MC,,1ZMBHAN003009A,1Z6PHBKDA01Y41,DJI Pilot,Android, 4.1.1,46.97543167,7.180384,483.4,,,
8/25/2022,8:38:43.38 AM,0m 0.8s,0.8,46.97552556,7.18034264,0,0,0.7,1429,2.1,2.1,0,0,0,0,0,0,-1.8,0,-50.8,309.2,Starting Motors,Other,Takeoff (RC Assisted),18,10,True,,Matrice 300 RTK,True,False,,Smart,RC,True,True,False,,,True,,False,False,False,False,False,False,False,False,False,False,0,Free,0,0,0,0,False,False,False,False,False,False,,False,Normal,100,100,1024,1024,1024,1024,1,False,False,False,False,False,0,False,False,False,False,63,47.508,6587,10462,47.489,True,,,,,,,,False,False,0.734,101.5,101.5,101.5,0,53,0,10,5,5555.2,740.69,,Idle,0,30,False,10,True,,Go Home,46.9755256,7.18034262,0.3,1221.6,262.5,True,1,1,False,False,False,False,0,False,False,False,Course Lock,262.5,,23.0,Calm,21,Android, 4.1.1,M300 RTK,1ZNBJ8700C01MC,,1ZMBHAN003009A,1Z6PHBKDA01Y41,127.6,1.8,229.7,36.6,9.0,0,0,M300 RTK,1ZNBJ8700C01MC,,1ZMBHAN003009A,1Z6PHBKDA01Y41,DJI Pilot,Android, 4.1.1,46.97543167,7.180384,483.4,,,
8/25/2022,8:38:43.48 AM,0m 0.9s,0.9,46.97552555,7.18034264,0,0,0.7,1429,0,2.1,0,0,0,0,0,0,-1.8,0,-50.9,309.1,Starting Motors,Other,Takeoff (RC Assisted),18,10,True,,Matrice 300 RTK,True,False,,Smart,RC,True,True,False,,,True,,False,False,False,False,False,False,False,False,False,False,0,Free,0,0,0,0,False,False,False,False,False,False,,False,Normal,100,100,1024,1024,1024,1024,1,False,False,False,False,False,0,False,False,False,False,63,47.52,6587,10462,47.489,True,,,,,,,,False,False,0.74,101.5,101.5,101.5,0,53,0,10,5,5555.2,740.69,,Idle,0,30,False,10,True,,Go Home,46.9755256,7.18034262,0.0,1221.6,262.5,True,1,1,False,False,False,False,0,False,False,False,Course Lock,262.5,,23.0,Calm,21,Android, 4.1.1,M300 RTK,1ZNBJ8700C01MC,,1ZMBHAN003009A,1Z6PHBKDA01Y41,127.6,1.8,229.7,36.6,9.0,0,0,M300 RTK,1ZNBJ8700C01MC,,1ZMBHAN003009A,1Z6PHBKDA01Y41,DJI Pilot,Android, 4.1.1,46.97543167,7.180384,483.4,,,
8/25/2022,8:38:43.58 AM,0m 1.0s,1.0,46.97552553,7.18034264,0,0,0.7,1429,0,2.1,0,0,0,0,0,0,-1.9,0,-51,309,Starting Motors,Other,Takeoff (RC Assisted),18,10,True,,Matrice 300 RTK,True,False,,Smart,RC,True,True,False,,,True,,False,False,False,False,False,False,False,False,False,False,0,Free,0,0,0,0,False,False,False,False,False,False,,False,Normal,100,100,1024,1024,1024,1024,1,False,False,False,False,False,0,False,False,False,False,63,47.52,6587,10462,47.489,True,,,,,,,,False,False,0.74,101.5,101.5,101.5,0,53,0,10,5,5555.2,740.69,,Idle,0,30,False,10,True,,Go Home,46.9755256,7.18034262,0.0,1221.6,262.5,True,1,1,False,False,False,False,0,False,False,False,Course Lock,262.5,,23.0,Calm,21,Android, 4.1.1,M300 RTK,1ZNBJ8700C01MC,,1ZMBHAN003009A,1Z6PHBKDA01Y41,127.6,1.8,229.7,36.6,9.0,0,0,M300 RTK,1ZNBJ8700C01MC,,1ZMBHAN003009A,1Z6PHBKDA01Y41,DJI Pilot,Android, 4.1.1,46.97543167,7.180384,483.4,,,
8/25/2022,8:38:43.68 AM,0m 1.1s,1.1,46.97552552,7.18034264,0,0,0.7,1429,0,2.1,0,0,0,0,0,0,-1.9,-0.1,-50.8,309.2,Starting Motors,Other,Takeoff (RC Assisted),18,10,True,,Matrice 300 RTK,True,False,,Smart,RC,True,True,False,,,True,,False,False,False,False,False,False,False,False,False,False,0,Free,0,0,0,0,False,False,False,False,False,False,,False,Normal,100,100,1024,1024,1024,1024,1,False,False,False,False,False,0,False,False,False,False,63,47.52,6587,10462,47.489,True,,,,,,,,False,False,0.74,101.5,101.5,101.5,0,53,0,10,5,5555.2,740.69,,Idle,0,30,False,10,True,,Go Home,46.9755256,7.18034262,0.0,1221.6,262.5,True,1,1,False,False,False,False,0,False,False,False,Course Lock,262.5,,23.0,Calm,21,Android, 4.1.1,M300 RTK,1ZNBJ8700C01MC,,1ZMBHAN003009A,1Z6PHBKDA01Y41,127.6,1.8,229.7,36.6,9.0,0,0,M300 RTK,1ZNBJ8700C01MC,,1ZMBHAN003009A,1Z6PHBKDA01Y41,DJI Pilot,Android, 4.1.1,46.97543167,7.180384,483.4,,,
8/25/2022,8:38:43.78 AM,0m 1.2s,1.2,46.97552553,7.18034264,0,0,0.7,1429,0,2.1,0,0,0,0,0,0,-1.9,0,-50.8,309.2,Starting Motors,Other,Takeoff (RC Assisted),18,10,True,,Matrice 300 RTK,True,False,,Smart,RC,True,True,False,,,True,,False,False,False,False,False,False,False,False,False,False,0,Free,0,0,0,0,False,False,False,False,False,False,,False,Normal,100,100,1024,1024,1024,1024,1,False,False,False,False,False,0,False,False,False,False,63,47.52,6587,10462,47.548,True,,,,,,,,False,False,0.74,101.5,101.5,101.5,0,53,0,10,5,5541.5,738.87,,Idle,0,30,False,10,True,,Go Home,46.9755256,7.18034262,0.0,1221.6,262.5,True,1,1,False,False,False,False,0,False,False,False,Course Lock,262.5,,23.0,Calm,21,Android, 4.1.1,M300 RTK,1ZNBJ8700C01MC,,1ZMBHAN003009A,1Z6PHBKDA01Y41,127.6,1.8,229.7,36.6,9.0,0,0,M300 RTK,1ZNBJ8700C01MC,,1ZMBHAN003009A,1Z6PHBKDA01Y41,DJI Pilot,Android, 4.1.1,46.97543167,7.180384,483.4,,,
8/25/2022,8:38:43.88 AM,0m 1.3s,1.3,46.97552553,7.18034263,0,0,0.7,1429,0,2.1,0,0,0,0,0,0,-1.9,-0.1,-50.8,309.2,Starting Motors,Other,Takeoff (RC Assisted),18,10,True,,Matrice 300 RTK,True,False,,Smart,RC,True,True,False,,,True,,False,False,False,False,False,False,False,False,False,False,0,Free,0,0,0,0,False,False,False,False,False,False,,False,Normal,100,100,1024,1024,1024,1024,1,False,False,False,False,False,0,False,False,False,False,63,47.52,6587,10462,47.548,True,,,,,,,,False,False,0.74,101.5,101.5,101.5,0,53,0,10,5,5541.5,738.87,,Idle,0,30,False,10,True,,Go Home,46.9755256,7.18034262,0.0,1221.6,262.5,True,1,1,False,False,False,False,0,False,False,False,Course Lock,262.5,,23.0,Calm,21,Android, 4.1.1,M300 RTK,1ZNBJ8700C01MC,,1ZMBHAN003009A,1Z6PHBKDA01Y41,127.6,1.8,229.7,36.6,9.0,0,0,M300 RTK,1ZNBJ8700C01MC,,1ZMBHAN003009A,1Z6PHBKDA01Y41,DJI Pilot,Android, 4.1.1,46.97543167,7.180384,483.4,,,
8/25/2022,8:38:43.98 AM,0m 1.4s,1.4,46.97552553,7.18034262,0,0,0.7,1429,0,2.1,0,0,0,0,0,0,-1.8,-0.1,-50.7,309.3,Starting Motors,Other,Takeoff (RC Assisted),18,10,True,,Matrice 300 RTK,True,False,,Smart,RC,True,True,False,,,True,,False,False,False,False,False,False,False,False,False,False,0,Free,0,0,0,0,False,False,False,False,False,False,,False,Normal,100,100,1024,1024,1024,1024,1,False,False,False,False,False,0,False,False,False,False,63,47.52,6587,10462,47.548,True,,,,,,,,False,False,0.74,101.5,101.5,101.5,0,53,0,10,5,5541.5,738.87,,Idle,0,30,False,10,True,,Go Home,46.9755256,7.18034262,0.0,1221.6,262.5,True,1,1,False,False,False,False,0,False,False,False,Course Lock,262.5,,23.0,Calm,21,Android, 4.1.1,M300 RTK,1ZNBJ8700C01MC,,1ZMBHAN003009A,1Z6PHBKDA01Y41,127.6,1.8,229.7,36.6,9.0,0,0,M300 RTK,1ZNBJ8700C01MC,,1ZMBHAN003009A,1Z6PHBKDA01Y41,DJI Pilot,Android, 4.1.1,46.97543167,7.180384,483.4,,,
8/25/2022,8:38:44.09 AM,0m 1.5s,1.5,46.97552556,7.18034261,0,0,0.7,1429,0,2.1,0,0,0,0,0,0,-1.8,-0.1,-50.7,309.3,Starting Motors,Other,Takeoff (RC Assisted),18,10,True,,Matrice 300 RTK,True,False,,Smart,RC,True,True,False,,,True,,False,False,False,False,False,False,False,False,False,False,0,Free,0,0,0,0,False,False,False,False,False,False,,False,Normal,100,100,1024,1024,1024,1024,1,False,False,False,False,False,0,False,False,False,False,63,47.52,6587,10462,47.548,True,,,,,,,,False,False,0.74,101.5,101.5,101.5,0,53,0,10,5,5541.5,738.87,,Idle,0,30,False,10,True,,Go Home,46.9755256,7.18034262,0.3,1221.6,262.5,True,1,1,False,False,False,False,0,False,False,False,Course Lock,262.5,,23.0,Calm,21,Android, 4.1.1,M300 RTK,1ZNBJ8700C01MC,,1ZMBHAN003009A,1Z6PHBKDA01Y41,127.6,1.8,229.7,36.6,9.0,0,0,M300 RTK,1ZNBJ8700C01MC,,1ZMBHAN003009A,1Z6PHBKDA01Y41,DJI Pilot,Android, 4.1.1,46.97543167,7.180384,483.4,,,
8/25/2022,8:38:44.19 AM,0m 1.6s,1.6,46.97552555,7.1803426,0,0,0.7,1429,0,2.1,0,0,0,0,0,0,-1.8,-0.1,-50.7,309.3,Starting Motors,Other,Takeoff (RC Assisted),18,10,True,,Matrice 300 RTK,True,False,,Smart,RC,True,True,False,,,True,,False,False,False,False,False,False,False,False,False,False,0,Free,0,0,0,0,False,False,False,False,False,False,,False,Normal,100,100,1024,1024,1024,1024,1,False,False,False,False,False,0,False,False,False,False,63,47.52,6587,10462,47.548,True,,,,,,,,False,False,0.74,101.5,101.5,101.5,0,53,0,10,5,5541.5,738.87,,Idle,0,30,False,10,True,,Go Home,46.9755256,7.18034262,0.0,1221.6,262.5,True,1,1,False,False,False,False,0,False,False,False,Course Lock,262.5,,23.0,Calm,21,Android, 4.1.1,M300 RTK,1ZNBJ8700C01MC,,1ZMBHAN003009A,1Z6PHBKDA01Y41,127.6,1.8,229.7,36.6,9.0,0,0,M300 RTK,1ZNBJ8700C01MC,,1ZMBHAN003009A,1Z6PHBKDA01Y41,DJI Pilot,Android, 4.1.1,46.97543167,7.180384,483.4,,,
8/25/2022,8:38:44.29 AM,0m 1.7s,1.7,46.97552555,7.18034259,0,0,0.7,1429,1.1,2.1,0,0,0,0,0,0,-1.8,-0.1,-50.8,309.2,Starting Motors,Other,Takeoff (RC Assisted),18,10,True,,Matrice 300 RTK,True,False,,Smart,RC,True,True,False,,,True,,False,False,False,False,False,False,False,False,False,False,0,Free,0,0,0,0,False,False,False,False,False,False,,False,Normal,100,100,1024,1024,1024,1024,1,False,False,False,False,False,0,False,False,False,False,63,47.52,6587,10462,47.548,True,,,,,,,,False,False,0.74,101.5,101.5,101.5,0,53,0,10,5,5541.5,738.87,,Idle,0,30,False,10,True,,Go Home,46.9755256,7.18034262,0.0,1221.6,262.5,True,1,1,False,False,False,False,0,False,False,False,Course Lock,262.5,,23.0,Calm,21,Android, 4.1.1,M300 RTK,1ZNBJ8700C01MC,,1ZMBHAN003009A,1Z6PHBKDA01Y41,127.6,1.8,229.7,36.6,9.0,0,0,M300 RTK,1ZNBJ8700C01MC,,1ZMBHAN003009A,1Z6PHBKDA01Y41,DJI Pilot,Android, 4.1.1,46.97543167,7.180384,483.4,,,
8/25/2022,8:38:44.39 AM,0m 1.8s,1.8,46.97552555,7.18034258,0,0,0.7,1429,0,2.1,0,0,0,0,0,0,-1.8,-0.1,-50.8,309.2,Starting Motors,Other,Takeoff (RC Assisted),18,10,True,,Matrice 300 RTK,True,False,,Smart,RC,True,True,False,,,True,,False,False,False,False,False,False,False,False,False,False,0,Free,0,0,0,0,False,False,False,False,False,False,,False,Normal,100,100,1024,1024,1111,1024,1,False,False,False,False,False,0,False,False,False,False,63,47.52,6587,10462,47.548,True,,,,,,,,False,False,0.74,101.5,101.5,101.5,0,53,0,10,5,5541.5,738.87,,Idle,0,30,False,10,True,,Go Home,46.9755256,7.18034262,0.0,1221.6,262.5,True,1,1,False,False,False,False,0,False,False,False,Course Lock,262.5,,23.0,Calm,21,Android, 4.1.1,M300 RTK,1ZNBJ8700C01MC,,1ZMBHAN003009A,1Z6PHBKDA01Y41,127.6,1.8,229.7,36.6,9.0,0,0,M300 RTK,1ZNBJ8700C01MC,,1ZMBHAN003009A,1Z6PHBKDA01Y41,DJI Pilot,Android, 4.1.1,46.97543167,7.180384,483.4,,,
8/25/2022,8:38:44.49 AM,0m 1.9s,1.9,46.97552557,7.18034257,0,0,0.7,1429,0,2.1,0,0,0,0,0,0,-1.9,-0.1,-50.8,309.2,Starting Motors,Other,Takeoff (RC Assisted),18,10,True,,Matrice 300 RTK,True,False,,Smart,RC,True,True,False,,,True,,False,False,False,False,False,False,False,False,False,False,0,Free,0,0,0,0,False,False,False,False,False,False,,False,Normal,100,100,1024,1024,1130,1024,1,False,False,False,False,False,0,False,False,False,False,63,47.52,6587,10462,47.548,True,,,,,,,,False,False,2.726,101.5,101.5,101.5,0,53,0,10,5,5541.5,738.87,,Idle,0,30,False,10,True,,Go Home,46.9755256,7.18034262,0.3,1221.6,262.5,True,1,1,False,False,False,False,0,False,False,False,Course Lock,262.5,,23.0,Calm,21,Android, 4.1.1,M300 RTK,1ZNBJ8700C01MC,,1ZMBHAN003009A,1Z6PHBKDA01Y41,127.6,1.8,229.7,36.6,9.0,0,0,M300 RTK,1ZNBJ8700C01MC,,1ZMBHAN003009A,1Z6PHBKDA01Y41,DJI Pilot,Android, 4.1.1,46.97543167,7.180384,483.4,,,
8/25/2022,8:38:44.59 AM,0m 2.0s,2.0,46.97552557,7.18034255,0,0,0.7,1429,2.1,2.1,0,0,0,0,0,0,-1.9,-0.1,-50.8,309.2,Manual Takeoff,Other,Takeoff (RC Assisted),18,10,True,,Matrice 300 RTK,True,False,,Smart,RC,True,True,False,,,True,,False,False,False,False,False,False,False,False,False,False,0,Free,0,0,0,0,False,False,False,False,False,False,,False,Normal,100,100,1024,1024,1143,1024,1,False,False,False,False,False,0,False,False,False,False,63,47.52,6587,10462,47.548,True,,,,,,,,False,False,2.726,101.5,101.5,101.5,0,53,0,10,5,5541.5,738.87,,Idle,0,30,False,10,True,,Go Home,46.9755256,7.18034262,0.3,1221.6,262.5,True,1,1,False,False,False,False,0,False,False,False,Course Lock,262.5,,23.0,Calm,21,Android, 4.1.1,M300 RTK,1ZNBJ8700C01MC,,1ZMBHAN003009A,1Z6PHBKDA01Y41,127.6,1.8,229.7,36.6,9.0,0,0,M300 RTK,1ZNBJ8700C01MC,,1ZMBHAN003009A,1Z6PHBKDA01Y41,DJI Pilot,Android, 4.1.1,46.97543167,7.180384,483.4,,,
8/25/2022,8:38:44.69 AM,0m 2.1s,2.1,46.97552557,7.18034254,0,0,0.7,1429,1.1,2.1,0,0,0,0,0,0,-1.9,-0.1,-50.8,309.2,Manual Takeoff,Other,Takeoff (RC Assisted),18,10,True,,Matrice 300 RTK,True,False,,Smart,RC,True,True,False,,,True,,False,False,False,False,False,False,False,False,False,False,0,Free,0,0,0,0,False,False,False,False,False,False,,False,Normal,100,100,1024,1024,1176,1024,1,False,False,False,False,False,0,False,False,False,False,63,47.52,6587,10462,47.548,True,,,,,,,,False,False,2.726,101.5,101.5,101.5,0,53,0,10,5,5541.5,738.87,,Idle,0,30,False,10,True,,Go Home,46.9755256,7.18034262,0.3,1221.6,262.5,True,1,1,False,False,False,False,0,False,False,False,Course Lock,262.5,,23.0,Calm,21,Android, 4.1.1,M300 RTK,1ZNBJ8700C01MC,,1ZMBHAN003009A,1Z6PHBKDA01Y41,127.6,1.8,229.7,36.6,9.0,0,0,M300 RTK,1ZNBJ8700C01MC,,1ZMBHAN003009A,1Z6PHBKDA01Y41,DJI Pilot,Android, 4.1.1,46.97543167,7.180384,483.4,,,
8/25/2022,8:38:44.80 AM,0m 2.2s,2.2,46.97552557,7.18034254,0,0,0.7,1429,1.1,2.1,0,0,0,0,0,0,-1.9,-0.1,-50.8,309.2,Manual Takeoff,Other,Takeoff (RC Assisted),18,10,True,,Matrice 300 RTK,True,False,,Smart,RC,True,True,False,,,True,,False,False,False,False,False,False,False,False,False,False,0,Free,0,0,0,0,False,False,False,False,False,False,,False,Normal,100,100,1024,1024,1176,1024,1,False,False,False,False,False,0,False,False,False,False,63,47.52,6587,10462,47.495,True,,,,,,,,False,False,2.726,101.5,101.5,101.5,0,53,0,10,5,5831.7,777.56,,Idle,0,30,False,10,True,,Go Home,46.9755256,7.18034262,0.3,1221.6,262.5,True,1,1,False,False,False,False,0,False,False,False,Course Lock,262.5,,23.0,Calm,21,Android, 4.1.1,M300 RTK,1ZNBJ8700C01MC,,1ZMBHAN003009A,1Z6PHBKDA01Y41,127.6,1.8,229.7,36.6,9.0,0,0,M300 RTK,1ZNBJ8700C01MC,,1ZMBHAN003009A,1Z6PHBKDA01Y41,DJI Pilot,Android, 4.1.1,46.97543167,7.180384,483.4,,,
8/25/2022,8:38:44.90 AM,0m 2.3s,2.3,46.97552557,7.18034253,0,0,0.7,1429,2.1,2.1,0,0,0,0,0,0,-1.8,-0.1,-50.8,309.2,Manual Takeoff,Other,Takeoff (RC Assisted),18,10,True,,Matrice 300 RTK,True,False,,Smart,RC,True,True,False,,,True,,False,False,False,False,False,False,False,False,False,False,0,Free,0,0,0,0,False,False,False,False,False,False,,False,Normal,100,100,1024,1024,1183,1024,1,False,False,False,False,False,0,False,False,False,False,63,47.52,6587,10462,47.495,True,,,,,,,,False,False,2.726,101.5,101.5,101.5,0,53,0,10,5,5831.7,777.56,,Idle,0,30,False,10,True,,Go Home,46.9755256,7.18034262,0.3,1221.6,262.5,True,1,1,False,False,False,False,0,False,False,False,Course Lock,262.5,,23.0,Calm,21,Android, 4.1.1,M300 RTK,1ZNBJ8700C01MC,,1ZMBHAN003009A,1Z6PHBKDA01Y41,127.6,1.8,229.7,36.6,9.0,0,0,M300 RTK,1ZNBJ8700C01MC,,1ZMBHAN003009A,1Z6PHBKDA01Y41,DJI Pilot,Android, 4.1.1,46.97543167,7.180384,483.4,,,
8/25/2022,8:38:45.00 AM,0m 2.4s,2.4,46.97552557,7.18034254,0,0,0.7,1429,1.1,2.1,0,0,0,0,0,0,-1.8,-0.1,-50.8,309.2,Manual Takeoff,Other,Takeoff (RC Assisted),18,10,True,,Matrice 300 RTK,True,False,,Smart,RC,True,True,False,,,True,,False,False,False,False,False,False,False,False,False,False,0,Free,0,0,0,0,False,False,False,False,False,False,,False,Normal,100,100,1024,1024,1181,1024,1,False,False,False,False,False,0,False,False,False,False,63,47.52,6587,10462,47.495,True,,,,,,,,False,False,2.726,101.5,101.5,101.5,0,53,0,10,5,5831.7,777.56,,Idle,0,30,False,10,True,,Go Home,46.9755256,7.18034262,0.3,1221.6,262.5,True,1,1,False,False,False,False,0,False,False,False,Course Lock,262.5,,23.0,Calm,21,Android, 4.1.1,M300 RTK,1ZNBJ8700C01MC,,1ZMBHAN003009A,1Z6PHBKDA01Y41,127.6,1.8,229.7,36.6,9.0,0,0,M300 RTK,1ZNBJ8700C01MC,,1ZMBHAN003009A,1Z6PHBKDA01Y41,DJI Pilot,Android, 4.1.1,46.97543167,7.180384,483.4,,,
8/25/2022,8:38:45.10 AM,0m 2.5s,2.5,46.97552557,7.18034254,0,0,0.7,1429,2.1,2.1,0,0,0,0,0,0,-1.8,-0.1,-50.7,309.3,Manual Takeoff,Other,Takeoff (RC Assisted),18,10,True,,Matrice 300 RTK,True,False,,Smart,RC,True,True,False,,,True,,False,False,False,False,False,False,False,False,False,False,0,Free,0,0,0,0,False,False,False,False,False,False,,False,Normal,100,100,1024,1024,1183,1024,1,False,False,False,False,False,0,False,False,False,False,63,47.52,6587,10462,47.495,True,,,,,,,,False,False,2.726,101.5,101.5,101.5,0,53,0,10,5,5831.7,777.56,,Idle,0,30,False,10,True,,Go Home,46.9755256,7.18034262,0.3,1221.6,262.5,True,1,1,False,False,False,False,0,False,False,False,Course Lock,262.5,,23.0,Calm,21,Android, 4.1.1,M300 RTK,1ZNBJ8700C01MC,,1ZMBHAN003009A,1Z6PHBKDA01Y41,127.6,1.8,229.7,36.6,9.0,0,0,M300 RTK,1ZNBJ8700C01MC,,1ZMBHAN003009A,1Z6PHBKDA01Y41,DJI Pilot,Android, 4.1.1,46.97543167,7.180384,483.4,,,
8/25/2022,8:38:45.20 AM,0m 2.6s,2.6,46.97552556,7.18034257,0,0,0.7,1429,1.1,2.1,0,0,0,0,0,0,-1.8,0,-50.8,309.2,Manual Takeoff,Other,Takeoff (RC Assisted),18,10,True,,Matrice 300 RTK,True,False,,Smart,RC,True,True,False,,,True,,False,False,False,False,False,False,False,False,False,False,0,Free,0,0,0,0,False,False,False,False,False,False,,False,Normal,100,100,1024,1024,1179,1024,1,False,False,False,False,False,0,False,False,False,False,63,47.52,6587,10462,47.495,True,,,,,,,,False,False,2.726,101.5,101.5,101.5,0,53,0,10,5,5831.7,777.56,,Idle,0,30,False,10,True,,Go Home,46.9755256,7.18034262,0.3,1221.6,262.5,True,1,1,False,False,False,False,0,False,False,False,Course Lock,262.5,,23.0,Calm,21,Android, 4.1.1,M300 RTK,1ZNBJ8700C01MC,,1ZMBHAN003009A,1Z6PHBKDA01Y41,127.6,1.8,229.7,36.6,9.0,0,0,M300 RTK,1ZNBJ8700C01MC,,1ZMBHAN003009A,1Z6PHBKDA01Y41,DJI Pilot,Android, 4.1.1,46.97543167,7.180384,483.4,,,
8/25/2022,8:38:45.22 AM,0m 2.7s,2.7,46.97552554,7.18034256,0,0,0.7,1429,1.1,2.1,0,0,0,0,0,0,-1.7,-0.1,-50.8,309.2,Manual Takeoff,Other,Takeoff (RC Assisted),18,10,True,,Matrice 300 RTK,True,False,,Smart,RC,True,True,False,,,True,,False,False,False,False,False,False,False,False,False,False,0,Free,0,0,0,0,False,False,False,False,False,False,,False,Normal,100,100,1024,1024,1179,1024,1,False,False,False,False,False,0,False,False,False,False,63,47.52,6587,10462,47.495,True,,,,,,,,False,False,2.726,101.5,101.5,101.5,0,53,0,10,5,5831.7,777.56,,Idle,0,30,False,10,True,,Go Home,46.9755256,7.18034262,0.0,1221.6,262.5,True,1,1,False,False,False,False,0,False,False,False,Course Lock,262.5,,23.0,Calm,21,Android, 4.1.1,M300 RTK,1ZNBJ8700C01MC,,1ZMBHAN003009A,1Z6PHBKDA01Y41,127.6,1.8,229.7,36.6,9.0,0,0,M300 RTK,1ZNBJ8700C01MC,,1ZMBHAN003009A,1Z6PHBKDA01Y41,DJI Pilot,Android, 4.1.1,46.97543167,7.180384,483.4,,,
8/25/2022,8:38:45.40 AM,0m 2.8s,2.8,46.97552554,7.18034256,0,0,0.7,1429,0,2.1,0,0,0,0,0,0,-1.4,-0.1,-50.8,309.2,Manual Takeoff,Other,Takeoff (RC Assisted),18,10,True,,Matrice 300 RTK,True,False,,Smart,RC,True,True,False,,,True,,False,False,False,False,False,False,False,False,False,False,0,Free,0,0,0,0,False,False,False,False,False,False,,False,Normal,100,100,1024,1024,1182,1024,1,False,False,False,False,False,0,False,False,False,False,63,47.52,6587,10462,47.495,True,,,,,,,,False,False,2.726,101.5,101.5,101.5,0,53,0,10,5,5831.7,777.56,,Idle,0,30,False,10,True,,Go Home,46.9755256,7.18034262,0.0,1221.6,262.5,True,1,1,False,False,False,False,0,False,False,False,Course Lock,262.5,,23.0,Calm,21,Android, 4.1.1,M300 RTK,1ZNBJ8700C01MC,,1ZMBHAN003009A,1Z6PHBKDA01Y41,127.6,1.8,229.7,36.6,9.0,0,0,M300 RTK,1ZNBJ8700C01MC,,1ZMBHAN003009A,1Z6PHBKDA01Y41,DJI Pilot,Android, 4.1.1,46.97543167,7.180384,483.4,,,
8/25/2022,8:38:45.50 AM,0m 2.9s,2.9,46.97552554,7.1803426,0,0,0.7,1429,0,2.1,0,0,0,0,0,0,-0.6,-0.1,-50.6,309.4,Manual Takeoff,Other,Takeoff (RC Assisted),18,10,True,,Matrice 300 RTK,True,False,,Smart,RC,True,True,False,,,True,,False,False,False,False,False,False,False,False,False,False,0,Free,0,0,0,0,False,False,False,False,False,False,,False,Normal,100,100,1024,1024,1183,1024,1,False,False,False,False,False,0,False,False,False,False,63,47.496,6587,10462,47.495,True,,,,,,,,False,False,5.998,101.5,101.5,101.5,0,53,0,10,5,5831.7,777.56,,Idle,0,30,False,10,True,,Go Home,46.9755256,7.18034262,0.0,1221.6,262.5,True,1,1,False,False,False,False,0,False,False,False,Course Lock,262.5,,23.0,Calm,21,Android, 4.1.1,M300 RTK,1ZNBJ8700C01MC,,1ZMBHAN003009A,1Z6PHBKDA01Y41,127.6,1.8,229.7,36.6,9.0,0,0,M300 RTK,1ZNBJ8700C01MC,,1ZMBHAN003009A,1Z6PHBKDA01Y41,DJI Pilot,Android, 4.1.1,46.97543167,7.180384,483.4,,,
8/25/2022,8:38:45.60 AM,0m 3.0s,3.0,46.97552554,7.18034263,0,0,0.7,1429,0,2.1,0,0,0,0,-0.2,0,1.2,-0.3,-50.2,309.8,Manual Takeoff,Other,,18,10,True,,Matrice 300 RTK,True,False,,Smart,RC,False,True,False,,,True,,False,False,False,False,False,False,False,False,False,False,0,Free,0,0,0,0,False,False,False,False,False,False,,False,Normal,100,100,1024,1024,1192,1024,1,False,False,False,False,False,0,False,False,False,False,63,47.496,6587,10462,47.495,True,,,,,,,,False,False,5.998,101.5,101.5,101.5,0,53,0,10,5,5831.7,777.56,,Idle,0,30,False,10,True,,Go Home,46.9755256,7.18034262,0.0,1221.6,262.5,True,1,1,False,False,False,False,0,False,False,False,Course Lock,262.5,,23.0,Calm,21,Android, 4.1.1,M300 RTK,1ZNBJ8700C01MC,,1ZMBHAN003009A,1Z6PHBKDA01Y41,127.6,1.8,229.7,36.6,9.0,0,0,M300 RTK,1ZNBJ8700C01MC,,1ZMBHAN003009A,1Z6PHBKDA01Y41,DJI Pilot,Android, 4.1.1,46.97543167,7.180384,483.4,,,
8/25/2022,8:38:45.70 AM,0m 3.1s,3.1,46.97552553,7.1803427,0,0,0.7,1429,0,2.1,0,0,0,0,-0.5,0,2.2,-0.3,-49.8,310.2,P-GPS,Other,,18,10,True,,Matrice 300 RTK,True,False,,Smart,RC,False,True,False,,,True,,False,False,False,False,False,False,False,False,False,False,0,Free,0,0,0,0,False,False,False,False,False,False,,False,Normal,100,100,1024,1024,1199,1024,1,False,False,False,False,False,0,False,False,False,False,63,47.496,6587,10462,47.495,True,,,,,,,,False,False,5.998,101.5,101.5,101.5,0,53,0,10,5,5831.7,777.56,,Idle,0,30,False,10,True,,Go Home,46.9755256,7.18034262,0.0,1221.6,262.5,True,1,1,False,False,False,False,0,False,False,False,Course Lock,262.5,,23.0,Calm,21,Android, 4.1.1,M300 RTK,1ZNBJ8700C01MC,,1ZMBHAN003009A,1Z6PHBKDA01Y41,127.6,1.8,229.7,36.6,9.0,0,0,M300 RTK,1ZNBJ8700C01MC,,1ZMBHAN003009A,1Z6PHBKDA01Y41,DJI Pilot,Android, 4.1.1,46.97543167,7.180384,483.4,,,
8/25/2022,8:38:45.72 AM,0m 3.2s,3.2,46.97552547,7.18034282,0,0,0.7,1429,0,2.1,0,0,0,0,-0.9,0,1.8,0.6,-49.7,310.3,P-GPS,Other,,18,10,True,,Matrice 300 RTK,True,False,,Smart,RC,False,True,False,,,True,,False,False,False,False,False,False,False,False,False,False,0,Free,0,0,0,0,False,False,False,False,False,False,,False,Normal,100,100,1024,1024,1209,1024,1,False,False,False,False,False,0,False,False,False,False,63,47.496,6587,10462,47.495,True,,,,,,,,False,False,5.998,101.5,101.5,101.5,0,53,0,10,5,5831.7,777.56,,Idle,0,30,False,10,True,,Go Home,46.9755256,7.18034262,0.0,1221.6,262.5,True,1,1,False,False,False,False,0,False,False,False,Course Lock,262.5,,23.0,Calm,21,Android, 4.1.1,M300 RTK,1ZNBJ8700C01MC,,1ZMBHAN003009A,1Z6PHBKDA01Y41,127.6,1.8,229.7,36.6,9.0,0,0,M300 RTK,1ZNBJ8700C01MC,,1ZMBHAN003009A,1Z6PHBKDA01Y41,DJI Pilot,Android, 4.1.1,46.97543167,7.180384,483.4,,,
8/25/2022,8:38:45.91 AM,0m 3.3s,3.3,46.97552541,7.18034302,0,0,1.0,1429,0,2.1,0,0,0.2,0.2,-1.1,0,0.7,1.2,-49.6,310.4,P-GPS,Other,,18,10,True,,Matrice 300 RTK,True,False,,Smart,RC,False,True,False,,,True,,False,False,False,False,False,False,False,False,False,False,0,Free,0,0,0,0,False,False,False,False,False,False,,False,Normal,100,100,1024,1024,1218,1024,1,False,False,False,False,False,0,False,False,False,False,63,47.496,6587,10462,47.359,True,,,,,,,,False,False,5.998,101.5,101.5,101.5,0,53,0,11,6,7385.4,984.72,,Idle,0,30,False,10,True,,Go Home,46.9755256,7.18034262,0.0,1221.6,262.5,True,1,1,False,False,False,False,0,False,False,False,Course Lock,262.5,,23.0,Calm,21,Android, 4.1.1,M300 RTK,1ZNBJ8700C01MC,,1ZMBHAN003009A,1Z6PHBKDA01Y41,127.6,1.8,229.7,36.6,9.0,0,0,M300 RTK,1ZNBJ8700C01MC,,1ZMBHAN003009A,1Z6PHBKDA01Y41,DJI Pilot,Android, 4.1.1,46.97543167,7.180384,483.4,,,
8/25/2022,8:38:46.01 AM,0m 3.4s,3.4,46.97552535,7.18034326,0.3,0.3,1.3,1429,0,2.1,0,0,0.2,0.2,-1.3,0,-0.5,0.7,-49.6,310.4,P-GPS,Other,,18,10,True,,Matrice 300 RTK,True,False,,Smart,RC,False,True,False,,,True,,False,False,False,False,False,False,False,False,False,False,0,Free,0,0,0,0,False,False,False,False,False,False,,False,Normal,100,100,1024,1024,1228,1024,1,False,False,False,False,False,0,False,False,False,False,63,47.496,6587,10462,47.359,True,,,,,,,,False,False,5.998,101.5,101.5,101.5,0,53,0,11,6,7385.4,984.72,,Idle,0,30,False,10,True,,Go Home,46.9755256,7.18034262,0.3,1221.6,262.5,True,1,1,False,False,False,False,0,False,False,False,Course Lock,262.5,,23.0,Calm,21,Android, 4.1.1,M300 RTK,1ZNBJ8700C01MC,,1ZMBHAN003009A,1Z6PHBKDA01Y41,127.6,1.8,229.7,36.6,9.0,0,0,M300 RTK,1ZNBJ8700C01MC,,1ZMBHAN003009A,1Z6PHBKDA01Y41,DJI Pilot,Android, 4.1.1,46.97543167,7.180384,483.4,,,
8/25/2022,8:38:46.11 AM,0m 3.5s,3.5,46.97552532,7.18034352,0.7,0.7,1.6,1430,0,2.1,0,0,0.5,0.5,-1.6,0,-1.9,-0.5,-49.5,310.5,P-GPS,Other,,18,10,True,,Matrice 300 RTK,True,False,,Smart,RC,False,True,False,,,True,,False,False,False,False,False,False,False,False,False,False,0,Free,0,0,0,0,False,False,False,False,False,False,,False,Normal,100,100,1024,1024,1237,1024,1,False,False,False,False,False,0,False,False,False,False,63,47.496,6587,10462,47.359,True,,,,,,,,False,False,5.998,101.5,101.5,101.5,0,53,0,11,6,7385.4,984.72,,Idle,0,30,False,10,True,,Go Home,46.9755256,7.18034262,0.4,1221.6,262.5,True,1,1,False,False,False,False,0,False,False,False,Course Lock,262.5,,23.0,Calm,21,Android, 4.1.1,M300 RTK,1ZNBJ8700C01MC,,1ZMBHAN003009A,1Z6PHBKDA01Y41,127.6,1.8,229.7,36.6,9.0,0,0,M300 RTK,1ZNBJ8700C01MC,,1ZMBHAN003009A,1Z6PHBKDA01Y41,DJI Pilot,Android, 4.1.1,46.97543167,7.180384,483.4,,,
8/25/2022,8:38:46.21 AM,0m 3.6s,3.6,46.97552532,7.18034382,1.0,1.0,1.6,1430,0,2.1,0,0,0.2,0.5,-1.6,0,-2.4,-1.3,-49.5,310.5,P-GPS,Other,,18,10,True,,Matrice 300 RTK,True,False,,Smart,RC,False,True,False,,,True,,False,False,False,False,False,False,False,False,False,False,0,Free,0,0,0,0,False,False,False,False,False,False,,False,Normal,100,100,1024,1024,1243,1024,1,False,False,False,False,False,0,False,False,False,False,63,47.496,6587,10462,47.359,True,,,,,,,,False,False,5.998,101.5,101.5,101.5,0,53,0,11,6,7385.4,984.72,,Idle,0,30,False,10,True,,Go Home,46.9755256,7.18034262,0.4,1221.6,262.5,True,1,1,False,False,False,False,0,False,False,False,Course Lock,262.5,,23.0,Calm,21,Android, 4.1.1,M300 RTK,1ZNBJ8700C01MC,,1ZMBHAN003009A,1Z6PHBKDA01Y41,127.6,1.8,229.7,36.6,9.0,0,0,M300 RTK,1ZNBJ8700C01MC,,1ZMBHAN003009A,1Z6PHBKDA01Y41,DJI Pilot,Android, 4.1.1,46.97543167,7.180384,483.4,,,
8/25/2022,8:38:46.23 AM,0m 3.7s,3.7,46.97552531,7.18034404,1.0,1.0,2.0,1430,0,2.1,0,0,0.2,0.5,-1.8,0,-2.5,-1.8,-49.6,310.4,P-GPS,Other,,18,10,True,,Matrice 300 RTK,True,False,,Smart,RC,False,True,False,,,True,,False,False,False,False,False,False,False,False,False,False,0,Free,0,0,0,0,False,False,False,False,False,False,,False,Normal,100,100,1024,1024,1251,1024,1,False,False,False,False,False,0,False,False,False,False,63,47.496,6587,10462,47.359,True,,,,,,,,False,False,5.998,101.5,101.5,101.5,0,53,0,11,6,7385.4,984.72,,Idle,0,30,False,10,True,,Go Home,46.9755256,7.18034262,0.4,1221.6,262.5,True,1,1,False,False,False,False,0,False,False,False,Course Lock,262.5,,23.0,Calm,21,Android, 4.1.1,M300 RTK,1ZNBJ8700C01MC,,1ZMBHAN003009A,1Z6PHBKDA01Y41,127.6,1.8,229.7,36.6,9.0,0,0,M300 RTK,1ZNBJ8700C01MC,,1ZMBHAN003009A,1Z6PHBKDA01Y41,DJI Pilot,Android, 4.1.1,46.97543167,7.180384,483.4,,,
8/25/2022,8:38:46.41 AM,0m 3.8s,3.8,46.97552533,7.18034421,1.3,1.3,2.3,1430,0,2.1,0,0,0.2,0.5,-2.0,0,-1.9,-1.7,-49.6,310.4,P-GPS,Other,,18,10,True,,Matrice 300 RTK,True,False,,Smart,RC,False,True,False,,,True,,False,False,False,False,False,False,False,False,False,False,0,Free,0,0,0,0,False,False,False,False,False,False,,False,Normal,100,100,1024,1024,1272,1024,1,False,False,False,False,False,0,False,False,False,False,63,47.496,6587,10462,47.359,True,,,,,,,,False,False,5.998,101.5,101.5,101.5,0,53,0,11,6,7385.4,984.72,,Idle,0,30,False,10,True,,Go Home,46.9755256,7.18034262,0.4,1221.6,262.5,True,1,1,False,False,False,False,0,False,False,False,Course Lock,262.5,,23.0,Calm,21,Android, 4.1.1,M300 RTK,1ZNBJ8700C01MC,,1ZMBHAN003009A,1Z6PHBKDA01Y41,127.6,1.8,229.7,36.6,9.0,0,0,M300 RTK,1ZNBJ8700C01MC,,1ZMBHAN003009A,1Z6PHBKDA01Y41,DJI Pilot,Android, 4.1.1,46.97543167,7.180384,483.4,,,
8/25/2022,8:38:46.43 AM,0m 3.9s,3.9,46.97552535,7.18034434,1.6,1.6,2.6,1431,0,2.1,0,0,0,0.5,-2.0,0,-1.4,-1.5,-49.7,310.3,P-GPS,Other,,18,10,True,,Matrice 300 RTK,True,False,,Smart,RC,False,True,False,,,True,,False,False,False,False,False,False,False,False,False,False,0,Free,0,0,0,0,False,False,False,False,False,False,,False,Normal,100,100,1024,1024,1276,1024,1,False,False,False,False,False,0,False,False,False,False,63,47.352,6587,10462,47.359,True,,,,,,,,False,False,4.66,101.5,101.5,101.5,0,53,0,11,6,7385.4,984.72,,Idle,0,30,False,10,True,,Go Home,46.9755256,7.18034262,0.4,1221.6,262.5,True,1,1,False,False,False,False,0,False,False,False,Course Lock,262.5,,23.0,Calm,21,Android, 4.1.1,M300 RTK,1ZNBJ8700C01MC,,1ZMBHAN003009A,1Z6PHBKDA01Y41,127.6,1.8,229.7,36.6,9.0,0,0,M300 RTK,1ZNBJ8700C01MC,,1ZMBHAN003009A,1Z6PHBKDA01Y41,DJI Pilot,Android, 4.1.1,46.97543167,7.180384,483.4,,,
8/25/2022,8:38:46.62 AM,0m 4.0s,4.0,46.97552535,7.18034446,2.0,2.0,3.0,1431,0,2.1,0,0,0,0.5,-2.2,0,-1.5,-1.5,-49.7,310.3,P-GPS,Other,,18,10,True,,Matrice 300 RTK,True,False,,Smart,RC,False,True,False,,,True,,False,False,False,False,False,False,False,False,False,False,0,Free,0,0,0,0,False,False,False,False,False,False,,False,Normal,100,100,1024,1024,1285,1024,1,False,False,False,False,False,0,False,False,False,False,63,47.352,6587,10462,47.359,True,,,,,,,,False,False,4.66,101.5,101.5,101.5,0,53,0,11,6,7385.4,984.72,,Idle,0,30,False,10,True,,Go Home,46.9755256,7.18034262,0.5,1221.6,262.5,True,1,1,False,False,False,False,0,False,False,False,Course Lock,262.5,,23.0,Calm,21,Android, 4.1.1,M300 RTK,1ZNBJ8700C01MC,,1ZMBHAN003009A,1Z6PHBKDA01Y41,127.6,1.8,229.7,36.6,9.0,0,0,M300 RTK,1ZNBJ8700C01MC,,1ZMBHAN003009A,1Z6PHBKDA01Y41,DJI Pilot,Android, 4.1.1,46.97543167,7.180384,483.4,,,
8/25/2022,8:38:46.72 AM,0m 4.1s,4.1,46.97552534,7.18034455,2.3,2.3,3.3,1431,0,2.1,0,0,0,0.5,-2.2,0,-1.8,-1.8,-49.6,310.4,P-GPS,Other,,18,10,True,,Matrice 300 RTK,True,False,,Smart,RC,False,True,False,,,True,,False,False,False,False,False,False,False,False,False,False,0,Free,0,0,0,0,False,False,False,False,False,False,,False,Normal,100,100,1024,1024,1297,1024,1,False,False,False,False,False,0,False,False,False,False,63,47.352,6587,10462,47.359,True,,,,,,,,False,False,4.66,101.5,101.5,101.5,0,53,0,11,6,7385.4,984.72,,Idle,0,30,False,10,True,,Go Home,46.9755256,7.18034262,0.4,1221.6,262.5,True,1,1,False,False,False,False,0,False,False,False,Course Lock,262.5,,23.0,Calm,21,Android, 4.1.1,M300 RTK,1ZNBJ8700C01MC,,1ZMBHAN003009A,1Z6PHBKDA01Y41,127.6,1.8,229.7,36.6,9.0,0,0,M300 RTK,1ZNBJ8700C01MC,,1ZMBHAN003009A,1Z6PHBKDA01Y41,DJI Pilot,Android, 4.1.1,46.97543167,7.180384,483.4,,,
8/25/2022,8:38:46.74 AM,0m 4.2s,4.2,46.97552531,7.18034465,2.6,2.6,3.6,1432,0,2.1,0,0,0,0.5,-2.5,0,-1.6,-1.9,-49.6,310.4,P-GPS,Other,,18,10,True,,Matrice 300 RTK,True,False,,Smart,RC,False,True,False,,,True,,False,False,False,False,False,False,False,False,False,False,0,Free,0,0,0,0,False,False,False,False,False,False,,False,Normal,100,100,1024,1024,1308,1024,1,False,False,False,False,False,0,False,False,False,False,63,47.352,6587,10462,47.359,True,,,,,,,,False,False,4.66,101.5,101.5,101.5,0,53,0,11,6,7385.4,984.72,,Idle,0,30,False,10,True,,Go Home,46.9755256,7.18034262,0.5,1221.6,262.5,True,1,1,False,False,False,False,0,False,False,False,Course Lock,262.5,,23.0,Calm,21,Android, 4.1.1,M300 RTK,1ZNBJ8700C01MC,,1ZMBHAN003009A,1Z6PHBKDA01Y41,127.6,1.8,229.7,36.6,9.0,0,0,M300 RTK,1ZNBJ8700C01MC,,1ZMBHAN003009A,1Z6PHBKDA01Y41,DJI Pilot,Android, 4.1.1,46.97543167,7.180384,483.4,,,
8/25/2022,8:38:46.82 AM,0m 4.3s,4.3,46.97552527,7.18034473,3.3,3.3,4.3,1432,0,2.1,0,0,0,0.5,-2.7,0,-1.2,-1.6,-49.5,310.5,P-GPS,Other,,18,10,True,,Matrice 300 RTK,True,False,,Smart,RC,False,True,False,,,True,,False,False,False,False,False,False,False,False,False,False,0,Free,0,0,0,0,False,False,False,False,False,False,,False,Normal,100,100,1024,1024,1319,1024,1,False,False,False,False,False,0,False,False,False,False,63,47.352,6587,10462,47.394,True,,,,,,,,False,False,4.66,101.5,101.5,101.5,0,53,0,11,6,10708.0,1427.74,,Idle,0,30,False,10,True,,Go Home,46.9755256,7.18034262,0.5,1221.6,262.5,True,1,1,False,False,False,False,0,False,False,False,Course Lock,262.5,,23.0,Calm,21,Android, 4.1.1,M300 RTK,1ZNBJ8700C01MC,,1ZMBHAN003009A,1Z6PHBKDA01Y41,127.6,1.8,229.7,36.6,9.0,0,0,M300 RTK,1ZNBJ8700C01MC,,1ZMBHAN003009A,1Z6PHBKDA01Y41,DJI Pilot,Android, 4.1.1,46.97543167,7.180384,483.4,,,
8/25/2022,8:38:46.92 AM,0m 4.4s,4.4,46.97552523,7.18034478,3.6,3.6,4.6,1433,0,2.1,0,0,0,0.5,-2.9,0,-1.3,-0.9,-49.5,310.5,P-GPS,Other,,18,10,True,,Matrice 300 RTK,True,False,,Smart,RC,False,True,False,,,True,,False,False,False,False,False,False,False,False,False,False,0,Free,0,0,0,0,False,False,False,False,False,False,,False,Normal,100,100,1024,1024,1326,1024,1,False,False,False,False,False,0,False,False,False,False,63,47.352,6587,10462,47.394,True,,,,,,,,False,False,4.66,101.5,101.5,101.5,0,53,0,11,6,10708.0,1427.74,,Idle,0,30,False,10,True,,Go Home,46.9755256,7.18034262,0.6,1221.6,262.5,True,1,1,False,False,False,False,0,False,False,False,Course Lock,262.5,,23.0,Calm,21,Android, 4.1.1,M300 RTK,1ZNBJ8700C01MC,,1ZMBHAN003009A,1Z6PHBKDA01Y41,127.6,1.8,229.7,36.6,9.0,0,0,M300 RTK,1ZNBJ8700C01MC,,1ZMBHAN003009A,1Z6PHBKDA01Y41,DJI Pilot,Android, 4.1.1,46.97543167,7.180384,483.4,,,
8/25/2022,8:38:47.04 AM,0m 4.5s,4.5,46.97552519,7.18034482,3.9,3.9,4.9,1433,0,2.1,0,0,0,0.5,-2.9,0,-1.5,-0.4,-49.6,310.4,P-GPS,Other,,18,10,True,,Matrice 300 RTK,True,False,,Smart,RC,False,True,False,,,True,,False,False,False,False,False,False,False,False,False,False,0,Free,0,0,0,0,False,False,False,False,False,False,,False,Normal,100,100,1024,1024,1335,1024,1,False,False,False,False,False,0,False,False,False,False,63,47.352,6587,10462,47.394,True,,,,,,,,False,False,4.66,101.5,101.5,101.5,0,53,0,11,6,10708.0,1427.74,,Idle,0,30,False,10,True,,Go Home,46.9755256,7.18034262,0.6,1221.6,262.5,True,1,1,False,False,False,False,0,False,False,False,Course Lock,262.5,,23.0,Calm,21,Android, 4.1.1,M300 RTK,1ZNBJ8700C01MC,,1ZMBHAN003009A,1Z6PHBKDA01Y41,127.6,1.8,229.7,36.6,9.0,0,0,M300 RTK,1ZNBJ8700C01MC,,1ZMBHAN003009A,1Z6PHBKDA01Y41,DJI Pilot,Android, 4.1.1,46.97543167,7.180384,483.4,,,
8/25/2022,8:38:47.13 AM,0m 4.6s,4.6,46.97552518,7.1803449,4.6,4.6,5.6,1433,0,2.1,0,0,0,0.5,-3.1,0,-1.5,-0.7,-49.6,310.4,P-GPS,Other,,18,10,True,,Matrice 300 RTK,True,False,,Smart,RC,False,True,False,,,True,,False,False,False,False,False,False,False,False,False,False,0,Free,0,0,0,0,False,False,False,False,False,False,,False,Normal,100,100,1024,1024,1338,1024,1,False,False,False,False,False,0,False,False,False,False,63,47.352,6587,10462,47.394,True,,,,,,,,False,False,4.66,101.5,101.5,101.5,0,53,0,11,6,10708.0,1427.74,,Idle,0,30,False,10,True,,Go Home,46.9755256,7.18034262,0.6,1221.6,262.5,True,1,1,False,False,False,False,0,False,False,False,Course Lock,262.5,,23.0,Calm,21,Android, 4.1.1,M300 RTK,1ZNBJ8700C01MC,,1ZMBHAN003009A,1Z6PHBKDA01Y41,127.6,1.8,229.7,36.6,9.0,0,0,M300 RTK,1ZNBJ8700C01MC,,1ZMBHAN003009A,1Z6PHBKDA01Y41,DJI Pilot,Android, 4.1.1,46.97543167,7.180384,483.4,,,
8/25/2022,8:38:47.23 AM,0m 4.7s,4.7,46.97552518,7.18034503,4.9,4.9,5.9,1434,0,2.1,0,0,0,0.5,-3.4,0,-1.5,-1.3,-49.6,310.4,P-GPS,Other,,18,10,True,,Matrice 300 RTK,True,False,,Smart,RC,False,True,False,,,True,,False,False,False,False,False,False,False,False,False,False,0,Free,0,0,0,0,False,False,False,False,False,False,,False,Normal,100,100,1024,1024,1338,1024,1,False,False,False,False,False,0,False,False,False,False,63,47.352,6587,10462,47.394,True,,,,,,,,False,False,4.66,101.5,101.5,101.5,0,53,0,11,6,10708.0,1427.74,,Idle,0,30,False,10,True,,Go Home,46.9755256,7.18034262,0.6,1221.6,262.5,True,1,1,False,False,False,False,0,False,False,False,Course Lock,262.5,,23.0,Calm,21,Android, 4.1.1,M300 RTK,1ZNBJ8700C01MC,,1ZMBHAN003009A,1Z6PHBKDA01Y41,127.6,1.8,229.7,36.6,9.0,0,0,M300 RTK,1ZNBJ8700C01MC,,1ZMBHAN003009A,1Z6PHBKDA01Y41,DJI Pilot,Android, 4.1.1,46.97543167,7.180384,483.4,,,
8/25/2022,8:38:47.44 AM,0m 4.8s,4.8,46.97552516,7.18034512,5.6,5.6,6.6,1434,0,2.1,0,0,0,0.5,-3.4,0,-1.9,-1.8,-49.6,310.4,P-GPS,Other,,18,10,True,,Matrice 300 RTK,True,False,,Smart,RC,False,True,False,,,True,,False,False,False,False,False,False,False,False,False,False,0,Free,0,0,0,0,False,False,False,False,False,False,,False,Normal,100,100,1024,1024,1343,1024,1,False,False,False,False,False,0,False,False,False,False,63,47.352,6587,10462,47.394,True,,,,,,,,False,False,4.66,101.5,101.5,101.5,0,53,0,11,6,10708.0,1427.74,,Idle,0,30,False,10,True,,Go Home,46.9755256,7.18034262,0.6,1221.6,262.5,True,1,1,False,False,False,False,0,False,False,False,Course Lock,262.5,,23.0,Calm,21,Android, 4.1.1,M300 RTK,1ZNBJ8700C01MC,,1ZMBHAN003009A,1Z6PHBKDA01Y41,127.6,1.8,229.7,36.6,9.0,0,0,M300 RTK,1ZNBJ8700C01MC,,1ZMBHAN003009A,1Z6PHBKDA01Y41,DJI Pilot,Android, 4.1.1,46.97543167,7.180384,483.4,,,
8/25/2022,8:38:47.46 AM,0m 4.9s,4.9,46.97552515,7.18034519,5.9,5.9,7.2,1435,0,2.1,0,0,0,0.5,-3.6,0,-2.3,-1.9,-49.7,310.3,P-GPS,Other,,18,10,True,,Matrice 300 RTK,True,False,,Smart,RC,False,True,False,,,True,,False,False,False,False,False,False,False,False,False,False,0,Free,0,0,0,0,False,False,False,False,False,False,,False,Normal,100,100,1024,1024,1358,1024,1,False,False,False,False,False,0,False,False,False,False,63,47.388,6587,10462,47.394,True,,,,,,,,False,False,16.35,101.5,101.5,101.5,0,53,0,11,6,10708.0,1427.74,,Idle,0,30,False,10,True,,Go Home,46.9755256,7.18034262,0.6,1221.6,262.5,True,1,1,False,False,False,False,0,False,False,False,Course Lock,262.5,,23.0,Calm,21,Android, 4.1.1,M300 RTK,1ZNBJ8700C01MC,,1ZMBHAN003009A,1Z6PHBKDA01Y41,127.6,1.8,229.7,36.6,9.0,0,0,M300 RTK,1ZNBJ8700C01MC,,1ZMBHAN003009A,1Z6PHBKDA01Y41,DJI Pilot,Android, 4.1.1,46.97543167,7.180384,483.4,,,
8/25/2022,8:38:47.54 AM,0m 5.0s,5.0,46.97552512,7.18034535,6.6,6.6,7.5,1435,0,2.1,0,0,0,0.5,-3.6,0,-2.2,-1.7,-49.7,310.3,P-GPS,Other,,18,10,True,,Matrice 300 RTK,True,False,,Smart,RC,False,True,False,,,True,,False,False,False,False,False,False,False,False,False,False,0,Free,0,0,0,0,False,False,False,False,False,False,,False,Normal,100,100,1024,1024,1372,1024,1,False,False,False,False,False,0,False,False,False,False,63,47.388,6587,10462,47.394,True,,,,,,,,False,False,16.35,101.5,101.5,101.5,0,53,0,11,6,10708.0,1427.74,,Idle,0,30,False,10,True,,Go Home,46.9755256,7.18034262,0.7,1221.6,262.5,True,1,1,False,False,False,False,0,False,False,False,Course Lock,262.5,,23.0,Calm,21,Android, 4.1.1,M300 RTK,1ZNBJ8700C01MC,,1ZMBHAN003009A,1Z6PHBKDA01Y41,127.6,1.8,229.7,36.6,9.0,0,0,M300 RTK,1ZNBJ8700C01MC,,1ZMBHAN003009A,1Z6PHBKDA01Y41,DJI Pilot,Android, 4.1.1,46.97543167,7.180384,483.4,,,
8/25/2022,8:38:47.64 AM,0m 5.1s,5.1,46.97552513,7.18034538,7.2,7.2,8.2,1436,0,2.1,0,0,0,0.5,-3.8,0,-2,-1.5,-49.8,310.2,P-GPS,Other,,18,10,True,,Matrice 300 RTK,True,False,,Smart,RC,False,True,False,,,True,,False,False,False,False,False,False,False,False,False,False,0,Free,0,0,0,0,False,False,False,False,False,False,,False,Normal,100,100,1024,1024,1372,1024,1,False,False,False,False,False,0,False,False,False,False,63,47.388,6587,10462,47.394,True,,,,,,,,False,False,16.35,101.5,101.5,101.5,0,53,0,11,6,10708.0,1427.74,,Idle,0,30,False,10,True,,Go Home,46.9755256,7.18034262,0.8,1221.6,262.5,True,1,1,False,False,False,False,0,False,False,False,Course Lock,262.5,,23.0,Calm,21,Android, 4.1.1,M300 RTK,1ZNBJ8700C01MC,,1ZMBHAN003009A,1Z6PHBKDA01Y41,127.6,1.8,229.7,36.6,9.0,0,0,M300 RTK,1ZNBJ8700C01MC,,1ZMBHAN003009A,1Z6PHBKDA01Y41,DJI Pilot,Android, 4.1.1,46.97543167,7.180384,483.4,,,
8/25/2022,8:38:47.74 AM,0m 5.2s,5.2,46.97552514,7.18034537,7.9,7.9,8.9,1437,0,2.1,0,0,0,0.5,-4.0,0,-1.6,-1.5,-49.8,310.2,P-GPS,Other,,18,10,True,,Matrice 300 RTK,True,False,,Smart,RC,False,True,False,,,True,,False,False,False,False,False,False,False,False,False,False,0,Free,0,0,0,0,False,False,False,False,False,False,,False,Normal,100,100,1024,1024,1371,1024,1,False,False,False,False,False,0,False,False,False,False,63,47.388,6587,10462,47.394,True,,,,,,,,False,False,16.35,101.5,101.5,101.5,0,53,0,11,6,10708.0,1427.74,,Idle,0,30,False,10,True,,Go Home,46.9755256,7.18034262,0.8,1221.6,262.5,True,1,1,False,False,False,False,0,False,False,False,Course Lock,262.5,,23.0,Calm,21,Android, 4.1.1,M300 RTK,1ZNBJ8700C01MC,,1ZMBHAN003009A,1Z6PHBKDA01Y41,127.6,1.8,229.7,36.6,9.0,0,0,M300 RTK,1ZNBJ8700C01MC,,1ZMBHAN003009A,1Z6PHBKDA01Y41,DJI Pilot,Android, 4.1.1,46.97543167,7.180384,483.4,,,
8/25/2022,8:38:47.85 AM,0m 5.3s,5.3,46.97552515,7.18034535,8.5,8.5,9.5,1437,0,2.1,0,0,0,0.5,-4.0,0,-1.4,-1.5,-49.8,310.2,P-GPS,Other,,17,10,True,,Matrice 300 RTK,True,False,,Smart,RC,False,True,False,,,True,,False,False,False,False,False,False,False,False,False,False,0,Free,0,0,0,0,False,False,False,False,False,False,,False,Normal,100,100,1024,1024,1376,1024,1,False,False,False,False,False,0,False,False,False,False,63,47.388,6587,10462,47.359,True,,,,,,,,False,False,16.35,101.5,101.5,101.5,0,52,0,11,6,16748.8,2233.17,,Idle,0,30,False,10,True,,Go Home,46.9755256,7.18034262,0.7,1221.6,262.5,True,1,1,False,False,False,False,0,False,False,False,Course Lock,262.5,,23.0,Calm,21,Android, 4.1.1,M300 RTK,1ZNBJ8700C01MC,,1ZMBHAN003009A,1Z6PHBKDA01Y41,127.6,1.8,229.7,36.6,9.0,0,0,M300 RTK,1ZNBJ8700C01MC,,1ZMBHAN003009A,1Z6PHBKDA01Y41,DJI Pilot,Android, 4.1.1,46.97543167,7.180384,483.4,,,
8/25/2022,8:38:47.95 AM,0m 5.4s,5.4,46.97552517,7.18034544,9.2,9.2,10.2,1438,0,2.1,0,0,0,0.5,-4.3,0,-1.5,-1.6,-49.8,310.2,P-GPS,Other,,17,10,True,,Matrice 300 RTK,True,False,,Smart,RC,False,True,False,,,True,,False,False,False,False,False,False,False,False,False,False,0,Free,0,0,0,0,False,False,False,False,False,False,,False,Normal,100,100,1024,1024,1389,1024,1,False,False,False,False,False,0,False,False,False,False,63,47.388,6587,10462,47.359,True,,,,,,,,False,False,16.35,101.5,101.5,101.5,0,52,0,11,6,16748.8,2233.17,,Idle,0,30,False,10,True,,Go Home,46.9755256,7.18034262,0.7,1221.6,262.5,True,1,1,False,False,False,False,0,False,False,False,Course Lock,262.5,,23.0,Calm,21,Android, 4.1.1,M300 RTK,1ZNBJ8700C01MC,,1ZMBHAN003009A,1Z6PHBKDA01Y41,127.6,1.8,229.7,36.6,9.0,0,0,M300 RTK,1ZNBJ8700C01MC,,1ZMBHAN003009A,1Z6PHBKDA01Y41,DJI Pilot,Android, 4.1.1,46.97543167,7.180384,483.4,,,
8/25/2022,8:38:48.05 AM,0m 5.5s,5.5,46.97552518,7.18034542,9.5,9.5,10.5,1438,0,2.1,0,0,0,0.5,-4.3,0,-1.6,-1.5,-49.9,310.1,P-GPS,Other,,18,10,True,,Matrice 300 RTK,True,False,,Smart,RC,False,True,False,,,True,,False,False,False,False,False,False,False,False,False,False,0,Free,0,0,0,0,False,False,False,False,False,False,,False,Normal,100,100,1024,1024,1392,1024,1,False,False,False,False,False,0,False,False,False,False,63,47.388,6587,10462,47.359,True,,,,,,,,False,False,16.35,101.5,101.5,101.5,0,52,0,11,6,16748.8,2233.17,,Idle,0,30,False,10,True,,Go Home,46.9755256,7.18034262,0.8,1221.6,262.5,True,1,1,False,False,False,False,0,False,False,False,Course Lock,262.5,,23.0,Calm,21,Android, 4.1.1,M300 RTK,1ZNBJ8700C01MC,,1ZMBHAN003009A,1Z6PHBKDA01Y41,127.6,1.8,229.7,36.6,9.0,0,0,M300 RTK,1ZNBJ8700C01MC,,1ZMBHAN003009A,1Z6PHBKDA01Y41,DJI Pilot,Android, 4.1.1,46.97543167,7.180384,483.4,,,
8/25/2022,8:38:48.15 AM,0m 5.6s,5.6,46.97552519,7.1803454,10.2,10.2,11.2,1439,0,2.1,0,0,0,0.5,-4.3,0,-1.6,-1.4,-49.9,310.1,P-GPS,Other,,18,10,True,,Matrice 300 RTK,True,False,,Smart,RC,False,True,False,,,True,,False,False,False,False,False,False,False,False,False,False,0,Free,0,0,0,0,False,False,False,False,False,False,,False,Normal,100,100,1024,1024,1392,1024,1,False,False,False,False,False,0,False,False,False,False,63,47.388,6587,10462,47.359,True,,,,,,,,False,False,16.35,101.5,101.5,101.5,0,52,0,11,6,16748.8,2233.17,,Idle,0,30,False,10,True,,Go Home,46.9755256,7.18034262,0.8,1221.6,262.5,True,1,1,False,False,False,False,0,False,False,False,Course Lock,262.5,,23.0,Calm,21,Android, 4.1.1,M300 RTK,1ZNBJ8700C01MC,,1ZMBHAN003009A,1Z6PHBKDA01Y41,127.6,1.8,229.7,36.6,9.0,0,0,M300 RTK,1ZNBJ8700C01MC,,1ZMBHAN003009A,1Z6PHBKDA01Y41,DJI Pilot,Android, 4.1.1,46.97543167,7.180384,483.4,,,
8/25/2022,8:38:48.25 AM,0m 5.7s,5.7,46.97552521,7.18034541,11.2,11.2,11.8,1440,0,2.1,0,0,0,0.5,-4.5,0,-1.4,-1.2,-49.9,310.1,P-GPS,Other,,18,10,True,,Matrice 300 RTK,True,False,,Smart,RC,False,True,False,,,True,,False,False,False,False,False,False,False,False,False,False,0,Free,0,0,0,0,False,False,False,False,False,False,,False,Normal,100,100,1024,1024,1393,1024,1,False,False,False,False,False,0,False,False,False,False,63,47.388,6587,10462,47.359,True,,,,,,,,False,False,16.35,101.5,101.5,101.5,0,52,0,11,6,16748.8,2233.17,,Idle,0,30,False,10,True,,Go Home,46.9755256,7.18034262,0.7,1221.6,262.5,True,1,1,False,False,False,False,0,False,False,False,Course Lock,262.5,,23.0,Calm,21,Android, 4.1.1,M300 RTK,1ZNBJ8700C01MC,,1ZMBHAN003009A,1Z6PHBKDA01Y41,127.6,1.8,229.7,36.6,9.0,0,0,M300 RTK,1ZNBJ8700C01MC,,1ZMBHAN003009A,1Z6PHBKDA01Y41,DJI Pilot,Android, 4.1.1,46.97543167,7.180384,483.4,,,
8/25/2022,8:38:48.36 AM,0m 5.8s,5.8,46.97552523,7.18034537,11.8,11.8,12.8,1441,0,2.1,0,0,0,0.5,-4.5,0,-1.4,-1.2,-50,310,P-GPS,Other,,18,10,True,,Matrice 300 RTK,True,False,,Smart,RC,False,True,False,,,True,,False,False,False,False,False,False,False,False,False,False,0,Free,0,0,0,0,False,False,False,False,False,False,,False,Normal,100,100,1024,1024,1395,1024,1,False,False,False,False,False,0,False,False,False,False,63,47.388,6587,10462,47.359,True,,,,,,,,False,False,16.35,101.5,101.5,101.5,0,52,0,11,6,16748.8,2233.17,,Idle,0,30,False,10,True,,Go Home,46.9755256,7.18034262,0.8,1221.6,262.5,True,1,1,False,False,False,False,0,False,False,False,Course Lock,262.5,,23.0,Calm,21,Android, 4.1.1,M300 RTK,1ZNBJ8700C01MC,,1ZMBHAN003009A,1Z6PHBKDA01Y41,127.6,1.8,229.7,36.6,9.0,0,0,M300 RTK,1ZNBJ8700C01MC,,1ZMBHAN003009A,1Z6PHBKDA01Y41,DJI Pilot,Android, 4.1.1,46.97543167,7.180384,483.4,,,
8/25/2022,8:38:48.46 AM,0m 5.9s,5.9,46.97552525,7.18034532,12.5,12.5,13.5,1441,0,2.1,0,0,0,0.5,-4.7,0,-1.3,-1.4,-50,310,P-GPS,Other,,18,10,True,,Matrice 300 RTK,True,False,,Smart,RC,False,True,False,,,True,,False,False,False,False,False,False,False,False,False,False,0,Free,0,0,0,0,False,False,False,False,False,False,,False,Normal,100,100,1024,1024,1399,1024,1,False,False,False,False,False,0,False,False,False,False,63,46.788,6587,10462,47.359,True,,,,,,,,False,False,16.828,101.5,101.5,101.5,0,52,0,11,6,16748.8,2233.17,,Idle,0,30,False,10,True,,Go Home,46.9755256,7.18034262,0.7,1221.6,262.5,True,1,1,False,False,False,False,0,False,False,False,Course Lock,262.5,,23.0,Calm,21,Android, 4.1.1,M300 RTK,1ZNBJ8700C01MC,,1ZMBHAN003009A,1Z6PHBKDA01Y41,127.6,1.8,229.7,36.6,9.0,0,0,M300 RTK,1ZNBJ8700C01MC,,1ZMBHAN003009A,1Z6PHBKDA01Y41,DJI Pilot,Android, 4.1.1,46.97543167,7.180384,483.4,,,
8/25/2022,8:38:48.56 AM,0m 6.0s,6.0,46.97552525,7.18034525,13.1,13.1,14.1,1442,0,2.1,0,0,0,0.5,-4.7,0,-1.3,-1.5,-50,310,P-GPS,Other,,18,10,True,,Matrice 300 RTK,True,False,,Smart,RC,False,True,False,,,True,,False,False,False,False,False,False,False,False,False,False,0,Free,0,0,0,0,False,False,False,False,False,False,,False,Normal,100,100,1024,1024,1423,1024,1,False,False,False,False,False,0,False,False,False,False,63,46.788,6587,10462,47.359,True,,,,,,,,False,False,16.828,101.5,101.5,101.5,0,52,0,11,6,16748.8,2233.17,,Idle,0,30,False,10,True,,Go Home,46.9755256,7.18034262,0.6,1221.6,262.5,True,1,1,False,False,False,False,0,False,False,False,Course Lock,262.5,,23.0,Calm,21,Android, 4.1.1,M300 RTK,1ZNBJ8700C01MC,,1ZMBHAN003009A,1Z6PHBKDA01Y41,127.6,1.8,229.7,36.6,9.0,0,0,M300 RTK,1ZNBJ8700C01MC,,1ZMBHAN003009A,1Z6PHBKDA01Y41,DJI Pilot,Android, 4.1.1,46.97543167,7.180384,483.4,,,
8/25/2022,8:38:48.67 AM,0m 6.1s,6.1,46.97552524,7.18034523,13.8,13.8,14.8,1443,0,2.1,0,0,0,0.5,-4.9,0,-1.3,-1.3,-50.1,309.9,P-GPS,Other,,18,10,True,,Matrice 300 RTK,True,False,,Smart,RC,False,True,False,,,True,,False,False,False,False,False,False,False,False,False,False,0,Free,0,0,0,0,False,False,False,False,False,False,,False,Normal,100,100,1024,1024,1431,1024,1,False,False,False,False,False,0,False,False,False,False,63,46.788,6587,10462,47.359,True,,,,,,,,False,False,16.828,101.5,101.5,101.5,0,52,0,11,6,16748.8,2233.17,,Idle,0,30,False,10,True,,Go Home,46.9755256,7.18034262,0.7,1221.6,262.5,True,1,1,False,False,False,False,0,False,False,False,Course Lock,262.5,,23.0,Calm,21,Android, 4.1.1,M300 RTK,1ZNBJ8700C01MC,,1ZMBHAN003009A,1Z6PHBKDA01Y41,127.6,1.8,229.7,36.6,9.0,0,0,M300 RTK,1ZNBJ8700C01MC,,1ZMBHAN003009A,1Z6PHBKDA01Y41,DJI Pilot,Android, 4.1.1,46.97543167,7.180384,483.4,,,
8/25/2022,8:38:48.69 AM,0m 6.2s,6.2,46.97552527,7.18034516,14.8,14.8,15.7,1444,0,2.1,0,0,0,0.5,-4.9,0,-1.3,-1.2,-50.1,309.9,P-GPS,Other,,18,10,True,,Matrice 300 RTK,True,False,,Smart,RC,False,True,False,,,True,,False,False,False,False,False,False,False,False,False,False,0,Free,0,0,0,0,False,False,False,False,False,False,,False,Normal,100,100,1024,1024,1431,1024,1,False,False,False,False,False,0,False,False,False,False,63,46.788,6587,10462,47.359,True,,,,,,,,False,False,16.828,101.5,101.5,101.5,0,52,0,11,6,16748.8,2233.17,,Idle,0,30,False,10,True,,Go Home,46.9755256,7.18034262,0.6,1221.6,262.5,True,1,1,False,False,False,False,0,False,False,False,Course Lock,262.5,,23.0,Calm,21,Android, 4.1.1,M300 RTK,1ZNBJ8700C01MC,,1ZMBHAN003009A,1Z6PHBKDA01Y41,127.6,1.8,229.7,36.6,9.0,0,0,M300 RTK,1ZNBJ8700C01MC,,1ZMBHAN003009A,1Z6PHBKDA01Y41,DJI Pilot,Android, 4.1.1,46.97543167,7.180384,483.4,,,
