;pos_time;latitude;longitude;altitude;alt_time;pitch;roll;yaw
0;1673388114.45187;47.1306425;7.2406198999999996;-0.017000000923871994;1673388114.6036692;-0.023839866742491722;-0.3289458751678467;90.14746856689453
1;1673388114.6627731;47.1306425;7.2406198999999996;-0.017000000923871994;1673388114.8068302;-0.019432473927736282;-0.0841086283326149;90.1832504272461
2;1673388114.863005;47.1306425;7.24062;-0.01600000075995922;1673388115.0012074;0.14875181019306183;-0.32838526368141174;90.35816955566406
3;1673388115.07124;47.1306425;7.24062;-0.015000000596046448;1673388115.211524;0.10614743828773499;-0.2598010003566742;90.33674621582031
4;1673388115.2757654;47.1306425;7.2406201;-0.012000000104308128;1673388115.419889;0.13229291141033173;-0.28617122769355774;90.316162109375
5;1673388115.4797163;47.1306425;7.2406201;-0.009000000543892384;1673388115.6191115;-0.06020161136984825;-0.19275367259979248;90.17147064208984
6;1673388115.669941;47.1306425;7.2406201;-0.009000000543892384;1673388115.8210733;-0.09821631014347076;-0.3564545214176178;90.31549835205078
7;1673388115.8782892;47.1306424;7.2406201999999995;-0.013000000268220901;1673388116.0185654;0.07794126123189926;-0.23775377869606018;90.32742309570312
8;1673388116.0759106;47.1306424;7.2406201999999995;-0.014000000432133675;1673388116.23002;-0.056492824107408524;-0.2517537474632263;90.27728271484375
9;1673388116.2881033;47.1306424;7.2406203;-0.014000000432133675;1673388116.4536521;-0.3173658549785614;-0.14900918304920197;90.12924194335938
10;1673388116.5022953;47.1306423;7.2406203;-0.010000000707805157;1673388116.6347308;-0.33557426929473877;-0.19688071310520172;90.13260650634766
11;1673388116.687093;47.1306423;7.2406204;-0.006000000052154064;1673388116.8262553;-0.18153013288974762;-0.2977689504623413;90.23221588134766
12;1673388116.8801615;47.1306423;7.2406204;-0.005000000353902578;1673388117.0146363;0.009029208682477474;-0.031018592417240143;90.25422668457031
13;1673388117.0714402;47.1306423;7.2406203;-0.005000000353902578;1673388117.214441;-0.22056932747364044;-0.23262347280979156;90.09149932861328
14;1673388117.2716725;47.1306423;7.2406201999999995;-0.006000000052154064;1673388117.3972187;-0.2800073027610779;-0.2498418539762497;90.16534423828125
15;1673388117.4557812;47.1306423;7.2406201999999995;-0.0010000000474974513;1673388117.5994763;-0.1580013632774353;-0.08223316073417664;90.00930786132812
16;1673388117.6556365;47.1306423;7.2406201999999995;-0.0020000000949949026;1673388117.8980894;-0.16893789172172546;-0.27329522371292114;90.16944122314453
17;1673388117.956948;47.1306423;7.2406201;-0.0020000000949949026;1673388118.1060803;-0.06186922267079353;-0.05664363130927086;90.06079864501953
18;1673388118.165187;47.1306423;7.2406201;0.0;1673388118.300529;-0.2516329884529114;-0.2438623160123825;90.1310043334961
19;1673388118.3549783;47.1306423;7.24062;0.003000000026077032;1673388118.504159;-0.3398151993751526;-0.1656949520111084;90.08290100097656
20;1673388118.555891;47.1306423;7.24062;0.005000000353902578;1673388118.6969006;-0.17108860611915588;-0.08443097770214081;90.2716064453125
21;1673388118.7560523;47.1306423;7.2406201;0.003000000026077032;1673388118.8979228;-0.37701216340065;0.3120250701904297;90.1274642944336
22;1673388118.9597478;47.1306424;7.2406201;0.003000000026077032;1673388119.0989487;-0.35657498240470886;-0.9972172975540161;90.2270278930664
23;1673388119.1576967;47.1306424;7.2406201;0.0;1673388119.2918987;-0.44245970249176025;-0.5278142094612122;90.0260238647461
24;1673388119.349723;47.1306424;7.24062;-0.0010000000474974513;1673388119.4888425;-0.48123905062675476;-0.32013896107673645;89.8014144897461
25;1673388119.5526998;47.1306423;7.24062;-0.0010000000474974513;1673388119.6880267;-0.5348909497261047;-0.17760184407234192;90.09351348876953
26;1673388119.7408938;47.1306423;7.2406198999999996;-0.003000000026077032;1673388119.8841264;-0.7222988605499268;-0.20838429033756256;90.1373519897461
27;1673388119.941098;47.1306423;7.2406198999999996;-0.007000000216066837;1673388120.079995;-0.6053714752197266;-0.26423656940460205;90.15438842773438
28;1673388120.1320214;47.1306423;7.2406198999999996;-0.010000000707805157;1673388120.284026;-0.5965281128883362;-0.3204619288444519;90.11441040039062
29;1673388120.3399494;47.1306423;7.2406198999999996;-0.010000000707805157;1673388120.4769537;-0.9640112519264221;-0.2839394807815552;90.32804870605469
30;1673388120.529894;47.1306423;7.24062;-0.009000000543892384;1673388120.6696692;-1.492651343345642;-0.26991066336631775;90.52067565917969
31;1673388120.7291267;47.1306423;7.24062;-0.006000000052154064;1673388120.875099;-0.44513553380966187;-0.18277549743652344;92.78535461425781
32;1673388120.9322011;47.1306423;7.2406203;-0.005000000353902578;1673388121.0719526;3.023601531982422;-0.26064398884773254;92.30862426757812
33;1673388121.1298828;47.1306423;7.2406213;0.007000000216066837;1673388121.2750769;10.209697723388672;-0.3337061405181885;94.4640121459961
34;1673388121.338994;47.1306424;7.240622699999999;0.026000000536441803;1673388121.4799302;14.399476051330566;1.9239301681518555;93.64385986328125
35;1673388121.5355036;47.1306424;7.2406245;0.05300000309944153;1673388121.7079644;15.421379089355469;2.728076934814453;93.0169448852539
36;1673388121.7612069;47.1306424;7.240626499999999;0.09400000423192978;1673388121.9235594;16.910139083862305;-0.6794210076332092;92.0466079711914
37;1673388121.977948;47.1306425;7.2406286;0.14600001275539398;1673388122.1150513;18.66887092590332;0.7133511304855347;91.72372436523438
38;1673388122.1731176;47.130642599999995;7.240630599999999;0.2120000123977661;1673388122.3167708;20.456024169921875;2.929672956466675;91.79875183105469
39;1673388122.3680284;47.1306425;7.2406323;0.2939999997615814;1673388122.5106401;22.504743576049805;-0.2794334292411804;91.15151977539062
40;1673388122.574302;47.1306424;7.2406336;0.3920000195503235;1673388122.723488;24.599794387817383;-0.873110830783844;90.81227111816406
41;1673388122.7824643;47.1306423;7.240634399999999;0.5070000290870667;1673388122.9216955;26.68049430847168;2.2256250381469727;91.1402816772461
42;1673388122.9798255;47.1306422;7.240634399999999;0.6350000500679016;1673388123.1100173;28.803234100341797;0.5585553050041199;90.90143585205078
43;1673388123.1632612;47.130642099999996;7.2406337;0.7780000567436218;1673388123.3015652;27.64520835876465;-1.86963951587677;90.25143432617188
44;1673388123.3564951;47.130642099999996;7.2406321;0.9310000538825989;1673388123.4944444;25.297780990600586;1.4485262632369995;90.72765350341797
45;1673388123.5482578;47.130642099999996;7.2406299;1.093000054359436;1673388123.6908681;22.526411056518555;0.5336934924125671;90.65138244628906
46;1673388123.7465014;47.130642099999996;7.2406274999999996;1.2690000534057617;1673388123.8871517;19.728260040283203;-2.130620002746582;90.01651000976562
47;1673388123.9418497;47.130642099999996;7.240625;1.4510000944137573;1673388124.0931535;16.831459045410156;2.049382448196411;96.73210906982422
48;1673388124.1548955;47.130641999999995;7.240622699999999;1.6350001096725464;1673388124.2958503;15.30221176147461;0.20322400331497192;95.01734161376953
49;1673388124.362973;47.130641999999995;7.2406209;1.8200000524520874;1673388124.4970782;14.445406913757324;-2.514512777328491;93.43864440917969
50;1673388124.5548458;47.130642099999996;7.2406197;2.004000186920166;1673388124.68674;14.414165496826172;1.0296005010604858;93.2550048828125
51;1673388124.738196;47.1306422;7.240619;2.184000015258789;1673388124.8713505;15.259796142578125;1.0828793048858643;92.8440170288086
52;1673388124.9279993;47.1306423;7.2406188;2.367000102996826;1673388125.0632002;16.15570640563965;-2.343069076538086;91.86856079101562
53;1673388125.122049;47.1306424;7.240618899999999;2.552000045776367;1673388125.277215;17.3951473236084;1.1333916187286377;91.88624572753906
54;1673388125.337727;47.1306424;7.2406193;2.7370002269744873;1673388125.4978075;18.54233741760254;1.8440532684326172;92.0632553100586
55;1673388125.5593371;47.1306424;7.2406197;2.9250001907348633;1673388125.6989932;19.50057601928711;-1.6568387746810913;91.64381408691406
56;1673388125.75585;47.130642599999995;7.2406201999999995;3.119000196456909;1673388125.897328;19.993227005004883;0.5452312231063843;91.85733032226562
57;1673388125.957514;47.130642699999996;7.2406204999999995;3.31600022315979;1673388126.0994914;20.219480514526367;2.972195625305176;92.22389221191406
58;1673388126.1493301;47.130642699999996;7.240620799999999;3.510000228881836;1673388126.2833483;20.177751541137695;-1.1889759302139282;91.80097961425781
59;1673388126.3380547;47.130642599999995;7.2406209;3.700000286102295;1673388126.4839227;20.1042537689209;-0.036689575761556625;91.8825912475586
60;1673388126.5416389;47.1306425;7.240620799999999;3.891000270843506;1673388126.6893823;19.94230842590332;2.5394177436828613;92.36564636230469
61;1673388126.7481577;47.1306424;7.2406207;4.084000110626221;1673388126.9140046;19.424577713012695;-1.2349475622177124;91.8482666015625
62;1673388126.97829;47.1306424;7.2406204999999995;4.275000095367432;1673388127.1324549;19.124691009521484;-0.7927775382995605;91.72109985351562
63;1673388127.1893682;47.1306424;7.2406203;4.466000080108643;1673388127.3530998;18.848848342895508;2.796086549758911;92.42315673828125
64;1673388127.405978;47.1306424;7.2406201;4.6579999923706055;1673388127.5408285;18.739347457885742;-0.3410453796386719;92.06253051757812
65;1673388127.5979772;47.1306423;7.24062;4.8510003089904785;1673388127.7790163;18.7362117767334;-1.2050126791000366;91.65422821044922
66;1673388127.8716311;47.1306423;7.2406198999999996;5.044000148773193;1673388127.9746654;18.50324058532715;2.419971227645874;92.35222625732422
67;1673388128.016633;47.1306423;7.240619799999999;5.240000247955322;1673388128.1247232;18.55504035949707;0.6164245009422302;92.11894989013672
68;1673388128.17232;47.1306423;7.240619799999999;5.438000202178955;1673388128.2998273;18.667680740356445;-1.3415268659591675;91.74728393554688
69;1673388128.3632772;47.1306424;7.240619799999999;5.63700008392334;1673388128.5110328;18.602901458740234;2.629434108734131;92.25896453857422
70;1673388128.570252;47.1306423;7.240619799999999;5.836000442504883;1673388128.7084827;18.864734649658203;1.3107274770736694;92.17578125
71;1673388128.7707543;47.1306422;7.2406198999999996;6.0360002517700195;1673388128.9118223;18.9223575592041;-1.7867567539215088;91.60079193115234
72;1673388128.961683;47.1306422;7.2406198999999996;6.2310004234313965;1673388129.0947044;18.942230224609375;1.327443242073059;92.07289123535156
73;1673388129.154604;47.1306422;7.24062;6.427000522613525;1673388129.3029273;19.005090713500977;2.0235657691955566;92.18541717529297
74;1673388129.3708014;47.1306422;7.24062;6.623000144958496;1673388129.5156858;18.88094139099121;-1.5589560270309448;91.56964874267578
75;1673388129.619952;47.1306422;7.2406201;6.819000244140625;1673388129.7611282;18.982120513916016;0.29619288444519043;91.87125396728516
76;1673388129.8297675;47.1306422;7.2406201;7.01900053024292;1673388129.9784157;18.96501350402832;2.7520649433135986;92.44305419921875
77;1673388130.025264;47.130642099999996;7.2406201999999995;7.220000267028809;1673388130.1448853;19.018657684326172;-1.372046947479248;91.92735290527344
78;1673388130.19814;47.130642099999996;7.2406203;7.418000221252441;1673388130.3305001;19.111501693725586;-0.20573469996452332;91.9101333618164
79;1673388130.387199;47.1306422;7.2406203;7.615000247955322;1673388130.5084207;18.980268478393555;3.1942226886749268;92.48657989501953
80;1673388130.5542924;47.1306423;7.2406203;7.807000160217285;1673388130.6822808;19.241426467895508;0.1921110600233078;91.97698211669922
81;1673388130.7418962;47.1306424;7.2406204;8.00200080871582;1673388130.88749;19.21786880493164;0.11257419735193253;91.7709732055664
82;1673388130.9412968;47.1306424;7.2406204999999995;8.199000358581543;1673388131.082066;19.050979614257812;3.2996304035186768;92.50513458251953
83;1673388131.139806;47.1306424;7.2406204999999995;8.393000602722168;1673388131.2785535;19.20648765563965;0.0973920226097107;92.14773559570312
84;1673388131.337114;47.1306423;7.2406204999999995;8.589000701904297;1673388131.494543;19.200977325439453;-1.1082760095596313;91.7620849609375
85;1673388131.5668843;47.1306422;7.2406204999999995;8.785000801086426;1673388131.7105243;19.070714950561523;2.650831937789917;92.38236236572266
86;1673388131.7681105;47.1306422;7.2406204999999995;8.97800064086914;1673388131.9155962;19.122501373291016;0.34331414103507996;92.06616973876953
87;1673388131.970249;47.1306422;7.2406206;9.168000221252441;1673388132.1108987;19.032255172729492;-1.4096859693527222;91.88105010986328
88;1673388132.1646643;47.1306422;7.2406206;9.36400032043457;1673388132.2977915;19.23654556274414;2.3758997917175293;92.25418090820312
89;1673388132.355463;47.1306422;7.2406207;9.562000274658203;1673388132.5039954;19.274539947509766;1.168432593345642;92.13253021240234
90;1673388132.5567;47.1306422;7.2406207;9.761000633239746;1673388132.7120461;19.38060760498047;-1.62852942943573;91.65852355957031
91;1673388132.7760284;47.1306422;7.240620799999999;9.958000183105469;1673388132.9213579;19.339948654174805;2.197239637374878;92.27571105957031
92;1673388132.9765596;47.1306423;7.240620799999999;10.157000541687012;1673388133.1165254;19.325321197509766;2.0196971893310547;92.24778747558594
93;1673388133.1732895;47.1306424;7.2406204999999995;10.430000305175781;1673388133.3051565;20.717304229736328;-0.34096479415893555;91.82366180419922
94;1673388133.3559086;47.1306424;7.2406201;10.797000885009766;1673388133.5035994;19.431005477905273;1.4917041063308716;92.25205993652344
95;1673388133.5594308;47.1306423;7.2406194;11.181000709533691;1673388133.689514;18.00240707397461;2.6758620738983154;92.56659698486328
96;1673388133.7431896;47.1306422;7.240618899999999;11.576000213623047;1673388133.8838854;17.006023406982422;-0.7681740522384644;92.00482177734375
97;1673388133.94943;47.130642099999996;7.2406184;11.975000381469727;1673388134.1085773;16.58592414855957;0.35407957434654236;92.05448913574219
98;1673388134.1724827;47.130642099999996;7.2406182;12.375000953674316;1673388134.3085465;16.3562068939209;2.5346322059631348;92.51030731201172
99;1673388134.3682199;47.130642099999996;7.2406181;12.780000686645508;1673388134.512604;16.93630599975586;-0.6154954433441162;91.95789337158203
100;1673388134.5731258;47.130642099999996;7.2406182;13.18600082397461;1673388134.7094405;17.30750846862793;-0.3297841250896454;91.99526977539062
101;1673388134.7650807;47.130642099999996;7.2406185;13.5910005569458;1673388134.9079697;17.77286720275879;2.7284650802612305;92.52601623535156
102;1673388134.9647002;47.130641999999995;7.240618899999999;13.994000434875488;1673388135.1229482;18.38639259338379;-0.4666367769241333;92.0203857421875
103;1673388135.1792939;47.130641999999995;7.240619199999999;14.393000602722168;1673388135.3254359;18.88591194152832;-0.43742644786834717;91.95405578613281
104;1673388135.3846953;47.130641999999995;7.2406196;14.78700065612793;1673388135.508085;19.16117286682129;2.878201961517334;92.44966888427734
105;1673388135.5648978;47.130642099999996;7.240619799999999;15.17500114440918;1673388135.7270327;18.914377212524414;0.2504270374774933;92.04493713378906
106;1673388135.7812624;47.130642099999996;7.2406198999999996;15.566000938415527;1673388135.928373;19.11263656616211;-0.34545865654945374;91.85779571533203
107;1673388135.9940746;47.1306422;7.2406198999999996;15.960000991821289;1673388136.1360564;18.93443489074707;2.8022546768188477;92.37301635742188
108;1673388136.2099495;47.130642099999996;7.2406198999999996;16.35500144958496;1673388136.34129;18.843046188354492;0.38250669836997986;92.07745361328125
109;1673388136.4007673;47.130642099999996;7.2406198999999996;16.753000259399414;1673388136.5312965;18.594402313232422;-0.966158926486969;91.79077911376953
110;1673388136.589042;47.130642099999996;7.2406198999999996;17.155000686645508;1673388136.7313898;18.601472854614258;2.478665351867676;92.29103088378906
111;1673388136.7852664;47.1306422;7.240619799999999;17.553001403808594;1673388136.9101412;18.37266731262207;1.087074875831604;92.13465881347656
112;1673388136.9619892;47.1306422;7.240619799999999;17.94900131225586;1673388137.1024036;18.418540954589844;-0.7903210520744324;91.74038696289062
113;1673388137.1665668;47.1306422;7.240619799999999;18.34400177001953;1673388137.3152475;18.2858943939209;2.6639270782470703;92.25922393798828
114;1673388137.3808315;47.1306422;7.240619799999999;18.740001678466797;1673388137.5300915;18.444000244140625;1.1920734643936157;92.20173645019531
115;1673388137.581281;47.1306422;7.240619799999999;19.137001037597656;1673388137.721617;18.414499282836914;-1.1820666790008545;91.77725982666016
116;1673388137.7762718;47.1306422;7.240619799999999;19.534000396728516;1673388137.9331737;18.494403839111328;2.259547710418701;92.30488586425781
117;1673388137.986866;47.1306422;7.2406197;19.93000030517578;1673388138.1195588;18.406435012817383;1.7031883001327515;92.33538818359375
118;1673388138.1802244;47.1306422;7.2406197;20.323001861572266;1673388138.327031;18.590421676635742;-1.2486685514450073;91.78748321533203
119;1673388138.3783598;47.1306422;7.2406197;20.718000411987305;1673388138.5195842;18.5230770111084;1.8235522508621216;92.20305633544922
120;1673388138.5793328;47.1306422;7.2406197;21.11600112915039;1673388138.722111;18.545900344848633;1.5984854698181152;92.29731750488281
121;1673388138.777863;47.1306422;7.2406197;21.514001846313477;1673388138.9238913;18.402305603027344;-1.4407005310058594;91.76910400390625
122;1673388139.0739338;47.1306422;7.2406196;21.911001205444336;1673388139.2233472;18.41226577758789;1.952394962310791;92.21517944335938
123;1673388139.3161535;47.1306424;7.2406196;22.308000564575195;1673388139.422305;18.407617568969727;2.6427738666534424;92.42085266113281
124;1673388139.4663825;47.1306424;7.2406196;22.700000762939453;1673388139.5948372;18.307100296020508;-0.7607594728469849;91.842529296875
125;1673388139.6525307;47.1306424;7.2406196;23.09200096130371;1673388139.7681308;18.404634475708008;1.046337604522705;92.05695343017578
126;1673388139.8254707;47.1306424;7.2406196;23.48400115966797;1673388139.954115;18.48929786682129;2.84212589263916;92.4437026977539
127;1673388140.0040925;47.1306425;7.2406196;23.87700080871582;1673388140.1330647;18.682172775268555;-0.5514721274375916;91.88359832763672
128;1673388140.188275;47.1306425;7.2406197;24.273000717163086;1673388140.3265548;18.51789093017578;0.5631051063537598;91.9581527709961
129;1673388140.3734145;47.130642599999995;7.2406197;24.670001983642578;1673388140.5429137;18.409032821655273;3.3629519939422607;92.514892578125
130;1673388140.5991254;47.130642599999995;7.2406197;25.067001342773438;1673388140.766251;18.569477081298828;-0.031316082924604416;91.94841766357422
131;1673388140.8501742;47.130642599999995;7.2406197;25.457000732421875;1673388141.0256565;18.672489166259766;0.15321391820907593;91.9122085571289
132;1673388141.099175;47.1306425;7.240619799999999;25.845001220703125;1673388141.225065;18.63063621520996;2.7666099071502686;92.34080505371094
133;1673388141.2699957;47.1306425;7.240619799999999;26.240001678466797;1673388141.383452;18.53716468811035;0.6408557295799255;92.0699691772461
134;1673388141.4364033;47.130642599999995;7.240619799999999;26.64200210571289;1673388141.5658162;18.49607276916504;-0.14712433516979218;91.84800720214844
135;1673388141.6181657;47.130642599999995;7.240619799999999;27.041000366210938;1673388141.747905;18.491714477539062;3.270207405090332;92.31214904785156
136;1673388141.8028905;47.130642699999996;7.240619799999999;27.435001373291016;1673388141.9439223;18.407529830932617;1.1532583236694336;92.13302612304688
137;1673388142.000318;47.130642599999995;7.240619799999999;27.82200050354004;1673388142.1434276;18.725431442260742;-0.56714928150177;91.7808609008789
138;1673388142.1947236;47.130642599999995;7.240619799999999;28.209001541137695;1673388142.333227;18.529558181762695;2.7998921871185303;92.24740600585938
139;1673388142.38945;47.1306425;7.2406198999999996;28.60000228881836;1673388142.5374324;18.54796600341797;1.1956384181976318;92.07762145996094
140;1673388142.593792;47.1306425;7.2406198999999996;28.994001388549805;1673388142.736977;18.6596736907959;-0.6306847333908081;91.77691650390625
141;1673388142.7902172;47.1306425;7.2406198999999996;29.38800048828125;1673388142.9293468;18.58607292175293;2.6360909938812256;92.18414306640625
142;1673388142.9913914;47.1306425;7.2406198999999996;29.781002044677734;1673388143.1295555;18.743244171142578;1.8036259412765503;92.17900848388672
143;1673388143.1857526;47.1306425;7.24062;30.174001693725586;1673388143.329685;18.545976638793945;-0.689881443977356;91.84732818603516
144;1673388143.3984225;47.1306425;7.24062;30.564001083374023;1673388143.5318887;18.66348648071289;2.373351812362671;92.2022933959961
145;1673388143.5986896;47.1306425;7.24062;30.9580020904541;1673388143.7401624;18.500471115112305;2.163937568664551;92.27592468261719
146;1673388143.794026;47.1306425;7.24062;31.356000900268555;1673388143.9441404;18.569833755493164;-0.7541500329971313;91.77749633789062
147;1673388144.000957;47.130642599999995;7.24062;31.75400161743164;1673388144.1311634;18.560338973999023;2.329702138900757;92.16548156738281
148;1673388144.1945195;47.130642599999995;7.24062;32.152000427246094;1673388144.3402216;18.5422420501709;2.459176540374756;92.32062530517578
149;1673388144.401856;47.130642599999995;7.24062;32.54899978637695;1673388144.537992;18.494707107543945;-0.8117122650146484;91.78028106689453
150;1673388144.5828912;47.1306425;7.24062;32.94000244140625;1673388144.7189293;18.53287124633789;1.7433335781097412;92.08079528808594
151;1673388144.7748115;47.1306425;7.24062;33.33400344848633;1673388144.9099116;18.544437408447266;2.6395788192749023;92.43317413330078
152;1673388144.966702;47.1306425;7.24062;33.73400115966797;1673388145.1033273;18.543672561645508;-0.7188118696212769;91.84512329101562
153;1673388145.1678793;47.130642599999995;7.24062;34.134002685546875;1673388145.3182828;18.574848175048828;1.2718915939331055;92.0390853881836
154;1673388145.3758693;47.130642599999995;7.24062;34.53200149536133;1673388145.5263016;18.47301483154297;3.2880074977874756;92.41587829589844
155;1673388145.5868173;47.130642599999995;7.24062;34.928001403808594;1673388145.731364;18.611774444580078;0.05605502426624298;91.94603729248047
156;1673388145.7899392;47.130642699999996;7.2406201;35.32200241088867;1673388145.9305756;18.602895736694336;1.043429970741272;92.022216796875
157;1673388146.0062623;47.130642699999996;7.2406201;35.711002349853516;1673388146.1454003;18.53330421447754;3.516183614730835;92.42832946777344
158;1673388146.1996045;47.130642699999996;7.2406201999999995;36.10000228881836;1673388146.3940127;18.6311092376709;0.6813797950744629;92.00396728515625
159;1673388146.4457796;47.1306428;7.2406201999999995;36.49700164794922;1673388146.5820806;18.673067092895508;0.15849916636943817;91.83908081054688
160;1673388146.6343417;47.1306428;7.2406201999999995;36.89800262451172;1673388146.7707067;18.55503273010254;3.6658072471618652;92.44329833984375
161;1673388146.84739;47.130642699999996;7.2406201999999995;37.29600143432617;1673388147.0095935;18.610057830810547;0.9205400943756104;92.10045623779297
162;1673388147.0575626;47.130642699999996;7.2406201999999995;37.691001892089844;1673388147.1762583;18.588958740234375;-0.26819708943367004;91.83932495117188
163;1673388147.2246253;47.130642599999995;7.2406201999999995;38.0780029296875;1673388147.351171;18.566469192504883;3.005145311355591;92.43195343017578
164;1673388147.4084024;47.130642599999995;7.2406201999999995;38.46800231933594;1673388147.5494812;18.45531463623047;1.2902936935424805;92.1295166015625
165;1673388147.606621;47.130642599999995;7.2406201999999995;38.861000061035156;1673388147.7457495;18.673906326293945;-0.2611907422542572;91.72526550292969
166;1673388147.799969;47.130642599999995;7.2406201999999995;39.255001068115234;1673388147.933253;18.703554153442383;3.080242872238159;92.2088394165039
167;1673388147.9970913;47.130642599999995;7.2406201999999995;39.6510009765625;1673388148.1375368;18.70774269104004;1.888109803199768;92.1688003540039
168;1673388148.199338;47.130642599999995;7.2406201999999995;40.04900360107422;1673388148.3323886;18.709697723388672;-0.5152298808097839;91.78160095214844
169;1673388148.385161;47.130642599999995;7.2406201999999995;40.44700241088867;1673388148.5222363;18.564167022705078;2.5375113487243652;92.25272369384766
170;1673388148.5769622;47.130642599999995;7.2406201999999995;40.83700180053711;1673388148.711808;18.527015686035156;2.584557056427002;92.34476470947266
171;1673388148.7656028;47.130642599999995;7.2406201;41.22700119018555;1673388148.9042091;18.544797897338867;-0.003976756241172552;91.8076171875
172;1673388148.9588482;47.130642599999995;7.2406201999999995;41.62200164794922;1673388149.099643;18.642438888549805;2.0562472343444824;92.12530517578125
173;1673388149.15431;47.1306425;7.2406201999999995;42.02000045776367;1673388149.304982;18.58388328552246;2.7879180908203125;92.39058685302734
174;1673388149.3696156;47.1306424;7.2406201999999995;42.419002532958984;1673388149.5107744;18.703102111816406;-0.7799383997917175;91.86123657226562
175;1673388149.5675268;47.1306424;7.2406201999999995;42.81700134277344;1673388149.718986;18.661109924316406;1.3434605598449707;92.03123474121094
176;1673388149.7836726;47.1306424;7.2406201999999995;43.207000732421875;1673388149.9315035;18.623186111450195;3.115912437438965;92.46671295166016
177;1673388149.9862094;47.1306424;7.2406201999999995;43.599002838134766;1673388150.1287549;18.519315719604492;-0.16286985576152802;91.94920349121094
178;1673388150.1907504;47.1306425;7.2406201999999995;43.99400329589844;1673388150.342512;18.60933494567871;1.365804672241211;92.00938415527344
179;1673388150.3923912;47.1306425;7.2406201999999995;44.393001556396484;1673388150.531348;18.573408126831055;3.4021124839782715;92.4797592163086
180;1673388150.6012802;47.1306425;7.2406201999999995;44.794002532958984;1673388150.7484322;18.655529022216797;-0.1631830483675003;91.95393371582031
181;1673388150.8058808;47.1306425;7.2406201999999995;45.19600296020508;1673388150.9642158;18.561532974243164;0.8279164433479309;91.94454956054688
182;1673388151.0201366;47.130642599999995;7.2406201;45.599002838134766;1673388151.1636002;18.468626022338867;3.662885904312134;92.38778686523438
183;1673388151.2144723;47.130642599999995;7.2406201;45.993003845214844;1673388151.340291;18.470788955688477;0.794003963470459;92.06184387207031
184;1673388151.3994524;47.130642599999995;7.2406201;46.38600158691406;1673388151.5231996;18.6756649017334;0.40176284313201904;91.8746109008789
185;1673388151.5772617;47.130642599999995;7.2406201;46.781002044677734;1673388151.7282214;18.555265426635742;3.5696752071380615;92.44325256347656
186;1673388151.786784;47.1306425;7.2406201;47.18000411987305;1673388151.9561582;18.422130584716797;0.7039327025413513;92.07884979248047
187;1673388152.018655;47.1306425;7.2406201;47.577003479003906;1673388152.2049284;18.668996810913086;0.07560274004936218;91.92821502685547
188;1673388152.2527528;47.1306425;7.2406201;47.97200393676758;1673388152.3637507;18.459888458251953;3.450650453567505;92.4035873413086
189;1673388152.410693;47.1306425;7.2406201;48.3390007019043;1673388152.538224;18.525053024291992;0.9466294646263123;91.9779281616211
190;1673388152.59293;47.130642599999995;7.2406203;48.660003662109375;1673388152.732356;18.653799057006836;0.07427043467760086;91.59852600097656
191;1673388152.7969384;47.1306425;7.2406204999999995;48.93700408935547;1673388152.9427574;18.964982986450195;3.2648813724517822;92.07869720458984
192;1673388153.0050764;47.1306425;7.2406209;49.169002532958984;1673388153.1463158;19.094295501708984;1.4828542470932007;91.80996704101562
193;1673388153.2054205;47.1306425;7.2406212;49.36300277709961;1673388153.335106;30.547548294067383;12.396537780761719;95.62239074707031
194;1673388153.3933082;47.1306423;7.2406213;49.535003662109375;1673388153.5987346;38.36726379394531;33.7426872253418;107.87751770019531
195;1673388153.6624672;47.1306413;7.2406198999999996;49.689002990722656;1673388153.7948246;38.02742385864258;47.53844451904297;116.30382537841797
196;1673388153.853157;47.130638399999995;7.240615699999999;49.810001373291016;1673388153.9992273;31.364704132080078;56.95393371582031;124.39936065673828
197;1673388154.0755367;47.1306332;7.240608399999999;49.90200424194336;1673388154.2190795;15.299508094787598;58.08479309082031;135.82147216796875
198;1673388154.277796;47.1306261;7.2405984;49.957000732421875;1673388154.410513;-4.224250793457031;50.81880569458008;148.60084533691406
199;1673388154.4593766;47.1306176;7.240586599999999;49.97600173950195;1673388154.6046898;-18.99681282043457;46.38041687011719;159.4310760498047
200;1673388154.6526728;47.1306083;7.240574;49.983001708984375;1673388154.7773693;-30.848724365234375;42.02114486694336;169.03530883789062
201;1673388154.8336136;47.130598;7.2405607;49.980003356933594;1673388154.9727998;-41.112281799316406;39.29819107055664;179.55152893066406
202;1673388155.0271673;47.1305866;7.2405466;49.96900177001953;1673388155.155432;-47.70391845703125;34.67648696899414;-167.89743041992188
203;1673388155.2096627;47.1305742;7.2405314999999995;49.94900131225586;1673388155.3500178;-47.54683303833008;26.28173828125;-157.28201293945312
204;1673388155.401835;47.1305611;7.2405151;49.90500259399414;1673388155.538809;-44.41932678222656;20.852331161499023;-151.97427368164062
205;1673388155.5954208;47.1305477;7.240498199999999;49.849002838134766;1673388155.7361417;-45.52634048461914;17.135528564453125;-146.2102813720703
206;1673388155.7921703;47.1305342;7.240481;49.80600357055664;1673388155.950697;-46.58730697631836;13.340320587158203;-138.53219604492188
207;1673388156.0103822;47.1305206;7.240463399999999;49.78300094604492;1673388156.1563945;-47.442195892333984;8.70761775970459;-131.11500549316406
208;1673388156.209456;47.130507099999996;7.240445299999999;49.775001525878906;1673388156.3799849;-48.42942428588867;1.5732955932617188;-127.62793731689453
209;1673388156.442236;47.1304935;7.2404271;49.75600051879883;1673388156.598026;-45.93830108642578;2.282778263092041;-132.02406311035156
210;1673388156.6684108;47.130479799999996;7.240408899999999;49.73400115966797;1673388156.792423;-46.47384262084961;2.958052635192871;-133.84498596191406
211;1673388156.8497438;47.130465799999996;7.240391;49.72800064086914;1673388156.9769106;-47.34432601928711;4.061697483062744;-134.71304321289062
212;1673388157.023314;47.1304516;7.240373399999999;49.73500061035156;1673388157.1666913;-48.899044036865234;5.356882095336914;-135.1090850830078
213;1673388157.2218087;47.130437;7.2403559;49.749000549316406;1673388157.3723214;-48.991939544677734;6.494214057922363;-135.26889038085938
214;1673388157.4313703;47.1304223;7.2403382999999994;49.7650032043457;1673388157.57047;-48.43687057495117;7.606415748596191;-135.51014709472656
215;1673388157.6199524;47.130407299999995;7.2403207;49.77400207519531;1673388157.750209;-47.896121978759766;7.832021236419678;-135.2953338623047
216;1673388157.8107615;47.1303923;7.240302799999999;49.78400421142578;1673388157.9439921;-47.55638122558594;8.073580741882324;-135.27288818359375
217;1673388158.005411;47.1303773;7.2402847999999995;49.803001403808594;1673388158.1529415;-48.34757614135742;8.446656227111816;-135.23411560058594
218;1673388158.206821;47.1303622;7.2402666;49.829002380371094;1673388158.343634;-49.14026641845703;8.513542175292969;-135.04486083984375
219;1673388158.3966765;47.130347199999996;7.2402482;49.85400390625;1673388158.5398169;-49.11375427246094;8.244329452514648;-134.7561798095703
220;1673388158.602895;47.1303323;7.2402296999999995;49.874000549316406;1673388158.750015;-48.7650146484375;8.033418655395508;-134.57565307617188
221;1673388158.813594;47.130317299999994;7.2402109;49.8900032043457;1673388158.9753048;-48.330047607421875;7.922348976135254;-134.49087524414062
222;1673388159.0382082;47.1303023;7.240191899999999;49.8900032043457;1673388159.2031598;-47.56351089477539;7.779292106628418;-134.36622619628906
223;1673388159.2608325;47.1302874;7.240172899999999;49.88900375366211;1673388159.4041579;-47.37395095825195;7.948752403259277;-134.47674560546875
224;1673388159.4525554;47.1302725;7.240153899999999;49.89400100708008;1673388159.5894554;-47.842716217041016;8.259888648986816;-134.51849365234375
225;1673388159.6777718;47.1302577;7.240134899999999;49.90200424194336;1673388159.8181877;-48.5715217590332;8.285083770751953;-134.41062927246094
226;1673388159.8868124;47.130243;7.2401157;49.913002014160156;1673388160.0139022;-48.858341217041016;8.224136352539062;-134.32815551757812
227;1673388160.0656657;47.1302283;7.2400964;49.91800308227539;1673388160.2280486;-48.415714263916016;7.9605302810668945;-134.19210815429688
228;1673388160.2810173;47.1302136;7.240076999999999;49.910003662109375;1673388160.427389;-47.50056838989258;7.688154220581055;-134.11883544921875
229;1673388160.4745696;47.130199;7.2400576;49.9010009765625;1673388160.6552632;-47.30129623413086;7.880331039428711;-134.27833557128906
230;1673388160.7005382;47.130184299999996;7.2400381;49.89900207519531;1673388160.8506863;-47.94034957885742;8.261540412902832;-134.35647583007812
231;1673388160.9095867;47.1301698;7.240018699999999;49.89800262451172;1673388161.011139;-48.51557540893555;8.207540512084961;-134.26979064941406
232;1673388161.057984;47.1301552;7.2399992;49.89600372314453;1673388161.176242;-48.381256103515625;8.044539451599121;-134.20558166503906
233;1673388161.2291906;47.1301407;7.2399796;49.89200210571289;1673388161.3577764;-48.01062774658203;7.9025397300720215;-134.15521240234375
234;1673388161.4147487;47.1301262;7.23996;49.884002685546875;1673388161.5636988;-47.74418258666992;7.862983226776123;-134.1729736328125
235;1673388161.624414;47.1301116;7.2399404;49.871002197265625;1673388161.7634163;-47.53736114501953;7.869525909423828;-134.19297790527344
236;1673388161.8182964;47.130097199999994;7.2399208999999995;49.8640022277832;1673388161.9552157;-47.7047119140625;7.984201431274414;-134.24913024902344
237;1673388162.0093353;47.1300828;7.2399014;49.862003326416016;1673388162.1471312;-48.07632827758789;8.108377456665039;-134.27207946777344
238;1673388162.2030616;47.1300684;7.239881899999999;49.862003326416016;1673388162.3524587;-48.29804611206055;8.110997200012207;-134.23434448242188
239;1673388162.407598;47.130054;7.2398624;49.86100387573242;1673388162.5432112;-48.21617126464844;7.953734397888184;-134.12994384765625
240;1673388162.6018777;47.1300397;7.2398428;49.85600280761719;1673388162.7512057;-47.753822326660156;7.896284103393555;-134.1266632080078
241;1673388162.8119113;47.1300253;7.2398232;49.84600067138672;1673388162.9519236;-47.335975646972656;7.823620319366455;-134.14874267578125
242;1673388163.0092428;47.130010899999995;7.239803599999999;49.83500289916992;1673388163.1641653;-47.15807342529297;7.835989475250244;-134.15443420410156
243;1673388163.2241135;47.1299965;7.2397841;49.83000183105469;1673388163.359183;-47.49350357055664;8.104706764221191;-134.2853546142578
244;1673388163.4210017;47.1299822;7.2397646;49.832000732421875;1673388163.5869815;-48.05249786376953;8.264966011047363;-134.262939453125
245;1673388163.6436398;47.1299679;7.2397450999999995;49.83400344848633;1673388163.777904;-48.33717346191406;8.097646713256836;-134.1222686767578
246;1673388163.8360574;47.1299535;7.2397256;49.833003997802734;1673388163.9746988;-47.90205383300781;7.912280082702637;-134.0667724609375
247;1673388164.0540411;47.129939199999995;7.239706;49.83000183105469;1673388164.1969235;-47.54365158081055;7.836913585662842;-134.0602569580078
248;1673388164.2600052;47.1299249;7.2396864;49.827003479003906;1673388164.3867807;-47.43595886230469;7.849287033081055;-134.08299255371094
249;1673388164.447073;47.129910599999995;7.239666799999999;49.82600402832031;1673388164.5751872;-47.68877029418945;8.078004837036133;-134.1500244140625
250;1673388164.6280844;47.1298963;7.2396473;49.83000183105469;1673388164.7624161;-48.138755798339844;8.051921844482422;-134.06748962402344
251;1673388164.8113267;47.129881999999995;7.2396278;49.83700180053711;1673388164.9537404;-48.24101638793945;8.086553573608398;-134.05770874023438
252;1673388165.0084038;47.1298677;7.239608199999999;49.842002868652344;1673388165.1536732;-48.03693771362305;7.896689414978027;-133.9205780029297
253;1673388165.2122436;47.1298533;7.239588599999999;49.845001220703125;1673388165.353099;-47.8505859375;7.8509016036987305;-133.95164489746094
254;1673388165.4064796;47.129839;7.2395689999999995;49.84700393676758;1673388165.5485241;-47.62929153442383;7.774755477905273;-133.92262268066406
255;1673388165.6008828;47.1298247;7.239549299999999;49.849002838134766;1673388165.7430394;-47.645626068115234;7.846524238586426;-133.93772888183594
256;1673388165.802639;47.1298104;7.2395296;49.85300064086914;1673388165.953988;-47.79277038574219;7.9500837326049805;-133.93865966796875
257;1673388166.0148044;47.129796;7.23951;49.85600280761719;1673388166.1616125;-47.8309326171875;7.9114460945129395;-133.8507843017578
258;1673388166.2192273;47.1297816;7.239490399999999;49.86000061035156;1673388166.362816;-47.92462921142578;7.841476917266846;-133.81048583984375
259;1673388166.4165998;47.1297673;7.239470799999999;49.86100387573242;1673388166.5708578;-47.712928771972656;7.7706990242004395;-133.74301147460938
260;1673388166.6252475;47.1297529;7.239451099999999;49.86000061035156;1673388166.7965724;-47.336185455322266;7.67081356048584;-133.72093200683594
261;1673388166.841188;47.129738499999995;7.2394314;49.86000061035156;1673388166.963236;-47.42494583129883;7.726524829864502;-133.74319458007812
262;1673388167.0301948;47.1297242;7.2394117;49.86100387573242;1673388167.1604764;-47.68767166137695;7.843782901763916;-133.7467041015625
263;1673388167.2173061;47.129709899999995;7.2393921;49.8640022277832;1673388167.3484836;-47.80925369262695;7.863157749176025;-133.6833038330078
264;1673388167.4081533;47.1296955;7.2393725;49.87000274658203;1673388167.5582106;-47.864356994628906;7.804932594299316;-133.61940002441406
265;1673388167.6169732;47.1296812;7.2393529;49.87700271606445;1673388167.7516658;-47.84384536743164;7.746272563934326;-133.56126403808594
266;1673388167.8046684;47.129666799999995;7.2393332;49.88500213623047;1673388167.9401839;-47.941165924072266;7.740482330322266;-133.514892578125
267;1673388167.9978178;47.1296525;7.2393135;49.89200210571289;1673388168.1383226;-48.04901885986328;7.6334052085876465;-133.43678283691406
268;1673388168.207035;47.129638199999995;7.239293699999999;49.89900207519531;1673388168.3678818;-47.97929382324219;7.490945339202881;-133.3513946533203
269;1673388168.4340193;47.1296238;7.239274;49.90200424194336;1673388168.5653586;-47.674072265625;7.4937825202941895;-133.3494415283203
270;1673388168.6153424;47.1296094;7.2392541999999995;49.90500259399414;1673388168.7512128;-47.60196304321289;7.479127407073975;-133.3129425048828
271;1673388168.8089302;47.129595099999996;7.2392344;49.90700149536133;1673388168.963438;-47.683589935302734;7.431371688842773;-133.2457733154297
272;1673388169.0094266;47.1295807;7.2392147;49.91100311279297;1673388169.156349;-47.93178939819336;7.519103050231934;-133.22169494628906
273;1673388169.221251;47.129566399999995;7.239195;49.915000915527344;1673388169.3607218;-48.05583190917969;7.46256685256958;-133.1248016357422
274;1673388169.4218516;47.129552;7.2391752;49.91800308227539;1673388169.5562727;-47.90131378173828;7.250113010406494;-132.99905395507812
275;1673388169.6128762;47.1295377;7.2391555;49.922000885009766;1673388169.7645738;-47.893192291259766;7.283891677856445;-132.9803924560547
276;1673388169.8303049;47.1295234;7.239135699999999;49.928001403808594;1673388169.9618173;-47.856876373291016;7.090324878692627;-132.86187744140625
277;1673388170.023062;47.129509;7.2391159;49.93000411987305;1673388170.1867764;-47.81706237792969;7.047911643981934;-132.81117248535156
278;1673388170.2420273;47.129494699999995;7.239096;49.93300247192383;1673388170.3804667;-47.77617263793945;6.989283561706543;-132.72573852539062
279;1673388170.4324725;47.1294803;7.2390761999999995;49.93600082397461;1673388170.5876079;-47.81434631347656;6.856061935424805;-132.6240234375
280;1673388170.6447709;47.129466;7.2390564;49.939002990722656;1673388170.7811751;-47.80900955200195;6.861544132232666;-132.55409240722656
281;1673388170.8362107;47.129451599999996;7.2390365999999995;49.94700241088867;1673388170.9714024;-48.08396530151367;6.8423171043396;-132.44876098632812
282;1673388171.0469515;47.1294373;7.239016899999999;49.9530029296875;1673388171.1803803;-48.11005401611328;6.736266613006592;-132.275634765625
283;1673388171.2694178;47.129422899999994;7.2389971;49.95600128173828;1673388171.4026077;-47.77926254272461;6.942598342895508;-132.23348999023438
284;1673388171.4622238;47.1294085;7.238977299999999;49.95900344848633;1673388171.575871;-47.540462493896484;7.6416015625;-132.16490173339844
285;1673388171.6217544;47.1293941;7.2389575;49.9640007019043;1673388171.7694602;-47.451942443847656;9.317554473876953;-132.22854614257812
286;1673388171.8233175;47.129379899999996;7.2389376;49.97300338745117;1673388171.9636226;-48.214115142822266;8.200756072998047;-131.3716278076172
287;1673388172.0164802;47.129365799999995;7.2389176;49.98200225830078;1673388172.1592276;-48.72014617919922;7.354709625244141;-130.90921020507812
288;1673388172.2151475;47.129351799999995;7.2388974;49.987003326416016;1673388172.3601084;-48.092227935791016;7.697067737579346;-130.8140869140625
289;1673388172.415496;47.129337799999995;7.2388771;49.9900016784668;1673388172.560712;-47.24129867553711;8.241283416748047;-130.72259521484375
290;1673388172.6412556;47.129324;7.2388566;49.99100112915039;1673388172.8416848;-47.42265701293945;8.348444938659668;-130.4046630859375
291;1673388172.886828;47.1293102;7.2388362;49.996002197265625;1673388173.009255;-48.0775260925293;8.993278503417969;-130.28585815429688
292;1673388173.0576725;47.1292967;7.2388156;50.00400161743164;1673388173.1930077;-48.046546936035156;9.38702392578125;-129.94427490234375
293;1673388173.2473052;47.1292833;7.2387948;50.009002685546875;1673388173.3747842;-48.016029357910156;8.794185638427734;-129.39566040039062
294;1673388173.4304755;47.1292701;7.2387739;50.012001037597656;1673388173.5753124;-47.5606689453125;9.797295570373535;-129.4154815673828
295;1673388173.6591835;47.129256999999996;7.238752799999999;50.01700210571289;1673388173.8003538;-47.590824127197266;10.336767196655273;-129.2390899658203
296;1673388173.880117;47.1292441;7.2387315999999995;50.02400207519531;1673388174.016586;-46.11952209472656;10.08580207824707;-128.74676513671875
297;1673388174.066137;47.129231499999996;7.2387102;50.03600311279297;1673388174.1959329;-37.96449661254883;8.963972091674805;-128.4801025390625
298;1673388174.2619517;47.129219199999994;7.2386889;50.066001892089844;1673388174.423195;-25.813745498657227;11.175667762756348;-130.91970825195312
299;1673388174.4828577;47.1292074;7.2386687;50.09100341796875;1673388174.612257;-14.021590232849121;10.213105201721191;-132.2496337890625
300;1673388174.6646612;47.129196799999995;7.2386503;50.10200119018555;1673388174.7917018;-6.118226051330566;9.496593475341797;-133.0968017578125
301;1673388174.8465688;47.1291874;7.2386345;50.10300064086914;1673388174.9754229;-1.9112048149108887;10.895824432373047;-133.80850219726562
302;1673388175.037153;47.1291793;7.238621299999999;50.10400390625;1673388175.1734643;1.5466493368148804;11.938281059265137;-133.73426818847656
303;1673388175.2292986;47.129172499999996;7.2386108;50.10700225830078;1673388175.3579767;0.6304945945739746;14.515480041503906;-135.94781494140625
304;1673388175.4128156;47.129166999999995;7.2386028;50.11300277709961;1673388175.5507047;-1.0339794158935547;14.809950828552246;-137.29747009277344
305;1673388175.6094146;47.129162699999995;7.2385968;50.11900329589844;1673388175.7858455;-5.517400741577148;15.48276424407959;-135.9415283203125
306;1673388175.8425767;47.1291593;7.238592199999999;50.121002197265625;1673388175.988847;-11.294031143188477;14.511222839355469;-133.62149047851562
307;1673388176.0515451;47.1291569;7.2385886;50.11900329589844;1673388176.1828778;-15.907129287719727;13.460625648498535;-131.6599884033203
308;1673388176.2627108;47.129155;7.2385857;50.11900329589844;1673388176.4007478;-20.080591201782227;13.881570816040039;-131.56033325195312
309;1673388176.457124;47.1291535;7.2385829;50.12600326538086;1673388176.6042337;-40.12743377685547;12.114559173583984;-138.9618377685547
310;1673388176.6770198;47.1291517;7.2385796;50.195003509521484;1673388176.8123722;-40.399478912353516;10.054072380065918;-138.57272338867188
311;1673388176.864668;47.1291486;7.238574799999999;50.31100082397461;1673388177.0155056;-25.06374740600586;3.7129628658294678;-135.40086364746094
312;1673388177.093236;47.129144499999995;7.2385696;50.49400329589844;1673388177.2393892;-27.89231300354004;6.876154899597168;-134.5536651611328
313;1673388177.3037102;47.129139699999996;7.2385645;50.78200149536133;1673388177.414795;-44.49211502075195;10.37971305847168;-135.4678955078125
314;1673388177.475382;47.129134199999996;7.2385584;51.14600372314453;1673388177.6076975;-52.429054260253906;12.983659744262695;-135.25253295898438
315;1673388177.666833;47.129127399999994;7.2385503;51.522003173828125;1673388177.8220818;-48.117088317871094;11.259161949157715;-134.9102783203125
316;1673388177.873544;47.129119599999996;7.2385401;51.867000579833984;1673388178.0071876;-47.1143684387207;13.034120559692383;-134.55909729003906
317;1673388178.084726;47.129111099999996;7.2385284;52.19400405883789;1673388178.224673;-42.748905181884766;12.057589530944824;-134.7456512451172
318;1673388178.2925987;47.1291022;7.2385155;52.505001068115234;1673388178.4152105;-40.322296142578125;11.82546329498291;-135.2174835205078
319;1673388178.462621;47.129093;7.238501899999999;52.81500244140625;1673388178.5919726;-39.40629577636719;11.206331253051758;-135.68287658691406
320;1673388178.647182;47.129083699999995;7.2384879;53.134002685546875;1673388178.7860744;-38.15965270996094;10.978700637817383;-136.285400390625
321;1673388178.8370013;47.1290742;7.2384735;53.465003967285156;1673388178.9748747;-37.156158447265625;10.624171257019043;-136.71360778808594
322;1673388179.0494883;47.1290646;7.2384591;53.80600357055664;1673388179.1768885;-36.7255973815918;10.414236068725586;-136.9027557373047
323;1673388179.2347188;47.129055;7.238444899999999;54.15400314331055;1673388179.3637805;-36.392574310302734;10.349994659423828;-137.0175323486328
324;1673388179.4225664;47.1290452;7.238430699999999;54.51100158691406;1673388179.5660074;-36.17227554321289;10.468185424804688;-137.09361267089844
325;1673388179.629448;47.1290354;7.2384167999999995;54.875003814697266;1673388179.7743397;-36.27878189086914;10.673224449157715;-137.0520477294922
326;1673388179.833904;47.1290256;7.238403099999999;55.24500274658203;1673388179.9809299;-36.34796142578125;10.844558715820312;-137.01864624023438
327;1673388180.0427084;47.1290158;7.2383896;55.621002197265625;1673388180.2064962;-36.361328125;10.95171070098877;-136.9879913330078
328;1673388180.2665513;47.129006;7.2383761;56.00100326538086;1673388180.4383945;-36.47356414794922;11.201699256896973;-136.9512481689453
329;1673388180.4872315;47.128996199999996;7.2383627;56.38300323486328;1673388180.658121;-36.67236328125;11.341300964355469;-136.9595489501953
330;1673388180.7030458;47.128986399999995;7.238349299999999;56.768001556396484;1673388180.8846238;-36.70048141479492;11.280166625976562;-136.85787963867188
331;1673388180.9226897;47.128976599999994;7.2383359;57.15400314331055;1673388181.042634;-36.80678939819336;11.499650001525879;-136.8852996826172
332;1673388181.0994027;47.128966899999995;7.2383226;57.540000915527344;1673388181.2170482;-36.93225860595703;11.474054336547852;-136.82374572753906
333;1673388181.2722955;47.1289571;7.2383093;57.926002502441406;1673388181.4087207;-36.9820556640625;11.469831466674805;-136.81678771972656
334;1673388181.4629934;47.1289474;7.2382959;58.31300354003906;1673388181.5964534;-36.9110107421875;11.325966835021973;-136.80947875976562
335;1673388181.6537828;47.128937699999994;7.2382824;58.70000457763672;1673388181.789199;-36.91179656982422;11.340248107910156;-136.836181640625
336;1673388181.8451822;47.1289279;7.2382689;59.08400344848633;1673388181.9797716;-36.9743766784668;11.19083309173584;-136.82850646972656
337;1673388182.029726;47.1289182;7.2382554;59.467002868652344;1673388182.1693735;-36.93277359008789;11.196547508239746;-136.8334503173828
338;1673388182.22996;47.128908499999994;7.238241899999999;59.85200119018555;1673388182.3845246;-36.95957565307617;11.057788848876953;-136.82363891601562
339;1673388182.4381115;47.1288987;7.2382284;60.23600387573242;1673388182.6252363;-37.14016342163086;11.046231269836426;-136.84616088867188
340;1673388182.677001;47.128889;7.238214999999999;60.621002197265625;1673388182.8161094;-37.14958953857422;11.11306095123291;-136.83526611328125
341;1673388182.8645494;47.1288792;7.2382015;61.006004333496094;1673388182.998814;-37.13751220703125;11.077825546264648;-136.81732177734375
342;1673388183.0519326;47.1288694;7.2381880999999995;61.394004821777344;1673388183.1854398;-37.30352020263672;11.144859313964844;-136.83331298828125
343;1673388183.2441041;47.1288596;7.2381746;61.78300476074219;1673388183.393628;-37.250587463378906;11.189653396606445;-136.79893493652344
344;1673388183.4642463;47.1288498;7.238161099999999;62.177001953125;1673388183.5830457;-37.10319519042969;11.255534172058105;-136.79412841796875
345;1673388183.63407;47.12884;7.2381476;62.56900405883789;1673388183.8253386;-37.23069763183594;11.252656936645508;-136.82850646972656
346;1673388183.8968427;47.128830099999995;7.2381341;62.95900344848633;1673388184.008319;-37.109100341796875;11.227429389953613;-136.8050537109375
347;1673388184.053378;47.1288203;7.2381205;63.345001220703125;1673388184.182627;-37.01416778564453;11.24108600616455;-136.7867889404297
348;1673388184.2323878;47.1288104;7.2381069;63.73200225830078;1673388184.3721778;-36.98579406738281;11.237554550170898;-136.7691650390625
349;1673388184.4302971;47.1288005;7.2380933;64.11700439453125;1673388184.5752554;-37.02619552612305;11.257204055786133;-136.79183959960938
350;1673388184.633821;47.128790599999995;7.2380797999999995;64.5050048828125;1673388184.7648165;-37.0291633605957;11.267099380493164;-136.7766876220703
351;1673388184.815663;47.1287808;7.2380662;64.89400482177734;1673388184.9542322;-37.123592376708984;11.280116081237793;-136.79869079589844
352;1673388185.0141358;47.1287709;7.2380527;65.28500366210938;1673388185.1521254;-37.219642639160156;11.249595642089844;-136.77392578125
353;1673388185.2103198;47.1287611;7.238039199999999;65.68099975585938;1673388185.3553646;-37.16577911376953;11.29797077178955;-136.74765014648438
354;1673388185.415072;47.1287513;7.238025599999999;66.08000183105469;1673388185.5757942;-37.24604415893555;11.11436939239502;-136.73399353027344
355;1673388185.639234;47.128741399999996;7.2380121;66.47400665283203;1673388185.7758715;-37.064666748046875;11.227211952209473;-136.7721405029297
356;1673388185.8208559;47.128731599999995;7.2379985;66.86300659179688;1673388185.9588468;-37.2194938659668;11.186298370361328;-136.71099853515625
357;1673388186.018381;47.1287217;7.2379849;67.25200653076172;1673388186.1748834;-37.23858642578125;11.175285339355469;-136.76815795898438
358;1673388186.2315211;47.1287119;7.237971399999999;67.63899993896484;1673388186.368259;-37.188385009765625;11.093844413757324;-136.7322998046875
359;1673388186.4234898;47.1287021;7.237957799999999;68.0300064086914;1673388186.5576982;-37.35271072387695;11.16405200958252;-136.757080078125
360;1673388186.6153867;47.1286923;7.237944199999999;68.42200469970703;1673388186.7717485;-37.35662841796875;11.16236400604248;-136.74876403808594
361;1673388186.8266351;47.128682399999995;7.2379307;68.81500244140625;1673388186.9677114;-37.32622528076172;11.16325855255127;-136.6635284423828
362;1673388187.0283787;47.1286725;7.2379171;69.20700073242188;1673388187.1735523;-37.45964813232422;10.98121166229248;-136.68174743652344
363;1673388187.2282205;47.1286627;7.2379035;69.59600067138672;1673388187.3692427;-37.40516662597656;11.06612491607666;-136.7063751220703
364;1673388187.4295568;47.1286528;7.2378899;69.98600006103516;1673388187.568389;-34.696929931640625;11.322857856750488;-136.5747833251953
365;1673388187.6212456;47.128643;7.2378763;70.36900329589844;1673388187.7790601;-20.49001693725586;12.888588905334473;-135.91624450683594
366;1673388187.8374686;47.1286336;7.237863399999999;70.71700286865234;1673388187.9788733;-18.130815505981445;13.24223518371582;-136.60679626464844
367;1673388188.0406866;47.128625;7.2378516;71.0260009765625;1673388188.1977932;-12.65128231048584;14.01882266998291;-136.71929931640625
368;1673388188.2565084;47.1286172;7.2378409999999995;71.29000091552734;1673388188.4082549;-9.402949333190918;15.218345642089844;-136.93658447265625
369;1673388188.4656057;47.1286104;7.2378319;71.51000213623047;1673388188.6068177;-7.677895545959473;15.152321815490723;-136.54037475585938
370;1673388188.662035;47.1286048;7.2378241999999995;71.69499969482422;1673388188.7885716;-7.333606243133545;14.767441749572754;-136.4657440185547
371;1673388188.8344727;47.1286002;7.237817799999999;71.86100006103516;1673388188.970081;-8.274214744567871;14.194300651550293;-136.28970336914062
372;1673388189.024917;47.1285965;7.2378126;72.01300048828125;1673388189.1660595;-9.417972564697266;13.372456550598145;-136.22698974609375
373;1673388189.2276824;47.128593599999995;7.237808299999999;72.14800262451172;1673388189.3697405;-10.887480735778809;11.982995986938477;-136.40420532226562
374;1673388189.4260917;47.128591199999995;7.2378048999999995;72.27000427246094;1673388189.581374;-21.11071014404297;23.754531860351562;-134.69338989257812
375;1673388189.633122;47.128589299999994;7.2378016999999994;72.4010009765625;1673388189.764227;-28.266159057617188;39.481929779052734;-119.71480560302734
376;1673388189.8208733;47.1285884;7.2377972999999995;72.53400421142578;1673388189.9723823;-39.884674072265625;34.93329620361328;-108.80098724365234
377;1673388190.0346656;47.1285895;7.237791199999999;72.64800262451172;1673388190.1769643;-42.43666076660156;23.976301193237305;-97.55559539794922
378;1673388190.2306569;47.1285921;7.2377832;72.73900604248047;1673388190.3706641;-37.43559646606445;15.891438484191895;-88.91377258300781
379;1673388190.421434;47.1285959;7.2377742;72.79900360107422;1673388190.568335;-38.632720947265625;7.088919639587402;-80.94233703613281
380;1673388190.625055;47.128600299999995;7.2377648;72.84100341796875;1673388190.7991831;-41.55977249145508;4.449356555938721;-72.92019653320312
381;1673388190.855932;47.128605199999996;7.237755;72.8790054321289;1673388190.9897027;-50.967308044433594;6.219717979431152;-64.03651428222656
382;1673388191.0386486;47.128611;7.237744299999999;72.91600036621094;1673388191.1721938;-58.5933952331543;4.2428412437438965;-55.19871520996094
383;1673388191.2347977;47.1286184;7.2377322;72.95100402832031;1673388191.392027;-60.31539535522461;-0.20296820998191833;-46.6061897277832
384;1673388191.4527018;47.1286278;7.2377185;72.95700073242188;1673388191.5951104;-53.69707107543945;-7.243500709533691;-41.868160247802734
385;1673388191.6518269;47.128639;7.237703799999999;72.95000457763672;1673388191.7992654;-54.286155700683594;-7.38688850402832;-45.11573791503906
386;1673388191.8576024;47.1286512;7.2376884;72.95100402832031;1673388191.9967139;-54.38636016845703;-7.1862473487854;-46.86688995361328
387;1673388192.0516737;47.1286643;7.237672099999999;72.94499969482422;1673388192.1967657;-52.7164306640625;-8.816937446594238;-47.12228775024414
388;1673388192.2535512;47.1286778;7.2376549;72.93099975585938;1673388192.3868728;-49.764862060546875;-9.11640739440918;-47.764991760253906
389;1673388192.4347906;47.128691599999996;7.237636999999999;72.91800689697266;1673388192.573809;-49.64720916748047;-8.64146614074707;-48.29188537597656
390;1673388192.6412215;47.128705499999995;7.237618599999999;72.91300201416016;1673388192.7916121;-50.70667266845703;-8.454885482788086;-48.59004592895508
391;1673388192.8473513;47.1287194;7.2375995;72.90800476074219;1673388192.982876;-50.26162338256836;-7.878111362457275;-49.022674560546875
392;1673388193.0387158;47.1287333;7.2375799999999995;72.9020004272461;1673388193.1797082;-49.43669509887695;-7.967532157897949;-49.11198425292969
393;1673388193.2326083;47.1287473;7.2375601;72.89500427246094;1673388193.3780787;-48.572776794433594;-7.499155521392822;-49.41286849975586
394;1673388193.434245;47.1287613;7.2375400999999995;72.88899993896484;1673388193.5757856;-48.45734786987305;-6.996415615081787;-49.456886291503906
395;1673388193.630541;47.1287752;7.23752;72.88700103759766;1673388193.782123;-48.56830978393555;-7.1983256340026855;-49.332881927490234
396;1673388193.8381205;47.1287892;7.2374997;72.88700103759766;1673388193.9866126;-48.561302185058594;-7.395818710327148;-49.30254364013672
397;1673388194.0384004;47.128803;7.2374792999999995;72.88500213623047;1673388194.1652129;-48.37351608276367;-7.359447956085205;-49.36583709716797
398;1673388194.2187648;47.1288169;7.2374586999999995;72.88400268554688;1673388194.3805702;-48.17127990722656;-7.471454620361328;-49.342586517333984
399;1673388194.4364264;47.128830799999996;7.237438099999999;72.88500213623047;1673388194.6052823;-48.0508918762207;-7.693085670471191;-49.33147048950195
400;1673388194.6629345;47.128844699999995;7.237417499999999;72.88800048828125;1673388194.8009973;-48.1107292175293;-7.791358470916748;-49.35157775878906
401;1673388194.8701508;47.1288585;7.2373968;72.89200592041016;1673388195.0419323;-48.17909622192383;-7.913574695587158;-49.36876678466797
402;1673388195.1302397;47.128872199999996;7.2373761;72.89600372314453;1673388195.2555885;-47.53541946411133;-11.533089637756348;-51.992916107177734
403;1673388195.3024828;47.1288858;7.2373553;72.89500427246094;1673388195.4280157;-43.76998519897461;-5.813458442687988;-63.781551361083984
404;1673388195.478141;47.128898799999995;7.237334199999999;72.8790054321289;1673388195.5985448;-42.299461364746094;2.3966665267944336;-73.26376342773438
405;1673388195.6585257;47.128911099999996;7.2373132;72.86700439453125;1673388195.8064146;-32.72429656982422;14.265676498413086;-75.5787124633789
406;1673388195.8625188;47.128923;7.2372926;72.66500091552734;1673388196.0125196;-0.4913126230239868;19.446868896484375;-68.98893737792969
407;1673388196.0782573;47.128934699999995;7.2372724999999996;72.11000061035156;1673388196.1972277;50.834354400634766;32.19406509399414;-45.8873291015625
408;1673388196.2658386;47.1289461;7.237252799999999;71.16100311279297;1673388196.4197547;61.40692138671875;141.07138061523438;78.13936614990234
409;1673388196.5004804;47.1289575;7.2372328999999995;69.8280029296875;1673388196.6224291;28.017240524291992;152.10601806640625;107.54271697998047
410;1673388196.6737638;47.128968799999996;7.237213199999999;68.13200378417969;1673388196.8055859;16.617502212524414;138.2447052001953;110.23262786865234
411;1673388196.878642;47.1289799;7.237194;66.07300567626953;1673388197.011425;25.244943618774414;107.75039672851562;94.69633483886719
412;1673388197.0704713;47.1289908;7.2371754;63.66100311279297;1673388197.214504;18.782817840576172;49.92839050292969;47.95746612548828
413;1673388197.27161;47.1290018;7.2371571999999995;60.893001556396484;1673388197.409275;-28.56645965576172;10.821477890014648;15.317729949951172
414;1673388197.4612668;47.129013;7.237139099999999;57.71800231933594;1673388197.5964124;-68.37214660644531;2.28469181060791;-2.7688798904418945
415;1673388197.6455889;47.1290237;7.2371213999999995;54.1660041809082;1673388197.794048;-72.7319107055664;28.615230560302734;-30.65696144104004
416;1673388197.8525555;47.1290343;7.2371042;50.288002014160156;1673388198.0037532;-39.94913101196289;30.6131649017334;-13.298847198486328
417;1673388198.0623305;47.1290444;7.2370874;46.07600402832031;1673388198.204727;14.83423900604248;45.18446731567383;18.393157958984375
418;1673388198.257538;47.1290543;7.2370706;41.48400115966797;1673388198.3868747;49.12781524658203;85.069091796875;71.94221496582031
