;pos_time;latitude;longitude;altitude;alt_time;pitch;roll;yaw
0;1673375163.5427172;47.1306424;7.24062;-0.030000001192092896;1673375163.7273288;-0.13463200628757477;-0.4294953942298889;90.07244110107422
1;1673375163.740993;47.1306424;7.2406201;-0.02800000086426735;1673375163.9197793;-0.010623744688928127;-0.38111117482185364;90.16055297851562
2;1673375163.9383228;47.1306424;7.24062;-0.026000000536441803;1673375164.1201868;0.0553954541683197;-0.5584830641746521;89.91545867919922
3;1673375164.138728;47.1306424;7.24062;-0.027000000700354576;1673375164.3414063;-0.09999934583902359;-0.2475670725107193;90.10186004638672
4;1673375164.3570035;47.1306423;7.24062;-0.02800000086426735;1673375164.5380054;0.09848971664905548;-0.18878737092018127;90.22598266601562
5;1673375164.555698;47.1306423;7.24062;-0.026000000536441803;1673375164.7358265;0.06577866524457932;-0.2344314455986023;90.13121795654297
6;1673375164.7514138;47.1306423;7.24062;-0.027000000700354576;1673375164.9206877;0.25994178652763367;-0.2182847410440445;90.1100845336914
7;1673375164.937338;47.1306423;7.24062;-0.030000001192092896;1673375165.1276643;0.14420264959335327;-0.18724040687084198;89.91204071044922
8;1673375165.1442983;47.1306422;7.24062;-0.03500000014901161;1673375165.326056;0.11631502211093903;-0.26415592432022095;90.12157440185547
9;1673375165.3437645;47.1306422;7.2406201;-0.036000002175569534;1673375165.5217144;-0.03216168284416199;-0.27335965633392334;90.04447937011719
10;1673375165.5402868;47.1306422;7.2406201;-0.03500000014901161;1673375165.7307239;0.020872870460152626;-0.2538360059261322;90.01077270507812
11;1673375165.7474122;47.1306422;7.2406201;-0.03500000014901161;1673375165.9281101;-0.07850655168294907;-0.21559074521064758;89.97775268554688
12;1673375165.9456773;47.1306422;7.2406201;-0.03500000014901161;1673375166.1187975;-0.14895357191562653;-0.2502734065055847;90.031982421875
13;1673375166.1374738;47.1306422;7.2406201999999995;-0.03500000014901161;1673375166.341485;-0.22759464383125305;-0.12157183885574341;89.92675018310547
14;1673375166.355136;47.1306422;7.2406201999999995;-0.03500000014901161;1673375166.5416965;0.060251351445913315;-0.30326735973358154;90.05582427978516
15;1673375166.558287;47.1306422;7.2406201;0.0;1673375166.734398;0.07109521329402924;-0.2034396231174469;89.85649108886719
16;1673375166.750986;47.1306422;7.2406201;0.0010000000474974513;1673375166.9505792;-0.13806621730327606;-0.2423986792564392;89.98919677734375
17;1673375166.9798477;47.1306422;7.2406201;0.0010000000474974513;1673375167.159495;-0.04548896104097366;-0.15882544219493866;89.88990020751953
18;1673375167.1760874;47.1306422;7.2406201;0.0020000000949949026;1673375167.3544662;0.08360259234905243;-0.2922128438949585;89.91739654541016
19;1673375167.3689995;47.1306422;7.2406201;0.0;1673375167.5917907;0.09410680830478668;-0.09314902126789093;89.92525482177734
20;1673375167.606812;47.1306422;7.2406201;0.0;1673375167.7745106;0.14679501950740814;-0.5830028653144836;90.0345458984375
21;1673375167.789696;47.1306422;7.2406201999999995;-0.0020000000949949026;1673375167.9621737;0.04312746971845627;-0.044769663363695145;90.15924835205078
22;1673375167.9788227;47.1306422;7.2406203;-0.004000000189989805;1673375168.1624947;0.2290089726448059;0.1931585818529129;89.83074188232422
23;1673375168.179557;47.1306422;7.2406201999999995;0.0;1673375168.3556917;0.19808778166770935;-0.2762001156806946;90.1205062866211
24;1673375168.3723543;47.1306422;7.2406201999999995;-0.0020000000949949026;1673375168.581353;0.12366092950105667;0.1865784078836441;90.11700439453125
25;1673375168.5994246;47.1306422;7.2406201999999995;-0.0010000000474974513;1673375168.751739;0.015549271367490292;0.2316911816596985;90.05838775634766
26;1673375168.7666972;47.1306422;7.2406201999999995;0.003000000026077032;1673375168.9316254;0.02212175354361534;-0.5673027038574219;90.20700073242188
27;1673375168.950515;47.1306422;7.2406201999999995;0.010000000707805157;1673375169.1276345;0.12444701045751572;-0.31469032168388367;90.41207122802734
28;1673375169.1458673;47.1306423;7.2406201;0.015000000596046448;1673375169.325638;-0.0015063234604895115;-0.17772448062896729;90.3384780883789
29;1673375169.3445327;47.1306423;7.2406201;0.01600000075995922;1673375169.5135343;0.005171780474483967;-0.12817810475826263;90.147216796875
30;1673375169.5286696;47.1306423;7.2406201;0.015000000596046448;1673375169.7156131;-0.0017545480513945222;-0.10654424875974655;89.96465301513672
31;1673375169.734347;47.1306423;7.24062;0.014000000432133675;1673375169.9384236;0.1806485950946808;-0.1887352466583252;90.17832946777344
32;1673375169.9573498;47.1306423;7.24062;0.017000000923871994;1673375170.1544526;0.11488866060972214;0.3691368103027344;89.72308349609375
33;1673375170.171658;47.1306423;7.24062;0.018000001087784767;1673375170.3380673;0.20719477534294128;-0.1983107179403305;90.11280822753906
34;1673375170.3555498;47.1306423;7.2406201;0.02500000037252903;1673375170.5615566;0.272428423166275;-2.1815543174743652;90.19023895263672
35;1673375170.5785146;47.1306423;7.2406201;0.04200000315904617;1673375170.7585785;0.24522264301776886;-0.5602228045463562;90.19554901123047
36;1673375170.7757154;47.1306422;7.2406201;0.0820000022649765;1673375170.9495556;0.2547760605812073;1.829113483428955;89.90220642089844
37;1673375170.9726412;47.130642099999996;7.2406201;0.13600000739097595;1673375171.159985;0.5089418888092041;-2.5030972957611084;90.38863372802734
38;1673375171.1764507;47.1306422;7.2406201;0.21000000834465027;1673375171.352734;0.4690348207950592;-1.4806960821151733;90.20772552490234
39;1673375171.3679237;47.1306422;7.2406201;0.2970000207424164;1673375171.542897;0.4237475097179413;2.381977081298828;90.18644714355469
40;1673375171.5595436;47.1306422;7.2406201;0.3930000066757202;1673375171.7359912;0.30210986733436584;-1.703390121459961;90.34160614013672
41;1673375171.7526255;47.1306424;7.2406201;0.5060000419616699;1673375171.9294918;-0.11869152635335922;-1.8852375745773315;90.44527435302734
42;1673375171.9441402;47.1306425;7.2406201;0.6310000419616699;1673375172.1337206;-0.1760375052690506;2.968230724334717;89.98077392578125
43;1673375172.1512918;47.130642599999995;7.2406201;0.7670000195503235;1673375172.3361247;-0.2388126403093338;0.33186987042427063;90.03971862792969
44;1673375172.350761;47.130642599999995;7.2406201;0.921000063419342;1673375172.5305796;0.16156522929668427;-2.611254930496216;90.27698516845703
45;1673375172.5453002;47.130642599999995;7.2406201;1.0890001058578491;1673375172.7224011;0.7637573480606079;1.673172116279602;90.0138168334961
46;1673375172.7380128;47.1306424;7.2406201;1.2690000534057617;1673375172.923812;0.9686608910560608;0.6600163578987122;90.1057357788086
47;1673375172.9443452;47.1306424;7.2406201999999995;1.4580000638961792;1673375173.1223793;0.48035070300102234;-2.744452953338623;90.34547424316406
48;1673375173.138005;47.1306425;7.2406201999999995;1.6470000743865967;1673375173.3236535;-0.020572636276483536;0.9997377395629883;90.07676696777344
49;1673375173.3402357;47.1306424;7.2406201999999995;1.8380000591278076;1673375173.5278609;-0.13159619271755219;1.1420868635177612;89.75050354003906
50;1673375173.5493214;47.1306424;7.2406201999999995;2.0230000019073486;1673375173.7302415;-0.29960331320762634;-3.0556933879852295;90.06077575683594
51;1673375173.7439053;47.1306424;7.2406201;2.2120001316070557;1673375173.9347298;0.3159320652484894;-0.14267423748970032;90.03213500976562
52;1673375173.951152;47.1306423;7.2406201;2.4090001583099365;1673375174.1667635;0.5414990186691284;2.3590948581695557;90.15741729736328
53;1673375174.1833444;47.1306423;7.2406201;2.6080000400543213;1673375174.3905427;0.6979423761367798;-2.2226455211639404;90.31537628173828
54;1673375174.405248;47.1306424;7.2406201;2.8000001907348633;1673375174.5664227;0.49738892912864685;-0.4278317391872406;90.05343627929688
55;1673375174.5810535;47.1306424;7.2406201;2.994000196456909;1673375174.7562966;0.01720663346350193;2.5737624168395996;90.0197525024414
56;1673375174.7725978;47.1306424;7.2406201;3.186000108718872;1673375174.9549637;-0.4927462935447693;-1.6222048997879028;90.20467376708984
57;1673375174.9750292;47.1306424;7.2406201;3.382000207901001;1673375175.1263647;-0.21484510600566864;-1.6452438831329346;90.48191833496094
58;1673375175.1419883;47.1306422;7.24062;3.582000255584717;1673375175.314699;0.054312173277139664;1.9426320791244507;90.18436431884766
59;1673375175.3303268;47.130642099999996;7.24062;3.7810001373291016;1673375175.5208051;0.672812819480896;-1.5762269496917725;90.24099731445312
60;1673375175.5354452;47.130642099999996;7.24062;3.9840002059936523;1673375175.7279441;0.6453017592430115;-2.2554163932800293;90.2026138305664
61;1673375175.7474792;47.1306422;7.24062;4.190000057220459;1673375175.926535;0.42435693740844727;2.128329277038574;89.93376159667969
62;1673375175.9441202;47.130642099999996;7.2406201;4.394000053405762;1673375176.143872;0.24445608258247375;-0.4695398211479187;90.3614730834961
63;1673375176.1604602;47.130641999999995;7.2406201999999995;4.593000411987305;1673375176.340815;-0.2764663100242615;-3.6151630878448486;90.28471374511719
64;1673375176.3564405;47.1306419;7.2406201;4.795000076293945;1673375176.5314496;-0.15006639063358307;0.9352307319641113;90.15398406982422
65;1673375176.546089;47.1306418;7.2406201;5.0;1673375176.7349546;0.6514538526535034;0.07130859792232513;90.02012634277344
66;1673375176.7476408;47.1306419;7.2406201;5.206000328063965;1673375176.9197583;0.580342173576355;-2.9652438163757324;90.11641693115234
67;1673375176.9403002;47.130641999999995;7.2406201;5.4110002517700195;1673375177.1278012;0.5776927471160889;1.4164146184921265;90.0483627319336
68;1673375177.1473215;47.130641999999995;7.24062;5.615000247955322;1673375177.3309531;0.5589287281036377;1.247405767440796;90.11074829101562
69;1673375177.3465693;47.130642099999996;7.2406201;5.814000129699707;1673375177.5391707;0.03611697629094124;-2.92281174659729;90.44635772705078
70;1673375177.55481;47.130641999999995;7.24062;6.01800012588501;1673375177.7353647;-0.19396983087062836;-0.24468401074409485;90.05828857421875
71;1673375177.7568412;47.1306419;7.2406198999999996;6.2220001220703125;1673375177.9548612;-0.4590851068496704;1.886891484260559;89.94563293457031
72;1673375177.9717228;47.130641999999995;7.2406198999999996;6.428000450134277;1673375178.1618443;-0.2672945261001587;-2.567152976989746;90.21804809570312
73;1673375178.1946058;47.130642099999996;7.2406198999999996;6.629000186920166;1673375178.3667514;0.16494020819664001;-0.024284277111291885;90.24021911621094
74;1673375178.3877864;47.1306422;7.2406198999999996;6.837000370025635;1673375178.5633693;0.5342826843261719;2.072824478149414;90.18323516845703
75;1673375178.5776188;47.130642099999996;7.2406198999999996;7.0420002937316895;1673375178.8024862;0.5373284220695496;-2.3004543781280518;90.31776428222656
76;1673375178.8191233;47.130642099999996;7.2406198999999996;7.242000579833984;1673375178.9989197;0.1611080914735794;-1.5914393663406372;90.1689682006836
77;1673375179.0125887;47.130641999999995;7.24062;7.439000129699707;1673375179.203861;-0.08204787969589233;1.9373916387557983;89.92041015625
78;1673375179.2233632;47.130641999999995;7.24062;7.641000270843506;1673375179.4381883;-0.24637745320796967;-1.695030689239502;90.4059066772461
79;1673375179.4479482;47.130642099999996;7.2406201;7.8460001945495605;1673375179.6476312;-0.28840959072113037;-1.9406129121780396;90.3440170288086
80;1673375179.6583698;47.1306422;7.2406201;8.053000450134277;1673375179.8227713;0.36091348528862;2.6880640983581543;89.99779510498047
81;1673375179.8393493;47.130642099999996;7.2406201;8.255000114440918;1673375180.025318;0.8431670665740967;-1.0868180990219116;90.21697998046875
82;1673375180.0389814;47.130642099999996;7.2406201;8.455000877380371;1673375180.2183106;0.44063541293144226;-2.9541494846343994;90.06016540527344
83;1673375180.2418702;47.130641999999995;7.2406201999999995;8.655000686645508;1673375180.401825;0.2452162653207779;1.6193362474441528;90.03933715820312
84;1673375180.4193754;47.130641999999995;7.2406203;8.857000350952148;1673375180.630013;0.094394750893116;0.19805596768856049;90.04216766357422
85;1673375180.6433592;47.130642099999996;7.2406203;9.059000015258789;1673375180.8315487;-0.403047651052475;-2.5903055667877197;90.46875
86;1673375180.856071;47.1306422;7.2406204;9.26200008392334;1673375181.015612;-0.1700463443994522;2.356887102127075;90.0249252319336
87;1673375181.0292764;47.1306422;7.2406204;9.463000297546387;1673375181.2338767;0.15369148552417755;0.5457188487052917;90.1224136352539
88;1673375181.247537;47.1306422;7.2406204999999995;9.666000366210938;1673375181.4382474;0.7959291338920593;-3.118863821029663;90.30731964111328
89;1673375181.4558163;47.1306422;7.2406204999999995;9.86400032043457;1673375181.6436558;0.9129940271377563;0.9192960262298584;89.90251922607422
90;1673375181.6563416;47.1306422;7.2406206;10.062000274658203;1673375181.853242;0.4079749882221222;2.1256263256073;90.25833892822266
91;1673375181.862034;47.1306422;7.2406206;10.28700065612793;1673375182.0484543;-0.24342197179794312;-1.8855133056640625;90.54894256591797
92;1673375182.0689614;47.1306423;7.2406207;10.600000381469727;1673375182.2549407;0.1554894894361496;-1.2575123310089111;90.31304931640625
93;1673375182.2666016;47.1306423;7.2406207;10.964000701904297;1673375182.4457433;0.3406243622303009;2.3555843830108643;89.94554901123047
94;1673375182.4603844;47.1306422;7.2406207;11.35200023651123;1673375182.6515346;0.6846367120742798;-1.4019182920455933;90.10935974121094
95;1673375182.6632576;47.1306422;7.2406206;11.746000289916992;1673375182.8607762;0.7240652441978455;-2.3800599575042725;90.0422134399414
96;1673375182.8724718;47.130642099999996;7.2406206;12.144001007080078;1673375183.0557904;0.4163229167461395;1.7650575637817383;90.01251983642578
97;1673375183.0714478;47.130641999999995;7.2406206;12.54800033569336;1673375183.2225177;0.25532767176628113;-0.5851482152938843;90.28089904785156
98;1673375183.255994;47.130641999999995;7.2406206;12.952000617980957;1673375183.4265437;-0.21326524019241333;-2.619305372238159;90.28199768066406
99;1673375183.442151;47.130642099999996;7.2406206;13.356000900268555;1673375183.6326475;-0.021472353488206863;1.6553503274917603;90.09747314453125
100;1673375183.6550825;47.130641999999995;7.2406206;13.762001037597656;1673375183.846986;-0.0415184386074543;0.32152673602104187;89.990966796875
101;1673375183.8586972;47.130641999999995;7.2406206;14.169000625610352;1673375184.05505;0.06949996948242188;-2.9900996685028076;90.39290618896484
102;1673375184.0687053;47.130641999999995;7.2406206;14.574000358581543;1673375184.224667;0.24833917617797852;0.4866587817668915;90.20770263671875
103;1673375184.2422342;47.130641999999995;7.2406206;14.97900104522705;1673375184.4025154;0.49779221415519714;2.073904037475586;90.1147232055664
104;1673375184.419108;47.130641999999995;7.2406206;15.387001037597656;1673375184.5912406;0.6109755635261536;-2.1693735122680664;90.32060241699219
105;1673375184.6088006;47.1306422;7.2406206;15.795001029968262;1673375184.8113558;0.22870494425296783;-0.42342138290405273;90.1426010131836
106;1673375184.8250196;47.130642099999996;7.2406206;16.204999923706055;1673375185.0003493;0.019187066704034805;2.154250144958496;90.02500915527344
107;1673375185.017505;47.130642099999996;7.2406206;16.61400032043457;1673375185.2009628;-0.25419852137565613;-1.906557559967041;90.2023696899414
108;1673375185.2175539;47.130642099999996;7.2406204999999995;17.020000457763672;1673375185.3868434;-0.24488435685634613;-1.8017784357070923;90.35641479492188
109;1673375185.4044125;47.130641999999995;7.2406204999999995;17.429000854492188;1673375185.5911522;-0.05921582877635956;2.170368194580078;90.02108001708984
110;1673375185.623472;47.130641999999995;7.2406204;17.841001510620117;1673375185.7916057;0.4516926109790802;-1.0210316181182861;90.1303482055664
111;1673375185.807227;47.130642099999996;7.2406204999999995;18.255001068115234;1673375185.9870722;0.6124262809753418;-2.1910817623138428;90.1924057006836
112;1673375186.0017123;47.1306422;7.2406204999999995;18.666000366210938;1673375186.1846964;0.5936339497566223;2.2591991424560547;90.05883026123047
113;1673375186.2003734;47.130642099999996;7.2406204999999995;19.07400131225586;1673375186.3843799;0.37631142139434814;0.06458788365125656;90.18623352050781
114;1673375186.3990054;47.130642099999996;7.2406204999999995;19.48200035095215;1673375186.5619202;0.24356290698051453;-2.7990145683288574;90.22905731201172
115;1673375186.5755928;47.130642099999996;7.2406204;19.88300132751465;1673375186.77517;0.05314367637038231;0.9109130501747131;90.07736206054688
116;1673375186.7973483;47.1306422;7.2406204;20.28900146484375;1673375187.0030468;0.02089877612888813;1.39018976688385;89.9942626953125
117;1673375187.0182278;47.1306423;7.2406204;20.69300079345703;1673375187.2155008;0.14848409593105316;-2.505601644515991;90.3592758178711
118;1673375187.245011;47.1306424;7.2406203;21.097000122070312;1673375187.5396543;0.45231613516807556;0.8502300381660461;90.1203384399414
119;1673375187.5513651;47.1306424;7.2406201999999995;21.50200080871582;1673375187.7167604;0.419897198677063;2.1924190521240234;90.14608764648438
120;1673375187.7356362;47.1306423;7.2406201999999995;21.909000396728516;1673375187.9247286;0.6529135704040527;-2.160024642944336;90.23938751220703
121;1673375187.9393766;47.1306422;7.2406201;22.304000854492188;1673375188.1212432;0.20494548976421356;-1.5356954336166382;90.18482208251953
122;1673375188.1397839;47.130642099999996;7.2406201;22.702001571655273;1673375188.3238492;0.14407935738563538;1.4274096488952637;89.96629333496094
123;1673375188.3649628;47.130642099999996;7.24062;23.102001190185547;1673375188.556259;-0.22296276688575745;-0.1644311398267746;90.39881896972656
124;1673375188.571046;47.1306423;7.2406198999999996;23.50400161743164;1673375188.7248604;-0.5577257871627808;-2.114255666732788;90.41607666015625
125;1673375188.7473514;47.1306423;7.240619799999999;23.908000946044922;1673375188.9336221;-0.486015260219574;2.057027578353882;90.03915405273438
126;1673375188.9589965;47.1306423;7.240619799999999;24.310001373291016;1673375189.1458335;-0.2663060128688812;0.28528693318367004;89.98616027832031
127;1673375189.1800919;47.1306423;7.240619799999999;24.709001541137695;1673375189.3522103;0.12990164756774902;-2.8103225231170654;90.29492950439453
128;1673375189.36587;47.1306423;7.2406198999999996;25.101001739501953;1673375189.5625226;0.21042220294475555;1.112062692642212;90.1688003540039
129;1673375189.6115146;47.1306422;7.2406198999999996;25.494001388549805;1673375189.8082886;0.3593151569366455;1.4314614534378052;90.07818603515625
130;1673375189.8200011;47.1306424;7.24062;25.89000129699707;1673375190.0046828;0.3797137141227722;-1.9732164144515991;90.34693145751953
131;1673375190.0134535;47.1306425;7.24062;26.288002014160156;1673375190.1616032;0.14649561047554016;0.17127297818660736;90.1140365600586
132;1673375190.1811254;47.1306425;7.24062;26.692001342773438;1673375190.3542333;-0.10864019393920898;2.2519218921661377;90.06411743164062
133;1673375190.3649676;47.1306424;7.24062;27.090002059936523;1673375190.5311537;-0.20284977555274963;-2.545448064804077;90.36444091796875
134;1673375190.5440063;47.1306423;7.24062;27.48400115966797;1673375190.7307076;-0.14436104893684387;-0.6548506617546082;90.23509216308594
135;1673375190.748274;47.1306422;7.2406201;27.88300132751465;1673375190.9273162;0.26251569390296936;2.3050265312194824;90.04188537597656
136;1673375190.9419632;47.1306422;7.2406201;28.288002014160156;1673375191.1151085;0.37454289197921753;-1.6960874795913696;90.14922332763672
137;1673375191.12975;47.1306423;7.2406201;28.685001373291016;1673375191.305981;0.684686541557312;-1.4925435781478882;90.21804809570312
138;1673375191.3245394;47.1306423;7.2406201999999995;29.07900047302246;1673375191.5182;0.4106161296367645;2.300471067428589;90.00160217285156
139;1673375191.5308874;47.1306422;7.2406201999999995;29.47800064086914;1673375191.7097492;0.21559667587280273;-0.7157861590385437;90.36309814453125
140;1673375191.7243893;47.1306422;7.2406201999999995;29.878002166748047;1673375191.8910627;0.1926719844341278;-2.1365511417388916;90.31209564208984
141;1673375191.9072337;47.1306422;7.2406201999999995;30.273000717163086;1673375192.0948098;-0.10305073857307434;2.1081271171569824;90.0402603149414
142;1673375192.1113925;47.1306423;7.2406201;30.673002243041992;1673375192.2846944;-0.016833240166306496;0.466033011674881;90.07393646240234
143;1673375192.2989368;47.1306424;7.2406201;31.07000160217285;1673375192.482266;-0.08993260562419891;-2.285623073577881;90.37388610839844
144;1673375192.4994085;47.1306424;7.24062;31.47100067138672;1673375192.711307;0.1856309175491333;1.5854227542877197;90.15127563476562
145;1673375192.727092;47.1306423;7.24062;31.873001098632812;1673375192.897664;0.4308430850505829;1.4419198036193848;90.04615020751953
146;1673375192.9122956;47.1306422;7.24062;32.277000427246094;1673375193.1106052;0.5402650237083435;-2.900956153869629;90.19839477539062
147;1673375193.1282144;47.1306422;7.24062;32.677001953125;1673375193.3199618;0.10373827069997787;0.19224871695041656;90.02505493164062
148;1673375193.343386;47.1306422;7.2406198999999996;33.0780029296875;1673375193.5289702;-0.06283508241176605;1.6483700275421143;90.09618377685547
149;1673375193.543628;47.1306422;7.2406198999999996;33.48100280761719;1673375193.7136161;-0.2801657021045685;-1.4893038272857666;90.26549530029297
150;1673375193.7321594;47.1306423;7.2406198999999996;33.88100051879883;1673375193.9312115;-0.21099942922592163;-0.5779932737350464;90.22943115234375
151;1673375193.9458573;47.1306423;7.2406198999999996;34.27799987792969;1673375194.1342385;-0.07708563655614853;2.1206181049346924;89.98873901367188
152;1673375194.1508248;47.1306422;7.2406198999999996;34.67500305175781;1673375194.3826227;0.12689386308193207;-1.7564393281936646;90.23658752441406
153;1673375194.3963373;47.1306423;7.2406198999999996;35.07600021362305;1673375194.5555604;0.32647252082824707;-1.7940534353256226;90.21082305908203
154;1673375194.571205;47.1306423;7.2406198999999996;35.47500228881836;1673375194.7709777;0.2172904908657074;2.4664742946624756;90.02388000488281
155;1673375194.7836776;47.1306423;7.24062;35.880001068115234;1673375194.9481812;0.2842939794063568;-0.2654905915260315;90.36767578125
156;1673375194.9609344;47.1306424;7.24062;36.28700256347656;1673375195.146263;-0.06390731781721115;-2.096623420715332;90.25233459472656
157;1673375195.160938;47.1306425;7.2406201;36.694000244140625;1673375195.3456287;-0.29227614402770996;2.5003557205200195;89.89149475097656
158;1673375195.3720334;47.1306425;7.2406201;37.10200119018555;1673375195.5549374;-0.3794315457344055;0.6602088809013367;90.03025817871094
159;1673375195.5725477;47.1306425;7.2406201;37.505001068115234;1673375195.7368345;-0.22513866424560547;-2.540925979614258;90.38541412353516
160;1673375195.778949;47.1306425;7.2406201;37.900001525878906;1673375195.9855251;-0.04877065122127533;1.6239262819290161;90.14905548095703
161;1673375195.9991906;47.1306425;7.2406201;38.29900360107422;1673375196.1725407;0.23903392255306244;1.5506702661514282;90.1507797241211
162;1673375196.1862135;47.1306425;7.2406201999999995;38.70000076293945;1673375196.3895311;0.3378337621688843;-2.241572141647339;90.21027374267578
163;1673375196.4037468;47.130642599999995;7.2406201999999995;39.09700012207031;1673375196.548875;0.37291258573532104;0.5324249267578125;90.05944061279297
164;1673375196.562539;47.1306425;7.2406203;39.49700164794922;1673375196.77514;0.13921388983726501;1.9229973554611206;90.03838348388672
165;1673375196.7878857;47.1306424;7.2406203;39.8910026550293;1673375196.9539442;0.032587580382823944;-2.23531174659729;90.40608978271484
166;1673375196.9685926;47.1306424;7.2406203;40.28600311279297;1673375197.1385646;-0.2265220433473587;-0.7578578591346741;90.34581756591797
167;1673375197.15418;47.1306424;7.2406203;40.67900085449219;1673375197.3027651;-0.15758973360061646;2.856424331665039;89.87667083740234
168;1673375197.3174663;47.1306425;7.2406201999999995;41.0780029296875;1673375197.4773068;0.039568886160850525;-0.588311493396759;90.1214828491211
169;1673375197.4909794;47.130642599999995;7.2406201999999995;41.48200225830078;1673375197.6797564;0.33571237325668335;-1.5546941757202148;90.22509002685547
170;1673375197.6982994;47.1306425;7.2406201999999995;41.88600158691406;1673375197.9090588;0.40288519859313965;2.580115795135498;90.18946838378906
171;1673375197.9344351;47.1306424;7.2406201999999995;42.290000915527344;1673375198.1340046;0.3090659976005554;-0.6980191469192505;90.24346160888672
172;1673375198.174262;47.1306423;7.2406201999999995;42.69300079345703;1673375198.368731;0.22128532826900482;-2.240712881088257;90.28060913085938
173;1673375198.4004555;47.1306423;7.2406201999999995;43.0890007019043;1673375198.5503016;0.05512123554944992;1.9531859159469604;90.01145935058594
174;1673375198.562999;47.1306423;7.2406201999999995;43.48800277709961;1673375198.7460196;0.08595988154411316;0.34783533215522766;90.0555191040039
175;1673375198.7596838;47.1306424;7.2406201999999995;43.8900032043457;1673375198.9231768;-0.020663775503635406;-2.107090711593628;90.38790893554688
176;1673375198.9388003;47.1306425;7.2406201;44.288002014160156;1673375199.1105092;-0.056624360382556915;0.1857973337173462;90.1007080078125
177;1673375199.12629;47.1306424;7.24062;44.68600082397461;1673375199.3179877;-0.04358482360839844;2.297088861465454;89.9874267578125
178;1673375199.339006;47.1306423;7.24062;45.08400344848633;1673375199.5291653;0.06324025243520737;-1.4385987520217896;90.28145599365234
179;1673375199.5428226;47.1306423;7.24062;45.48400115966797;1673375199.7159781;0.3839923143386841;-1.8277907371520996;90.26485443115234
180;1673375199.7335598;47.1306423;7.24062;45.87700271606445;1673375199.8912914;0.2737143337726593;2.4958322048187256;90.00215148925781
181;1673375199.9089074;47.1306423;7.24062;46.26900100708008;1673375200.0896533;0.013914408162236214;0.14808659255504608;90.30142974853516
182;1673375200.114438;47.1306424;7.24062;46.669002532958984;1673375200.3107343;-0.30024203658103943;-1.946763038635254;90.3058853149414
183;1673375200.3341699;47.1306424;7.2406198999999996;47.073001861572266;1673375200.5280988;-0.44038182497024536;1.9868823289871216;90.02324676513672
184;1673375200.5476193;47.1306423;7.2406198999999996;47.474002838134766;1673375200.7351232;-0.5454901456832886;0.887576162815094;89.92072296142578
185;1673375200.7507405;47.1306422;7.2406198999999996;47.874000549316406;1673375200.931496;-0.0873015820980072;-3.9232890605926514;90.45360565185547
186;1673375200.949064;47.1306422;7.2406198999999996;48.24100112915039;1673375201.1415918;-0.1999356597661972;1.7411049604415894;90.17822265625
187;1673375201.158198;47.130642099999996;7.2406198999999996;48.55900192260742;1673375201.3185937;-0.006465013604611158;0.8021700978279114;90.21871948242188
188;1673375201.3343678;47.1306422;7.2406198999999996;48.83000183105469;1673375201.5267339;-0.1463843435049057;-2.2783870697021484;90.32899475097656
189;1673375201.543333;47.1306423;7.24062;49.06500244140625;1673375201.7095556;-0.06716814637184143;1.377876877784729;90.13407135009766
190;1673375201.726133;47.1306422;7.24062;49.25800323486328;1673375201.9043744;10.088576316833496;11.464134216308594;91.37118530273438
191;1673375201.9278395;47.130642099999996;7.2406198999999996;49.42000198364258;1673375202.106358;25.364347457885742;30.991596221923828;102.7717514038086
192;1673375202.1259096;47.130641499999996;7.2406187;49.564002990722656;1673375202.3022592;29.416881561279297;47.214141845703125;113.88484191894531
193;1673375202.3198662;47.130639099999996;7.2406147;49.68400192260742;1673375202.501988;22.370197296142578;56.993003845214844;121.91204071044922
194;1673375202.5201893;47.1306344;7.240607;49.77900314331055;1673375202.689611;4.002843379974365;60.59339141845703;132.34832763671875
195;1673375202.7023015;47.130627;7.2405957;49.842002868652344;1673375202.9052942;-14.933538436889648;57.50992202758789;143.03163146972656
196;1673375202.921456;47.1306173;7.2405811;49.87900161743164;1673375203.1072867;-28.815706253051758;51.235286712646484;154.57310485839844
197;1673375203.1249309;47.130605499999994;7.240563799999999;49.89200210571289;1673375203.316695;-38.561622619628906;44.27235794067383;166.5132598876953
198;1673375203.3324416;47.1305921;7.2405444999999995;49.88200378417969;1673375203.531801;-46.2700080871582;40.153648376464844;177.5783233642578
199;1673375203.5493727;47.1305773;7.2405232999999996;49.86100387573242;1673375203.7291627;-46.6169548034668;29.43878936767578;-171.42852783203125
200;1673375203.7457547;47.1305615;7.240500399999999;49.81500244140625;1673375203.9244242;-44.115657806396484;22.637056350708008;-165.5572967529297
201;1673375203.9390993;47.1305449;7.2404763;49.74700164794922;1673375204.1348343;-45.16970443725586;17.591934204101562;-159.3462371826172
202;1673375204.1514847;47.130527799999996;7.2404516999999995;49.68300247192383;1673375204.3325388;-45.45086669921875;12.471090316772461;-151.37344360351562
203;1673375204.3491275;47.1305105;7.2404265;49.634002685546875;1673375204.5237184;-46.0216064453125;8.599268913269043;-144.0465545654297
204;1673375204.5374281;47.1304929;7.240400999999999;49.592002868652344;1673375204.7652414;-45.827415466308594;4.581555366516113;-137.2443389892578
205;1673375204.803616;47.1304753;7.2403751;49.577003479003906;1673375204.973382;-47.46109390258789;-2.836712598800659;-131.2331085205078
206;1673375204.99095;47.130457799999995;7.2403489;49.57600402832031;1673375205.171741;-47.6002082824707;-6.883666038513184;-132.3443145751953
207;1673375205.1854365;47.1304401;7.2403224999999996;49.583003997802734;1673375205.3639796;-47.042884826660156;-5.60327672958374;-135.45689392089844
208;1673375205.379594;47.130421999999996;7.2402964;49.595001220703125;1673375205.565562;-48.09811782836914;-4.861605167388916;-136.54397583007812
209;1673375205.5891433;47.1304034;7.240270499999999;49.612003326416016;1673375205.7582617;-47.92961883544922;-2.9995362758636475;-137.67330932617188
210;1673375205.7777808;47.1303845;7.240245;49.63600158691406;1673375205.958775;-48.428123474121094;-1.4115912914276123;-138.28211975097656
211;1673375205.9802577;47.1303653;7.2402197;49.663002014160156;1673375206.1914883;-48.812538146972656;-0.3872683346271515;-138.56292724609375
212;1673375206.2051618;47.130345899999995;7.240194499999999;49.68300247192383;1673375206.361398;-48.933963775634766;0.37138259410858154;-138.67466735839844
213;1673375206.388725;47.1303263;7.2401691999999995;49.704002380371094;1673375206.563694;-48.72250747680664;0.632855236530304;-138.5426025390625
214;1673375206.5793142;47.130306499999996;7.2401436;49.72200393676758;1673375206.7828174;-48.19517135620117;0.6536909937858582;-138.32138061523438
215;1673375206.7984695;47.1302866;7.2401178999999996;49.742000579833984;1673375206.978305;-47.98872375488281;0.6247300505638123;-138.1111297607422
216;1673375206.990994;47.1302668;7.240092199999999;49.759002685546875;1673375207.1883442;-47.96796417236328;0.4327246844768524;-137.87802124023438
217;1673375207.2010322;47.130247;7.2400663;49.772003173828125;1673375207.3746462;-47.883724212646484;0.3501139283180237;-137.73025512695312
218;1673375207.3883805;47.1302272;7.2400402999999995;49.78300094604492;1673375207.557722;-47.822566986083984;0.25006920099258423;-137.5592498779297
219;1673375207.57143;47.1302075;7.2400142999999995;49.785003662109375;1673375207.769574;-47.59995651245117;0.26294127106666565;-137.4819793701172
220;1673375207.7822623;47.1301877;7.239988299999999;49.79300308227539;1673375207.9636357;-47.76480484008789;0.1853834092617035;-137.36512756347656
221;1673375207.9792523;47.1301681;7.2399621;49.80600357055664;1673375208.1369722;-48.19731903076172;0.11579415202140808;-137.28382873535156
222;1673375208.1516092;47.130148399999996;7.239935999999999;49.81500244140625;1673375208.3185754;-48.29163360595703;0.07056145370006561;-137.2229766845703
223;1673375208.3332183;47.1301288;7.2399097;49.82600402832031;1673375208.5420554;-48.38678741455078;0.09851913154125214;-137.2082977294922
224;1673375208.5566976;47.1301091;7.2398834;49.840003967285156;1673375208.7363243;-48.25728225708008;0.04981685057282448;-137.12416076660156
225;1673375208.749989;47.130089399999996;7.239857;49.84300231933594;1673375208.9426856;-47.896339416503906;0.030813442543148994;-137.09423828125
226;1673375208.9563866;47.1300698;7.2398305;49.85000228881836;1673375209.1652594;-48.029075622558594;0.011012505739927292;-137.06155395507812
227;1673375209.1925876;47.1300501;7.2398039999999995;49.85300064086914;1673375209.3916438;-48.009159088134766;0.06043947488069534;-137.0416259765625
228;1673375209.4062853;47.130030399999995;7.2397773999999995;49.855003356933594;1673375209.5832124;-47.84673309326172;0.03537904471158981;-136.99949645996094
229;1673375209.5968754;47.1300108;7.2397509;49.85300064086914;1673375209.8016667;-47.80409622192383;0.03869305178523064;-136.9842071533203
230;1673375209.8143923;47.1299912;7.2397243;49.85200119018555;1673375209.9535837;-47.9509391784668;0.07376372069120407;-136.9701690673828
231;1673375209.9662638;47.1299716;7.2396978;49.849002838134766;1673375210.1157591;-47.8549919128418;0.036646872758865356;-136.94873046875
232;1673375210.1304905;47.129951999999996;7.2396712;49.84400177001953;1673375210.299035;-47.86665344238281;0.04811159521341324;-136.9719696044922
233;1673375210.3137388;47.129932499999995;7.2396446;49.84700393676758;1673375210.4888792;-48.149383544921875;-0.04141473397612572;-136.9241180419922
234;1673375210.5044947;47.1299129;7.2396179;49.855003356933594;1673375210.6822922;-48.50137710571289;-0.009246393106877804;-136.9216766357422
235;1673375210.6988864;47.1298933;7.2395912;49.862003326416016;1673375210.8796852;-48.54915237426758;-0.040528554469347;-136.9088592529297
236;1673375210.897252;47.1298737;7.2395644;49.87000274658203;1673375211.0800142;-48.35762023925781;-0.08091898262500763;-136.900634765625
237;1673375211.0956287;47.129854099999996;7.2395377;49.87600326538086;1673375211.2804973;-48.06206130981445;-0.09135279059410095;-136.89376831054688
238;1673375211.2990417;47.129834599999995;7.2395109;49.87600326538086;1673375211.4798906;-47.98585891723633;-0.03419104963541031;-136.9337921142578
239;1673375211.4965954;47.129815;7.239484099999999;49.87700271606445;1673375211.6724904;-48.00960922241211;-0.026108140125870705;-136.91015625
240;1673375211.6890712;47.1297954;7.2394574;49.880001068115234;1673375211.8727522;-48.08052062988281;0.034131236374378204;-136.93006896972656
241;1673375211.8893614;47.1297758;7.2394305;49.88100051879883;1673375212.2084737;-47.9873161315918;-0.02357621304690838;-136.91969299316406
242;1673375212.2201967;47.129756199999996;7.2394036999999996;49.88300323486328;1673375212.4272513;-47.82407760620117;-0.04481932520866394;-136.89605712890625
243;1673375212.4399397;47.1297366;7.2393769;49.88600158691406;1673375212.6146824;-48.016326904296875;-0.059891391545534134;-136.91539001464844
244;1673375212.6269317;47.129717;7.23935;49.8910026550293;1673375212.818487;-48.113929748535156;-0.018644483759999275;-136.9169464111328
245;1673375212.8361387;47.1296975;7.239323199999999;49.89400100708008;1673375212.9909797;-48.1480712890625;-0.0759430080652237;-136.89794921875
246;1673375213.0046427;47.1296779;7.2392962999999995;49.897003173828125;1673375213.219406;-48.05712890625;-0.05556514859199524;-136.9212646484375
247;1673375213.2322097;47.1296584;7.2392695;49.89800262451172;1673375213.387998;-47.97444534301758;-0.042587801814079285;-136.91238403320312
248;1673375213.4036276;47.129638799999995;7.239242699999999;49.900001525878906;1673375213.5716982;-47.9237174987793;-0.06960200518369675;-136.90553283691406
249;1673375213.588291;47.129619299999995;7.2392159;49.89900207519531;1673375213.7573473;-47.92311477661133;0.032597772777080536;-136.96441650390625
250;1673375213.7740867;47.1295997;7.2391891;49.9010009765625;1673375214.0261884;-47.99711608886719;-0.08609085530042648;-136.91091918945312
251;1673375214.0355532;47.1295802;7.2391622;49.90300369262695;1673375214.2132704;-48.05854034423828;-0.050122424960136414;-136.947998046875
252;1673375214.2333398;47.1295606;7.239135399999999;49.90700149536133;1673375214.401859;-48.007293701171875;-0.018075034022331238;-136.9263916015625
253;1673375214.4233477;47.129540999999996;7.2391086;49.910003662109375;1673375214.5953398;-47.960968017578125;-0.007881928235292435;-136.9349822998047
254;1673375214.61001;47.129521499999996;7.239081799999999;49.91100311279297;1673375214.7752893;-47.83982849121094;-0.04718868061900139;-136.92420959472656
255;1673375214.7967556;47.1295019;7.239055;49.91400146484375;1673375214.999272;-47.83444595336914;-0.00504168588668108;-136.93885803222656
256;1673375215.0148969;47.1294824;7.2390281;49.9170036315918;1673375215.2451773;-47.8219108581543;-0.01016485970467329;-136.9365234375
257;1673375215.2569368;47.1294629;7.2390013;49.92100143432617;1673375215.4363682;-47.87678909301758;-0.08382607996463776;-136.90939331054688
258;1673375215.4480817;47.1294433;7.2389744;49.927001953125;1673375215.5938797;-47.98544692993164;-0.37891656160354614;-136.8477325439453
259;1673375215.6075234;47.1294238;7.2389475999999995;49.932003021240234;1673375215.7722707;-48.31063461303711;1.0249499082565308;-137.28952026367188
260;1673375215.7860494;47.129404199999996;7.2389206999999995;49.939002990722656;1673375215.97833;-47.82183837890625;-0.19784489274024963;-136.7607421875
261;1673375215.9988935;47.129384599999995;7.2388939;49.94200134277344;1673375216.198798;-47.436614990234375;-0.4730823040008545;-136.82020568847656
262;1673375216.2153904;47.1293651;7.238867099999999;49.945003509521484;1673375216.3844557;-47.90589141845703;-0.2488234043121338;-136.8539276123047
263;1673375216.4000716;47.1293455;7.2388403;49.954002380371094;1673375216.5664084;-48.26095962524414;-0.34595704078674316;-136.86337280273438
264;1673375216.5839427;47.129326;7.2388135;49.9640007019043;1673375216.7519977;-48.4127197265625;-0.05895482748746872;-136.95872497558594
265;1673375216.7666237;47.1293064;7.2387866999999995;49.97300338745117;1673375216.9562063;-42.2216796875;-0.33074307441711426;-136.7556610107422
266;1673375216.9768546;47.129286699999994;7.2387599;49.99400329589844;1673375217.1721747;-30.46116065979004;0.10099611431360245;-136.6514434814453
267;1673375217.1926954;47.1292675;7.2387336;50.02700424194336;1673375217.3662431;-13.063788414001465;0.6816403269767761;-136.66331481933594
268;1673375217.3811812;47.129249099999996;7.2387087;50.04600143432617;1673375217.5577939;0.6488409638404846;0.6258229613304138;-136.32879638671875
269;1673375217.5705273;47.1292323;7.2386858;50.05000305175781;1673375217.751202;9.355290412902832;0.7427552938461304;-136.259033203125
270;1673375217.7668173;47.1292178;7.238665999999999;50.040000915527344;1673375217.942479;14.5399808883667;2.9770567417144775;-137.03790283203125
271;1673375217.9590774;47.1292055;7.2386491;50.01700210571289;1673375218.1342149;21.31768798828125;0.8786194324493408;-136.66705322265625
272;1673375218.1478972;47.1291953;7.2386354;49.9640007019043;1673375218.3343666;17.94072151184082;2.9110963344573975;-137.49850463867188
273;1673375218.3548684;47.1291872;7.2386244;49.88200378417969;1673375218.5317986;15.335689544677734;-1.177479863166809;-136.05006408691406
274;1673375218.5547934;47.129180999999996;7.2386159;49.810001373291016;1673375218.7598562;6.918498516082764;0.9731887578964233;-136.7826690673828
275;1673375218.7814846;47.1291766;7.238609299999999;49.77000045776367;1673375218.9627972;-0.3826480805873871;-0.49354633688926697;-137.46014404296875
276;1673375218.9793897;47.1291732;7.238603899999999;49.75300216674805;1673375219.1655443;-7.1867756843566895;1.1774338483810425;-137.64166259765625
277;1673375219.1840866;47.1291704;7.2385991999999995;49.7650032043457;1673375219.4003315;-9.81796646118164;2.3839569091796875;-137.65621948242188
278;1673375219.4149568;47.1291675;7.2385950999999995;49.801002502441406;1673375219.5999436;-8.612921714782715;0.5619099140167236;-138.04147338867188
279;1673375219.614674;47.1291647;7.2385911;49.858001708984375;1673375219.799413;-7.50576114654541;-0.9881444573402405;-138.1485137939453
280;1673375219.8120935;47.1291617;7.238587;49.919002532958984;1673375220.0075252;-6.014252662658691;-2.2438275814056396;-137.8897705078125
281;1673375220.0192397;47.1291588;7.238582999999999;49.96900177001953;1673375220.1846008;-5.310740947723389;-2.378816843032837;-137.4699249267578
282;1673375220.200232;47.129156099999996;7.238579199999999;50.01100158691406;1673375220.3713686;-20.2418155670166;0.270063191652298;-137.38253784179688
283;1673375220.3938153;47.1291533;7.238575399999999;50.07100296020508;1673375220.5666792;-25.645793914794922;0.9514569044113159;-137.24716186523438
284;1673375220.5901027;47.129149999999996;7.2385711;50.15300369262695;1673375220.7551825;-16.377262115478516;2.1089675426483154;-137.98919677734375
285;1673375220.7815342;47.1291459;7.238565899999999;50.28900146484375;1673375220.9505637;-15.940287590026855;2.7351315021514893;-138.08926391601562
286;1673375220.9671376;47.129141399999995;7.238560199999999;50.50700378417969;1673375221.166575;-16.37689208984375;2.226454019546509;-137.41712951660156
287;1673375221.184191;47.1291367;7.2385541;50.79900360107422;1673375221.3519523;-34.69991683959961;0.6889860033988953;-137.7084503173828
288;1673375221.3656154;47.1291315;7.2385471;51.138004302978516;1673375221.5511787;-45.781105041503906;-2.5644214153289795;-136.99929809570312
289;1673375221.5648394;47.1291252;7.2385383;51.49700164794922;1673375221.7612274;-41.887855529785156;-1.1788960695266724;-136.09571838378906
290;1673375221.7778287;47.129117199999996;7.2385272;51.86100387573242;1673375221.9441204;-37.7677116394043;-0.8548083305358887;-136.3961639404297
291;1673375221.9607208;47.129108099999996;7.238514599999999;52.21800231933594;1673375222.133419;-32.935508728027344;0.787472665309906;-136.96810913085938
292;1673375222.1490335;47.1290984;7.238500999999999;52.56900405883789;1673375222.324499;-29.053604125976562;1.2309460639953613;-137.06204223632812
293;1673375222.3391385;47.1290882;7.2384867999999996;52.9170036315918;1673375222.5187566;-26.352100372314453;1.7821238040924072;-137.1621856689453
294;1673375222.5353777;47.1290778;7.238472499999999;53.26900100708008;1673375222.7191017;-24.56722640991211;0.5189613699913025;-136.98443603515625
295;1673375222.7440479;47.1290674;7.2384583;53.62900161743164;1673375222.9539595;-23.6640682220459;-1.1621358394622803;-136.50807189941406
296;1673375222.9764092;47.1290572;7.2384442;53.993003845214844;1673375223.1590571;-23.377304077148438;-1.903624415397644;-136.9060516357422
297;1673375223.1805365;47.1290471;7.2384302;54.36100387573242;1673375223.358263;-23.493932723999023;-0.6018431782722473;-137.62667846679688
298;1673375223.3739574;47.1290372;7.238416399999999;54.7390022277832;1673375223.568273;-23.901649475097656;0.7091226577758789;-137.9723663330078
299;1673375223.5850005;47.1290274;7.238402799999999;55.12000274658203;1673375223.790177;-24.571584701538086;1.6141899824142456;-138.0872802734375
300;1673375223.814823;47.1290177;7.2383893;55.50200271606445;1673375223.989307;-25.426298141479492;2.448094367980957;-138.12844848632812
301;1673375224.0068724;47.129008;7.2383758;55.88600158691406;1673375224.1889672;-26.019763946533203;2.3970229625701904;-138.0046844482422
302;1673375224.2065866;47.1289983;7.2383624;56.27300262451172;1673375224.387673;-26.59026336669922;1.3635040521621704;-137.70164489746094
303;1673375224.4081678;47.1289886;7.2383489999999995;56.66100311279297;1673375224.57527;-26.619691848754883;-0.6139559745788574;-137.1479034423828
304;1673375224.5910404;47.1289789;7.2383355;57.05000305175781;1673375224.7547638;-26.429441452026367;-1.7246227264404297;-137.03338623046875
305;1673375224.7703807;47.1289692;7.2383219;57.441001892089844;1673375224.949415;-26.43922996520996;-2.470797300338745;-136.9679412841797
306;1673375224.963082;47.1289594;7.2383083;57.83400344848633;1673375225.1411922;-26.12863540649414;-1.5123862028121948;-137.26625061035156
307;1673375225.1603615;47.1289496;7.2382947;58.22700119018555;1673375225.3361056;-26.002634048461914;0.12399750202894211;-137.5879669189453
308;1673375225.3517988;47.1289398;7.238281199999999;58.61900329589844;1673375225.5232582;-25.932939529418945;1.4527565240859985;-137.8636932373047
309;1673375225.5388863;47.128929899999996;7.2382678;59.00700378417969;1673375225.713881;-26.117475509643555;2.6708555221557617;-138.14849853515625
310;1673375225.7305048;47.12892;7.2382545;59.39500427246094;1673375225.9158847;-26.252525329589844;2.6837589740753174;-138.0733184814453
311;1673375225.9402862;47.12891;7.2382411;59.788002014160156;1673375226.1426916;-26.19389533996582;2.427804708480835;-137.76849365234375
312;1673375226.1725173;47.128899999999994;7.2382276999999995;60.18000411987305;1673375226.37265;-26.371631622314453;1.6682016849517822;-137.60951232910156
313;1673375226.3892243;47.1288901;7.2382142;60.57500457763672;1673375226.562109;-26.348966598510742;0.7773229479789734;-137.3231201171875
314;1673375226.5787008;47.128880099999996;7.238200699999999;60.971004486083984;1673375226.7596226;-26.349069595336914;-0.513936460018158;-136.9740753173828
315;1673375226.7850633;47.128870199999994;7.238187099999999;61.36300277709961;1673375226.9945385;-26.377113342285156;-1.4769788980484009;-136.94912719726562
316;1673375227.0082529;47.1288603;7.2381734;61.75300216674805;1673375227.183905;-26.435714721679688;-1.77017080783844;-136.76612854003906
317;1673375227.200496;47.128850299999996;7.2381598;62.14600372314453;1673375227.3736024;-26.38162612915039;-1.986474633216858;-136.77896118164062
318;1673375227.396181;47.1288404;7.2381459999999995;62.53900146484375;1673375227.5868068;-26.371501922607422;-1.7489567995071411;-136.9348907470703
319;1673375227.6053524;47.1288305;7.238132299999999;62.93700408935547;1673375227.7835107;-26.4152774810791;-1.3795249462127686;-136.87257385253906
320;1673375227.806934;47.1288206;7.2381186;63.333003997802734;1673375227.9906123;-26.424467086791992;-0.40910694003105164;-137.29776000976562
321;1673375228.0083387;47.128810699999995;7.238105;63.72900390625;1673375228.1835504;-26.298341751098633;0.5115399956703186;-137.4293975830078
322;1673375228.1991673;47.1288008;7.2380914;64.12100219726562;1673375228.3750656;-26.45530128479004;1.1948881149291992;-137.4217529296875
323;1673375228.3907154;47.1287908;7.2380778999999995;64.51399993896484;1673375228.5678546;-26.589860916137695;1.7868571281433105;-137.47042846679688
324;1673375228.6167827;47.1287807;7.2380644;64.90299987792969;1673375228.7879944;-26.7420711517334;2.0948495864868164;-137.44505310058594
325;1673375228.8115623;47.1287707;7.238050899999999;65.29600524902344;1673375228.9864545;-26.78493309020996;1.9077826738357544;-137.23977661132812
326;1673375229.0030458;47.1287606;7.2380374;65.68900299072266;1673375229.200645;-26.85486602783203;1.7041913270950317;-137.09266662597656
327;1673375229.2193222;47.1287506;7.2380238;66.08300018310547;1673375229.3981516;-26.623422622680664;1.0050824880599976;-136.91175842285156
328;1673375229.4186492;47.1287406;7.2380102;66.4729995727539;1673375229.594583;-26.84649085998535;1.2244715690612793;-136.9536895751953
329;1673375229.6102476;47.1287307;7.2379964999999995;66.86400604248047;1673375229.8143315;-26.864717483520508;0.7493553757667542;-136.96620178222656
330;1673375229.8597984;47.128720699999995;7.2379827;67.25800323486328;1673375230.033193;-26.870689392089844;0.026426883414387703;-136.8026580810547
331;1673375230.0479805;47.1287108;7.237968899999999;67.6500015258789;1673375230.2319531;-26.883747100830078;-0.16620606184005737;-136.782958984375
332;1673375230.2446482;47.1287009;7.2379549999999995;68.04500579833984;1673375230.4144256;-26.771902084350586;-0.32520782947540283;-136.7308349609375
333;1673375230.438859;47.128690999999996;7.2379412;68.44400024414062;1673375230.6650777;-26.79076385498047;-0.5517285466194153;-136.67898559570312
334;1673375230.6738732;47.128681;7.237927399999999;68.84400177001953;1673375230.8316054;-26.753650665283203;-0.7703773379325867;-136.6375732421875
335;1673375230.8433433;47.128671;7.2379136;69.24200439453125;1673375231.0654435;-26.731924057006836;-0.9797574877738953;-136.6426239013672
336;1673375231.0771537;47.128661;7.2378998999999995;69.64100646972656;1673375231.2165165;-26.974061965942383;-0.9718055725097656;-136.69393920898438
337;1673375231.22822;47.1286509;7.237886199999999;70.04100036621094;1673375231.3956628;-15.432235717773438;-0.5414717793464661;-136.76312255859375
338;1673375231.41235;47.128641099999996;7.237872599999999;70.42500305175781;1673375231.5883718;-6.9874396324157715;-0.792797327041626;-136.82691955566406
339;1673375231.605931;47.1286317;7.2378597;70.7750015258789;1673375231.7837713;-2.08488392829895;-1.0674282312393188;-136.6942138671875
340;1673375231.8013713;47.1286232;7.2378481;71.08600616455078;1673375231.9891303;4.003911972045898;-1.1139843463897705;-136.72354125976562
341;1673375232.0126061;47.128615599999996;7.237837799999999;71.36000061035156;1673375232.1840723;7.334967136383057;-1.5998094081878662;-136.29827880859375
342;1673375232.1957827;47.1286091;7.237829;71.59300231933594;1673375232.3734865;9.446386337280273;-1.9491747617721558;-135.09524536132812
343;1673375232.3922155;47.1286036;7.2378217;71.8010025024414;1673375232.5566967;10.542835235595703;1.1165626049041748;-135.3389434814453
344;1673375232.575312;47.128599;7.2378158;71.98700714111328;1673375232.7587976;8.829578399658203;1.8710694313049316;-135.6093292236328
345;1673375232.7735243;47.1285953;7.2378111999999994;72.14600372314453;1673375232.9410288;5.466371059417725;3.6653337478637695;-135.11654663085938
346;1673375232.9630778;47.128592399999995;7.2378075;72.2800064086914;1673375233.1338136;3.4260780811309814;24.886850357055664;-130.85386657714844
347;1673375233.1514547;47.1285903;7.2378043;72.39600372314453;1673375233.3480341;-1.240607738494873;30.62689781188965;-119.2794418334961
348;1673375233.3651724;47.1285897;7.2378006;72.48500061035156;1673375233.546877;-10.918712615966797;20.171077728271484;-106.28290557861328
349;1673375233.5645814;47.1285904;7.2377962;72.54400634765625;1673375233.765899;-13.287827491760254;11.50370979309082;-96.1983413696289
350;1673375233.782507;47.128592;7.2377914;72.58500671386719;1673375233.9664361;-14.13109016418457;7.261212348937988;-87.63491821289062
351;1673375233.9849825;47.1285941;7.2377861;72.62600708007812;1673375234.1657238;-12.211710929870605;2.0127344131469727;-78.47016143798828
352;1673375234.1793797;47.128596599999995;7.2377804999999995;72.66200256347656;1673375234.3555267;-10.319865226745605;-1.0124993324279785;-69.25831604003906
353;1673375234.3726592;47.128599099999995;7.2377746;72.69400024414062;1673375234.559118;-7.29309606552124;-1.8113574981689453;-60.32888412475586
354;1673375234.5747657;47.1286017;7.2377686;72.72400665283203;1673375234.7442257;-5.954418659210205;-1.3747552633285522;-51.91986846923828
355;1673375234.7642782;47.1286041;7.2377626;72.75100708007812;1673375234.942368;-6.194264888763428;-1.0261597633361816;-43.731754302978516
356;1673375234.9605534;47.1286063;7.237756699999999;72.77799987792969;1673375235.132929;-6.945732593536377;-0.7394397854804993;-39.71481704711914
357;1673375235.1497197;47.1286084;7.2377512;72.8030014038086;1673375235.33882;-10.145533561706543;-0.11758477985858917;-41.976505279541016
358;1673375235.3554702;47.1286104;7.2377458;72.82200622558594;1673375235.5413382;-32.26076889038086;0.9179362058639526;-44.32965850830078
359;1673375235.5559766;47.1286127;7.237740199999999;72.86000061035156;1673375235.7968686;-50.10960006713867;2.116941213607788;-45.54764938354492
360;1673375235.8190365;47.128616099999995;7.2377332;72.9070053100586;1673375236.0062962;-59.66242218017578;1.595536708831787;-45.72501754760742
361;1673375236.0239859;47.1286217;7.2377232;72.94800567626953;1673375236.2039332;-63.238155364990234;-1.0411878824234009;-45.78971862792969
362;1673375236.219523;47.12863;7.2377097;72.9800033569336;1673375236.388335;-59.814598083496094;-0.8794050812721252;-46.3354606628418
363;1673375236.4049284;47.1286408;7.237692699999999;72.99700164794922;1673375236.5757074;-57.197940826416016;-0.6292701959609985;-46.61617660522461
364;1673375236.5913227;47.128653199999995;7.237673099999999;72.9990005493164;1673375236.7792265;-56.994468688964844;0.7878596186637878;-46.82775115966797
365;1673375236.80081;47.1286671;7.2376513;72.98500061035156;1673375236.96724;-55.67343521118164;0.40541738271713257;-46.6683464050293
366;1673375236.9840097;47.1286821;7.2376277;72.96400451660156;1673375237.1831222;-54.336090087890625;0.09967122226953506;-46.69209671020508
367;1673375237.2084897;47.128698199999995;7.2376027999999994;72.94100189208984;1673375237.385336;-52.85739517211914;0.038248661905527115;-46.6937255859375
368;1673375237.4108005;47.1287148;7.2375767;72.91000366210938;1673375237.5630267;-50.421531677246094;0.02358437329530716;-46.58866500854492
369;1673375237.5787218;47.128732;7.23755;72.87600708007812;1673375237.7493858;-48.9544677734375;-1.662366271018982;-46.19095993041992
370;1673375237.76946;47.1287495;7.2375228;72.84200286865234;1673375237.9441452;-49.07159423828125;-0.6147872805595398;-46.85758972167969
371;1673375237.9603746;47.1287672;7.237495099999999;72.80900573730469;1673375238.143752;-48.07944869995117;0.6468936800956726;-47.02874755859375
372;1673375238.1593676;47.1287849;7.2374671;72.79100036621094;1673375238.3432167;-48.719547271728516;0.30371010303497314;-46.92041778564453
373;1673375238.3598888;47.128802799999995;7.237438999999999;72.781005859375;1673375238.5446985;-49.52109146118164;0.20047347247600555;-46.91924285888672
374;1673375238.5642285;47.1288206;7.237410799999999;72.77799987792969;1673375238.7551422;-49.09878158569336;0.2927522361278534;-46.937191009521484
375;1673375238.7709386;47.128838599999995;7.237382299999999;72.7770004272461;1673375238.9639716;-48.89454650878906;0.2159687727689743;-46.8863639831543
376;1673375238.9835348;47.1288567;7.2373537;72.7800064086914;1673375239.163082;-48.87416458129883;0.14043277502059937;-46.87083435058594
377;1673375239.1899943;47.1288749;7.237324999999999;72.7820053100586;1673375239.3835835;-48.63893508911133;0.20986950397491455;-46.8824462890625
378;1673375239.4060593;47.1288931;7.2372963;72.78600311279297;1673375239.5953698;-48.35009765625;0.280062735080719;-46.90079116821289
379;1673375239.6184468;47.1289114;7.2372673999999995;72.79000091552734;1673375239.8031337;-29.256942749023438;0.12919887900352478;-46.688838958740234
380;1673375239.8163671;47.1289294;7.2372388;72.57500457763672;1673375240.006918;14.047151565551758;-0.22031211853027344;-46.364967346191406
381;1673375240.019354;47.1289471;7.237210699999999;71.98700714111328;1673375240.1925027;77.10406494140625;-1.4420744180679321;-46.86360549926758
382;1673375240.2052379;47.1289647;7.237182799999999;71.00100708007812;1673375240.3655157;46.65984344482422;179.6073760986328;134.125244140625
383;1673375240.382704;47.1289824;7.2371547;69.6510009765625;1673375240.553264;16.36176300048828;178.28736877441406;129.9082489013672
384;1673375240.5729702;47.1289999;7.2371270999999995;67.94600677490234;1673375240.7642746;15.438365936279297;178.68540954589844;128.71170043945312
385;1673375240.7790341;47.1290171;7.2370999;65.86600494384766;1673375240.947494;43.87327575683594;177.19297790527344;128.54185485839844
386;1673375240.963382;47.129034;7.237073199999999;63.4160041809082;1673375241.1663935;76.29447937011719;2.5595438480377197;-44.94898986816406
387;1673375241.1842608;47.1290506;7.237046899999999;60.60900115966797;1673375241.3625424;1.0500614643096924;0.5658896565437317;-47.87981033325195
388;1673375241.377458;47.1290674;7.237020299999999;57.435001373291016;1673375241.571649;-53.343055725097656;0.13767991960048676;-46.33293914794922
389;1673375241.5894196;47.1290839;7.2369940999999995;53.8640022277832;1673375241.7624755;-67.0899429321289;-1.7874643802642822;-43.87358093261719
390;1673375241.7784028;47.129100199999996;7.2369685;49.96000289916992;1673375241.9726276;-37.787986755371094;0.2424200028181076;-44.81292724609375
391;1673375241.9864535;47.1291162;7.2369432;45.74400329589844;1673375242.1613579;29.903850555419922;0.79878169298172;-42.79804992675781
392;1673375242.176641;47.129131799999996;7.2369183999999995;41.15500259399414;1673375242.358396;84.93951416015625;144.68115234375;101.53193664550781
393;1673375242.3736885;47.129147499999995;7.236893599999999;36.169002532958984;1673375242.558491;66.50872802734375;169.2380828857422;125.7700424194336
394;1673375242.574752;47.1291631;7.2368688;30.86600112915039;1673375242.7714765;77.80260467529297;25.83655548095703;-17.384429931640625
395;1673375242.786479;47.129178599999996;7.2368443;25.275001525878906;1673375242.9726872;5.383109092712402;3.1254560947418213;-40.189476013183594
396;1673375242.9935606;47.129194399999996;7.2368196;19.349000930786133;1673375243.2014008;-53.06352996826172;-0.4202120900154114;-39.80101776123047
397;1673375243.2155416;47.1292098;7.2367953;13.029000282287598;1673375243.3963342;-55.2598762512207;-1.6609506607055664;-38.44559097290039
398;1673375243.4145675;47.129224799999996;7.2367716;6.402000427246094;1673375243.5865104;-11.346163749694824;0.2523964047431946;-37.13180923461914
399;1673375243.6024551;47.129238099999995;7.2367507;0.27000001072883606;1673375243.7944174;-3.609344482421875;-1.428322434425354;-42.68439483642578
400;1673375243.80954;47.1292425;7.2367474;0.7250000238418579;1673375243.9813807;7.720565319061279;-2.207284450531006;-42.399322509765625
401;1673375243.997752;47.1292477;7.236743799999999;0.9300000667572021;1673375244.1692924;5.952566623687744;-2.645266056060791;-42.542945861816406
402;1673375244.191329;47.129252799999996;7.236740299999999;1.1080000400543213;1673375244.3766809;5.982792377471924;-3.231865882873535;-42.60983657836914
403;1673375244.3995109;47.1292568;7.2367376;1.2320001125335693;1673375244.5704758;6.2119035720825195;-3.685859203338623;-42.62326431274414
404;1673375244.5845826;47.1292596;7.2367358;1.3130000829696655;1673375244.7655241;7.149465084075928;-4.273380279541016;-42.184268951416016
405;1673375244.7804754;47.1292565;7.236737499999999;1.3300000429153442;1673375244.963569;7.659428119659424;-4.512675762176514;-42.01429748535156
406;1673375244.979571;47.1292524;7.236739999999999;1.3270000219345093;1673375245.1634665;7.720581531524658;-4.574604511260986;-42.0003776550293
407;1673375245.1796055;47.1292495;7.2367418;1.3850001096725464;1673375245.3492439;7.8296709060668945;-4.560747146606445;-41.973976135253906
408;1673375245.364569;47.129247;7.2367434;1.4130001068115234;1673375245.5583296;7.910261154174805;-4.491589546203613;-41.97676086425781
409;1673375245.5792503;47.1292452;7.2367447;1.433000087738037;1673375245.7683253;7.898762226104736;-4.373002529144287;-41.972171783447266
410;1673375245.7825541;47.129244;7.2367456;1.4490001201629639;1673375245.9744935;7.899993419647217;-4.2155890464782715;-41.984336853027344
411;1673375245.9904957;47.1292432;7.2367462;1.4700000286102295;1673375246.1745396;7.836815357208252;-4.049168586730957;-41.971927642822266
412;1673375246.191422;47.1292426;7.2367466;1.4900001287460327;1673375246.369676;7.844540119171143;-3.9057106971740723;-41.961700439453125
413;1673375246.3957934;47.1292414;7.2367475;1.5440000295639038;1673375246.5599878;7.741087436676025;-3.658219337463379;-41.947017669677734
414;1673375246.5785234;47.1292408;7.2367478;1.5820000171661377;1673375246.7589285;7.6597185134887695;-3.456385612487793;-41.92958450317383
415;1673375246.774561;47.129240599999996;7.2367479999999995;1.6110000610351562;1673375246.9512594;7.490357398986816;-3.2098379135131836;-41.87465286254883
416;1673375246.9668746;47.129240499999995;7.2367479999999995;1.6350001096725464;1673375247.1522846;7.397293567657471;-3.001227378845215;-41.82878875732422
417;1673375247.1669612;47.1292404;7.2367479999999995;1.65500009059906;1673375247.3413794;7.195119857788086;-2.8130247592926025;-41.74391555786133
