;pos_time;latitude;longitude;altitude;alt_time;pitch;roll;yaw
0;1673376554.8506734;47.1306425;7.24062;0.017000000923871994;1673376554.9498193;0.11433295905590057;-0.014760464429855347;90.24005126953125
1;1673376555.0549552;47.1306425;7.24062;0.01900000125169754;1673376555.150209;0.10773957520723343;0.06166844815015793;90.20915222167969
2;1673376555.2449725;47.1306425;7.24062;0.01900000125169754;1673376555.3386717;0.20919688045978546;0.03874441608786583;90.26241302490234
3;1673376555.4721022;47.1306425;7.2406201;0.01900000125169754;1673376555.5567453;-0.06412947922945023;0.21390679478645325;90.31082153320312
4;1673376555.6559684;47.1306425;7.2406201;0.018000001087784767;1673376555.7502332;0.07662325352430344;-0.31429997086524963;90.46731567382812
5;1673376555.852426;47.1306425;7.2406201999999995;0.01600000075995922;1673376555.9435854;0.33908286690711975;-0.15950095653533936;90.36762237548828
6;1673376556.0556078;47.1306425;7.2406201999999995;0.012000000104308128;1673376556.149994;0.12090892344713211;-0.05003552883863449;90.29580688476562
7;1673376556.2560174;47.1306425;7.2406201;0.010000000707805157;1673376556.3502665;0.1623043417930603;-0.1294640302658081;90.27826690673828
8;1673376556.455264;47.1306425;7.2406201;0.007000000216066837;1673376556.547105;0.23959729075431824;-0.21465744078159332;90.42708587646484
9;1673376556.646624;47.1306425;7.2406201999999995;0.0;1673376556.7434697;0.3380257487297058;-0.3355507254600525;90.415283203125
10;1673376556.858017;47.1306425;7.2406201999999995;0.0;1673376556.9455993;0.2314223200082779;-0.313176691532135;90.42671966552734
11;1673376557.0467577;47.1306425;7.2406203;0.0;1673376557.1389294;0.13661396503448486;-0.08781544864177704;90.23551177978516
12;1673376557.240529;47.1306425;7.2406204;-0.003000000026077032;1673376557.3436394;0.01680115796625614;-0.3034360408782959;90.38388061523438
13;1673376557.450823;47.1306424;7.2406204;-0.006000000052154064;1673376557.5475366;0.11305711418390274;-0.24998614192008972;90.41925811767578
14;1673376557.664014;47.1306424;7.2406204999999995;-0.0010000000474974513;1673376557.7584052;-0.11826706677675247;-0.6536902189254761;90.32146453857422
15;1673376557.8631892;47.1306424;7.2406204999999995;-0.003000000026077032;1673376557.9595878;-0.05224158614873886;-0.6592119932174683;90.46070861816406
16;1673376558.055131;47.1306425;7.2406204999999995;0.0010000000474974513;1673376558.1518068;-0.026757067069411278;-0.27686411142349243;90.13024139404297
17;1673376558.2644718;47.1306425;7.2406206;0.006000000052154064;1673376558.3607726;-0.1419408917427063;-0.6112993359565735;90.24723052978516
18;1673376558.4646754;47.1306425;7.2406206;0.01100000087171793;1673376558.5498378;-0.25439125299453735;-0.5247127413749695;90.3665542602539
19;1673376558.675876;47.1306425;7.2406206;0.013000000268220901;1673376558.7678702;-0.192405104637146;-0.3777436316013336;90.2816162109375
20;1673376558.8687706;47.1306425;7.2406206;0.013000000268220901;1673376558.9708364;0.026402389630675316;-0.4953381419181824;90.44175720214844
21;1673376559.066849;47.1306425;7.2406204999999995;0.01100000087171793;1673376559.1537354;-0.05199174955487251;-0.2043592482805252;90.29766845703125
22;1673376559.25566;47.1306425;7.2406204;0.0;1673376559.35228;0.13107158243656158;-0.3286266028881073;90.08772277832031
23;1673376559.4513717;47.1306425;7.2406204;-0.0020000000949949026;1673376559.5447264;0.2755540907382965;-0.5544087886810303;90.39927673339844
24;1673376559.6757138;47.1306425;7.2406201999999995;-0.003000000026077032;1673376559.7670257;0.40170374512672424;-0.680227518081665;90.1923828125
25;1673376559.86705;47.1306425;7.2406201999999995;-0.003000000026077032;1673376559.9616077;0.24145086109638214;-0.1728169322013855;90.1833724975586
26;1673376560.0638938;47.1306425;7.2406201;-0.003000000026077032;1673376560.1502953;0.28605103492736816;-0.0361657440662384;90.5684585571289
27;1673376560.2669342;47.1306425;7.2406201;-0.003000000026077032;1673376560.367857;0.27496612071990967;-0.25786352157592773;90.75335693359375
28;1673376560.4910135;47.1306425;7.24062;-0.005000000353902578;1673376560.5806947;0.3360294699668884;-0.4762859344482422;90.62187194824219
29;1673376560.6867075;47.1306425;7.24062;-0.007000000216066837;1673376560.7898257;0.20849832892417908;-0.6386011242866516;90.7446517944336
30;1673376560.8981912;47.1306425;7.2406198999999996;-0.003000000026077032;1673376560.9828117;0.006321766413748264;-0.4653126001358032;90.8138656616211
31;1673376561.0838268;47.1306425;7.2406198999999996;-0.0010000000474974513;1673376561.1817362;-0.31008049845695496;-0.1530129611492157;90.92921447753906
32;1673376561.290727;47.130642699999996;7.240619799999999;0.0010000000474974513;1673376561.3825026;-2.697739601135254;0.7904525995254517;91.68582153320312
33;1673376561.4918604;47.1306428;7.2406197;0.009000000543892384;1673376561.5867417;-5.400296688079834;4.021786689758301;92.45646667480469
34;1673376561.6906106;47.130643;7.2406197;0.026000000536441803;1673376561.7858548;-8.6234712600708;8.769376754760742;92.71678924560547
35;1673376561.8928363;47.1306431;7.240619799999999;0.055000003427267075;1673376561.9857225;-7.973629951477051;5.835986614227295;92.24272155761719
36;1673376562.0987155;47.1306431;7.2406198999999996;0.10500000417232513;1673376562.1907134;-7.093925952911377;6.610793590545654;90.84162139892578
37;1673376562.2938883;47.130643;7.2406201;0.17100000381469727;1673376562.3825915;-6.381083011627197;9.850887298583984;89.5737533569336
38;1673376562.4800184;47.1306428;7.2406201999999995;0.25200000405311584;1673376562.5724492;-6.068508148193359;3.841738224029541;89.71185302734375
39;1673376562.6791737;47.130642599999995;7.2406201999999995;0.34700000286102295;1673376562.7714775;-6.197962284088135;5.234344959259033;89.23304748535156
40;1673376562.8795629;47.1306424;7.2406203;0.45600003004074097;1673376562.9652743;-5.761491775512695;9.49920654296875;88.42937469482422
41;1673376563.094641;47.130642099999996;7.2406203;0.581000030040741;1673376563.1753137;-6.373309135437012;4.510166645050049;88.51044464111328
42;1673376563.2862048;47.130641999999995;7.2406203;0.7220000624656677;1673376563.3736439;-6.789941787719727;3.4894449710845947;88.35445404052734
43;1673376563.4796188;47.130642099999996;7.2406203;0.8760000467300415;1673376563.5749333;-6.537158489227295;8.766393661499023;87.480224609375
44;1673376563.6877155;47.130642099999996;7.2406204;1.0470000505447388;1673376563.7751455;-6.159355163574219;6.416037082672119;87.47119903564453
45;1673376563.8646245;47.130641999999995;7.2406204;1.2320001125335693;1673376563.963854;-6.281257152557373;3.4678008556365967;87.60938262939453
46;1673376564.0748334;47.130641999999995;7.2406204;1.4250000715255737;1673376564.1593127;-6.043663501739502;8.533838272094727;87.95195770263672
47;1673376564.2711208;47.130642099999996;7.2406204999999995;1.6180000305175781;1673376564.3689823;-6.0105671882629395;7.635626792907715;87.92620086669922
48;1673376564.470148;47.1306422;7.2406204999999995;1.8200000524520874;1673376564.564578;-6.373996257781982;4.114644527435303;88.26201629638672
49;1673376564.6657317;47.1306423;7.2406206;2.0220000743865967;1673376564.7747781;-6.249954700469971;8.125287055969238;87.65103912353516
50;1673376564.9010334;47.1306423;7.2406206;2.2260000705718994;1673376564.987496;-6.1731719970703125;8.887918472290039;87.5352783203125
51;1673376565.0968964;47.1306423;7.2406206;2.427000045776367;1673376565.1907072;-6.300127983093262;3.9943370819091797;88.06330871582031
52;1673376565.3056612;47.1306423;7.2406206;2.628000020980835;1673376565.3931355;-6.312717437744141;6.699740409851074;87.77106475830078
53;1673376565.4855857;47.1306423;7.2406206;2.827000141143799;1673376565.5720696;-6.14424991607666;9.025982856750488;87.61800384521484
54;1673376565.6751823;47.1306423;7.2406206;3.0290000438690186;1673376565.7752936;-6.182415008544922;4.415501117706299;88.06036376953125
55;1673376565.8793845;47.1306424;7.2406206;3.2350001335144043;1673376565.9639766;-6.484189510345459;6.802886962890625;87.8340072631836
56;1673376566.0539834;47.130642599999995;7.2406206;3.444000244140625;1673376566.148373;-6.4217095375061035;10.20455265045166;87.54496002197266
57;1673376566.26843;47.130642599999995;7.2406207;3.6480002403259277;1673376566.3763475;-6.385643482208252;5.062473773956299;88.2811279296875
58;1673376566.4776394;47.1306425;7.240620799999999;3.8500001430511475;1673376566.5631647;-6.522830963134766;5.310324192047119;88.2126235961914
59;1673376566.6681585;47.1306425;7.240620799999999;4.051000118255615;1673376566.766308;-6.216904640197754;9.995655059814453;87.58722686767578
60;1673376566.8773212;47.1306425;7.240620799999999;4.249000072479248;1673376566.9756188;-6.222393035888672;5.6761932373046875;88.15900421142578
61;1673376567.074736;47.130642599999995;7.240620799999999;4.448000431060791;1673376567.1709185;-6.535463809967041;5.040194034576416;88.34647369384766
62;1673376567.286622;47.130642699999996;7.240620799999999;4.648000240325928;1673376567.3779488;-6.484012603759766;10.03857135772705;87.7867660522461
63;1673376567.4770598;47.130642699999996;7.2406207;4.8510003089904785;1673376567.5684006;-6.452452659606934;7.8250579833984375;87.84770965576172
64;1673376567.681185;47.130642599999995;7.2406206;5.056000232696533;1673376567.7853453;-6.8376078605651855;3.952749013900757;88.33683776855469
65;1673376567.887102;47.1306425;7.2406206;5.261000156402588;1673376567.9727058;-6.689636707305908;8.92048454284668;87.75517272949219
66;1673376568.0786557;47.1306425;7.2406206;5.462000370025635;1673376568.1680834;-6.435280799865723;8.068121910095215;87.74713134765625
67;1673376568.2811222;47.1306425;7.2406206;5.6670002937316895;1673376568.3745205;-6.626391410827637;4.111654758453369;88.16681671142578
68;1673376568.481637;47.1306425;7.2406206;5.872000217437744;1673376568.569248;-6.445944786071777;7.706826686859131;87.8060302734375
69;1673376568.6980016;47.1306425;7.2406207;6.075000286102295;1673376568.7939138;-6.42805290222168;9.168755531311035;87.68571472167969
70;1673376568.8961318;47.1306424;7.240620799999999;6.27400016784668;1673376569.0091639;-6.508527755737305;3.9990670680999756;88.39814758300781
71;1673376569.1153097;47.1306423;7.2406209;6.4710001945495605;1673376569.2212615;-6.524982452392578;7.12177848815918;88.02506256103516
72;1673376569.3146098;47.1306423;7.2406209;6.668000221252441;1673376569.406968;-6.396057605743408;9.191441535949707;87.75228118896484
73;1673376569.5082955;47.1306424;7.2406209;6.865000247955322;1673376569.6017241;-6.514704704284668;4.708728313446045;88.28780364990234
74;1673376569.6989136;47.1306425;7.2406209;7.062000274658203;1673376569.8117604;-6.566959857940674;7.049799919128418;88.14108276367188
75;1673376569.9111454;47.130642599999995;7.2406209;7.259000301361084;1673376570.0020432;-6.359828948974609;10.057682991027832;87.81669616699219
76;1673376570.1001954;47.1306425;7.240620799999999;7.454000473022461;1673376570.1866546;-6.507622241973877;4.822459697723389;88.28363800048828
77;1673376570.2946732;47.1306424;7.240620799999999;7.651000499725342;1673376570.3918307;-6.892170429229736;5.47641658782959;87.89592742919922
78;1673376570.4881198;47.1306423;7.240620799999999;7.848000526428223;1673376570.5786662;-6.831417083740234;9.522759437561035;87.35440826416016
79;1673376570.6828768;47.1306424;7.2406207;8.044000625610352;1673376570.7821054;-6.737778663635254;5.961753845214844;87.92620849609375
80;1673376570.8881319;47.1306425;7.2406207;8.242000579833984;1673376570.981489;-6.74678897857666;5.467926979064941;88.20934295654297
81;1673376571.095291;47.130642599999995;7.2406207;8.440000534057617;1673376571.196435;-6.408751010894775;10.26706314086914;87.75494384765625
82;1673376571.3024082;47.130642599999995;7.240620799999999;8.63700008392334;1673376571.400498;-6.535345554351807;6.542996883392334;88.05732727050781
83;1673376571.5074208;47.1306425;7.240620799999999;8.834000587463379;1673376571.594049;-6.655966281890869;4.326913356781006;88.3796615600586
84;1673376571.7153716;47.1306424;7.240620799999999;9.030000686645508;1673376571.8437219;-6.579776763916016;9.408878326416016;87.73783111572266
85;1673376571.943062;47.1306424;7.240620799999999;9.22800064086914;1673376572.0761874;-6.700401782989502;7.334920883178711;87.99346160888672
86;1673376572.1774693;47.1306425;7.240620799999999;9.427000045776367;1673376572.2626002;-6.879611015319824;4.162750720977783;88.39270782470703
87;1673376572.377112;47.1306425;7.240620799999999;9.624000549316406;1673376572.4503121;-6.511806964874268;8.48279094696045;87.83914947509766
88;1673376572.5345333;47.1306425;7.2406209;9.821000099182129;1673376572.636248;-6.083067893981934;8.871149063110352;87.86022186279297
89;1673376572.7651665;47.1306425;7.240621;10.021000862121582;1673376572.8535786;-6.351572036743164;3.8321444988250732;88.1974105834961
90;1673376572.9480236;47.1306424;7.240621;10.232000350952148;1673376573.0353606;-6.590505123138428;6.768990993499756;87.8033218383789
91;1673376573.1396585;47.1306424;7.240621099999999;10.534000396728516;1673376573.2314396;-7.330264568328857;10.57038402557373;87.81681060791016
92;1673376573.335623;47.1306424;7.2406213;10.907000541687012;1673376573.4337938;-7.079394340515137;5.980053901672363;88.305419921875
93;1673376573.5794966;47.1306423;7.2406216;11.29900074005127;1673376573.6498048;-5.935251235961914;5.969383716583252;88.28386688232422
94;1673376573.745145;47.1306422;7.2406217999999996;11.697000503540039;1673376573.8327284;-5.783840656280518;9.191827774047852;87.67674255371094
95;1673376573.9426546;47.130642099999996;7.240622;12.094000816345215;1673376574.0282025;-5.259146213531494;4.929449558258057;87.99650573730469
96;1673376574.134205;47.1306419;7.2406220999999995;12.496000289916992;1673376574.2100189;-5.390206336975098;3.677579402923584;88.10608673095703
97;1673376574.2937026;47.1306419;7.2406220999999995;12.902000427246094;1673376574.379034;-5.681173324584961;8.481810569763184;87.73946380615234
98;1673376574.4789553;47.1306419;7.240622;13.304000854492188;1673376574.5732417;-5.941638469696045;6.367630481719971;88.06888580322266
99;1673376574.67553;47.130641999999995;7.2406219;13.699000358581543;1673376574.7795482;-6.318931579589844;4.023036003112793;88.31515502929688
100;1673376574.9026263;47.130642099999996;7.240621699999999;14.090001106262207;1673376574.9949825;-6.149122714996338;8.49474811553955;87.84996795654297
101;1673376575.099238;47.130642099999996;7.2406216;14.480000495910645;1673376575.1858742;-6.239448547363281;8.010661125183105;87.734375
102;1673376575.285104;47.130642099999996;7.240621399999999;14.872000694274902;1673376575.3833063;-6.475949287414551;3.9045777320861816;88.26751708984375
103;1673376575.4882872;47.130642099999996;7.2406213;15.269001007080078;1673376575.5798025;-6.576569557189941;7.215472221374512;88.02389526367188
104;1673376575.6908047;47.1306422;7.2406213;15.667000770568848;1673376575.7782638;-6.357999801635742;9.308064460754395;87.82918548583984
105;1673376575.8832448;47.1306423;7.2406212;16.05900001525879;1673376575.9785357;-6.357372283935547;5.493971347808838;88.19345092773438
106;1673376576.0973287;47.1306424;7.240621099999999;16.451000213623047;1673376576.191583;-6.729160785675049;6.188197135925293;87.97631072998047
107;1673376576.3068197;47.1306425;7.240621099999999;16.84600067138672;1673376576.4015818;-6.461355686187744;9.86257553100586;87.59968566894531
108;1673376576.499775;47.1306424;7.2406212;17.238000869750977;1673376576.5979757;-6.410564422607422;5.698417663574219;88.13211822509766
109;1673376576.7119303;47.1306424;7.2406212;17.634000778198242;1673376576.8042269;-6.514944076538086;4.423501968383789;88.3465805053711
110;1673376576.9122324;47.1306423;7.2406212;18.033000946044922;1673376577.0016673;-6.14297342300415;9.413636207580566;87.8146743774414
111;1673376577.1354766;47.1306423;7.2406212;18.431001663208008;1673376577.2307045;-5.812496662139893;6.948089599609375;87.94281768798828
112;1673376577.3299222;47.1306424;7.2406212;18.821001052856445;1673376577.4192736;-6.147190570831299;4.153324604034424;88.12335205078125
113;1673376577.5127861;47.1306424;7.2406212;19.20600128173828;1673376577.6023023;-6.237703800201416;8.754937171936035;87.77688598632812
114;1673376577.7000735;47.1306424;7.240621099999999;19.591001510620117;1673376577.7992356;-6.2978315353393555;8.04708194732666;87.89376068115234
115;1673376577.9053047;47.1306424;7.240621099999999;19.98000144958496;1673376577.9976013;-6.354146480560303;3.648858070373535;88.33846282958984
116;1673376578.1160076;47.1306424;7.240621099999999;20.37200164794922;1673376578.2118027;-6.4069437980651855;7.683773517608643;87.85755157470703
117;1673376578.330522;47.1306424;7.240621;20.76300048828125;1673376578.4257426;-6.10597562789917;8.802438735961914;87.58383178710938
118;1673376578.5346022;47.1306425;7.240621;21.1510009765625;1673376578.6369705;-6.195374965667725;4.7910614013671875;88.27971649169922
119;1673376578.7395856;47.130642599999995;7.240621;21.543001174926758;1673376578.827811;-6.3571648597717285;7.136661052703857;88.18144989013672
120;1673376578.9230273;47.130642599999995;7.2406209;21.939001083374023;1673376579.019268;-6.187567234039307;9.784687995910645;87.8263168334961
121;1673376579.1115844;47.130642599999995;7.2406209;22.332000732421875;1673376579.209074;-6.164425849914551;4.658365726470947;88.06732177734375
122;1673376579.3133948;47.1306425;7.240620799999999;22.72800064086914;1673376579.4071496;-6.607525825500488;5.977302074432373;88.05992126464844
123;1673376579.511984;47.1306425;7.240620799999999;23.128000259399414;1673376579.5965402;-6.458855628967285;9.677997589111328;87.68536376953125
124;1673376579.69766;47.1306425;7.2406207;23.529001235961914;1673376579.7932215;-6.722369194030762;6.102106094360352;88.08563995361328
125;1673376579.891213;47.1306425;7.2406206;23.921001434326172;1673376579.9825163;-6.829365253448486;5.017971038818359;88.29385375976562
126;1673376580.0874894;47.1306425;7.2406206;24.315000534057617;1673376580.1773207;-6.491778373718262;9.298404693603516;87.56997680664062
127;1673376580.288779;47.1306425;7.2406204999999995;24.711000442504883;1673376580.3811445;-6.237154006958008;6.681362152099609;87.88362121582031
128;1673376580.495837;47.1306425;7.2406204999999995;25.110000610351562;1673376580.595697;-6.427596092224121;4.259873867034912;88.30245971679688
129;1673376580.7067294;47.1306425;7.2406204999999995;25.512001037597656;1673376580.7854445;-6.405986785888672;8.540739059448242;87.89958953857422
130;1673376580.8783731;47.1306425;7.2406204999999995;25.91400146484375;1673376580.9716706;-6.212421417236328;7.941272735595703;87.90222930908203
131;1673376581.082348;47.130642599999995;7.2406204999999995;26.310001373291016;1673376581.1789806;-6.390836715698242;4.627275466918945;88.19037628173828
132;1673376581.291386;47.130642699999996;7.2406204999999995;26.705001831054688;1673376581.3866677;-6.363736629486084;8.307518005371094;87.91105651855469
133;1673376581.496688;47.130642699999996;7.2406204999999995;27.09800148010254;1673376581.6035373;-6.22344446182251;9.05926513671875;87.92059326171875
134;1673376581.7105567;47.130642599999995;7.2406204999999995;27.492000579833984;1673376581.8069131;-6.486720085144043;4.31988525390625;88.26587677001953
135;1673376581.916503;47.130642599999995;7.2406204999999995;27.893001556396484;1673376582.0121324;-6.42310905456543;7.578304290771484;87.84517669677734
136;1673376582.120159;47.130642599999995;7.2406204;28.297000885009766;1673376582.2096007;-6.248140811920166;9.12215805053711;87.6616439819336
137;1673376582.311851;47.130642599999995;7.2406204;28.698001861572266;1673376582.3982944;-6.2154412269592285;4.693640232086182;88.1686782836914
138;1673376582.505283;47.1306425;7.2406204;29.09200096130371;1673376582.5978258;-6.368528842926025;5.962981700897217;88.04854583740234
139;1673376582.700276;47.1306424;7.2406204;29.481000900268555;1673376582.7886658;-6.372331619262695;9.572227478027344;87.6717300415039
140;1673376582.9034054;47.1306423;7.2406204;29.87200164794922;1673376582.9944177;-6.293091773986816;5.0297627449035645;88.17062377929688
141;1673376583.0990708;47.1306423;7.2406204;30.272001266479492;1673376583.1924462;-6.700931072235107;5.162200927734375;88.01882934570312
142;1673376583.2986844;47.1306423;7.2406204;30.677001953125;1673376583.3929846;-6.405604362487793;9.61388874053955;87.7022933959961
143;1673376583.4958801;47.1306424;7.2406204;31.082000732421875;1673376583.5882258;-6.417821407318115;6.76678991317749;88.01656341552734
144;1673376583.6942596;47.1306425;7.2406204;31.48000144958496;1673376583.8198795;-6.590496063232422;4.9756927490234375;88.36942291259766
145;1673376583.9618924;47.130642599999995;7.2406204;31.87900161743164;1673376584.072736;-6.458434581756592;9.416228294372559;87.6495361328125
146;1673376584.158254;47.1306425;7.2406204999999995;32.2760009765625;1673376584.2418296;-6.200541973114014;7.61927604675293;87.75386810302734
147;1673376584.3499887;47.1306425;7.2406204999999995;32.676002502441406;1673376584.4370923;-6.37984037399292;4.309676647186279;88.33189392089844
148;1673376584.5382228;47.1306425;7.2406204999999995;33.08000183105469;1673376584.631798;-6.323567867279053;8.813058853149414;87.8890380859375
149;1673376584.7338476;47.1306425;7.2406206;33.48500061035156;1673376584.8254354;-6.022842884063721;8.416219711303711;87.78032684326172
150;1673376584.9343636;47.1306425;7.2406204999999995;33.88600158691406;1673376585.0540404;-6.277379035949707;4.540682792663574;88.05416870117188
151;1673376585.1492867;47.1306425;7.2406206;34.27900314331055;1673376585.2846413;-6.3315510749816895;6.008301734924316;87.845458984375
152;1673376585.361308;47.1306425;7.2406206;34.67500305175781;1673376585.4468088;-6.274041652679443;9.718571662902832;87.64901733398438
153;1673376585.5455363;47.1306425;7.2406206;35.073001861572266;1673376585.629539;-6.344947814941406;4.677680969238281;88.31720733642578
154;1673376585.72793;47.130642599999995;7.2406206;35.47600173950195;1673376585.8183331;-6.571156024932861;5.790470600128174;88.18340301513672
155;1673376585.9191632;47.130642699999996;7.2406204999999995;35.88199996948242;1673376586.00912;-6.265101432800293;10.110231399536133;87.66450500488281
156;1673376586.1194527;47.1306428;7.2406204999999995;36.28700256347656;1673376586.212814;-6.177372455596924;6.390204429626465;87.90003967285156
157;1673376586.3130076;47.1306429;7.2406204999999995;36.682003021240234;1673376586.4035013;-6.348829746246338;5.478644371032715;88.11616516113281
158;1673376586.5000048;47.1306429;7.2406204999999995;37.07600021362305;1673376586.5869236;-6.300608158111572;9.607203483581543;87.84188079833984
159;1673376586.6915424;47.1306429;7.2406206;37.46600341796875;1673376586.7803836;-6.261348247528076;7.379961967468262;88.0869140625
160;1673376586.880635;47.1306428;7.2406206;37.85700225830078;1673376586.9797943;-6.618870258331299;4.423798561096191;88.13034057617188
161;1673376587.0971334;47.1306428;7.2406206;38.25100326538086;1673376587.1870794;-6.605400562286377;9.071700096130371;87.63159942626953
162;1673376587.2898166;47.1306428;7.2406206;38.64400100708008;1673376587.391335;-6.094662189483643;8.31126594543457;87.79710388183594
163;1673376587.4916835;47.1306428;7.2406206;39.035003662109375;1673376587.5900626;-6.275851726531982;4.267963886260986;88.37196350097656
164;1673376587.705211;47.1306428;7.2406206;39.42100143432617;1673376587.7975023;-6.206263542175293;7.55763053894043;87.98155975341797
165;1673376587.906689;47.130642699999996;7.2406206;39.810001373291016;1673376587.996209;-6.107687950134277;8.93377685546875;87.887939453125
166;1673376588.114761;47.130642599999995;7.2406206;40.20000076293945;1673376588.2091212;-6.331786632537842;4.455215930938721;88.2467041015625
167;1673376588.3083904;47.130642599999995;7.2406206;40.592002868652344;1673376588.4035861;-6.556735038757324;6.5515007972717285;87.9756088256836
168;1673376588.5066392;47.130642699999996;7.2406206;40.98800277709961;1673376588.5990427;-6.3566412925720215;9.77616024017334;87.67376708984375
169;1673376588.7108448;47.1306428;7.2406206;41.38800048828125;1673376588.7944698;-6.336216926574707;5.670381546020508;88.18753814697266
170;1673376588.9001997;47.1306428;7.2406206;41.78200149536133;1673376588.9945633;-6.362730026245117;5.410719394683838;88.17560577392578
171;1673376589.102601;47.1306428;7.2406206;42.17500305175781;1673376589.2015634;-6.26844596862793;9.84028434753418;87.54963684082031
172;1673376589.3074148;47.130642699999996;7.2406204999999995;42.570003509521484;1673376589.4026783;-6.249477386474609;6.348799705505371;88.0592269897461
173;1673376589.4989033;47.130642699999996;7.2406204;42.96600341796875;1673376589.5951233;-6.765894412994385;4.931396961212158;88.26043701171875
174;1673376589.7051735;47.1306428;7.2406204;43.36300277709961;1673376589.8042402;-6.5003981590271;8.92627239227295;87.94990539550781
175;1673376589.9074082;47.1306429;7.2406203;43.75800323486328;1673376590.00869;-6.414398193359375;8.110416412353516;87.90733337402344
176;1673376590.104718;47.1306429;7.2406203;44.15300369262695;1673376590.200202;-6.69746732711792;4.176385402679443;88.25845336914062
177;1673376590.2975805;47.1306428;7.2406203;44.5420036315918;1673376590.3903475;-6.763378143310547;7.718587875366211;87.8103256225586
178;1673376590.5035286;47.1306428;7.2406203;44.93300247192383;1673376590.594978;-6.411121845245361;8.978689193725586;87.68505096435547
179;1673376590.7030532;47.1306428;7.2406203;45.329002380371094;1673376590.7932568;-6.540820121765137;4.704832077026367;88.26001739501953
180;1673376590.8994105;47.1306428;7.2406203;45.72900390625;1673376590.998561;-6.423837184906006;7.296421527862549;88.03923034667969
181;1673376591.1092806;47.1306429;7.2406204;46.12900161743164;1673376591.2025416;-6.187572956085205;9.724349021911621;87.68036651611328
182;1673376591.2923439;47.130643;7.2406204;46.531002044677734;1673376591.389539;-6.222763538360596;5.520066261291504;88.08763885498047
183;1673376591.4970737;47.130643;7.2406203;46.927001953125;1673376591.5982058;-6.542403221130371;5.552270889282227;88.14946746826172
184;1673376591.709068;47.1306429;7.2406203;47.32100296020508;1673376591.795087;-6.313687324523926;10.00484848022461;87.71375274658203
185;1673376591.9026313;47.1306428;7.2406203;47.7140007019043;1673376591.9990423;-6.397670269012451;5.6955718994140625;88.18895721435547
186;1673376592.1100924;47.1306428;7.2406203;48.099002838134766;1673376592.2130198;-6.888258457183838;6.213315010070801;88.07662963867188
187;1673376592.334664;47.1306428;7.2406203;48.43800354003906;1673376592.425995;-6.476532936096191;9.876029968261719;87.84656524658203
188;1673376592.5397909;47.1306429;7.2406201999999995;48.72800064086914;1673376592.6362958;-6.59768009185791;6.291296005249023;88.21884155273438
189;1673376592.7709737;47.1306429;7.2406201;48.97300338745117;1673376592.8999321;-6.75681209564209;5.0559539794921875;88.26959991455078
190;1673376592.9966679;47.1306428;7.24062;49.17100143432617;1673376593.0725515;-6.7197160720825195;10.33014965057373;87.66636657714844
191;1673376593.19511;47.1306428;7.2406198999999996;49.3380012512207;1673376593.27015;8.510358810424805;21.916521072387695;91.69293212890625
192;1673376593.384602;47.1306424;7.2406191;49.4900016784668;1673376593.4710531;21.640201568603516;38.87575149536133;104.76811981201172
193;1673376593.563251;47.130640799999995;7.240615999999999;49.63200378417969;1673376593.662645;23.32262420654297;53.04548645019531;114.318603515625
194;1673376593.8039901;47.130637;7.2406093;49.749000549316406;1673376593.8822954;11.352813720703125;60.077232360839844;121.65715026855469
195;1673376593.9937727;47.1306307;7.240598599999999;49.81800079345703;1673376594.093156;-5.563994884490967;58.852027893066406;131.92721557617188
196;1673376594.1994061;47.130621999999995;7.2405843999999995;49.85000228881836;1673376594.2673168;-19.03949546813965;51.6576042175293;143.21693420410156
197;1673376594.3481057;47.1306114;7.240567599999999;49.871002197265625;1673376594.4460094;-32.652740478515625;48.01864242553711;153.01870727539062
198;1673376594.5493546;47.1305992;7.240548899999999;49.87700271606445;1673376594.643019;-44.461788177490234;45.12232971191406;165.3740234375
199;1673376594.7480605;47.130585599999996;7.2405281;49.8640022277832;1673376594.8433995;-49.729827880859375;35.512630462646484;179.48741149902344
200;1673376594.9386725;47.1305707;7.240505;49.81700134277344;1673376595.0547988;-45.00385284423828;24.103851318359375;-173.2149658203125
201;1673376595.162527;47.130555199999996;7.240480499999999;49.750003814697266;1673376595.2511263;-46.545074462890625;19.367298126220703;-168.14111328125
202;1673376595.364358;47.1305392;7.2404553;49.69300079345703;1673376595.4648454;-48.190406799316406;13.053608894348145;-159.72189331054688
203;1673376595.5624707;47.130522899999995;7.2404294;49.650001525878906;1673376595.670779;-47.87438201904297;7.499467849731445;-152.00685119628906
204;1673376595.7828693;47.1305062;7.240403;49.605003356933594;1673376595.8616421;-46.49964141845703;2.643126964569092;-145.48219299316406
205;1673376595.960342;47.1304893;7.2403761;49.56900405883789;1673376596.0495539;-46.06232833862305;-0.6105754971504211;-139.1285858154297
206;1673376596.1602085;47.130472499999996;7.240348999999999;49.54600143432617;1673376596.2458396;-45.41266632080078;-8.874902725219727;-132.68527221679688
207;1673376596.3446848;47.1304556;7.2403217;49.54500198364258;1673376596.4661965;-46.691444396972656;-12.955251693725586;-134.2867431640625
208;1673376596.563599;47.130438299999994;7.2402948;49.55500411987305;1673376596.6640067;-47.12263870239258;-11.296748161315918;-137.78758239746094
209;1673376596.8064926;47.1304206;7.240268599999999;49.56800079345703;1673376596.8974147;-47.639892578125;-10.069127082824707;-139.22781372070312
210;1673376597.0253131;47.1304026;7.240242899999999;49.58700180053711;1673376597.1148422;-47.67515563964844;-8.416596412658691;-140.2699432373047
211;1673376597.2007575;47.130384199999995;7.2402175;49.6150016784668;1673376597.2813957;-48.98171615600586;-7.134467601776123;-140.7567901611328
212;1673376597.3766503;47.130365499999996;7.2401922999999995;49.643001556396484;1673376597.4621313;-49.562232971191406;-6.090690612792969;-140.9722900390625
213;1673376597.564825;47.130346599999996;7.2401671;49.66400146484375;1673376597.671304;-48.59325408935547;-5.397839546203613;-140.90689086914062
214;1673376597.7735705;47.1303275;7.240142;49.678001403808594;1673376597.8678153;-47.38547134399414;-5.411747455596924;-140.5037078857422
215;1673376597.9670014;47.1303084;7.2401168;49.691001892089844;1673376598.062505;-46.74408721923828;-5.578701496124268;-140.131591796875
216;1673376598.16468;47.1302891;7.2400917;49.70000076293945;1673376598.2459111;-46.83504104614258;-5.758146286010742;-139.8069610595703
217;1673376598.3436882;47.130269999999996;7.2400667;49.7130012512207;1673376598.4331887;-47.30727005004883;-5.936857223510742;-139.6291046142578
218;1673376598.5324383;47.1302508;7.240041499999999;49.72700119018555;1673376598.6560793;-47.43219757080078;-6.051314353942871;-139.47244262695312
219;1673376598.7627559;47.1302315;7.2400163;49.74500274658203;1673376598.8747663;-47.63583755493164;-6.113227367401123;-139.32351684570312
220;1673376598.971674;47.1302123;7.239991099999999;49.762001037597656;1673376599.0585842;-47.6660041809082;-6.1228413581848145;-139.1881866455078
221;1673376599.1637251;47.1301931;7.239965799999999;49.77700424194336;1673376599.258913;-47.53199005126953;-6.09950065612793;-139.1055145263672
222;1673376599.3629878;47.130173799999994;7.2399406;49.78300094604492;1673376599.4480507;-47.248512268066406;-6.049741744995117;-138.9779052734375
223;1673376599.5528536;47.1301546;7.2399153;49.788002014160156;1673376599.64736;-47.034385681152344;-5.980124473571777;-138.94810485839844
224;1673376599.7543035;47.130135499999994;7.2398899;49.7920036315918;1673376599.846047;-47.03804016113281;-6.063372611999512;-138.8490753173828
225;1673376599.9547133;47.1301164;7.2398644999999995;49.798004150390625;1673376600.0430942;-47.369197845458984;-6.129065036773682;-138.79197692871094
226;1673376600.1510627;47.130097299999996;7.239839;49.80400085449219;1673376600.2421381;-47.64860153198242;-6.155737400054932;-138.7731475830078
227;1673376600.349709;47.1300782;7.2398134999999995;49.80900192260742;1673376600.4455702;-47.590065002441406;-6.116874694824219;-138.75912475585938
228;1673376600.547172;47.1300591;7.239788;49.81300354003906;1673376600.6509428;-47.412601470947266;-6.082972049713135;-138.75338745117188
229;1673376600.7559507;47.130040099999995;7.2397624;49.81200408935547;1673376600.8464458;-47.248382568359375;-6.061440467834473;-138.7013397216797
230;1673376600.9554918;47.1300211;7.239736799999999;49.807003021240234;1673376601.0507133;-47.15342712402344;-6.0096001625061035;-138.68328857421875
231;1673376601.1625896;47.130002;7.2397111999999995;49.80400085449219;1673376601.2524598;-47.2808952331543;-6.046833515167236;-138.66526794433594
232;1673376601.3588083;47.1299831;7.2396856;49.803001403808594;1673376601.4696503;-47.409122467041016;-6.0455546379089355;-138.66363525390625
233;1673376601.579854;47.129964099999995;7.23966;49.80600357055664;1673376601.6681373;-47.60652160644531;-6.071953296661377;-138.63702392578125
234;1673376601.7537432;47.1299451;7.2396343;49.80900192260742;1673376601.8358157;-47.75297164916992;-6.030426502227783;-138.66136169433594
235;1673376601.9303126;47.1299261;7.2396085999999995;49.80900192260742;1673376602.0214949;-47.585548400878906;-5.9922566413879395;-138.6673583984375
236;1673376602.1233923;47.1299071;7.2395828;49.80800247192383;1673376602.2185578;-47.34892272949219;-6.015404224395752;-138.67233276367188
237;1673376602.3355036;47.129888099999995;7.239556899999999;49.810001373291016;1673376602.4309163;-47.41564178466797;-6.079373359680176;-138.67884826660156
238;1673376602.5388708;47.129869199999995;7.2395309999999995;49.81300354003906;1673376602.6342056;-47.64756774902344;-6.095670223236084;-138.70327758789062
239;1673376602.7578413;47.1298502;7.2395051;49.81500244140625;1673376602.8502574;-47.72187042236328;-6.081637859344482;-138.7123260498047
240;1673376602.9578962;47.1298312;7.239479299999999;49.82100296020508;1673376603.0702415;-47.63870620727539;-5.995314598083496;-138.74972534179688
241;1673376603.1850362;47.129812199999996;7.2394533999999995;49.82500076293945;1673376603.2763398;-47.6097412109375;-5.998871803283691;-138.75413513183594
242;1673376603.391633;47.129793199999995;7.239427399999999;49.827003479003906;1673376603.4834652;-47.37287521362305;-5.941256046295166;-138.77713012695312
243;1673376603.584178;47.1297742;7.2394016;49.829002380371094;1673376603.6769822;-47.24980545043945;-5.919787883758545;-138.7664794921875
244;1673376603.7814434;47.1297553;7.2393757;49.83100128173828;1673376603.864951;-47.43434143066406;-5.890815258026123;-138.79200744628906
245;1673376603.975179;47.1297363;7.239349799999999;49.83500289916992;1673376604.066064;-47.53861999511719;-5.900914192199707;-138.79006958007812
246;1673376604.166161;47.129717299999996;7.2393239;49.8380012512207;1673376604.2655702;-47.64720153808594;-5.847795009613037;-138.8496551513672
247;1673376604.3797324;47.1296983;7.239298;49.842002868652344;1673376604.4712114;-47.570411682128906;-5.814858913421631;-138.86111450195312
248;1673376604.5640824;47.1296794;7.239272;49.84700393676758;1673376604.6549497;-47.62969970703125;-5.833301067352295;-138.88267517089844
249;1673376604.763033;47.1296604;7.239246;49.85200119018555;1673376604.8531826;-47.62590789794922;-5.819583892822266;-138.939208984375
250;1673376604.9699388;47.1296414;7.239219899999999;49.855003356933594;1673376605.0733092;-47.662750244140625;-5.83517599105835;-138.95889282226562
251;1673376605.1828158;47.129622399999995;7.2391938;49.858001708984375;1673376605.2891352;-47.637413024902344;-5.818007469177246;-139.0261688232422
252;1673376605.4064298;47.1296034;7.2391678;49.86100387573242;1673376605.50761;-47.41263198852539;-5.709831714630127;-139.05291748046875
253;1673376605.6102188;47.1295843;7.2391418;49.8650016784668;1673376605.744836;-47.47917175292969;-5.657588481903076;-139.08950805664062
254;1673376605.8803666;47.129565299999996;7.2391157999999995;49.867000579833984;1673376605.9884026;-47.49210739135742;-5.616888999938965;-139.1255340576172
255;1673376606.0719094;47.1295463;7.2390897999999995;49.86900329589844;1673376606.1536095;-47.381080627441406;-5.572822093963623;-139.1888885498047
256;1673376606.229322;47.1295273;7.239063799999999;49.87200164794922;1673376606.317179;-47.34898376464844;-5.484797954559326;-139.2325897216797
257;1673376606.403644;47.1295083;7.239037799999999;49.874000549316406;1673376606.494143;-47.32904815673828;-5.434507846832275;-139.2731170654297
258;1673376606.586074;47.129489299999996;7.2390118999999995;49.87800216674805;1673376606.6876688;-47.499420166015625;-5.44270133972168;-139.3251495361328
259;1673376606.7910535;47.1294703;7.238985899999999;49.884002685546875;1673376606.902863;-47.66982650756836;-5.36171293258667;-139.418212890625
260;1673376607.007441;47.1294514;7.238959899999999;49.88800048828125;1673376607.096478;-47.52413558959961;-5.597282886505127;-139.42994689941406
261;1673376607.1971428;47.1294324;7.2389338;49.893001556396484;1673376607.3023229;-47.34614181518555;-6.559916973114014;-139.40966796875
262;1673376607.4146447;47.129413299999996;7.2389078;49.89800262451172;1673376607.507701;-47.501888275146484;-6.637943744659424;-139.7183837890625
263;1673376607.6019213;47.1293942;7.2388819;49.906002044677734;1673376607.6923492;-47.20890808105469;-8.15611457824707;-139.60887145996094
264;1673376607.8034463;47.129374999999996;7.2388562;49.9160041809082;1673376607.8955784;-47.74371337890625;-7.6418609619140625;-140.273681640625
265;1673376608.0162477;47.1293556;7.2388308;49.927001953125;1673376608.120287;-47.76157760620117;-8.497715950012207;-140.293701171875
266;1673376608.213349;47.129336099999996;7.2388055;49.94000244140625;1673376608.2955105;-47.65570068359375;-8.835989952087402;-140.6623992919922
267;1673376608.4283786;47.129316499999995;7.2387805;49.95600128173828;1673376608.5361786;-47.79657745361328;-9.09265422821045;-140.77032470703125
268;1673376608.6294768;47.1292967;7.2387558;49.97100067138672;1673376608.722305;-43.831085205078125;-9.976511001586914;-141.31756591796875
269;1673376608.8079154;47.1292768;7.2387315999999995;49.993003845214844;1673376608.8894587;-31.340320587158203;-9.597922325134277;-140.65866088867188
270;1673376609.0043044;47.1292573;7.2387083;50.02300262451172;1673376609.0908618;-13.578574180603027;-8.618748664855957;-139.3192901611328
271;1673376609.1902156;47.129239;7.2386865;50.04300308227539;1673376609.2795784;1.2316575050354004;-6.578450679779053;-137.58738708496094
272;1673376609.386531;47.1292227;7.2386668;50.04900360107422;1673376609.4886181;12.412761688232422;-4.552967071533203;-137.1284637451172
273;1673376609.5908365;47.1292088;7.238649799999999;50.040000915527344;1673376609.679221;18.152544021606445;-4.401517391204834;-137.30426025390625
274;1673376609.7783995;47.1291978;7.2386357;50.018001556396484;1673376609.8816226;17.46727752685547;-7.677013397216797;-136.97732543945312
275;1673376609.9817295;47.1291893;7.2386244;49.99100112915039;1673376610.072341;18.50710105895996;-6.893987655639648;-137.22369384765625
276;1673376610.1803544;47.1291827;7.2386155;49.95000076293945;1673376610.29586;13.079336166381836;-14.919797897338867;-136.50564575195312
277;1673376610.4030538;47.1291775;7.2386086999999995;49.91400146484375;1673376610.4958746;3.2132561206817627;-16.48666000366211;-135.7227020263672
278;1673376610.5904145;47.1291733;7.238603599999999;49.90200424194336;1673376610.6788063;-3.752790927886963;-9.500853538513184;-136.92230224609375
279;1673376610.7948587;47.129169499999996;7.2385994;49.922000885009766;1673376610.882249;-7.698548316955566;-7.156009674072266;-137.3976593017578
280;1673376611.0072474;47.1291661;7.2385956;49.958003997802734;1673376611.096757;-7.050302982330322;-6.954459190368652;-136.72564697265625
281;1673376611.1924627;47.129162799999996;7.2385917;49.996002197265625;1673376611.2905354;-6.1780219078063965;-8.65942096710205;-135.48028564453125
282;1673376611.395366;47.1291598;7.2385877999999995;50.03000259399414;1673376611.4847002;-6.17297887802124;-9.263662338256836;-134.33050537109375
283;1673376611.6045384;47.1291569;7.2385839999999995;50.05900192260742;1673376611.6861959;-5.753056526184082;-8.659579277038574;-133.70460510253906
284;1673376611.7961595;47.129154199999995;7.2385801999999995;50.083003997802734;1673376611.8955135;-22.605499267578125;-7.052711486816406;-135.22207641601562
285;1673376612.0036218;47.1291515;7.2385759;50.137001037597656;1673376612.10114;-27.35972023010254;-2.861091375350952;-138.7210235595703
286;1673376612.2077343;47.129148;7.2385702;50.23600387573242;1673376612.2992418;-17.67705535888672;-0.20819389820098877;-140.00611877441406
287;1673376612.4524457;47.129144;7.2385632;50.419002532958984;1673376612.5287187;-19.13968849182129;-2.875704765319824;-138.48245239257812
288;1673376612.6481194;47.12914;7.2385554;50.677001953125;1673376612.7262185;-22.70616340637207;-1.8428480625152588;-138.26808166503906
289;1673376612.837541;47.1291359;7.238546899999999;51.00600051879883;1673376612.941693;-36.20766830444336;-8.845464706420898;-138.0608367919922
290;1673376613.056535;47.129131;7.2385373;51.36000061035156;1673376613.1788855;-46.9104118347168;-14.218103408813477;-138.46371459960938
291;1673376613.2607388;47.1291241;7.2385265;51.73100280761719;1673376613.3374994;-42.92652130126953;-11.917171478271484;-138.6373291015625
292;1673376613.4395638;47.1291152;7.2385145;52.099002838134766;1673376613.5245404;-37.80742263793945;-13.110811233520508;-138.5440673828125
293;1673376613.6350825;47.1291052;7.2385017;52.4530029296875;1673376613.7220101;-32.10175704956055;-11.824767112731934;-138.3408203125
294;1673376613.8351922;47.1290945;7.238488599999999;52.79600143432617;1673376613.9412086;-29.10200309753418;-10.11506462097168;-137.68167114257812
295;1673376614.0648417;47.1290835;7.238475299999999;53.14600372314453;1673376614.145429;-26.52651023864746;-8.162408828735352;-137.37022399902344
296;1673376614.2465298;47.1290724;7.2384619;53.50400161743164;1673376614.3635545;-24.425106048583984;-6.079857349395752;-137.3446807861328
297;1673376614.4451299;47.1290615;7.238448399999999;53.86700439453125;1673376614.545095;-23.41819953918457;-4.472959518432617;-137.56861877441406
298;1673376614.629601;47.129050899999996;7.238434799999999;54.23600387573242;1673376614.7167232;-22.99180030822754;-3.863447666168213;-137.47239685058594
299;1673376614.848607;47.1290407;7.2384213;54.612003326416016;1673376614.923889;-23.422731399536133;-4.269408226013184;-137.29989624023438
300;1673376615.0269156;47.129030799999995;7.2384078;54.9900016784668;1673376615.1385021;-24.22798728942871;-6.204683780670166;-137.14706420898438
301;1673376615.229307;47.129021099999996;7.2383944;55.37000274658203;1673376615.3092005;-25.172773361206055;-7.926658630371094;-136.9231719970703
302;1673376615.4078162;47.1290115;7.2383811;55.75300216674805;1673376615.4944592;-25.912918090820312;-9.60828971862793;-136.56719970703125
303;1673376615.6141422;47.129002;7.2383676999999995;56.138004302978516;1673376615.7019536;-26.602331161499023;-9.41280460357666;-136.7522430419922
304;1673376615.7963412;47.1289924;7.238354299999999;56.52700424194336;1673376615.8836813;-27.040748596191406;-9.039202690124512;-137.0107879638672
305;1673376615.9838405;47.128982699999995;7.238340699999999;56.92100143432617;1673376616.075799;-27.622711181640625;-6.800909042358398;-137.55560302734375
306;1673376616.1833346;47.128972999999995;7.238327099999999;57.3180046081543;1673376616.2836401;-27.37686538696289;-6.114652156829834;-137.78636169433594
307;1673376616.3878844;47.1289632;7.2383134;57.7130012512207;1673376616.5052748;-27.58042335510254;-6.107793807983398;-137.79129028320312
308;1673376616.6433299;47.1289534;7.2382995999999995;58.10600280761719;1673376616.7248287;-27.110374450683594;-7.074211120605469;-137.72412109375
309;1673376616.8353996;47.1289435;7.2382858;58.49900436401367;1673376616.9228058;-26.808042526245117;-8.570435523986816;-137.36610412597656
310;1673376617.0123436;47.128933499999995;7.2382719;58.89200210571289;1673376617.0978348;-26.53972816467285;-9.721814155578613;-137.00657653808594
311;1673376617.205615;47.1289235;7.2382580999999995;59.288002014160156;1673376617.3008535;-26.243600845336914;-10.501962661743164;-136.75025939941406
312;1673376617.4146178;47.128913499999996;7.238244399999999;59.68400192260742;1673376617.5020883;-26.307466506958008;-10.410934448242188;-136.7752227783203
313;1673376617.6070924;47.1289035;7.2382307;60.0780029296875;1673376617.6896107;-26.45834732055664;-9.887701034545898;-136.75221252441406
314;1673376617.7957075;47.128893399999995;7.2382171;60.47600173950195;1673376617.898301;-26.33075523376465;-9.627656936645508;-136.77670288085938
315;1673376618.0028784;47.1288834;7.2382034;60.87700271606445;1673376618.0940678;-26.403329849243164;-8.668047904968262;-137.0733642578125
316;1673376618.23805;47.128873399999996;7.2381898;61.27800369262695;1673376618.3259308;-26.464008331298828;-7.946834087371826;-137.15017700195312
317;1673376618.4261112;47.1288635;7.2381761;61.676002502441406;1673376618.5066442;-26.570165634155273;-7.338322162628174;-137.374755859375
318;1673376618.6005611;47.1288535;7.2381625;62.073001861572266;1673376618.691361;-26.644792556762695;-6.9630842208862305;-137.45741271972656
319;1673376618.79932;47.128843499999995;7.2381489;62.467002868652344;1673376618.8994193;-26.69549560546875;-6.725537300109863;-137.34771728515625
320;1673376619.0043843;47.1288335;7.2381353;62.85900115966797;1673376619.0900407;-26.799640655517578;-6.739078998565674;-137.3805694580078
321;1673376619.215522;47.128823499999996;7.2381217;63.24900436401367;1673376619.312684;-26.985218048095703;-6.922865867614746;-137.28897094726562
322;1673376619.426539;47.1288136;7.2381081;63.64200210571289;1673376619.5149133;-26.95309829711914;-7.087977886199951;-137.2666778564453
323;1673376619.636151;47.1288036;7.2380945;64.03600311279297;1673376619.72311;-26.973169326782227;-7.431849956512451;-137.2594451904297
324;1673376619.8647482;47.128793599999995;7.2380808;64.4320068359375;1673376619.9433424;-26.859947204589844;-8.372468948364258;-136.97970581054688
325;1673376620.052225;47.1287836;7.238067099999999;64.82400512695312;1673376620.1274254;-26.841712951660156;-8.997540473937988;-136.8501739501953
326;1673376620.2187757;47.128773699999996;7.2380534999999995;65.21400451660156;1673376620.3063855;-26.88610076904297;-9.509655952453613;-136.7544403076172
327;1673376620.4207656;47.1287637;7.2380398999999995;65.60400390625;1673376620.5081637;-26.89052391052246;-9.75348949432373;-136.78651428222656
328;1673376620.6151302;47.128753599999996;7.2380263;65.99600219726562;1673376620.6986432;-26.939212799072266;-9.632874488830566;-136.64064025878906
329;1673376620.8085225;47.1287435;7.2380127;66.39100646972656;1673376620.8979638;-27.074586868286133;-9.458226203918457;-136.7096710205078
330;1673376621.0029864;47.128733499999996;7.2379991;66.78600311279297;1673376621.096255;-27.04239845275879;-9.121176719665527;-136.68426513671875
331;1673376621.2374692;47.1287234;7.2379855;67.17900085449219;1673376621.3229332;-27.193784713745117;-8.583466529846191;-136.8328857421875
332;1673376621.4259818;47.1287133;7.2379717999999995;67.57400512695312;1673376621.5133948;-27.270456314086914;-8.023539543151855;-136.9550323486328
333;1673376621.6165307;47.1287032;7.237958099999999;67.96900177001953;1673376621.702026;-27.146041870117188;-7.812672138214111;-136.95864868164062
334;1673376621.8011591;47.1286932;7.237944199999999;68.37200164794922;1673376621.8914921;-27.266515731811523;-7.949060916900635;-136.98541259765625
335;1673376621.9985285;47.1286832;7.2379302999999995;68.7770004272461;1673376622.0909264;-27.1467227935791;-7.995336055755615;-137.08627319335938
336;1673376622.1991515;47.128673299999996;7.2379164;69.177001953125;1673376622.2921264;-27.085905075073242;-8.05090618133545;-137.18946838378906
337;1673376622.4217947;47.1286633;7.2379025;69.5770034790039;1673376622.5082679;-27.257474899291992;-8.103826522827148;-137.2053985595703
338;1673376622.610869;47.128653199999995;7.2378887;69.97700500488281;1673376622.6997206;-26.726999282836914;-7.762894630432129;-137.4178466796875
339;1673376622.7998173;47.1286432;7.2378749;70.36500549316406;1673376622.9040205;-10.034332275390625;-9.039856910705566;-137.7246551513672
340;1673376623.0090399;47.1286336;7.2378618999999995;70.71800231933594;1673376623.0983937;-5.6092610359191895;-8.476369857788086;-137.3767547607422
341;1673376623.2317832;47.1286248;7.23785;71.03600311279297;1673376623.3183095;0.6162567138671875;-7.859996795654297;-137.36944580078125
342;1673376623.4156485;47.128617;7.2378393;71.31900024414062;1673376623.50705;5.223324775695801;-6.864452362060547;-137.35064697265625
343;1673376623.605205;47.1286103;7.2378301;71.56400299072266;1673376623.6945748;7.0381879806518555;-6.241138935089111;-137.37612915039062
344;1673376623.7907777;47.1286047;7.2378222999999995;71.77300262451172;1673376623.8841565;8.229022979736328;-7.5043487548828125;-137.36801147460938
345;1673376623.9881508;47.1286002;7.237815899999999;71.9530029296875;1673376624.0824192;7.037022113800049;-8.090659141540527;-137.49594116210938
346;1673376624.1815205;47.128596599999995;7.2378107;72.11000061035156;1673376624.274865;4.259319305419922;-8.765085220336914;-137.34988403320312
347;1673376624.3779228;47.128593699999996;7.237806699999999;72.25100708007812;1673376624.4858928;2.052962303161621;-5.162319183349609;-136.5414276123047
348;1673376624.5918064;47.1285914;7.2378032999999995;72.37300109863281;1673376624.6861129;5.254367828369141;20.293563842773438;-128.9705047607422
349;1673376624.787169;47.1285902;7.2377997;72.46900177001953;1673376624.876538;-1.0015009641647339;18.55668067932129;-118.96452331542969
350;1673376624.988322;47.1285905;7.2377953999999995;72.53700256347656;1673376625.078735;-2.2767841815948486;8.014025688171387;-106.51514434814453
351;1673376625.1817522;47.128591799999995;7.2377905;72.58700561523438;1673376625.3024435;-3.8080852031707764;5.451746940612793;-97.2863998413086
352;1673376625.4034867;47.1285938;7.2377851;72.6300048828125;1673376625.5016408;-2.6439547538757324;3.9562084674835205;-88.3707504272461
353;1673376625.6056435;47.1285963;7.2377793;72.66500091552734;1673376625.702799;-1.5569523572921753;0.2424767166376114;-79.34878540039062
354;1673376625.80386;47.128599099999995;7.2377734;72.69800567626953;1673376625.9019918;-0.9225345253944397;-0.7165534496307373;-70.36114501953125
355;1673376626.0059807;47.128602;7.2377674999999995;72.7280044555664;1673376626.095424;-0.08011960983276367;-0.9351313710212708;-61.44163131713867
356;1673376626.1916673;47.1286049;7.2377614999999995;72.7550048828125;1673376626.2907863;0.861218273639679;-1.6973915100097656;-52.1645393371582
357;1673376626.40259;47.128607599999995;7.2377557999999995;72.781005859375;1673376626.4987683;1.715312123298645;-1.8135472536087036;-42.97472381591797
358;1673376626.6066763;47.1286102;7.2377502;72.80400085449219;1673376626.7009103;3.5454564094543457;-3.7268383502960205;-38.493167877197266
359;1673376626.8088965;47.1286126;7.2377446999999995;72.82500457763672;1673376626.9001963;-8.436847686767578;-5.463974952697754;-40.2037353515625
360;1673376627.0041847;47.128614899999995;7.2377389999999995;72.84700012207031;1673376627.09451;-36.62188720703125;-3.601632833480835;-43.14183044433594
361;1673376627.2024043;47.1286182;7.237731999999999;72.8810043334961;1673376627.288839;-54.23088455200195;-1.2863590717315674;-45.57264709472656
362;1673376627.398701;47.1286237;7.237722;72.89800262451172;1673376627.4938939;-54.13706970214844;-2.344595432281494;-45.01167297363281
363;1673376627.591232;47.1286317;7.2377084;72.91300201416016;1673376627.6913164;-57.090049743652344;-1.9687957763671875;-44.63762664794922
364;1673376627.8040938;47.128642199999994;7.237691099999999;72.94000244140625;1673376627.898317;-61.0500373840332;-1.2959954738616943;-45.58823776245117
365;1673376628.0071876;47.1286552;7.23767;72.96800231933594;1673376628.1024094;-60.5947380065918;0.29211631417274475;-46.54286575317383
366;1673376628.2035568;47.128670199999995;7.2376458999999995;72.98100280761719;1673376628.2977874;-57.17692184448242;0.6205512285232544;-46.491329193115234
367;1673376628.3959486;47.1286869;7.2376197;72.98600006103516;1673376628.4824061;-56.14879608154297;-0.17849572002887726;-46.45261764526367
368;1673376628.5786533;47.1287048;7.2375918;72.97900390625;1673376628.6758304;-56.581146240234375;-0.545171856880188;-46.39141082763672
369;1673376628.7866116;47.128723699999995;7.2375623;72.95600128173828;1673376628.8906069;-53.70991134643555;-0.6222832798957825;-46.344947814941406
370;1673376628.995567;47.1287433;7.2375316;72.91900634765625;1673376629.082964;-50.80824279785156;-0.9639028310775757;-46.416175842285156
371;1673376629.1899414;47.1287635;7.2375001;72.8800048828125;1673376629.2851787;-49.29888916015625;-0.19840550422668457;-46.682926177978516
372;1673376629.3950655;47.1287838;7.237468;72.8530044555664;1673376629.4893568;-48.787906646728516;0.10470275580883026;-46.8305549621582
373;1673376629.5953586;47.1288043;7.2374355999999995;72.83700561523438;1673376629.6954434;-49.87838363647461;0.16772302985191345;-46.80611801147461
374;1673376629.808234;47.128825;7.2374028;72.82600402832031;1673376629.8956134;-50.14036178588867;0.18197448551654816;-46.803993225097656
375;1673376629.9917946;47.128845999999996;7.2373698;72.81500244140625;1673376630.0870004;-49.15510940551758;0.1642346829175949;-46.751007080078125
376;1673376630.2036817;47.1288671;7.2373366;72.80500030517578;1673376630.2940152;-48.85485076904297;0.13760694861412048;-46.74147415161133
377;1673376630.3921676;47.1288882;7.2373031999999995;72.80000305175781;1673376630.4893436;-48.74305725097656;0.13946013152599335;-46.7507438659668
378;1673376630.598264;47.1289093;7.2372698;72.80000305175781;1673376630.7125945;-45.7775993347168;0.2062564641237259;-46.75496292114258
379;1673376630.8242698;47.128930399999994;7.2372365;72.67200469970703;1673376630.9128525;-20.986209869384766;0.12956856191158295;-46.592567443847656
380;1673376631.0332296;47.1289513;7.2372036;72.19499969482422;1673376631.1301732;28.14532470703125;-0.16293056309223175;-46.28489685058594
381;1673376631.231491;47.128972;7.237171099999999;71.3270034790039;1673376631.3305223;88.06891632080078;-174.36953735351562;140.3013458251953
382;1673376631.4454093;47.1289927;7.2371384;70.06100463867188;1673376631.5370655;37.6025505065918;179.14952087402344;133.72970581054688
383;1673376631.6443832;47.1290133;7.2371058999999995;68.44499969482422;1673376631.7471979;14.8130521774292;177.744873046875;128.97242736816406
384;1673376631.8500767;47.1290337;7.2370738;66.46000671386719;1673376631.9580784;21.44678497314453;177.10472106933594;128.35475158691406
385;1673376632.0645354;47.1290536;7.2370424;64.08900451660156;1673376632.14948;58.49991989135742;173.8976593017578;127.6558837890625
386;1673376632.247144;47.1290732;7.2370113;61.375003814697266;1673376632.3414075;55.113792419433594;3.6229007244110107;-41.98373794555664
387;1673376632.441508;47.129093;7.2369802;58.30800247192383;1673376632.535503;-17.61422348022461;1.195863127708435;-45.328983306884766
388;1673376632.6277037;47.1291127;7.2369493;54.823001861572266;1673376632.7143943;-61.04048156738281;-0.1529274582862854;-43.96230697631836
389;1673376632.8183732;47.129132;7.2369189;50.983001708984375;1673376632.9102743;-62.89189910888672;0.4974638819694519;-43.831539154052734
390;1673376633.02455;47.1291511;7.2368888;46.82600402832031;1673376633.1183004;-21.511119842529297;1.6701083183288574;-43.61103439331055
391;1673376633.2244241;47.1291697;7.2368593;42.31800079345703;1673376633.3303776;50.62061309814453;3.211662769317627;-39.26422882080078
392;1673376633.4402208;47.129188299999996;7.236829999999999;37.410003662109375;1673376633.5254076;74.94021606445312;165.02040100097656;123.39939880371094
393;1673376633.6245623;47.129207;7.236800499999999;32.18300247192383;1673376633.7060804;71.29277801513672;164.52708435058594;123.29442596435547
394;1673376633.8184092;47.1292255;7.236771399999999;26.663002014160156;1673376633.9030418;59.204833984375;9.304723739624023;-31.57579231262207
395;1673376634.0144446;47.129244199999995;7.236742199999999;20.83300018310547;1673376634.1042938;-15.917729377746582;2.444110631942749;-39.256080627441406
396;1673376634.2023902;47.1292628;7.236713;14.606000900268555;1673376634.3014653;-60.1729736328125;0.022417886182665825;-38.262943267822266
397;1673376634.4035435;47.1292809;7.2366845;8.04699993133545;1673376634.497196;-43.81587600708008;1.5883734226226807;-37.91070556640625
398;1673376634.6039007;47.1292985;7.2366566;1.1880000829696655;1673376634.6980152;-25.770755767822266;4.207269668579102;-42.77839660644531
399;1673376634.8117723;47.129311099999995;7.2366518;0.6130000352859497;1673376634.9025161;-43.478004455566406;5.683403491973877;-55.32001495361328
400;1673376635.0183256;47.1293218;7.2366515;0.8080000281333923;1673376635.1063447;-47.03330993652344;8.031651496887207;-56.362945556640625
401;1673376635.2324154;47.129331699999994;7.2366518;0.9120000600814819;1673376635.3245943;-40.36833572387695;6.897722244262695;-54.92976760864258
402;1673376635.4356165;47.1293412;7.2366522;0.9620000720024109;1673376635.5282733;-14.020283699035645;4.943566799163818;-51.73538589477539
403;1673376635.6304064;47.1293499;7.236652299999999;0.9550000429153442;1673376635.7206404;-15.43510627746582;3.536926031112671;-51.1619758605957
404;1673376635.833588;47.129359799999996;7.2366508;0.968000054359436;1673376635.9282973;-13.133378028869629;1.2568731307983398;-51.49619674682617
405;1673376636.0263274;47.1293712;7.236649099999999;0.9690000414848328;1673376636.116236;-12.819694519042969;1.225974440574646;-51.6630744934082
406;1673376636.2164683;47.1293838;7.236647199999999;0.9530000686645508;1673376636.3029323;-12.586934089660645;1.1344764232635498;-51.72153854370117
407;1673376636.4038548;47.129397399999995;7.236644999999999;0.9290000200271606;1673376636.5003054;-12.360816955566406;1.43912935256958;-51.823184967041016
408;1673376636.6070874;47.1294117;7.2366424;0.8970000147819519;1673376636.7070854;-12.186810493469238;1.7285727262496948;-51.91407775878906
409;1673376636.811649;47.1294268;7.236639299999999;0.8630000352859497;1673376636.9113388;-12.097688674926758;1.9583390951156616;-51.9611930847168
410;1673376637.015238;47.1294426;7.236635799999999;0.8270000219345093;1673376637.1025217;-11.952409744262695;2.234583616256714;-52.01761245727539
411;1673376637.2152362;47.129458899999996;7.2366318;0.796000063419342;1673376637.3056192;-11.831979751586914;2.4258813858032227;-52.05632019042969
412;1673376637.411517;47.129475899999996;7.236627299999999;0.7600000500679016;1673376637.5053616;-11.700200080871582;2.61422061920166;-52.112178802490234
413;1673376637.611021;47.1294934;7.236622499999999;0.7170000076293945;1673376637.6996536;-11.623651504516602;2.873999834060669;-52.160400390625
414;1673376637.8103871;47.1295116;7.2366171999999995;0.6700000166893005;1673376637.9035711;-11.504924774169922;3.0645995140075684;-52.177955627441406
415;1673376638.0144238;47.1295302;7.236611399999999;0.6220000386238098;1673376638.1144934;-11.420161247253418;3.3160552978515625;-52.21565246582031
416;1673376638.2224603;47.129549399999995;7.2366052;0.5720000267028809;1673376638.3105364;-11.287575721740723;3.516235113143921;-52.239444732666016
417;1673376638.4276175;47.1295691;7.2365986;0.5170000195503235;1673376638.524263;-11.20043659210205;3.6937451362609863;-52.26933288574219
418;1673376638.6295362;47.1295893;7.236591499999999;0.4660000205039978;1673376638.7184544;-11.123613357543945;3.9110403060913086;-52.28299331665039
419;1673376638.8224456;47.1296099;7.236583899999999;0.41600000858306885;1673376638.9105933;-11.042532920837402;4.0449395179748535;-52.29143524169922
420;1673376639.0065477;47.1296311;7.2365759;0.3660000264644623;1673376639.0980291;-10.907410621643066;4.229114532470703;-52.334625244140625
