;pos_time;latitude;longitude;altitude;alt_time;pitch;roll;yaw
0;1673377222.023555;47.1306422;7.2406201999999995;-0.05100000277161598;1673377222.087988;0.039696019142866135;0.4764222204685211;90.13602447509766
1;1673377222.2377443;47.1306423;7.2406201999999995;-0.052000001072883606;1673377222.3027153;0.09904861450195312;0.3572157919406891;90.08829498291016
2;1673377222.437342;47.1306423;7.2406203;-0.05400000140070915;1673377222.5037415;0.10361678153276443;-0.026607651263475418;89.9959487915039
3;1673377222.6252098;47.1306423;7.2406201999999995;-0.05300000309944153;1673377222.6906695;-0.1025814414024353;-0.038884326815605164;90.24937438964844
4;1673377222.8301463;47.1306424;7.2406201999999995;-0.05000000074505806;1673377222.8916364;-0.022146567702293396;-0.7723085284233093;90.05087280273438
5;1673377223.0413227;47.1306424;7.2406201;-0.04800000041723251;1673377223.106445;0.1462133675813675;-0.5367381572723389;90.02055358886719
6;1673377223.2369514;47.1306424;7.24062;-0.05000000074505806;1673377223.3018212;0.12676386535167694;-0.5185200572013855;89.96636199951172
7;1673377223.4448948;47.1306424;7.24062;-0.05300000309944153;1673377223.5088878;-0.12910246849060059;-0.725106954574585;90.18667602539062
8;1673377223.645153;47.1306424;7.2406201;-0.052000001072883606;1673377223.7081418;-0.24298058450222015;-0.37750494480133057;89.99431610107422
9;1673377223.8434432;47.1306424;7.2406201999999995;-0.049000002443790436;1673377223.9017663;-0.11262654513120651;-0.6683304309844971;90.0404052734375
10;1673377224.0391035;47.1306424;7.2406201999999995;-0.05300000309944153;1673377224.0987911;-0.029440540820360184;-0.4881550967693329;90.02888488769531
11;1673377224.242206;47.1306424;7.2406201;-0.0560000017285347;1673377224.3040957;0.17607107758522034;-0.4918326735496521;90.01014709472656
12;1673377224.4415507;47.1306423;7.24062;-0.05700000375509262;1673377224.502245;-0.02158459648489952;-0.5044699907302856;90.11885070800781
13;1673377224.6362631;47.1306423;7.2406198999999996;-0.06000000238418579;1673377224.7002506;-0.14016109704971313;-0.2877504229545593;89.8634033203125
14;1673377224.8473616;47.1306423;7.2406198999999996;0.0;1673377224.9075253;0.19142162799835205;-1.8955261707305908;90.11073303222656
15;1673377225.0447514;47.1306423;7.2406201;-0.0010000000474974513;1673377225.108831;-0.09090766310691833;-1.2167526483535767;89.97908020019531
16;1673377225.2412302;47.1306423;7.2406201999999995;-0.0010000000474974513;1673377225.2998044;-0.11603964865207672;-1.3455193042755127;90.00748443603516
17;1673377225.4348555;47.1306424;7.2406203;0.0;1673377225.493433;-0.2558363676071167;-1.2543567419052124;89.97367095947266
18;1673377225.646243;47.1306424;7.2406204;0.004000000189989805;1673377225.7104921;-0.19789139926433563;-1.2725512981414795;90.02165985107422
19;1673377225.8502915;47.1306424;7.2406204;0.005000000353902578;1673377225.9123547;0.1968340426683426;-1.8767013549804688;90.01824188232422
20;1673377226.0373096;47.1306423;7.2406204;0.005000000353902578;1673377226.0936246;0.4931650161743164;-1.827399730682373;89.93453979492188
21;1673377226.2273686;47.1306423;7.2406204;0.005000000353902578;1673377226.2899735;0.24410086870193481;-1.6704256534576416;89.6842269897461
22;1673377226.4262228;47.1306424;7.2406204;-0.0010000000474974513;1673377226.492203;0.3654203712940216;-2.0644795894622803;89.313232421875
23;1673377226.6283834;47.1306424;7.2406203;0.0;1673377226.6941626;0.3210766911506653;-0.5751718878746033;88.98995971679688
24;1673377226.8354747;47.1306425;7.2406203;-0.004000000189989805;1673377226.9020655;0.5811912417411804;-1.0179108381271362;88.89803314208984
25;1673377227.0313714;47.1306425;7.2406203;-0.005000000353902578;1673377227.0883253;0.8465971946716309;-1.238266110420227;88.22845458984375
26;1673377227.2132282;47.130642599999995;7.2406204;-0.006000000052154064;1673377227.2739286;1.5130492448806763;-1.1034436225891113;86.77883911132812
27;1673377227.425242;47.130642699999996;7.2406204999999995;-0.004000000189989805;1673377227.4962046;1.588001012802124;-1.0232632160186768;85.7421646118164
28;1673377227.6238072;47.1306429;7.2406204;-0.009000000543892384;1673377227.6873517;0.9930056929588318;-1.0888092517852783;79.02976989746094
29;1673377227.8462884;47.1306434;7.2406198999999996;-0.018000001087784767;1673377227.9090679;-0.065573550760746;0.1849851757287979;73.50813293457031
30;1673377228.059499;47.1306441;7.240619;-0.010000000707805157;1673377228.1273203;-1.1422971487045288;-0.8103002905845642;69.95146179199219
31;1673377228.2762945;47.1306455;7.2406174;-0.014000000432133675;1673377228.3383732;-2.5448806285858154;1.6367777585983276;72.73200988769531
32;1673377228.4962263;47.1306474;7.2406149;-0.012000000104308128;1673377228.5553586;-2.349825620651245;5.43269157409668;79.04043579101562
33;1673377228.702108;47.1306498;7.2406115;-0.0010000000474974513;1673377228.7620928;-6.752135753631592;11.098665237426758;80.83470916748047
34;1673377228.9171863;47.130652399999995;7.2406073;0.009000000543892384;1673377228.9733162;-8.343294143676758;13.153258323669434;80.97551727294922
35;1673377229.091347;47.1306553;7.2406026;0.02800000086426735;1673377229.150251;-9.869390487670898;13.348104476928711;81.22453308105469
36;1673377229.2743578;47.1306583;7.2405976;0.05400000140070915;1673377229.3370996;-11.18415355682373;15.545670509338379;81.20394897460938
37;1673377229.4541953;47.1306613;7.2405925;0.07800000160932541;1673377229.5061278;-12.369048118591309;17.256454467773438;81.16044616699219
38;1673377229.6381614;47.1306643;7.2405873;0.10500000417232513;1673377229.697699;-13.974508285522461;18.05841636657715;81.27338409423828
39;1673377229.8278058;47.1306672;7.2405823;0.1300000101327896;1673377229.893312;-15.550820350646973;19.323631286621094;81.38623046875
40;1673377230.0380008;47.1306699;7.2405775;0.16500000655651093;1673377230.10348;-17.123210906982422;21.017385482788086;81.47473907470703
41;1673377230.2480884;47.130672399999995;7.2405729999999995;0.20400001108646393;1673377230.310682;-18.715389251708984;22.237152099609375;81.61198425292969
42;1673377230.4524581;47.1306745;7.240569;0.24500000476837158;1673377230.521334;-20.40764045715332;23.47623634338379;81.76819610595703
43;1673377230.6596649;47.1306764;7.2405656;0.28700000047683716;1673377230.7217064;-22.20812225341797;24.956750869750977;81.98052978515625
44;1673377230.8609705;47.1306778;7.2405629;0.33500000834465027;1673377230.9611948;-24.064064025878906;26.175880432128906;82.3216552734375
45;1673377231.092909;47.1306789;7.2405611;0.3830000162124634;1673377231.150063;-25.937454223632812;27.35352897644043;82.72766876220703
46;1673377231.263885;47.1306794;7.240559999999999;0.43300002813339233;1673377231.3205533;-28.00510597229004;28.611770629882812;83.1871109008789
47;1673377231.436959;47.1306794;7.2405599;0.4910000264644623;1673377231.499423;-29.98583984375;30.009653091430664;83.6716537475586
48;1673377231.6275344;47.1306788;7.2405608;0.5509999990463257;1673377231.6910105;-32.22821044921875;31.028717041015625;84.3068618774414
49;1673377231.8247154;47.1306776;7.240562799999999;0.6100000143051147;1673377231.8862417;-34.564762115478516;32.02461242675781;85.13129425048828
50;1673377232.0252397;47.1306757;7.240565999999999;0.6730000376701355;1673377232.0886686;-37.096134185791016;33.031761169433594;85.98656463623047
51;1673377232.22663;47.130672999999994;7.2405705;0.7430000305175781;1673377232.2972498;-38.81591796875;32.636451721191406;87.4619369506836
52;1673377232.44437;47.1306696;7.2405762;0.8060000538825989;1673377232.5168138;-35.16858673095703;29.015687942504883;89.62596893310547
53;1673377232.6529794;47.130665699999994;7.2405827;0.8670000433921814;1673377232.713531;-31.20145034790039;25.098966598510742;91.27233123779297
54;1673377232.851677;47.130661599999996;7.2405895;0.9190000295639038;1673377232.915111;-25.990825653076172;21.044187545776367;92.50515747070312
55;1673377233.0472205;47.1306577;7.240596;0.9670000672340393;1673377233.112639;-20.86676025390625;17.26156234741211;93.05652618408203
56;1673377233.2457876;47.1306541;7.2406019;1.0090000629425049;1673377233.3064091;-16.99147605895996;15.073586463928223;92.72169494628906
57;1673377233.4510632;47.130651099999994;7.240606799999999;1.0460000038146973;1673377233.5145178;-14.512641906738281;13.569625854492188;92.3929443359375
58;1673377233.6579516;47.1306489;7.2406104;1.0800000429153442;1673377233.71846;-13.86176586151123;13.222743034362793;91.96403503417969
59;1673377233.8496518;47.1306472;7.240613;1.1160000562667847;1673377233.9161692;-14.323282241821289;14.408293724060059;91.17913055419922
60;1673377234.0514145;47.130646;7.2406147;1.1570000648498535;1673377234.102537;-15.568674087524414;16.074968338012695;90.43596649169922
61;1673377234.2300227;47.1306453;7.2406156;1.2090001106262207;1673377234.305175;-17.442800521850586;15.59223461151123;90.40198516845703
62;1673377234.4434218;47.1306449;7.2406159;1.2760000228881836;1673377234.5019455;-19.131153106689453;16.55829429626465;90.3346939086914
63;1673377234.642723;47.1306448;7.240615999999999;1.3560000658035278;1673377234.74273;-19.486412048339844;20.442590713500977;89.57549285888672
64;1673377234.8783956;47.1306448;7.240615999999999;1.4470000267028809;1673377234.9381907;-20.913843154907227;18.435144424438477;90.15884399414062
65;1673377235.076414;47.1306448;7.240615999999999;1.5500000715255737;1673377235.1374714;-22.085803985595703;18.22309112548828;95.19547271728516
66;1673377235.2787957;47.1306447;7.2406160999999996;1.6700000762939453;1673377235.3388662;-23.29228973388672;20.79694366455078;93.93498229980469
67;1673377235.4760494;47.1306446;7.2406163999999995;1.7980000972747803;1673377235.5351715;-22.071802139282227;20.138856887817383;94.31011962890625
68;1673377235.6677175;47.130644499999995;7.2406168;1.9350000619888306;1673377235.7283955;-22.831052780151367;18.002187728881836;95.24356079101562
69;1673377235.8797522;47.1306444;7.2406174;2.0840001106262207;1673377235.9447107;-21.533367156982422;21.00373649597168;94.7091064453125
70;1673377236.1077657;47.1306443;7.2406181;2.243000030517578;1673377236.188923;-20.51450538635254;20.98578643798828;94.83724975585938
71;1673377236.3194797;47.130644;7.2406188;2.4120001792907715;1673377236.3737009;-20.891319274902344;17.56244659423828;95.84403228759766
72;1673377236.502283;47.1306438;7.240619499999999;2.5890002250671387;1673377236.5541356;-20.06159210205078;19.87172508239746;95.3831558227539
73;1673377236.6776545;47.1306434;7.2406198999999996;2.7770001888275146;1673377236.7387686;-19.351808547973633;20.463815689086914;94.87163543701172
74;1673377236.8644342;47.1306431;7.2406201999999995;2.9660000801086426;1673377236.92372;-19.76203727722168;16.531112670898438;95.6520004272461
75;1673377237.0512447;47.1306428;7.2406204999999995;3.1510002613067627;1673377237.1129143;-19.61008644104004;18.376985549926758;95.26445007324219
76;1673377237.2408795;47.130642699999996;7.2406207;3.3340001106262207;1673377237.3043635;-19.008718490600586;19.882959365844727;94.83734130859375
77;1673377237.4373617;47.1306425;7.2406207;3.5210001468658447;1673377237.4978848;-20.126266479492188;16.38651466369629;95.54305267333984
78;1673377237.635649;47.1306424;7.2406206;3.7110002040863037;1673377237.6971915;-20.348512649536133;17.262012481689453;95.40507507324219
79;1673377237.8316278;47.1306423;7.2406204999999995;3.9030001163482666;1673377237.900796;-20.106063842773438;19.93427276611328;94.62964630126953
80;1673377238.0407994;47.1306423;7.2406204;4.091000080108643;1673377238.1062624;-20.378524780273438;17.131128311157227;95.25370025634766
81;1673377238.2404346;47.1306424;7.2406204;4.284000396728516;1673377238.3006964;-21.25630760192871;17.45142936706543;95.65026092529297
82;1673377238.4388075;47.130642599999995;7.2406203;4.4760003089904785;1673377238.5024712;-20.599365234375;20.693044662475586;94.87116241455078
83;1673377238.6447103;47.130642599999995;7.2406203;4.6660003662109375;1673377238.7111642;-20.802221298217773;18.26482391357422;95.41532897949219
84;1673377238.8451486;47.130642699999996;7.2406203;4.859000205993652;1673377238.911232;-21.309492111206055;17.253158569335938;95.74012756347656
85;1673377239.0550528;47.130642699999996;7.2406204;5.053000450134277;1673377239.1127393;-20.85318374633789;20.246946334838867;94.9305419921875
86;1673377239.2587736;47.130642599999995;7.2406204;5.246000289916992;1673377239.3222046;-20.3956356048584;19.371000289916992;95.08710479736328
87;1673377239.4629786;47.130642699999996;7.2406204999999995;5.437000274658203;1673377239.525446;-21.17879295349121;16.839645385742188;95.91409301757812
88;1673377239.6584105;47.130642699999996;7.2406206;5.63100004196167;1673377239.7306926;-20.437652587890625;20.244192123413086;95.0562973022461
89;1673377239.8706071;47.1306428;7.2406207;5.821000099182129;1673377239.9321132;-20.314008712768555;19.71963882446289;94.96599578857422
90;1673377240.0944998;47.130642699999996;7.2406207;6.01300048828125;1673377240.1542063;-20.79100227355957;16.728076934814453;95.85957336425781
91;1673377240.2875636;47.130642699999996;7.2406207;6.207000255584717;1673377240.3467107;-20.794279098510742;19.41848373413086;95.1698226928711
92;1673377240.4791553;47.130642599999995;7.2406207;6.397000312805176;1673377240.539299;-20.048416137695312;19.72553825378418;94.85684204101562
93;1673377240.6707675;47.130642599999995;7.240620799999999;6.590000152587891;1673377240.7363112;-20.750703811645508;16.890071868896484;95.57257843017578
94;1673377240.8776937;47.130642699999996;7.240620799999999;6.782000541687012;1673377240.934563;-20.6326847076416;19.243377685546875;95.1886215209961
95;1673377241.1121678;47.130642699999996;7.2406209;6.9760003089904785;1673377241.1728628;-20.115840911865234;20.335607528686523;94.92153930664062
96;1673377241.2898831;47.130642699999996;7.240621;7.1670002937316895;1673377241.346058;-20.696786880493164;16.85990333557129;95.74539184570312
97;1673377241.4715464;47.130642699999996;7.240621;7.3580002784729;1673377241.5359712;-20.962867736816406;18.330886840820312;95.45272827148438
98;1673377241.6786942;47.130642599999995;7.240621;7.551000595092773;1673377241.7456145;-20.24256706237793;20.268627166748047;94.86354064941406
99;1673377241.875879;47.130642599999995;7.240621;7.748000144958496;1673377241.930577;-20.57271385192871;17.084054946899414;95.73548126220703
100;1673377242.0679634;47.130642599999995;7.240621099999999;7.944000244140625;1673377242.12458;-20.812475204467773;18.118791580200195;95.4615249633789
101;1673377242.2582724;47.130642699999996;7.240621099999999;8.142000198364258;1673377242.3276238;-20.182966232299805;20.7618350982666;94.72882080078125
102;1673377242.4801705;47.130642599999995;7.2406212;8.342000007629395;1673377242.5378299;-20.424943923950195;17.720726013183594;95.5835189819336
103;1673377242.6679254;47.130642599999995;7.2406213;8.541000366210938;1673377242.7275376;-20.755725860595703;17.44447898864746;95.6761474609375
104;1673377242.864373;47.130642599999995;7.2406212;8.737000465393066;1673377242.9307308;-20.169755935668945;20.560192108154297;94.71198272705078
105;1673377243.0701675;47.1306425;7.2406213;8.938000679016113;1673377243.1333747;-20.266929626464844;18.021875381469727;95.3031005859375
106;1673377243.2560174;47.130642599999995;7.2406213;9.142000198364258;1673377243.3157058;-20.99431610107422;17.364425659179688;95.67024993896484
107;1673377243.4778905;47.130642699999996;7.240621399999999;9.342000007629395;1673377243.5364583;-20.17594337463379;20.523696899414062;94.909912109375
108;1673377243.679285;47.130642599999995;7.240621399999999;9.544000625610352;1673377243.7417817;-20.3494815826416;18.667089462280273;95.17706298828125
109;1673377243.8797576;47.130642599999995;7.240621399999999;9.748000144958496;1673377243.9424632;-20.745954513549805;16.818634033203125;95.79286193847656
110;1673377244.0828817;47.130642599999995;7.240621399999999;9.94800090789795;1673377244.1488988;-20.53514289855957;20.20317268371582;95.02033233642578
111;1673377244.2894318;47.1306425;7.240621399999999;10.156000137329102;1673377244.3462505;-19.45543670654297;18.82631492614746;95.15037536621094
112;1673377244.4952788;47.1306424;7.2406215;10.42300033569336;1673377244.5570402;-21.947599411010742;17.788469314575195;95.7904052734375
113;1673377244.6903386;47.1306423;7.2406219;10.790000915527344;1673377244.7553148;-23.631664276123047;21.58631706237793;95.36956024169922
114;1673377244.8818707;47.1306419;7.2406226;11.184000968933105;1673377244.9426582;-20.398117065429688;19.969480514526367;95.15302276611328
115;1673377245.0632977;47.130641399999995;7.240623299999999;11.586000442504883;1673377245.1221762;-19.12652015686035;16.79537010192871;95.45693969726562
116;1673377245.26392;47.130641;7.2406239;11.985000610351562;1673377245.3225887;-18.099990844726562;17.14144515991211;95.28490447998047
117;1673377245.4593444;47.1306407;7.2406242;12.372000694274902;1673377245.5237427;-17.194686889648438;17.880264282226562;94.8296890258789
118;1673377245.6631932;47.1306406;7.2406242999999995;12.757000923156738;1673377245.722822;-17.194686889648438;15.72749137878418;95.26709747314453
119;1673377245.862595;47.1306407;7.2406242;13.131000518798828;1673377245.9241993;-18.067602157592773;16.076379776000977;95.37895965576172
120;1673377246.080614;47.130640899999996;7.2406239;13.500000953674316;1673377246.1422873;-18.024324417114258;18.98366928100586;94.75167846679688
121;1673377246.2807703;47.1306411;7.2406234;13.868000984191895;1673377246.334454;-19.047544479370117;17.29300880432129;95.1670150756836
122;1673377246.4584308;47.1306413;7.2406228;14.234000205993652;1673377246.5238857;-20.435134887695312;16.382301330566406;95.7035140991211
123;1673377246.6633837;47.130641499999996;7.2406222;14.590001106262207;1673377246.7279296;-20.523481369018555;19.601051330566406;95.00067138671875
124;1673377246.8835123;47.1306417;7.240621699999999;14.949000358581543;1673377246.9505925;-20.853219985961914;18.76274871826172;95.19271087646484
125;1673377247.0868816;47.1306419;7.2406213;15.313000679016113;1673377247.1434925;-21.698486328125;16.967885971069336;95.68218994140625
126;1673377247.2675648;47.130642099999996;7.2406212;15.677000999450684;1673377247.3264172;-21.119190216064453;19.873191833496094;95.17193603515625
127;1673377247.4589252;47.1306422;7.2406212;16.047000885009766;1673377247.5204015;-20.57564926147461;19.559829711914062;95.16616821289062
128;1673377247.6707573;47.1306423;7.2406213;16.417001724243164;1673377247.7402341;-20.707733154296875;17.09830093383789;95.69915008544922
129;1673377247.8874946;47.1306423;7.2406215;16.793001174926758;1673377247.9495237;-20.29868507385254;19.28584098815918;95.27671813964844
130;1673377248.0868013;47.1306423;7.2406216;17.167001724243164;1673377248.146383;-19.38355255126953;19.76963233947754;95.00879669189453
131;1673377248.2950845;47.1306422;7.240621699999999;17.54800033569336;1673377248.354192;-19.865188598632812;17.192066192626953;95.69126892089844
132;1673377248.4931703;47.1306422;7.2406217999999996;17.9320011138916;1673377248.5554006;-19.702587127685547;18.366729736328125;95.48538970947266
133;1673377248.6875281;47.1306422;7.2406217999999996;18.319000244140625;1673377248.7441394;-19.366952896118164;19.979238510131836;95.0137710571289
134;1673377248.8877802;47.130642099999996;7.240621699999999;18.709001541137695;1673377248.9484358;-19.539623260498047;17.148277282714844;95.52749633789062
135;1673377249.075275;47.130642099999996;7.240621699999999;19.093000411987305;1673377249.1369064;-19.934595108032227;17.672473907470703;95.50265502929688
136;1673377249.2787988;47.130642099999996;7.2406215;19.46700096130371;1673377249.3453112;-19.509546279907227;19.676555633544922;94.92977142333984
137;1673377249.484218;47.130642099999996;7.240621399999999;19.84600067138672;1673377249.5468307;-19.532546997070312;18.11835479736328;95.27677154541016
138;1673377249.6784554;47.130642099999996;7.240621399999999;20.229000091552734;1673377249.736049;-20.35042381286621;16.805883407592773;95.68443298339844
139;1673377249.8597813;47.130642099999996;7.2406213;20.61400032043457;1673377249.925173;-20.0528564453125;19.51275062561035;95.07113647460938
140;1673377250.1197555;47.130642099999996;7.2406212;20.998001098632812;1673377250.1818314;-19.69797134399414;18.58683967590332;95.20499420166016
141;1673377250.31056;47.130641999999995;7.2406212;21.380001068115234;1673377250.370339;-20.475826263427734;16.778907775878906;95.63260650634766
142;1673377250.5056872;47.130641999999995;7.240621099999999;21.76300048828125;1673377250.5716949;-20.04276466369629;19.32917022705078;95.09870910644531
143;1673377250.7014773;47.130641999999995;7.240621;22.142000198364258;1673377250.757685;-19.802261352539062;19.085004806518555;95.10147094726562
144;1673377250.873642;47.130642099999996;7.240621;22.527000427246094;1673377250.9302464;-20.470722198486328;16.72480010986328;95.79855346679688
145;1673377251.0759532;47.130642099999996;7.240621;22.917001724243164;1673377251.1414251;-20.234704971313477;18.888107299804688;95.27550506591797
146;1673377251.2867393;47.130642099999996;7.240621;23.306001663208008;1673377251.3416336;-19.558229446411133;19.608476638793945;94.90808868408203
147;1673377251.4657273;47.130642099999996;7.240621;23.694000244140625;1673377251.5331123;-20.125574111938477;17.134618759155273;95.56059265136719
148;1673377251.6641054;47.130642099999996;7.240621;24.0830020904541;1673377251.7246358;-20.23100471496582;17.962909698486328;95.45560455322266
149;1673377251.872229;47.130641999999995;7.240621;24.466001510620117;1673377251.9347413;-19.523218154907227;19.863719940185547;94.9992904663086
150;1673377252.067617;47.130642099999996;7.240621;24.851001739501953;1673377252.1359367;-20.082523345947266;16.93982696533203;95.6775131225586
151;1673377252.2815468;47.130642099999996;7.240621;25.23900032043457;1673377252.3444881;-20.225133895874023;17.91420555114746;95.47492980957031
152;1673377252.486702;47.130642099999996;7.240621;25.631000518798828;1673377252.5525177;-19.8193302154541;20.079639434814453;94.86134338378906
153;1673377252.685103;47.130642099999996;7.2406209;26.025001525878906;1673377252.7407324;-19.79759979248047;17.523052215576172;95.39407348632812
154;1673377252.9335585;47.130642099999996;7.2406209;26.420001983642578;1673377252.9927075;-20.333389282226562;17.27463150024414;95.58129119873047
155;1673377253.123125;47.1306422;7.2406209;26.812002182006836;1673377253.18389;-19.644033432006836;20.100873947143555;94.9654769897461
156;1673377253.3090146;47.1306422;7.2406209;27.196001052856445;1673377253.365249;-19.825347900390625;18.05359649658203;95.40280151367188
157;1673377253.5083532;47.1306423;7.2406209;27.588001251220703;1673377253.5744612;-20.350276947021484;17.231952667236328;95.66510009765625
158;1673377253.6981924;47.1306423;7.240621;27.98000144958496;1673377253.7580307;-19.675857543945312;19.96588897705078;95.00318908691406
159;1673377253.8943381;47.1306423;7.240621;28.375001907348633;1673377253.9595935;-19.73381996154785;18.791213989257812;95.13679504394531
160;1673377254.0921059;47.1306423;7.240621;28.770000457763672;1673377254.1545732;-20.144908905029297;16.989301681518555;95.67513275146484
161;1673377254.2944415;47.1306423;7.2406209;29.16200065612793;1673377254.3570566;-20.050031661987305;19.23517608642578;95.17796325683594
162;1673377254.4825613;47.1306423;7.2406209;29.54400062561035;1673377254.545089;-19.647180557250977;19.237756729125977;95.0298843383789
163;1673377254.6879218;47.1306423;7.240620799999999;29.930002212524414;1673377254.7572317;-20.362892150878906;16.903722763061523;95.74425506591797
164;1673377254.8903716;47.1306424;7.240620799999999;30.32200050354004;1673377254.9518692;-19.977123260498047;19.223756790161133;95.13645935058594
165;1673377255.112635;47.1306423;7.240620799999999;30.713001251220703;1673377255.1715531;-19.58478355407715;19.62331771850586;94.9745101928711
166;1673377255.290499;47.1306423;7.240620799999999;31.10500144958496;1673377255.3445034;-19.99948501586914;16.903512954711914;95.70562744140625
167;1673377255.471261;47.1306423;7.240620799999999;31.499000549316406;1673377255.5328078;-20.110721588134766;18.666820526123047;95.3997802734375
168;1673377255.6713371;47.1306423;7.240620799999999;31.895002365112305;1673377255.73478;-19.432300567626953;19.93553924560547;94.86717987060547
169;1673377255.8793075;47.1306423;7.240620799999999;32.28200149536133;1673377255.9428291;-20.116361618041992;17.20293617248535;95.52481079101562
170;1673377256.0856686;47.1306423;7.2406207;32.669002532958984;1673377256.139976;-20.120893478393555;18.05012321472168;95.54143524169922
171;1673377256.2795405;47.1306423;7.2406207;33.060001373291016;1673377256.3462865;-19.730178833007812;20.119430541992188;94.93827819824219
172;1673377256.4946296;47.1306422;7.2406206;33.45600128173828;1673377256.5634913;-19.82384490966797;17.469728469848633;95.5678482055664
173;1673377256.6997716;47.1306423;7.2406206;33.85600280761719;1673377256.7593095;-20.369525909423828;17.596284866333008;95.49726104736328
174;1673377256.8942559;47.1306423;7.2406204999999995;34.25400161743164;1673377256.9796793;-19.43970489501953;20.261768341064453;94.91634368896484
175;1673377257.1228423;47.1306423;7.2406204999999995;34.64200210571289;1673377257.180135;-19.88570785522461;18.25497817993164;95.35008239746094
176;1673377257.3154516;47.1306424;7.2406204999999995;35.034000396728516;1673377257.375637;-20.13294792175293;17.273555755615234;95.6655044555664
177;1673377257.5004673;47.1306424;7.2406204999999995;35.427001953125;1673377257.5610716;-19.967159271240234;20.071130752563477;95.02195739746094
178;1673377257.7019627;47.1306423;7.2406204999999995;35.82100296020508;1673377257.7766938;-19.67856216430664;18.621742248535156;95.30816650390625
179;1673377257.915135;47.1306423;7.2406204999999995;36.217002868652344;1673377257.9639392;-20.25335121154785;17.190948486328125;95.68824005126953
180;1673377258.105775;47.1306423;7.2406204;36.6140022277832;1673377258.1676338;-19.885560989379883;19.696290969848633;95.05509185791016
181;1673377258.2922251;47.1306423;7.2406204;37.01300048828125;1673377258.3521798;-19.771652221679688;19.489484786987305;94.98428344726562
182;1673377258.4740276;47.1306423;7.2406204;37.40299987792969;1673377258.5316355;-20.165189743041992;16.764726638793945;95.7571792602539
183;1673377258.663199;47.1306423;7.2406204;37.797000885009766;1673377258.7341826;-20.211990356445312;18.8734073638916;95.3197021484375
184;1673377258.881803;47.1306422;7.2406204;38.19200134277344;1673377258.9415836;-19.460294723510742;19.908315658569336;94.89808654785156
185;1673377259.0700865;47.1306422;7.2406203;38.5890007019043;1673377259.1346438;-20.020601272583008;16.939207077026367;95.59503173828125
186;1673377259.2754853;47.1306423;7.2406203;38.983001708984375;1673377259.342011;-20.261354446411133;18.37368392944336;95.39456939697266
187;1673377259.4915278;47.1306424;7.2406203;39.38100051879883;1673377259.5523317;-19.580102920532227;20.305450439453125;95.02568054199219
188;1673377259.6784766;47.1306424;7.2406203;39.77100372314453;1673377259.7429779;-19.945873260498047;17.65117835998535;95.52486419677734
189;1673377259.8876781;47.1306424;7.2406203;40.16800308227539;1673377259.9530902;-20.26508903503418;17.84294319152832;95.62141418457031
190;1673377260.0957253;47.1306424;7.2406203;40.569000244140625;1673377260.1726475;-19.672561645507812;20.2410831451416;94.96808624267578
191;1673377260.3020782;47.1306423;7.2406203;40.970001220703125;1673377260.3635767;-19.510147094726562;18.26285171508789;95.32373809814453
192;1673377260.498713;47.1306423;7.2406203;41.36600112915039;1673377260.5622566;-20.252897262573242;17.31683349609375;95.49684143066406
193;1673377260.6905837;47.1306423;7.2406203;41.76300048828125;1673377260.7501192;-19.606609344482422;20.09695053100586;94.97557830810547
194;1673377260.9115248;47.1306423;7.2406201999999995;42.159000396728516;1673377260.968142;-19.647817611694336;18.724138259887695;95.27288818359375
195;1673377261.1068888;47.1306423;7.2406201999999995;42.547000885009766;1673377261.166476;-20.321475982666016;16.940914154052734;95.70711517333984
196;1673377261.3060462;47.1306422;7.2406201;42.94000244140625;1673377261.374919;-19.9820613861084;19.40440559387207;95.05950164794922
197;1673377261.5398338;47.1306422;7.2406201;43.34000015258789;1673377261.6181455;-19.784587860107422;19.2767333984375;95.11012268066406
198;1673377261.7427242;47.1306422;7.24062;43.73800277709961;1673377261.7971206;-20.163944244384766;16.956159591674805;95.7193832397461
199;1673377261.927118;47.1306423;7.24062;44.13900375366211;1673377261.986329;-20.044836044311523;19.347856521606445;95.13007354736328
200;1673377262.1225872;47.1306423;7.24062;44.54100036621094;1673377262.233978;-19.40152359008789;19.93087387084961;94.98571014404297
201;1673377262.3679078;47.1306423;7.2406201;44.93400192260742;1673377262.424788;-19.940149307250977;17.150606155395508;95.6666259765625
202;1673377262.5514097;47.1306424;7.2406201;45.33400344848633;1673377262.6061563;-20.035184860229492;18.722991943359375;95.36582946777344
203;1673377262.724143;47.1306424;7.24062;45.73100280761719;1673377262.7822938;-19.548154830932617;20.373031616210938;94.97865295410156
204;1673377262.9217062;47.1306423;7.24062;46.125003814697266;1673377262.9915392;-19.95272445678711;17.596431732177734;95.57566833496094
205;1673377263.1320558;47.1306424;7.2406198999999996;46.52100372314453;1673377263.2044332;-20.308502197265625;18.2272891998291;95.43888854980469
206;1673377263.337725;47.1306424;7.2406198999999996;46.92300033569336;1673377263.396326;-19.69320297241211;20.246479034423828;94.97449493408203
207;1673377263.5278482;47.1306423;7.2406198999999996;47.3280029296875;1673377263.5853813;-19.99319839477539;18.226531982421875;95.43187713623047
208;1673377263.7066872;47.1306423;7.2406198999999996;47.724002838134766;1673377263.7642808;-20.22325897216797;17.66822052001953;95.50552368164062
209;1673377263.9109232;47.1306423;7.240619799999999;48.1150016784668;1673377263.9657426;-20.298683166503906;20.793678283691406;94.70726776123047
210;1673377264.096836;47.1306423;7.240619799999999;48.457000732421875;1673377264.1584888;-20.310649871826172;18.15494155883789;95.33985137939453
211;1673377264.283724;47.1306424;7.2406196;48.74500274658203;1673377264.3434207;-20.58340835571289;19.073387145996094;95.21483612060547
212;1673377264.4799495;47.130642599999995;7.2406193;48.98600387573242;1673377264.5425315;-20.83375358581543;20.63824462890625;94.92996978759766
213;1673377264.6816416;47.1306428;7.2406191;49.18400192260742;1673377264.7422695;-21.464977264404297;19.10926628112793;95.4457015991211
214;1673377264.8996563;47.1306429;7.2406188;49.342002868652344;1673377264.9640715;-14.563982963562012;27.988391876220703;96.56022644042969
215;1673377265.1105213;47.130642699999996;7.2406179999999996;49.487003326416016;1673377265.1643972;-2.8790807723999023;45.568668365478516;108.22244262695312
216;1673377265.287761;47.1306413;7.240615;49.6140022277832;1673377265.3464797;-5.526782035827637;58.383785247802734;120.01493072509766
217;1673377265.498737;47.130637899999996;7.2406083;49.711002349853516;1673377265.586289;-16.189970016479492;57.48109436035156;130.4967498779297
218;1673377265.7208483;47.1306325;7.2405978;49.75200271606445;1673377265.785507;-24.025602340698242;49.169097900390625;139.7423553466797
219;1673377265.925764;47.1306253;7.2405840999999995;49.78900146484375;1673377265.9926822;-35.35984802246094;50.43683624267578;146.39027404785156
220;1673377266.12324;47.130616499999995;7.240567599999999;49.798004150390625;1673377266.1891723;-42.86475372314453;41.62779235839844;159.26309204101562
221;1673377266.3272774;47.1306066;7.2405479999999995;49.78400421142578;1673377266.3971198;-45.493858337402344;30.543746948242188;169.58717346191406
222;1673377266.5187593;47.130595299999996;7.2405266;49.7650032043457;1673377266.5857937;-50.173309326171875;27.85904884338379;175.3185577392578
223;1673377266.7152154;47.1305829;7.240503599999999;49.72900390625;1673377266.7748363;-50.295230865478516;19.598342895507812;-174.17222595214844
224;1673377266.9098876;47.130569799999996;7.2404788;49.69300079345703;1673377266.9655948;-47.46601867675781;11.091692924499512;-165.98959350585938
225;1673377267.106102;47.130556399999996;7.2404528;49.65900421142578;1673377267.1705275;-48.661163330078125;5.551676273345947;-159.3369598388672
226;1673377267.2907789;47.1305428;7.240425999999999;49.62900161743164;1673377267.348364;-47.33964920043945;-3.3479385375976562;-151.0790557861328
227;1673377267.4997141;47.1305292;7.240399;49.608001708984375;1673377267.5543501;-44.58068084716797;-10.369738578796387;-155.49038696289062
228;1673377267.691144;47.1305154;7.2403724;49.564002990722656;1673377267.7545803;-36.67300033569336;-5.1099019050598145;-171.83197021484375
229;1673377267.8943608;47.1305018;7.240347;49.52800369262695;1673377267.9588108;-35.57042694091797;-0.3792509436607361;177.50196838378906
230;1673377268.0907419;47.1304887;7.2403232;49.512001037597656;1673377268.1541848;-37.252777099609375;2.972848415374756;168.18324279785156
231;1673377268.3046439;47.130475999999994;7.240301;49.53200149536133;1673377268.375894;-41.89970779418945;8.582221031188965;158.6385498046875
232;1673377268.5198283;47.1304635;7.240280599999999;49.57500076293945;1673377268.5741951;-44.74176788330078;11.106450080871582;149.772216796875
233;1673377268.6998787;47.130451;7.2402622;49.637001037597656;1673377268.7623563;-44.742713928222656;18.603288650512695;139.2937774658203
234;1673377268.8989336;47.130438;7.2402462;49.69400405883789;1673377268.97059;-44.17674255371094;22.859838485717773;130.22454833984375
235;1673377269.1088622;47.130424999999995;7.240232;49.77000045776367;1673377269.1666644;-48.725608825683594;20.469972610473633;126.48458099365234
236;1673377269.317251;47.1304118;7.2402203;49.8650016784668;1673377269.3787584;-52.56037521362305;-0.1854802519083023;130.6734619140625
237;1673377269.501968;47.130399;7.2402121;49.94600296020508;1673377269.56736;-50.7047119140625;-22.281686782836914;131.6138153076172
238;1673377269.7041397;47.130387999999996;7.2402079;49.97300338745117;1673377269.7587993;-43.09941482543945;-25.044815063476562;127.38299560546875
239;1673377269.9034302;47.130379399999995;7.2402073;49.96900177001953;1673377269.97272;-32.746246337890625;-25.87818717956543;129.55609130859375
240;1673377270.1229596;47.1303732;7.2402093999999995;49.96900177001953;1673377270.181069;-29.896364212036133;-25.259958267211914;139.03720092773438
241;1673377270.3186333;47.130369099999996;7.2402133;50.00800323486328;1673377270.3801415;-27.410091400146484;4.611660003662109;149.2825164794922
242;1673377270.507095;47.1303658;7.2402169;50.047000885009766;1673377270.5726862;-36.347442626953125;45.8317756652832;157.25550842285156
243;1673377270.7026489;47.1303621;7.2402168;50.03000259399414;1673377270.7641513;-40.25552749633789;38.21370315551758;176.62261962890625
244;1673377270.9067187;47.1303578;7.2402111;49.97600173950195;1673377270.9779778;-31.123470306396484;29.260149002075195;-174.95211791992188
245;1673377271.1126947;47.1303534;7.240201;49.9160041809082;1673377271.169707;-28.304195404052734;23.28597640991211;-170.673583984375
246;1673377271.2916782;47.1303492;7.240187499999999;49.88200378417969;1673377271.3525405;-36.413169860839844;14.548171043395996;-161.201171875
247;1673377271.4826906;47.130344799999996;7.240170999999999;49.89800262451172;1673377271.5461705;-49.398162841796875;0.211578831076622;-151.0961456298828
248;1673377271.6779742;47.1303395;7.240151999999999;49.939002990722656;1673377271.7434392;-54.63227081298828;-9.822468757629395;-142.217041015625
249;1673377271.8837173;47.130332599999996;7.2401307;49.99400329589844;1673377271.9585483;-56.080322265625;-20.155357360839844;-139.20985412597656
250;1673377272.0914538;47.1303238;7.2401082;50.044002532958984;1673377272.1587918;-55.788734436035156;-17.713245391845703;-151.78005981445312
251;1673377272.2886882;47.130313199999996;7.240085799999999;50.06500244140625;1673377272.3455875;-51.98454284667969;-8.947731971740723;-164.47427368164062
252;1673377272.478449;47.1303012;7.2400639;50.0780029296875;1673377272.5414915;-51.63197708129883;-1.7562892436981201;-173.43528747558594
253;1673377272.6750393;47.130288199999995;7.2400429;50.08000183105469;1673377272.7361023;-51.72427749633789;5.051096439361572;177.99961853027344
254;1673377272.8804464;47.1302744;7.2400224;50.073001861572266;1673377272.9464161;-47.35580825805664;11.170894622802734;168.7310028076172
255;1673377273.138754;47.1302601;7.240002499999999;50.060001373291016;1673377273.187557;-43.10793685913086;16.996519088745117;159.52915954589844
256;1673377273.3097801;47.1302455;7.239983199999999;50.03000259399414;1673377273.3785398;-36.92584991455078;20.7737979888916;150.44491577148438
257;1673377273.5081525;47.130231099999996;7.2399644;49.99400329589844;1673377273.566702;-30.738868713378906;22.338773727416992;141.02720642089844
258;1673377273.7105007;47.130217099999996;7.239946199999999;49.96200180053711;1673377273.7936854;-26.06096076965332;26.562170028686523;130.05699157714844
259;1673377273.928518;47.1302034;7.2399287999999995;49.96000289916992;1673377274.009057;-27.72463035583496;38.97089385986328;120.96227264404297
260;1673377274.1917586;47.130189699999995;7.2399119;49.98200225830078;1673377274.2503448;-27.719215393066406;41.18452072143555;125.20047760009766
261;1673377274.3939197;47.1301756;7.239895;50.02700424194336;1673377274.441811;-34.433616638183594;45.95225524902344;130.88824462890625
262;1673377274.5710356;47.1301609;7.2398776;50.05400085449219;1673377274.6302443;-40.05013656616211;44.049537658691406;136.68597412109375
263;1673377274.751078;47.1301455;7.2398596;50.0420036315918;1673377274.8030465;-34.99696731567383;27.005956649780273;139.14837646484375
264;1673377274.9635446;47.13013;7.2398416999999995;49.993003845214844;1673377275.017803;-32.9653205871582;11.702795028686523;137.2583465576172
265;1673377275.143981;47.1301152;7.239825199999999;49.94000244140625;1673377275.2015853;-36.646873474121094;-12.607843399047852;137.08685302734375
266;1673377275.3320951;47.130102099999995;7.2398118;49.90400314331055;1673377275.3917494;-37.2258415222168;-23.42806625366211;133.34698486328125
267;1673377275.5144408;47.1300914;7.2398022;49.89500427246094;1673377275.570098;-35.32026290893555;-27.37753677368164;130.07643127441406
268;1673377275.7039547;47.1300834;7.239795999999999;49.87300109863281;1673377275.7673955;-28.998737335205078;-25.821075439453125;129.69760131835938
269;1673377275.9042952;47.130077899999996;7.2397927;49.84800338745117;1673377275.9737432;-26.722333908081055;-28.29653549194336;133.48126220703125
270;1673377276.1223555;47.1300751;7.239791899999999;49.87000274658203;1673377276.190747;-33.52077102661133;-38.374473571777344;143.4815673828125
271;1673377276.3546665;47.1300745;7.2397943;49.93000411987305;1673377276.4118354;-29.747695922851562;-39.9976692199707;153.52926635742188
272;1673377276.535138;47.1300755;7.2397997;49.99700164794922;1673377276.596183;-19.750436782836914;-37.02888107299805;167.1583709716797
273;1673377276.7355092;47.130077199999995;7.2398069;50.052001953125;1673377276.7932818;-15.290666580200195;-31.568763732910156;178.21371459960938
274;1673377276.9345415;47.1300795;7.2398146;50.083003997802734;1673377276.9963052;-16.933555603027344;-24.565982818603516;-172.4577178955078
275;1673377277.1316626;47.1300818;7.239821999999999;50.10000228881836;1673377277.1997426;-19.29547882080078;-22.02610969543457;-163.55458068847656
276;1673377277.3314114;47.130083899999995;7.2398283999999995;50.10400390625;1673377277.4051754;-21.405366897583008;-22.321937561035156;-154.8008270263672
277;1673377277.532405;47.1300853;7.2398336;50.11600112915039;1673377277.5920908;-21.025066375732422;-26.266408920288086;-145.90016174316406
278;1673377277.7320182;47.130086;7.2398374;50.12800216674805;1673377277.7911267;-20.870742797851562;-29.755659103393555;-136.90219116210938
279;1673377277.9046137;47.1300855;7.2398397;50.13600158691406;1673377277.9622412;-20.64711570739746;-34.25179672241211;-130.03778076171875
280;1673377278.1038668;47.130084;7.2398409;50.15200424194336;1673377278.1669822;-27.243005752563477;-35.544960021972656;-132.34600830078125
281;1673377278.3023643;47.1300812;7.239840699999999;50.178001403808594;1673377278.369755;-37.330204010009766;-32.69499206542969;-135.861328125
282;1673377278.5078819;47.130077;7.2398389;50.19900131225586;1673377278.5732708;-43.78225326538086;-25.758615493774414;-137.3120880126953
283;1673377278.7092197;47.1300713;7.2398349;50.21900177001953;1673377278.7778902;-54.63974380493164;-14.365882873535156;-137.47152709960938
284;1673377278.9062774;47.130063899999996;7.2398275;50.22900390625;1673377278.9620833;-57.043819427490234;-11.63248062133789;-135.93165588378906
285;1673377279.1000452;47.1300551;7.239815999999999;50.215003967285156;1673377279.163526;-52.26497268676758;-10.326570510864258;-137.5726318359375
286;1673377279.3194516;47.1300452;7.2398009;50.18700408935547;1673377279.3781848;-52.66874694824219;-6.473694801330566;-142.95458984375
287;1673377279.5199983;47.1300344;7.2397833;50.1660041809082;1673377279.5844235;-49.59080123901367;-9.088860511779785;-142.50205993652344
288;1673377279.7231321;47.130023;7.2397636;50.14500427246094;1673377279.7885282;-51.063018798828125;-10.820837020874023;-141.91502380371094
289;1673377279.929398;47.130010999999996;7.2397423;50.11100387573242;1673377279.9879775;-49.45119094848633;-13.049529075622559;-140.86924743652344
290;1673377280.1219158;47.1299983;7.239719699999999;50.082000732421875;1673377280.192182;-50.846012115478516;-14.23865032196045;-140.34515380859375
291;1673377280.3390825;47.1299851;7.239696299999999;50.04500198364258;1673377280.4011643;-48.08990478515625;-14.11837100982666;-140.176513671875
292;1673377280.5315053;47.129971399999995;7.239672199999999;50.00800323486328;1673377280.5901592;-46.68581008911133;-15.27856731414795;-139.68634033203125
293;1673377280.7143826;47.129957499999996;7.2396476;49.96800231933594;1673377280.7745638;-45.094635009765625;-16.30128288269043;-139.82318115234375
294;1673377280.9114752;47.1299433;7.2396226;49.94200134277344;1673377280.9789567;-44.54275131225586;-17.14202117919922;-140.23863220214844
295;1673377281.1111698;47.129928799999995;7.2395977;49.927001953125;1673377281.1709042;-45.641578674316406;-16.709978103637695;-140.29580688476562
296;1673377281.3436406;47.129914299999996;7.2395727;49.91200256347656;1673377281.4085975;-45.283668518066406;-16.83711814880371;-140.3094024658203
297;1673377281.528207;47.1298995;7.2395477999999995;49.90400314331055;1673377281.580912;-44.458988189697266;-16.76103401184082;-140.56808471679688
298;1673377281.7011259;47.1298847;7.2395229;49.90200424194336;1673377281.7568038;-44.893802642822266;-18.473445892333984;-141.09764099121094
299;1673377281.8905103;47.1298696;7.239498299999999;49.910003662109375;1673377281.9669428;-47.96918487548828;-21.050432205200195;-148.47036743164062
300;1673377282.118576;47.1298542;7.2394744;49.92000198364258;1673377282.1868956;-46.65585708618164;-13.459511756896973;-161.00405883789062
301;1673377282.3177888;47.1298384;7.2394516;49.92400360107422;1673377282.3824217;-46.53874206542969;-9.4175443649292;-169.41014099121094
302;1673377282.5167534;47.1298226;7.23943;49.9170036315918;1673377282.5843844;-44.12135314941406;-2.1410298347473145;-178.92967224121094
303;1673377282.7016234;47.1298068;7.2394096;49.913002014160156;1673377282.759904;-43.87703323364258;4.72727108001709;173.08937072753906
304;1673377282.8970838;47.1297911;7.2393902;49.910003662109375;1673377282.9661083;-43.69225311279297;8.073288917541504;165.40548706054688
305;1673377283.102527;47.129775699999996;7.2393716999999995;49.900001525878906;1673377283.1685545;-41.03950500488281;5.600975036621094;157.09535217285156
306;1673377283.3144047;47.1297606;7.2393547;49.87000274658203;1673377283.3831315;-33.25629425048828;-22.055091857910156;147.329833984375
307;1673377283.5170093;47.129747099999996;7.239340599999999;49.83000183105469;1673377283.5912251;-25.2454891204834;-32.74861145019531;142.68846130371094
308;1673377283.721419;47.1297363;7.2393297;49.76400375366211;1673377283.7849357;-6.364573955535889;-18.394493103027344;151.0340576171875
309;1673377283.9198081;47.1297283;7.2393206;49.71800231933594;1673377283.978375;5.16093635559082;-27.88994598388672;173.38404846191406
310;1673377284.1189227;47.1297231;7.2393132;49.71800231933594;1673377284.1745486;14.692481994628906;-29.4901123046875;-177.4384307861328
311;1673377284.3209183;47.1297207;7.2393076999999995;49.742000579833984;1673377284.40759;23.984434127807617;-30.211772918701172;-165.40313720703125
312;1673377284.5224833;47.129720999999996;7.2393047;49.80500411987305;1673377284.5771453;35.492435455322266;-31.530759811401367;-152.85543823242188
313;1673377284.7056308;47.1297238;7.2393047;49.88600158691406;1673377284.7658944;37.18276596069336;-30.705718994140625;-142.54653930664062
314;1673377284.8914127;47.1297281;7.2393073999999995;49.948001861572266;1673377284.956509;27.325592041015625;-35.26774215698242;-144.81101989746094
315;1673377285.1052332;47.1297332;7.2393122;49.98800277709961;1673377285.1703906;-0.10834307968616486;-41.87997055053711;-161.73094177246094
316;1673377285.3171835;47.129738499999995;7.2393186;50.022003173828125;1673377285.376749;-28.330610275268555;-32.45136642456055;-179.23617553710938
317;1673377285.5213854;47.1297431;7.2393259;50.053001403808594;1673377285.5830784;-42.54030990600586;-9.119501113891602;167.6880340576172
318;1673377285.7199063;47.129745899999996;7.2393326;50.07500076293945;1673377285.7824101;-45.46807861328125;-1.9701679944992065;161.17465209960938
319;1673377285.9388754;47.129746999999995;7.239338399999999;50.086002349853516;1673377286.0404358;-39.09004592895508;2.4052367210388184;154.66525268554688
320;1673377286.2186577;47.1297468;7.239343099999999;50.0880012512207;1673377286.262898;-38.294925689697266;1.982662558555603;162.76699829101562
321;1673377286.3873494;47.1297454;7.2393464;50.090003967285156;1673377286.447664;-38.82365036010742;-6.182490825653076;179.1857147216797
322;1673377286.5680008;47.1297429;7.239348199999999;50.09300231933594;1673377286.6160755;-39.5273551940918;-8.951014518737793;-168.9931640625
323;1673377286.7390096;47.1297394;7.239348199999999;50.10300064086914;1673377286.8045404;-43.65830993652344;-10.552635192871094;-159.8565673828125
324;1673377286.938214;47.1297346;7.2393461;50.117000579833984;1673377286.9987304;-50.561031341552734;-11.932540893554688;-150.23471069335938
325;1673377287.1342967;47.129728199999995;7.239341;50.12800216674805;1673377287.2075958;-56.946781158447266;-14.468086242675781;-141.16461181640625
326;1673377287.3447907;47.1297199;7.2393328;50.12600326538086;1673377287.4072585;-54.24646759033203;-15.727042198181152;-134.85264587402344
327;1673377287.5364556;47.1297104;7.2393211;50.10200119018555;1673377287.5969675;-50.2897834777832;-15.335491180419922;-133.5567626953125
328;1673377287.7227383;47.1296998;7.2393063;50.0880012512207;1673377287.7826056;-50.12655258178711;-14.852957725524902;-138.26641845703125
329;1673377287.923813;47.1296883;7.2392889;50.08400344848633;1673377287.9882293;-51.8057746887207;-12.688491821289062;-141.88973999023438
330;1673377288.133087;47.1296761;7.2392696999999995;50.06900405883789;1673377288.19376;-47.61246109008789;-13.995893478393555;-141.31137084960938
331;1673377288.3336923;47.1296633;7.2392492;50.04900360107422;1673377288.397216;-48.98527526855469;-14.409955024719238;-141.20315551757812
332;1673377288.5202525;47.12965;7.239227499999999;50.03400421142578;1673377288.582041;-47.816017150878906;-15.3507080078125;-140.6168212890625
333;1673377288.7154744;47.1296363;7.2392049;50.02400207519531;1673377288.782649;-48.36771774291992;-15.495386123657227;-140.26797485351562
334;1673377288.926225;47.1296222;7.239181599999999;50.00700378417969;1673377288.9906425;-46.07957458496094;-15.211949348449707;-140.40853881835938
335;1673377289.1256402;47.129607899999996;7.2391577;49.99500274658203;1673377289.1920404;-45.48635482788086;-16.151823043823242;-140.58609008789062
336;1673377289.3310492;47.1295934;7.2391336;49.98400115966797;1673377289.3890998;-45.594486236572266;-17.395275115966797;-140.73878479003906
337;1673377289.5273411;47.1295788;7.2391092;49.974002838134766;1673377289.5888696;-45.151851654052734;-16.23086929321289;-141.6942138671875
338;1673377289.7238097;47.129563999999995;7.2390849;49.96200180053711;1673377289.7833664;-44.460289001464844;-15.586814880371094;-141.81939697265625
339;1673377289.923913;47.129549;7.2390605;49.95900344848633;1673377289.987352;-46.68796920776367;-19.371227264404297;-145.00599670410156
340;1673377290.1633122;47.1295339;7.239036199999999;49.967002868652344;1673377290.2215607;-48.14464569091797;-15.320412635803223;-156.84263610839844
341;1673377290.3587308;47.1295182;7.239012799999999;49.980003356933594;1673377290.418793;-48.12910842895508;-10.394132614135742;-166.36036682128906
342;1673377290.550259;47.1295024;7.2389904;49.983001708984375;1673377290.6163228;-46.14132308959961;-5.034559726715088;-175.5502166748047
343;1673377290.744888;47.1294865;7.2389692;49.97700119018555;1673377290.8075764;-43.384124755859375;1.5086098909378052;175.49766540527344
344;1673377290.9555876;47.1294708;7.2389493;49.96800231933594;1673377291.0063818;-42.96683883666992;7.088347434997559;167.55873107910156
345;1673377291.1324294;47.129455199999995;7.238930099999999;49.9530029296875;1673377291.1944628;-41.529911041259766;5.042863368988037;160.0253448486328
346;1673377291.3337727;47.129439999999995;7.2389123;49.928001403808594;1673377291.394568;-36.01340103149414;-16.916746139526367;151.8365020751953
347;1673377291.5164893;47.129425999999995;7.238897199999999;49.884002685546875;1673377291.5799642;-28.673995971679688;-29.769760131835938;139.3745574951172
348;1673377291.7155719;47.1294146;7.2388856;49.829002380371094;1673377291.7827864;-16.624513626098633;-23.59394645690918;138.5550994873047
349;1673377291.944395;47.1294058;7.2388765;49.76900100708008;1673377292.0010588;-4.394680023193359;-28.564897537231445;160.09304809570312
350;1673377292.1227334;47.129399899999996;7.2388694;49.759002685546875;1673377292.1874127;6.471384048461914;-36.81644058227539;172.71237182617188
351;1673377292.3312242;47.129396799999995;7.238864599999999;49.772003173828125;1673377292.4028032;13.749117851257324;-33.692718505859375;-177.60020446777344
352;1673377292.5394986;47.129396299999996;7.2388620999999995;49.80800247192383;1673377292.601149;22.919116973876953;-37.0396614074707;-165.94480895996094
353;1673377292.7359307;47.1293979;7.2388620999999995;49.88300323486328;1673377292.7966945;29.0382137298584;-35.89496994018555;-153.50856018066406
354;1673377292.9233208;47.1294012;7.2388648;49.9640007019043;1673377292.9826293;26.665372848510742;-34.24586486816406;-143.64508056640625
355;1673377293.1187346;47.129405399999996;7.2388695;50.02100372314453;1673377293.1847532;17.646041870117188;-34.94921875;-135.41204833984375
356;1673377293.3532665;47.1294097;7.2388755;50.05500411987305;1673377293.4118369;9.561361312866211;-35.316749572753906;-132.13670349121094
357;1673377293.550446;47.1294135;7.238881699999999;50.079002380371094;1673377293.6139622;-6.2387847900390625;-35.68013000488281;-135.72189331054688
358;1673377293.7456892;47.1294164;7.238887699999999;50.10300064086914;1673377293.808308;-31.385374069213867;-29.80530548095703;-138.47019958496094
359;1673377293.9465582;47.1294179;7.238892;50.12900161743164;1673377294.006078;-50.23122787475586;-18.817468643188477;-141.04075622558594
360;1673377294.139305;47.1294171;7.2388927999999995;50.15700149536133;1673377294.1970477;-53.326332092285156;-15.19703483581543;-141.99244689941406
361;1673377294.3361866;47.129413899999996;7.2388895;50.1670036315918;1673377294.395869;-52.139644622802734;-15.648850440979004;-142.68228149414062
362;1673377294.5242572;47.129408399999996;7.2388827;50.178001403808594;1673377294.5819952;-55.49137878417969;-14.968629837036133;-143.31011962890625
363;1673377294.720511;47.1294009;7.238872799999999;50.18100357055664;1673377294.7838504;-55.14411544799805;-13.340367317199707;-145.39488220214844
364;1673377294.9141726;47.1293916;7.23886;50.1660041809082;1673377294.9759479;-53.54232406616211;-11.410103797912598;-146.29344177246094
365;1673377295.1385605;47.1293809;7.2388448;50.15200424194336;1673377295.204929;-51.5894889831543;-10.636127471923828;-145.73843383789062
366;1673377295.3607225;47.1293693;7.2388277;50.14200210571289;1673377295.41832;-52.21843338012695;-12.28132152557373;-145.1117706298828
367;1673377295.5808585;47.1293569;7.2388088999999995;50.117000579833984;1673377295.6350965;-49.72177505493164;-12.67302131652832;-145.0843505859375
368;1673377295.7706718;47.1293438;7.2387888;50.09600067138672;1673377295.8284721;-48.47111892700195;-14.724649429321289;-144.80018615722656
369;1673377295.9571793;47.1293302;7.2387678;50.07600402832031;1673377296.0159616;-49.17787170410156;-16.39495277404785;-145.0115203857422
370;1673377296.1448283;47.129315999999996;7.238746399999999;50.051002502441406;1673377296.2044363;-46.86668014526367;-17.744001388549805;-145.9673614501953
371;1673377296.3361194;47.129301299999995;7.2387248;50.03300094604492;1673377296.4122858;-46.26655960083008;-20.24612045288086;-146.88681030273438
372;1673377296.5445812;47.1292863;7.2387033;50.018001556396484;1673377296.610056;-45.72844314575195;-27.28511619567871;-151.0159149169922
373;1673377296.7327821;47.1292708;7.238683;49.99800109863281;1673377296.795247;-41.64820098876953;-24.958816528320312;-163.97389221191406
374;1673377296.9208233;47.129255099999995;7.2386646;49.97600173950195;1673377296.9858408;-40.6974983215332;-17.85212516784668;-167.41665649414062
375;1673377297.1284304;47.1292397;7.2386479999999995;49.93600082397461;1673377297.1889412;-27.598365783691406;-20.92454719543457;-155.3802490234375
376;1673377297.3251474;47.129224799999996;7.2386326;49.9010009765625;1673377297.3871694;-22.753183364868164;-36.46131896972656;-145.3091278076172
377;1673377297.534713;47.129210699999994;7.2386193;49.93000411987305;1673377297.6020427;-15.938834190368652;-33.23101806640625;-152.32241821289062
378;1673377297.7348843;47.1291975;7.2386079;49.954002380371094;1673377297.7973506;-2.3381478786468506;-32.203948974609375;-151.08126831054688
379;1673377297.9273229;47.1291856;7.2385985999999995;49.98600387573242;1673377298.001503;4.810965538024902;-28.36083984375;-146.42245483398438
380;1673377298.1397126;47.129175499999995;7.2385909999999996;50.018001556396484;1673377298.2022865;13.7467041015625;-23.563684463500977;-143.5956268310547
381;1673377298.3314373;47.1291675;7.238585;50.03700256347656;1673377298.3931956;15.389467239379883;-21.298498153686523;-141.81988525390625
382;1673377298.5235777;47.129161499999995;7.2385804;50.051002502441406;1673377298.5895245;14.017754554748535;-21.021728515625;-140.65066528320312
383;1673377298.728085;47.1291576;7.2385768;50.06200408935547;1673377298.7818224;8.2828369140625;-21.64700698852539;-138.81707763671875
384;1673377298.920096;47.129155;7.238573799999999;50.10300064086914;1673377298.986033;-23.603755950927734;-21.088220596313477;-132.19992065429688
385;1673377299.1242878;47.129152399999995;7.238569699999999;50.23600387573242;1673377299.1961343;-37.79843521118164;-21.426237106323242;-132.92698669433594
386;1673377299.331948;47.1291489;7.2385632;50.43400192260742;1673377299.391487;-22.08177947998047;-8.218609809875488;-137.0519256591797
387;1673377299.5286841;47.129145099999995;7.2385547;50.715003967285156;1673377299.6004667;-23.46796989440918;-12.120420455932617;-137.8236541748047
388;1673377299.75199;47.1291412;7.2385446;51.09400177001953;1673377299.8144882;-43.37065505981445;-31.9093074798584;-137.1761932373047
389;1673377300.0098794;47.1291358;7.2385334;51.483001708984375;1673377300.0681064;-40.93659210205078;-32.51041793823242;-140.67202758789062
390;1673377300.214059;47.1291283;7.238522;51.84400177001953;1673377300.2614431;-40.416236877441406;-28.893150329589844;-139.52328491210938
391;1673377300.4104218;47.1291194;7.2385101999999995;52.19900131225586;1673377300.4657001;-36.73412322998047;-28.52111053466797;-139.87242126464844
392;1673377300.5901647;47.1291097;7.238498099999999;52.547000885009766;1673377300.6483383;-34.82846450805664;-26.349515914916992;-139.85311889648438
393;1673377300.7816522;47.1290991;7.2384859;52.90300369262695;1673377300.8350592;-32.10108184814453;-25.305185317993164;-139.0075225830078
394;1673377300.9654648;47.1290883;7.2384735;53.259002685546875;1673377301.0191758;-29.830968856811523;-23.978681564331055;-138.0634765625
395;1673377301.1404185;47.1290772;7.2384607999999995;53.6150016784668;1673377301.2028935;-28.31462287902832;-23.150270462036133;-137.4000244140625
396;1673377301.3303018;47.1290663;7.2384479;53.97600173950195;1673377301.3884354;-26.934635162353516;-22.45368194580078;-137.08541870117188
397;1673377301.5305347;47.1290555;7.2384349;54.34300231933594;1673377301.593581;-26.48650360107422;-22.295759201049805;-136.8766632080078
398;1673377301.7297547;47.129045;7.2384217;54.71600341796875;1673377301.7898998;-26.263383865356445;-22.436016082763672;-136.79212951660156
399;1673377301.9222367;47.1290346;7.2384083;55.09400177001953;1673377301.990114;-26.357784271240234;-22.712352752685547;-136.7977294921875
400;1673377302.1357238;47.1290243;7.2383948;55.47600173950195;1673377302.1962302;-26.611602783203125;-23.15184211730957;-136.81040954589844
401;1673377302.326676;47.129014299999994;7.2383812;55.86100387573242;1673377302.3994431;-27.170398712158203;-23.534006118774414;-136.86703491210938
402;1673377302.5308166;47.1290043;7.2383676999999995;56.250003814697266;1673377302.5889397;-27.462013244628906;-23.779422760009766;-136.96453857421875
403;1673377302.7300913;47.128994399999996;7.2383541;56.63900375366211;1673377302.7940955;-27.630245208740234;-24.22703742980957;-137.01773071289062
404;1673377302.9332843;47.1289845;7.2383405;57.02900314331055;1673377302.9963071;-27.774612426757812;-24.243160247802734;-137.0943603515625
405;1673377303.1207855;47.1289746;7.238327;57.42100143432617;1673377303.189641;-27.784500122070312;-24.2928466796875;-137.11891174316406
406;1673377303.335216;47.1289647;7.2383134;57.81500244140625;1673377303.4025786;-27.958824157714844;-24.314380645751953;-137.12852478027344
407;1673377303.5432165;47.1289547;7.2382998999999995;58.208003997802734;1673377303.60276;-27.859169006347656;-24.253551483154297;-137.1439971923828
408;1673377303.7474766;47.1289447;7.2382864;58.60100173950195;1673377303.8071222;-27.91459083557129;-24.090633392333984;-137.1409912109375
409;1673377303.9447227;47.128934799999996;7.2382728;58.99100112915039;1673377304.0043032;-27.96371841430664;-24.277307510375977;-137.1077423095703
410;1673377304.151768;47.1289248;7.238259299999999;59.38200378417969;1673377304.2161844;-27.883108139038086;-24.127710342407227;-137.14959716796875
411;1673377304.339258;47.128914699999996;7.238245699999999;59.772003173828125;1673377304.3978193;-27.978595733642578;-24.04962158203125;-137.0939178466797
412;1673377304.5433586;47.1289047;7.2382322;60.16200256347656;1673377304.603873;-28.058563232421875;-24.09577178955078;-137.08102416992188
413;1673377304.7386556;47.1288947;7.2382186;60.55000305175781;1673377304.8055737;-28.019376754760742;-23.951231002807617;-137.1260223388672
414;1673377304.9408236;47.1288846;7.2382048999999995;60.93800354003906;1673377304.9984;-28.03069496154785;-23.990873336791992;-137.09097290039062
415;1673377305.140991;47.128874499999995;7.2381912999999996;61.327003479003906;1673377305.206383;-27.892486572265625;-24.055837631225586;-137.08413696289062
416;1673377305.346048;47.1288644;7.2381775;61.71600341796875;1673377305.4100194;-28.079132080078125;-24.11451530456543;-137.05442810058594
417;1673377305.543407;47.128854399999994;7.2381638;62.10900115966797;1673377305.6069555;-28.165897369384766;-24.059247970581055;-137.08116149902344
418;1673377305.745132;47.1288443;7.23815;62.500003814697266;1673377305.8097587;-28.11037254333496;-24.15473175048828;-137.09664916992188
419;1673377305.9943044;47.1288342;7.2381362;62.8900032043457;1673377306.0525706;-28.10126304626465;-24.13530731201172;-137.1124267578125
