;pos_time;latitude;longitude;altitude;alt_time;pitch;roll;yaw
0;1673376663.01916;47.1306424;7.24062;0.01100000087171793;1673376663.1320314;-0.223438560962677;0.15298433601856232;90.58441925048828
1;1673376663.2073;47.1306424;7.2406198999999996;0.013000000268220901;1673376663.322855;-0.23909389972686768;0.022202029824256897;90.55169677734375
2;1673376663.426716;47.1306424;7.2406198999999996;0.014000000432133675;1673376663.521732;-0.2527405321598053;-0.07556074112653732;90.433837890625
3;1673376663.5920744;47.1306424;7.240619799999999;0.015000000596046448;1673376663.7266924;-0.1910354644060135;-0.1766110509634018;90.61266326904297
4;1673376663.7878778;47.1306424;7.2406197;0.01600000075995922;1673376663.9018495;-0.14688178896903992;-0.2582293450832367;90.48506164550781
5;1673376663.9958632;47.1306424;7.2406196;0.015000000596046448;1673376664.1589062;-0.03906482830643654;-0.18056629598140717;90.37405395507812
6;1673376664.2086856;47.1306424;7.2406196;0.013000000268220901;1673376664.318663;0.11915664374828339;-0.14772866666316986;90.53336334228516
7;1673376664.398452;47.1306424;7.240619499999999;0.01100000087171793;1673376664.5298426;0.005851190537214279;-0.15858197212219238;90.59114837646484
8;1673376664.587544;47.1306424;7.240619499999999;0.00800000037997961;1673376664.6832476;-0.1968129724264145;-0.32959145307540894;90.64303588867188
9;1673376664.7547784;47.1306424;7.2406196;0.007000000216066837;1673376664.866084;-0.19402091205120087;-0.19104184210300446;90.58659362792969
10;1673376664.9354484;47.1306424;7.2406196;0.0;1673376665.0506847;-0.08491366356611252;-0.6920496821403503;90.36134338378906
11;1673376665.167654;47.1306424;7.2406196;-0.003000000026077032;1673376665.2819262;-0.18652097880840302;-0.4786437749862671;90.47919464111328
12;1673376665.3603272;47.1306424;7.2406196;-0.003000000026077032;1673376665.481892;-0.13659153878688812;-0.4763239324092865;90.45197296142578
13;1673376665.5666058;47.1306425;7.2406197;-0.003000000026077032;1673376665.6940491;-0.16991019248962402;-0.465778112411499;90.6256103515625
14;1673376665.7591183;47.1306425;7.240619799999999;-0.003000000026077032;1673376665.8760283;-0.2899955213069916;-0.448443204164505;90.4729232788086
15;1673376665.9504523;47.1306425;7.2406197;-0.005000000353902578;1673376666.0752456;-0.31201067566871643;-0.13162367045879364;90.4384994506836
16;1673376666.1538339;47.1306425;7.2406197;-0.006000000052154064;1673376666.2821004;-0.2371368110179901;-0.5336106419563293;90.56534576416016
17;1673376666.3624334;47.1306425;7.2406197;0.0;1673376666.4752533;0.12010389566421509;-0.9733229279518127;90.33684539794922
18;1673376666.5493498;47.1306425;7.2406196;-0.0020000000949949026;1673376666.6753876;-0.08117977529764175;-0.29568880796432495;90.52489471435547
19;1673376666.7497804;47.130642599999995;7.2406196;-0.0010000000474974513;1673376666.869789;0.17789657413959503;-0.2258172184228897;90.43738555908203
20;1673376666.9500227;47.1306425;7.2406196;0.003000000026077032;1673376667.0702198;0.32863694429397583;-0.15853890776634216;90.55829620361328
21;1673376667.1464305;47.1306425;7.2406196;0.00800000037997961;1673376667.2702727;0.1388125717639923;-0.5188288688659668;90.82390594482422
22;1673376667.3451667;47.1306425;7.2406197;0.01100000087171793;1673376667.4497166;0.08885625004768372;-0.2937876880168915;90.8819351196289
23;1673376667.526312;47.1306425;7.240619799999999;0.01100000087171793;1673376667.646228;0.05173628404736519;-0.050707072019577026;90.98367309570312
24;1673376667.725531;47.1306425;7.2406198999999996;0.01100000087171793;1673376667.850428;0.22314591705799103;-0.3334088623523712;90.78095245361328
25;1673376667.9241836;47.1306425;7.2406198999999996;0.009000000543892384;1673376668.0605817;0.14142021536827087;-0.5706759691238403;90.67173767089844
26;1673376668.1555054;47.1306425;7.2406198999999996;0.004000000189989805;1673376668.2763438;0.5249696969985962;-0.4176921844482422;90.33922576904297
27;1673376668.3592062;47.130642599999995;7.240619799999999;-0.0010000000474974513;1673376668.4773674;0.015267472714185715;0.4289877414703369;86.33160400390625
28;1673376668.5491474;47.130642699999996;7.2406196;-0.003000000026077032;1673376668.678702;-1.3373342752456665;4.623516082763672;85.07585144042969
29;1673376668.7717457;47.1306428;7.2406191;0.005000000353902578;1673376668.900265;-7.48650598526001;8.283231735229492;86.52674102783203
30;1673376668.9942307;47.1306429;7.2406185999999995;0.03100000135600567;1673376669.1208122;-9.731426239013672;7.340543746948242;87.39131927490234
31;1673376669.1992478;47.1306429;7.2406182;0.07500000298023224;1673376669.3314066;-8.032360076904297;7.191579341888428;87.6217269897461
32;1673376669.424213;47.1306428;7.2406181;0.13500000536441803;1673376669.5341208;-8.052318572998047;10.412137985229492;87.23907470703125
33;1673376669.6164067;47.130642699999996;7.2406179999999996;0.2120000123977661;1673376669.7350388;-8.232393264770508;4.8231425285339355;87.93217468261719
34;1673376669.8042445;47.1306424;7.2406182;0.3050000071525574;1673376669.9100091;-7.942783832550049;4.376605033874512;88.02484130859375
35;1673376669.9848056;47.1306423;7.2406184;0.4140000343322754;1673376670.088869;-7.399247646331787;9.111127853393555;87.38768768310547
36;1673376670.1583633;47.1306423;7.2406188;0.5360000133514404;1673376670.279541;-6.6689629554748535;5.9082536697387695;87.85261535644531
37;1673376670.3482835;47.1306424;7.2406191;0.6700000166893005;1673376670.460131;-6.245425224304199;4.245481014251709;88.23692321777344
38;1673376670.5314028;47.1306424;7.240619499999999;0.8170000314712524;1673376670.6545973;-5.5429792404174805;9.368060111999512;87.695556640625
39;1673376670.7331898;47.1306425;7.240619799999999;0.9750000238418579;1673376670.8541615;-5.165633678436279;7.255526065826416;87.95541381835938
40;1673376670.9314241;47.1306424;7.2406198999999996;1.1450001001358032;1673376671.0393078;-5.497244834899902;3.542590856552124;88.4717025756836
41;1673376671.1132243;47.1306423;7.24062;1.3290001153945923;1673376671.2417421;-5.781726360321045;8.443951606750488;87.9892578125
42;1673376671.3169415;47.1306423;7.24062;1.5200001001358032;1673376671.4397004;-5.838523864746094;7.848338603973389;88.01795196533203
43;1673376671.5199845;47.1306423;7.2406198999999996;1.715000033378601;1673376671.6473053;-6.428879737854004;3.7348082065582275;88.67353057861328
44;1673376671.724056;47.1306422;7.240619799999999;1.908000111579895;1673376671.8339834;-6.55915641784668;6.929323673248291;88.2121353149414
45;1673376671.9155033;47.130642099999996;7.2406197;2.1030001640319824;1673376672.0352008;-6.605557441711426;8.211297035217285;87.85845184326172
46;1673376672.1104906;47.130642099999996;7.2406196;2.2990000247955322;1673376672.2465246;-6.506367206573486;3.047244071960449;88.29898071289062
47;1673376672.3262098;47.130642099999996;7.240619499999999;2.494000196456909;1673376672.46307;-6.954911231994629;6.684990882873535;87.8415298461914
48;1673376672.5395796;47.1306423;7.240619499999999;2.692000150680542;1673376672.653034;-6.754879951477051;9.564908027648926;87.41114807128906
49;1673376672.7308705;47.1306425;7.2406194;2.8910000324249268;1673376672.8488138;-6.908523082733154;5.185546875;87.8616943359375
50;1673376672.928078;47.130642599999995;7.2406194;3.0910000801086426;1673376673.0506394;-6.784353256225586;5.6151909828186035;87.92840576171875
51;1673376673.1277533;47.130642599999995;7.240619499999999;3.2910001277923584;1673376673.245911;-6.633590221405029;10.283076286315918;87.38729095458984
52;1673376673.321468;47.130642599999995;7.2406196;3.4900002479553223;1673376673.4427547;-6.621457576751709;5.210124492645264;87.80948638916016
53;1673376673.5204477;47.130642599999995;7.2406197;3.69100022315979;1673376673.6344607;-6.826537609100342;4.998032569885254;87.64128875732422
54;1673376673.710811;47.130642599999995;7.240619799999999;3.8930001258850098;1673376673.8314955;-6.377143859863281;10.358794212341309;87.0914535522461
55;1673376673.9161344;47.130642699999996;7.240619799999999;4.0970001220703125;1673376674.0557995;-6.361525535583496;6.8563714027404785;87.57527923583984
56;1673376674.1321769;47.130642699999996;7.2406198999999996;4.299000263214111;1673376674.2432563;-6.532667636871338;4.640778541564941;87.79183197021484
57;1673376674.331205;47.130642599999995;7.2406198999999996;4.499000072479248;1673376674.444541;-6.319736480712891;9.082221984863281;87.1429214477539
58;1673376674.5193605;47.1306425;7.2406198999999996;4.696000099182129;1673376674.6525683;-6.336215496063232;6.240911483764648;87.46463775634766
59;1673376674.7334168;47.1306424;7.2406198999999996;4.895000457763672;1673376674.8595667;-6.644704341888428;3.676767110824585;87.79620361328125
60;1673376674.9339387;47.1306424;7.2406198999999996;5.094000339508057;1673376675.0575242;-6.601503372192383;9.216967582702637;87.33937072753906
61;1673376675.1356902;47.1306425;7.2406198999999996;5.294000148773193;1673376675.2614255;-6.433639049530029;8.193164825439453;87.4997329711914
62;1673376675.3465855;47.130642699999996;7.240619799999999;5.493000030517578;1673376675.4723933;-6.737191200256348;4.348655700683594;88.08533477783203
63;1673376675.5543869;47.130642599999995;7.240619799999999;5.689000129699707;1673376675.6825645;-6.765460014343262;8.277786254882812;87.63644409179688
64;1673376675.7824013;47.130642599999995;7.240619799999999;5.886000156402588;1673376675.9022264;-6.473786354064941;8.468454360961914;87.42855834960938
65;1673376675.9890988;47.1306425;7.240619799999999;6.084000110626221;1673376676.107498;-6.608485698699951;4.3387041091918945;87.84956359863281
66;1673376676.1910727;47.1306425;7.240619799999999;6.2860002517700195;1673376676.312882;-6.717571258544922;7.605086326599121;87.63189697265625
67;1673376676.3946311;47.130642599999995;7.2406198999999996;6.491000175476074;1673376676.5463214;-6.4746809005737305;9.620344161987305;87.28064727783203
68;1673376676.606343;47.130642699999996;7.2406198999999996;6.697000503540039;1673376676.7135632;-6.658262252807617;4.7916107177734375;87.74266052246094
69;1673376676.7827272;47.130642699999996;7.240619799999999;6.903000354766846;1673376676.893728;-6.8679585456848145;6.680424690246582;87.45923614501953
70;1673376676.9665387;47.130642599999995;7.240619799999999;7.1050004959106445;1673376677.0706382;-6.5076189041137695;9.755147933959961;87.17896270751953
71;1673376677.1440144;47.130642599999995;7.240619799999999;7.305000305175781;1673376677.2516398;-6.712433338165283;4.728582859039307;87.76543426513672
72;1673376677.3289042;47.1306425;7.2406197;7.505000591278076;1673376677.4458542;-6.8862409591674805;5.975170612335205;87.73128509521484
73;1673376677.5247025;47.130642599999995;7.2406197;7.709000587463379;1673376677.6557848;-6.751572608947754;9.99351692199707;87.43329620361328
74;1673376677.7316046;47.130642699999996;7.2406197;7.913000583648682;1673376677.8518069;-6.9712677001953125;6.341724395751953;87.8968276977539
75;1673376677.9300828;47.130642699999996;7.2406197;8.11299991607666;1673376678.05446;-7.013779163360596;5.103096961975098;87.85138702392578
76;1673376678.1305797;47.130642599999995;7.2406197;8.309000015258789;1673376678.247886;-6.934183120727539;9.659195899963379;87.24935150146484
77;1673376678.3215132;47.1306425;7.240619799999999;8.506000518798828;1673376678.43928;-6.562929153442383;6.051705360412598;87.58866119384766
78;1673376678.5159476;47.1306425;7.240619799999999;8.704000473022461;1673376678.6481142;-6.74437952041626;4.347439289093018;87.8170394897461
79;1673376678.7313638;47.1306425;7.2406198999999996;8.904000282287598;1673376678.8481002;-6.7252197265625;8.494484901428223;87.53874206542969
80;1673376678.9250715;47.130642699999996;7.2406198999999996;9.10200023651123;1673376679.0446975;-6.054001331329346;9.229135513305664;87.4231948852539
81;1673376679.123517;47.130642699999996;7.24062;9.29900074005127;1673376679.242486;-6.394900798797607;4.2395734786987305;87.7711181640625
82;1673376679.3153658;47.130642699999996;7.24062;9.498000144958496;1673376679.440832;-6.480004787445068;7.91311502456665;87.23472595214844
83;1673376679.5311084;47.130642699999996;7.24062;9.699000358581543;1673376679.6462708;-6.62418794631958;9.2681303024292;87.18218994140625
84;1673376679.7229803;47.130642699999996;7.24062;9.90000057220459;1673376679.8418334;-6.734562397003174;4.2923665046691895;87.78986358642578
85;1673376679.9232252;47.130642699999996;7.24062;10.104000091552734;1673376680.0437725;-6.7326483726501465;7.125697612762451;87.53369140625
86;1673376680.1226876;47.1306428;7.2406201;10.345000267028809;1673376680.2479246;-7.068114757537842;10.629050254821777;87.36028289794922
87;1673376680.3247163;47.1306428;7.2406201999999995;10.684000968933105;1673376680.4483144;-7.394289970397949;7.024445056915283;87.91007232666016
88;1673376680.5261497;47.130642599999995;7.2406204999999995;11.057000160217285;1673376680.6430852;-6.800178527832031;5.348216533660889;88.1068115234375
89;1673376680.7280362;47.1306423;7.2406207;11.446000099182129;1673376680.84479;-6.212319374084473;8.60764217376709;87.26278686523438
90;1673376680.9167368;47.130642099999996;7.2406209;11.843000411987305;1673376681.0340998;-5.453128337860107;5.140993595123291;87.39462280273438
91;1673376681.111862;47.1306419;7.240621099999999;12.241000175476074;1673376681.234277;-5.4641571044921875;3.353363037109375;87.81375122070312
92;1673376681.3089864;47.130641999999995;7.2406212;12.642000198364258;1673376681.4354422;-5.47804069519043;8.290245056152344;87.38483428955078
93;1673376681.5131578;47.130642099999996;7.2406212;13.045001029968262;1673376681.639568;-5.6774983406066895;6.996245861053467;87.67053985595703
94;1673376681.7183795;47.1306422;7.240621099999999;13.445000648498535;1673376681.8473804;-6.038214683532715;3.88787579536438;87.96128845214844
95;1673376681.9237223;47.1306423;7.240621;13.844000816345215;1673376682.044422;-6.2655744552612305;8.342955589294434;87.2853775024414
96;1673376682.120173;47.1306424;7.2406209;14.24100112915039;1673376682.2387908;-6.2304463386535645;8.177663803100586;87.35393524169922
97;1673376682.3155842;47.1306424;7.2406207;14.634000778198242;1673376682.443033;-6.590059280395508;4.377143859863281;87.88795471191406
98;1673376682.5197718;47.1306425;7.2406204999999995;15.024001121520996;1673376682.6399043;-6.798126220703125;8.436089515686035;87.6139144897461
99;1673376682.7386985;47.130642599999995;7.2406204;15.414000511169434;1673376682.858359;-6.426287651062012;9.345477104187012;87.37767028808594
100;1673376682.929219;47.130642699999996;7.2406204;15.803000450134277;1673376683.041294;-6.62497091293335;4.693057060241699;87.8153076171875
101;1673376683.120658;47.130642599999995;7.2406204;16.19300079345703;1673376683.2395196;-6.57295560836792;6.803252220153809;87.49481201171875
102;1673376683.3193367;47.1306425;7.2406204;16.582000732421875;1673376683.4430404;-6.529044151306152;9.440797805786133;87.26670837402344
103;1673376683.5284913;47.1306425;7.2406204;16.97300148010254;1673376683.6660028;-6.511709213256836;4.676573753356934;87.91703033447266
104;1673376683.7602766;47.1306425;7.2406204;17.368000030517578;1673376683.8763793;-6.575318813323975;6.036647319793701;87.75382232666016
105;1673376683.9735694;47.130642599999995;7.2406204;17.76500129699707;1673376684.0900939;-5.98581075668335;9.774931907653809;87.2011947631836
106;1673376684.1624982;47.130642599999995;7.2406204999999995;18.159000396728516;1673376684.2769213;-5.86488676071167;5.834895610809326;87.64192962646484
107;1673376684.351407;47.130642599999995;7.2406204999999995;18.55000114440918;1673376684.4658248;-6.252220153808594;5.162777900695801;87.80675506591797
108;1673376684.541055;47.130642599999995;7.2406204999999995;18.939001083374023;1673376684.6654353;-6.226313591003418;9.857014656066895;87.35954284667969
109;1673376684.7377434;47.130642599999995;7.2406204;19.327001571655273;1673376684.8563356;-6.3746819496154785;6.441808700561523;87.65611267089844
110;1673376684.9347594;47.130642599999995;7.2406204;19.713001251220703;1673376685.054663;-6.594994068145752;4.890623569488525;87.758544921875
111;1673376685.1392274;47.130642699999996;7.2406203;20.102001190185547;1673376685.2671747;-6.616942405700684;9.453842163085938;87.24103546142578
112;1673376685.344801;47.130642699999996;7.2406203;20.4950008392334;1673376685.48152;-6.057736873626709;8.055827140808105;87.52250671386719
113;1673376685.5629628;47.130642699999996;7.2406203;20.89000129699707;1673376685.6816962;-6.43841028213501;4.258859157562256;87.79837799072266
114;1673376685.7549028;47.130642599999995;7.2406201999999995;21.285001754760742;1673376685.8738654;-6.500367641448975;8.137971878051758;87.35462951660156
115;1673376685.947258;47.1306425;7.2406201999999995;21.674001693725586;1673376686.0691438;-6.392561912536621;8.604166030883789;87.31330871582031
116;1673376686.1460116;47.1306425;7.2406201;22.06300163269043;1673376686.2630453;-6.473988056182861;4.510777473449707;87.69181823730469
117;1673376686.339714;47.1306425;7.24062;22.457000732421875;1673376686.4574635;-6.645146369934082;5.794048309326172;87.67192077636719
118;1673376686.5342836;47.1306425;7.24062;22.84800148010254;1673376686.6549284;-6.4773850440979;9.839142799377441;87.37867736816406
119;1673376686.7287438;47.130642599999995;7.24062;23.237001419067383;1673376686.8524861;-6.66160249710083;5.934173107147217;87.85704803466797
120;1673376686.9266663;47.130642599999995;7.24062;23.62700080871582;1673376687.0459423;-6.533943176269531;5.086080551147461;87.9402847290039
121;1673376687.1265662;47.1306425;7.24062;24.022001266479492;1673376687.253197;-6.481369972229004;9.537060737609863;87.1619644165039
122;1673376687.3319767;47.1306425;7.24062;24.417001724243164;1673376687.453537;-6.153921604156494;6.3461456298828125;87.38432312011719
123;1673376687.5293522;47.1306425;7.2406198999999996;24.812000274658203;1673376687.6570861;-6.5983405113220215;4.696788787841797;87.66783905029297
124;1673376687.742414;47.130642599999995;7.240619799999999;25.21000099182129;1673376687.8637576;-6.646498680114746;9.250771522521973;87.42061614990234
125;1673376687.9338467;47.130642599999995;7.2406197;25.606000900268555;1673376688.0546584;-6.615145206451416;8.09814167022705;87.6142578125
126;1673376688.1353726;47.130642699999996;7.2406197;26.000001907348633;1673376688.2580433;-6.98915433883667;4.420269966125488;87.90287017822266
127;1673376688.3345602;47.130642599999995;7.2406197;26.395000457763672;1673376688.4558036;-6.672062873840332;8.672440528869629;87.35745239257812
128;1673376688.536385;47.130642599999995;7.2406197;26.790000915527344;1673376688.6562982;-6.375709056854248;8.1571044921875;87.37905883789062
129;1673376688.726823;47.1306425;7.2406197;27.183000564575195;1673376688.8745885;-6.460371971130371;4.312432289123535;87.8717269897461
130;1673376688.9415383;47.1306425;7.2406197;27.578001022338867;1673376689.066313;-6.731638431549072;7.392520904541016;87.56623077392578
131;1673376689.1558442;47.130642599999995;7.2406197;27.976001739501953;1673376689.2745304;-6.260513782501221;9.335583686828613;87.19588470458984
132;1673376689.3621984;47.130642599999995;7.240619799999999;28.375001907348633;1673376689.5085526;-6.11983060836792;5.636560916900635;87.68357849121094
133;1673376689.5746632;47.130642599999995;7.240619799999999;28.775001525878906;1673376689.7103143;-6.390726566314697;5.706130504608154;87.73311614990234
134;1673376689.7699347;47.130642599999995;7.2406197;29.176000595092773;1673376689.8700943;-6.369278907775879;10.149091720581055;87.4019546508789
135;1673376689.9382663;47.130642599999995;7.2406197;29.573001861572266;1673376690.1060503;-6.474071979522705;5.789693832397461;87.7768325805664
136;1673376690.2109566;47.130642699999996;7.2406196;29.970001220703125;1673376690.3292878;-6.844796657562256;5.8496856689453125;87.67084503173828
137;1673376690.4149103;47.130642699999996;7.2406196;30.371002197265625;1673376690.5599613;-6.4842071533203125;9.928802490234375;87.08842468261719
138;1673376690.6313953;47.130642699999996;7.2406196;30.772001266479492;1673376690.7484214;-6.377656936645508;7.152528762817383;87.40328216552734
139;1673376690.8338916;47.130642699999996;7.2406196;31.168001174926758;1673376690.9398468;-6.360961437225342;4.83620548248291;87.91211700439453
140;1673376691.0478616;47.130642599999995;7.2406196;31.56100082397461;1673376691.1415098;-6.405858993530273;8.936488151550293;87.45698547363281
141;1673376691.2138515;47.1306425;7.2406196;31.952001571655273;1673376691.319839;-6.373615741729736;7.664284706115723;87.61275482177734
142;1673376691.4015663;47.1306425;7.2406196;32.342002868652344;1673376691.5145078;-6.522415637969971;4.36046838760376;87.7978286743164
143;1673376691.60591;47.1306424;7.2406196;32.736000061035156;1673376691.7080622;-6.815979957580566;8.271512985229492;87.31171417236328
144;1673376691.787695;47.1306425;7.2406196;33.134002685546875;1673376691.89462;-6.222384452819824;8.954916000366211;87.2445068359375
145;1673376692.0244417;47.1306425;7.2406196;33.531002044677734;1673376692.1291907;-6.619601249694824;4.288901329040527;87.92991638183594
146;1673376692.1969218;47.1306424;7.2406196;33.927001953125;1673376692.3341963;-6.568403244018555;7.258638858795166;87.61651611328125
147;1673376692.4466915;47.1306424;7.2406196;34.3280029296875;1673376692.5571249;-6.364225387573242;9.312108039855957;87.27938842773438
148;1673376692.6672847;47.1306424;7.2406196;34.729000091552734;1673376692.740161;-6.301649570465088;4.843705654144287;87.79317474365234
149;1673376692.7963483;47.1306425;7.2406196;35.12800216674805;1673376692.8905795;-6.678384780883789;7.103617191314697;87.66131591796875
150;1673376692.9559722;47.130642599999995;7.2406196;35.527000427246094;1673376693.1171236;-6.391899585723877;10.04074478149414;87.29344940185547
151;1673376693.1936266;47.130642599999995;7.2406196;35.927001953125;1673376693.3250031;-6.586108684539795;4.963900089263916;87.82862091064453
152;1673376693.4145114;47.1306425;7.2406196;36.3280029296875;1673376693.5680711;-6.770082950592041;5.803798198699951;87.49359893798828
153;1673376693.6263096;47.1306425;7.2406196;36.73200225830078;1673376693.7547245;-6.4724249839782715;9.849800109863281;87.16401672363281
154;1673376693.8167512;47.1306425;7.2406196;37.13300323486328;1673376693.918795;-6.464478492736816;6.170055389404297;87.62871551513672
155;1673376694.022411;47.1306425;7.2406197;37.53200149536133;1673376694.1300142;-6.563666343688965;5.020748138427734;87.89423370361328
156;1673376694.1931965;47.130642599999995;7.2406197;37.93400192260742;1673376694.3585322;-6.453462600708008;9.341817855834961;87.46907043457031
157;1673376694.419021;47.130642699999996;7.2406197;38.33300018310547;1673376694.5748982;-6.243925094604492;8.358323097229004;87.52913665771484
158;1673376694.627723;47.130642699999996;7.2406197;38.729000091552734;1673376694.7414849;-6.688298225402832;4.435787200927734;87.80106353759766
159;1673376694.8185682;47.130642699999996;7.2406197;39.125;1673376694.9438329;-6.772069931030273;9.11426067352295;87.29462432861328
160;1673376695.0058696;47.130642699999996;7.2406197;39.52300262451172;1673376695.1079154;-6.583956718444824;8.650592803955078;87.51897430419922
161;1673376695.1804318;47.1306428;7.2406197;39.91600036621094;1673376695.296945;-6.727612018585205;4.82442569732666;87.89171600341797
162;1673376695.3672159;47.1306428;7.2406197;40.307003021240234;1673376695.487218;-6.539873123168945;8.615437507629395;87.4053726196289
163;1673376695.5674608;47.1306429;7.2406197;40.70100021362305;1673376695.6944942;-6.209372520446777;9.449294090270996;87.28385925292969
164;1673376695.7630053;47.1306428;7.240619799999999;41.095001220703125;1673376695.8988018;-6.279011249542236;4.615413188934326;87.81452178955078
165;1673376696.0136094;47.130642699999996;7.240619799999999;41.48600387573242;1673376696.132434;-6.51125431060791;6.561671257019043;87.70599365234375
166;1673376696.1999629;47.130642599999995;7.2406198999999996;41.87900161743164;1673376696.3193743;-6.325449466705322;9.597064971923828;87.28914642333984
167;1673376696.4087465;47.130642599999995;7.2406198999999996;42.27000045776367;1673376696.5364678;-6.164306640625;5.596229553222656;87.72432708740234
168;1673376696.6246092;47.130642699999996;7.2406198999999996;42.66100311279297;1673376696.7414653;-6.5073089599609375;5.946675777435303;87.6644515991211
169;1673376696.8232365;47.130642699999996;7.2406198999999996;43.057003021240234;1673376696.9293077;-6.332700252532959;9.617918014526367;87.14671325683594
170;1673376697.0120234;47.130642699999996;7.2406198999999996;43.454002380371094;1673376697.1337533;-6.278252601623535;7.856955051422119;87.45997619628906
171;1673376697.2072082;47.130642699999996;7.240619799999999;43.84800338745117;1673376697.3182156;-6.43917989730835;4.654386520385742;87.8804702758789
172;1673376697.4020452;47.130642599999995;7.240619799999999;44.243003845214844;1673376697.5208106;-6.425683498382568;8.349538803100586;87.56249237060547
173;1673376697.6082637;47.130642599999995;7.2406197;44.6400032043457;1673376697.7171857;-6.297610759735107;8.498260498046875;87.51265716552734
174;1673376697.7859669;47.130642599999995;7.2406197;45.03300094604492;1673376697.8946304;-6.522521018981934;4.830361843109131;87.7314453125
175;1673376697.9694006;47.130642599999995;7.2406196;45.426002502441406;1673376698.0902858;-6.8290300369262695;7.55387544631958;87.33514404296875
176;1673376698.161605;47.130642599999995;7.2406196;45.823001861572266;1673376698.28553;-6.414586544036865;9.513107299804688;87.2184066772461
177;1673376698.3667812;47.130642599999995;7.2406196;46.21900177001953;1673376698.485629;-6.617284297943115;4.900557041168213;87.8885726928711
178;1673376698.5600626;47.130642599999995;7.240619499999999;46.612003326416016;1673376698.6819985;-6.774166584014893;6.613580703735352;87.6736068725586
179;1673376698.7539864;47.1306425;7.240619499999999;47.00400161743164;1673376698.87318;-6.6243743896484375;9.550384521484375;87.2069320678711
180;1673376698.9543405;47.1306425;7.240619499999999;47.39600372314453;1673376699.0809844;-6.472387790679932;5.421143531799316;87.73939514160156
181;1673376699.1588278;47.130642599999995;7.240619499999999;47.78900146484375;1673376699.2931094;-6.68067741394043;6.318001747131348;87.63914489746094
182;1673376699.3790739;47.130642599999995;7.240619499999999;48.17100143432617;1673376699.5034604;-6.566959381103516;9.883790016174316;87.47821807861328
183;1673376699.5885592;47.130642599999995;7.2406194;48.505001068115234;1673376699.7124958;-6.839812755584717;6.088676452636719;87.86105346679688
184;1673376699.8198729;47.130642599999995;7.2406194;48.7910041809082;1673376699.9152396;-6.926543235778809;5.5943145751953125;87.77715301513672
185;1673376699.9819398;47.130642599999995;7.2406193;49.03200149536133;1673376700.0945232;-6.85630464553833;10.219491958618164;87.20559692382812
186;1673376700.167238;47.130642699999996;7.240619199999999;49.233001708984375;1673376700.2755435;-6.352163314819336;6.31458854675293;87.69268798828125
187;1673376700.3514686;47.1306428;7.240619;49.39500045776367;1673376700.4779334;10.553468704223633;22.628616333007812;93.5140151977539
188;1673376700.5507717;47.1306425;7.2406182;49.53200149536133;1673376700.6743283;21.259078979492188;40.74160385131836;105.47233581542969
189;1673376700.748076;47.130640899999996;7.2406152;49.65200424194336;1673376700.8706021;22.80299186706543;54.080780029296875;114.4981460571289
190;1673376700.9453678;47.1306371;7.2406086;49.74800109863281;1673376701.0746078;9.645833015441895;58.90431213378906;122.5573959350586
191;1673376701.1661196;47.1306308;7.2405982;49.801002502441406;1673376701.2977066;-5.745909214019775;56.40458297729492;132.880859375
192;1673376701.381241;47.1306223;7.2405848;49.8280029296875;1673376701.5011153;-18.43533706665039;50.68129348754883;143.62445068359375
193;1673376701.583659;47.1306121;7.2405687;49.8380012512207;1673376701.7105756;-32.94758987426758;47.1919059753418;153.89309692382812
194;1673376701.7840257;47.1306003;7.2405503;49.84100341796875;1673376701.8946068;-45.33365249633789;44.43731689453125;166.55386352539062
195;1673376701.9637892;47.1305869;7.240529899999999;49.8280029296875;1673376702.0800977;-48.5244026184082;33.83010482788086;-179.37527465820312
196;1673376702.163766;47.130572199999996;7.2405073;49.781002044677734;1673376702.2875674;-43.90471267700195;23.779258728027344;-172.95199584960938
197;1673376702.3702579;47.1305568;7.2404832;49.71800231933594;1673376702.501892;-47.209476470947266;18.726999282836914;-167.2680206298828
198;1673376702.5801647;47.1305409;7.2404582;49.6660041809082;1673376702.6932611;-47.7806396484375;13.176432609558105;-159.05430603027344
199;1673376702.7622871;47.1305245;7.2404325;49.617000579833984;1673376702.8878636;-47.322235107421875;7.233266353607178;-151.08770751953125
200;1673376702.9646795;47.130508;7.2404063;49.583003997802734;1673376703.0836754;-46.39106750488281;1.7513781785964966;-144.52468872070312
201;1673376703.1560159;47.130491199999994;7.2403797999999995;49.56700134277344;1673376703.288689;-47.40206527709961;-0.9407743811607361;-138.31944274902344
202;1673376703.3600812;47.1304744;7.2403527;49.56300354003906;1673376703.4829094;-47.03376007080078;-9.919415473937988;-132.16119384765625
203;1673376703.5593262;47.1304574;7.240325299999999;49.57200241088867;1673376703.6791508;-46.90380096435547;-12.562593460083008;-134.55960083007812
204;1673376703.758345;47.1304401;7.2402980999999995;49.58100128173828;1673376703.8823893;-47.05165481567383;-11.249115943908691;-137.7224578857422
205;1673376703.956329;47.1304224;7.2402714999999995;49.59400177001953;1673376704.0769255;-47.19825744628906;-9.96800708770752;-139.25445556640625
206;1673376704.1548154;47.130404299999995;7.2402454999999994;49.61300277709961;1673376704.277605;-47.835960388183594;-8.373552322387695;-140.0951690673828
207;1673376704.3511002;47.1303859;7.24022;49.637001037597656;1673376704.4871948;-49.212623596191406;-7.015113353729248;-140.65499877929688
208;1673376704.5638864;47.1303671;7.2401947;49.6660041809082;1673376704.6883526;-49.581172943115234;-5.84988260269165;-141.0006103515625
209;1673376704.7612908;47.1303482;7.2401694;49.69700241088867;1673376704.8878775;-49.367984771728516;-5.347738265991211;-140.9183349609375
210;1673376704.969448;47.1303291;7.2401442;49.72500228881836;1673376705.1056385;-48.82068634033203;-5.229928493499756;-140.644287109375
211;1673376705.1896694;47.1303098;7.240118799999999;49.746002197265625;1673376705.317816;-48.033843994140625;-5.440465450286865;-140.2676544189453
212;1673376705.3872983;47.1302905;7.240093399999999;49.759002685546875;1673376705.5071228;-47.46952438354492;-5.546332836151123;-139.99066162109375
213;1673376705.5868886;47.130271099999995;7.240068099999999;49.7660026550293;1673376705.7100725;-47.1010627746582;-5.618102550506592;-139.68968200683594
214;1673376705.7803638;47.130251799999996;7.2400429;49.7650032043457;1673376705.8931477;-46.78080368041992;-5.73551082611084;-139.49244689941406
215;1673376705.9708045;47.1302325;7.2400174999999996;49.7660026550293;1673376706.087808;-46.97751235961914;-5.878544330596924;-139.3290252685547
216;1673376706.1664557;47.1302132;7.239992099999999;49.77100372314453;1673376706.2867785;-47.474212646484375;-6.035038948059082;-139.20912170410156
217;1673376706.3616064;47.130193999999996;7.2399667;49.7760009765625;1673376706.4853997;-47.46431350708008;-6.06694221496582;-139.12368774414062
218;1673376706.5614467;47.1301749;7.239941399999999;49.78000259399414;1673376706.6857252;-47.30026626586914;-6.042599678039551;-139.05142211914062
219;1673376706.7556837;47.130155699999996;7.239916;49.78200149536133;1673376706.8772223;-47.14301300048828;-6.0051069259643555;-138.944091796875
220;1673376706.9558673;47.1301366;7.239890699999999;49.78600311279297;1673376707.0793874;-47.321231842041016;-6.003121852874756;-138.9164581298828
221;1673376707.1521776;47.1301175;7.2398652;49.79300308227539;1673376707.2766984;-47.49929428100586;-6.079747200012207;-138.87115478515625
222;1673376707.357252;47.1300984;7.2398396;49.80000305175781;1673376707.4944808;-47.66416549682617;-6.159811496734619;-138.81805419921875
223;1673376707.5771172;47.1300793;7.239814;49.80500411987305;1673376707.6989462;-47.75489807128906;-6.158551216125488;-138.8206024169922
224;1673376707.7706487;47.130060199999996;7.2397883;49.80900192260742;1673376707.8769383;-47.54597473144531;-6.161803722381592;-138.7957000732422
225;1673376707.9475837;47.1300411;7.2397627;49.81200408935547;1673376708.062411;-47.512229919433594;-6.1170783042907715;-138.76988220214844
226;1673376708.1377835;47.130022;7.239737;49.81100082397461;1673376708.2595417;-47.29361343383789;-6.053915977478027;-138.74546813964844
227;1673376708.3350565;47.1300029;7.2397114;49.80800247192383;1673376708.4581027;-47.0706787109375;-6.030412673950195;-138.71755981445312
228;1673376708.5356376;47.1299839;7.239685799999999;49.80900192260742;1673376708.6570518;-47.45513916015625;-6.087188720703125;-138.69924926757812
229;1673376708.7315583;47.1299649;7.2396601;49.81200408935547;1673376708.8515077;-47.755859375;-6.106070518493652;-138.70480346679688
230;1673376708.9300535;47.129945799999994;7.2396343;49.81500244140625;1673376709.052632;-47.74077224731445;-6.06903076171875;-138.71627807617188
231;1673376709.12839;47.1299268;7.2396085999999995;49.81700134277344;1673376709.2501614;-47.546775817871094;-5.9816741943359375;-138.7212371826172
232;1673376709.3247094;47.1299078;7.239582899999999;49.81700134277344;1673376709.447572;-47.46770477294922;-5.932583808898926;-138.69749450683594
233;1673376709.5242505;47.129888799999996;7.2395571;49.81700134277344;1673376709.646783;-47.56576156616211;-5.925903797149658;-138.71934509277344
234;1673376709.7263913;47.129869799999994;7.2395314;49.82200241088867;1673376709.8471022;-47.84812545776367;-5.978149890899658;-138.7064208984375
235;1673376709.9210072;47.1298508;7.239505599999999;49.83100128173828;1673376710.0443428;-48.03989791870117;-6.013612747192383;-138.70733642578125
236;1673376710.1207619;47.1298319;7.2394798;49.836002349853516;1673376710.2435076;-48.02029800415039;-5.999515533447266;-138.7549285888672
237;1673376710.3193624;47.1298129;7.2394539;49.8380012512207;1673376710.4448504;-47.76173400878906;-5.962378025054932;-138.78895568847656
238;1673376710.5199525;47.129793899999996;7.2394279;49.84100341796875;1673376710.6438782;-47.59574508666992;-5.975876331329346;-138.77818298339844
239;1673376710.7206867;47.1297749;7.239402;49.84400177001953;1673376710.844652;-47.6624870300293;-5.951918601989746;-138.80030822753906
240;1673376710.9210787;47.1297559;7.239376;49.84700393676758;1673376711.0408685;-47.74512481689453;-5.942311763763428;-138.83590698242188
241;1673376711.120635;47.1297369;7.23935;49.84700393676758;1673376711.244202;-47.590171813964844;-5.915430068969727;-138.8473663330078
242;1673376711.320985;47.129717799999995;7.239324;49.84600067138672;1673376711.441582;-47.39133834838867;-5.821272850036621;-138.8955078125
243;1673376711.5192437;47.1296988;7.239298;49.84600067138672;1673376711.651752;-47.27153015136719;-5.85742712020874;-138.8994903564453
244;1673376711.7277486;47.1296798;7.239272;49.85000228881836;1673376711.845531;-47.505279541015625;-5.854553699493408;-138.89686584472656
245;1673376711.9253135;47.129660699999995;7.239246;49.85300064086914;1673376712.0488617;-47.71034240722656;-5.838143825531006;-138.97181701660156
246;1673376712.1237247;47.1296417;7.2392199999999995;49.85900115966797;1673376712.2470555;-47.739376068115234;-5.8016438484191895;-138.99742126464844
247;1673376712.3249586;47.1296227;7.2391939999999995;49.86300277709961;1673376712.4485166;-47.75390625;-5.762943267822266;-139.04843139648438
248;1673376712.5283084;47.1296037;7.239167999999999;49.862003326416016;1673376712.6538103;-47.436100006103516;-5.689532279968262;-139.1044921875
249;1673376712.728623;47.129584699999995;7.2391419;49.86000061035156;1673376712.8917062;-47.23722839355469;-5.669313430786133;-139.09158325195312
250;1673376712.9733002;47.1295657;7.239116;49.862003326416016;1673376713.1026258;-47.47930908203125;-5.661773204803467;-139.13763427734375
251;1673376713.1744244;47.1295467;7.23909;49.867000579833984;1673376713.301116;-47.767601013183594;-5.612204074859619;-139.22007751464844
252;1673376713.4031591;47.1295277;7.239064;49.87600326538086;1673376713.5309634;-48.05399703979492;-5.641678810119629;-139.26248168945312
253;1673376713.6096056;47.129508699999995;7.2390379;49.887001037597656;1673376713.7344332;-48.19968795776367;-5.553158760070801;-139.39321899414062
254;1673376713.8337495;47.1294897;7.2390118999999995;49.89500427246094;1673376713.9368725;-47.810752868652344;-5.4511260986328125;-139.4231414794922
255;1673376714.0320997;47.1294706;7.2389858;49.897003173828125;1673376714.1784897;-47.479862213134766;-5.31280517578125;-139.53065490722656
256;1673376714.2950234;47.129451499999995;7.2389598;49.89900207519531;1673376714.4033523;-47.2428092956543;-5.789233207702637;-139.4260711669922
257;1673376714.4835804;47.1294325;7.2389337;49.90300369262695;1673376714.5990984;-47.431766510009766;-6.476345062255859;-139.5380096435547
258;1673376714.6572137;47.129413299999996;7.2389076999999995;49.91100311279297;1673376714.7817287;-47.87399673461914;-7.01682186126709;-139.64833068847656
259;1673376714.862632;47.1293942;7.2388818;49.923004150390625;1673376714.9622095;-47.741729736328125;-8.087843894958496;-139.83717346191406
260;1673376715.025228;47.129374899999995;7.2388561;49.93400192260742;1673376715.136167;-48.16145706176758;-7.646557807922363;-140.34132385253906
261;1673376715.2113721;47.129355399999994;7.2388306;49.941001892089844;1673376715.322311;-47.811012268066406;-8.530172348022461;-140.31332397460938
262;1673376715.396223;47.1293358;7.2388053;49.94700241088867;1673376715.5144541;-47.48155212402344;-8.326554298400879;-140.77407836914062
263;1673376715.5926592;47.1293161;7.238780299999999;49.95100402832031;1673376715.7104597;-46.89103698730469;-10.36811351776123;-140.40174865722656
264;1673376715.7872143;47.1292962;7.238755599999999;49.95600128173828;1673376715.9078958;-42.8072395324707;-9.09876823425293;-141.54727172851562
265;1673376715.9888074;47.129276399999995;7.2387314;49.97600173950195;1673376716.1061852;-29.499971389770508;-9.96296501159668;-140.36534118652344
266;1673376716.1750517;47.129256899999994;7.238708099999999;50.01100158691406;1673376716.2937567;-10.887115478515625;-8.906753540039062;-138.9059600830078
267;1673376716.3726816;47.1292386;7.2386862999999995;50.03600311279297;1673376716.5071228;3.3342816829681396;-7.0606770515441895;-136.98867797851562
268;1673376716.6017308;47.129222299999995;7.2386667;50.04600143432617;1673376716.7100325;12.748680114746094;-6.375749588012695;-136.3095245361328
269;1673376716.7858255;47.129208399999996;7.2386497;50.0410041809082;1673376716.9132562;17.8359375;-1.5524015426635742;-138.16390991210938
270;1673376716.986854;47.1291972;7.238635599999999;50.0160026550293;1673376717.1057823;22.818452835083008;-8.318047523498535;-136.96128845214844
271;1673376717.180053;47.1291886;7.2386241;49.96800231933594;1673376717.301844;19.413984298706055;-12.338568687438965;-135.8059539794922
272;1673376717.3763106;47.129182199999995;7.2386151;49.88800048828125;1673376717.486872;12.376080513000488;-15.014971733093262;-136.02796936035156
273;1673376717.5901241;47.1291772;7.2386085;49.823001861572266;1673376717.7268667;7.270907402038574;-15.57977294921875;-137.02935791015625
274;1673376717.7918386;47.1291733;7.2386037;49.785003662109375;1673376717.9027522;-0.6242377758026123;-16.857481002807617;-136.3665008544922
275;1673376717.975727;47.1291698;7.238600399999999;49.78400421142578;1673376718.1050556;-8.127288818359375;-13.637787818908691;-136.31539916992188
276;1673376718.196196;47.129166399999995;7.238597899999999;49.823001861572266;1673376718.3316498;-11.875782012939453;-9.985803604125977;-135.42172241210938
277;1673376718.403548;47.129163;7.2385952;49.87600326538086;1673376718.5308318;-12.868879318237305;-5.697868347167969;-133.12159729003906
278;1673376718.608229;47.1291598;7.2385921;49.926002502441406;1673376718.7331147;-10.428237915039062;-0.7405702471733093;-130.58985900878906
279;1673376718.808267;47.129156699999996;7.2385883;49.96600341796875;1673376718.9314072;-5.776823043823242;-1.5846911668777466;-128.73199462890625
280;1673376719.0066712;47.129154;7.2385841;50.000003814697266;1673376719.1273315;-2.8993194103240967;-4.486593723297119;-128.42799377441406
281;1673376719.1991773;47.1291517;7.2385797;50.035003662109375;1673376719.3227897;-24.022480010986328;-7.1758012771606445;-133.30337524414062
282;1673376719.4023893;47.129149299999995;7.238574799999999;50.10100173950195;1673376719.524412;-23.247663497924805;-4.402704238891602;-139.6472930908203
283;1673376719.6037924;47.1291461;7.2385687;50.22100067138672;1673376719.7234972;-17.17755699157715;-3.2677371501922607;-140.4305877685547
284;1673376719.8035865;47.129142599999994;7.2385616;50.43300247192383;1673376719.930124;-15.884377479553223;-0.4797503650188446;-139.14749145507812
285;1673376720.0173903;47.129138999999995;7.2385537;50.72600173950195;1673376720.1305175;-24.6272029876709;-3.0808568000793457;-138.04322814941406
286;1673376720.2060754;47.1291352;7.2385451;51.079002380371094;1673376720.3249989;-42.1011848449707;-15.265398979187012;-137.3429412841797
287;1673376720.3963075;47.1291303;7.238535499999999;51.448001861572266;1673376720.5110228;-45.854888916015625;-14.428565979003906;-138.95249938964844
288;1673376720.5856183;47.129123;7.2385246;51.81700134277344;1673376720.7039907;-40.957515716552734;-14.731082916259766;-138.135498046875
289;1673376720.7790337;47.129114;7.238512699999999;52.173004150390625;1673376720.898886;-35.61044692993164;-13.625527381896973;-138.19322204589844
290;1673376720.9744468;47.1291039;7.2385002;52.513004302978516;1673376721.0941408;-31.02303123474121;-10.237466812133789;-138.1090850830078
291;1673376721.1714299;47.1290932;7.2384873;52.849002838134766;1673376721.2976847;-28.667699813842773;-8.692743301391602;-137.6815185546875
292;1673376721.375872;47.1290823;7.2384740999999995;53.19000244140625;1673376721.4992287;-26.49604034423828;-6.037774085998535;-137.54087829589844
293;1673376721.5770614;47.1290714;7.2384607;53.540000915527344;1673376721.7035854;-24.78187370300293;-5.142754077911377;-137.52822875976562
294;1673376721.7782352;47.129060599999995;7.2384471999999995;53.89800262451172;1673376721.908162;-23.92819595336914;-4.933959484100342;-137.2604522705078
295;1673376721.9885259;47.1290501;7.2384336;54.26400375366211;1673376722.1145823;-23.362401962280273;-6.029567718505859;-137.01698303222656
296;1673376722.195181;47.129039899999995;7.2384201;54.637001037597656;1673376722.3169594;-23.524267196655273;-7.8714799880981445;-136.6659393310547
297;1673376722.403423;47.12903;7.2384065;55.0150032043457;1673376722.5384867;-24.364280700683594;-9.29122257232666;-136.60049438476562
298;1673376722.6185966;47.1290203;7.2383931;55.397003173828125;1673376722.724597;-25.10184669494629;-8.927276611328125;-136.9424285888672
299;1673376722.799677;47.129010699999995;7.238379699999999;55.78300094604492;1673376722.9159336;-25.861249923706055;-8.242292404174805;-137.1774139404297
300;1673376722.9916406;47.129000999999995;7.2383663;56.17500305175781;1673376723.1151388;-26.483564376831055;-7.805438995361328;-137.42770385742188
301;1673376723.192095;47.1289914;7.2383527999999995;56.56800079345703;1673376723.3172944;-26.873546600341797;-6.927791118621826;-137.6169891357422
302;1673376723.3910942;47.1289817;7.2383393;56.96400451660156;1673376723.5266552;-27.186342239379883;-6.825450897216797;-137.64178466796875
303;1673376723.60657;47.128971899999996;7.2383257;57.35900115966797;1673376723.7180111;-27.07471466064453;-6.987980842590332;-137.50390625
304;1673376723.788967;47.128962099999995;7.2383121;57.75300216674805;1673376723.8953154;-26.955076217651367;-7.826859474182129;-137.2416229248047
305;1673376723.9659712;47.128952299999995;7.238298599999999;58.14400100708008;1673376724.1043456;-26.682931900024414;-8.546646118164062;-136.98800659179688
306;1673376724.1810033;47.1289424;7.2382851;58.53600311279297;1673376724.3045938;-26.25396156311035;-9.2910737991333;-136.87730407714844
307;1673376724.3785179;47.1289324;7.2382715;58.92900466918945;1673376724.4902425;-26.289669036865234;-9.626288414001465;-136.80982971191406
308;1673376724.566547;47.128922499999994;7.238258;59.32200241088867;1673376724.7057889;-26.142248153686523;-9.793190002441406;-136.8517303466797
309;1673376724.7835708;47.1289125;7.2382444999999995;59.7130012512207;1673376724.9090793;-26.14185905456543;-9.674064636230469;-136.55027770996094
310;1673376725.0275507;47.128902599999996;7.238231;60.103004455566406;1673376725.1534238;-26.465389251708984;-9.175016403198242;-136.6909637451172
311;1673376725.2379181;47.128892699999994;7.2382174;60.493003845214844;1673376725.3958273;-26.510591506958008;-8.639403343200684;-136.86163330078125
312;1673376725.4892485;47.1288829;7.2382038;60.888004302978516;1673376725.5945313;-26.565431594848633;-8.367366790771484;-137.04449462890625
313;1673376725.6746688;47.1288731;7.2381901;61.28400421142578;1673376725.767991;-26.691234588623047;-7.860925674438477;-137.28880310058594
314;1673376725.8346007;47.1288633;7.238176299999999;61.67900466918945;1673376725.9385052;-26.632488250732422;-7.5470733642578125;-137.31011962890625
315;1673376726.0059898;47.1288534;7.2381626;62.07200241088867;1673376726.1169603;-26.69740104675293;-7.020279884338379;-137.4918670654297
316;1673376726.1887534;47.128843499999995;7.238149;62.4630012512207;1673376726.3115797;-26.64185333251953;-7.024026393890381;-137.5121612548828
317;1673376726.3849702;47.1288335;7.2381353;62.853004455566406;1673376726.5046737;-26.919498443603516;-7.0915846824646;-137.3822479248047
318;1673376726.5799332;47.1288236;7.2381217;63.24200439453125;1673376726.7046568;-26.8892765045166;-7.180913925170898;-137.24728393554688
319;1673376726.778919;47.1288136;7.2381081;63.63300323486328;1673376726.9017575;-26.874563217163086;-7.706981658935547;-137.08628845214844
320;1673376726.9814827;47.1288037;7.2380944;64.02799987792969;1673376727.107477;-26.73207664489746;-8.255128860473633;-137.1020965576172
321;1673376727.1937146;47.128793699999996;7.2380808;64.42300415039062;1673376727.320376;-26.72327995300293;-9.032407760620117;-136.82948303222656
322;1673376727.392166;47.1287837;7.238067099999999;64.82100677490234;1673376727.5198545;-26.778133392333984;-9.392720222473145;-136.80284118652344
323;1673376727.6023653;47.128773699999996;7.2380534999999995;65.21600341796875;1673376727.7263563;-26.671144485473633;-9.864296913146973;-136.78440856933594
324;1673376727.8058789;47.1287637;7.2380398999999995;65.61100006103516;1673376727.9212766;-26.91353988647461;-9.692602157592773;-136.7781219482422
325;1673376727.9921522;47.1287537;7.2380263;66.00700378417969;1673376728.1154664;-26.935874938964844;-9.624763488769531;-136.67588806152344
326;1673376728.195165;47.1287437;7.2380128;66.4010009765625;1673376728.3217838;-27.13800811767578;-9.481226921081543;-136.69615173339844
327;1673376728.4065442;47.1287336;7.2379992;66.79400634765625;1673376728.5276942;-27.268695831298828;-9.064727783203125;-136.77255249023438
328;1673376728.602036;47.1287236;7.237985699999999;67.18600463867188;1673376728.7289596;-27.368202209472656;-8.965213775634766;-136.7616729736328
329;1673376728.8012307;47.128713499999996;7.2379720999999995;67.57600402832031;1673376728.9185178;-27.188539505004883;-8.659282684326172;-136.8577880859375
330;1673376728.9936955;47.1287035;7.2379583;67.96600341796875;1673376729.1004531;-27.174205780029297;-8.572216033935547;-136.8754425048828
331;1673376729.171645;47.128693399999996;7.2379446;68.35700225830078;1673376729.2872837;-27.162052154541016;-8.628896713256836;-136.88265991210938
332;1673376729.379864;47.1286834;7.2379307;68.75300598144531;1673376729.5106566;-27.050453186035156;-8.631741523742676;-136.87326049804688
333;1673376729.5964704;47.1286734;7.2379169;69.1500015258789;1673376729.731182;-26.9329776763916;-8.307720184326172;-137.023193359375
334;1673376729.8071516;47.1286633;7.237902999999999;69.54900360107422;1673376729.9294806;-26.861072540283203;-7.930134296417236;-137.10777282714844
335;1673376730.0144472;47.128653199999995;7.2378892;69.94800567626953;1673376730.1568494;-25.97256851196289;-7.813511371612549;-137.23196411132812
336;1673376730.3075695;47.1286432;7.2378754999999995;70.34100341796875;1673376730.3974483;-7.963119983673096;-8.739097595214844;-137.54873657226562
337;1673376730.4886591;47.1286336;7.2378623;70.7030029296875;1673376730.6066527;-4.195198059082031;-8.888668060302734;-137.10191345214844
338;1673376730.6771312;47.1286249;7.2378502;71.0260009765625;1673376730.7902174;1.7407217025756836;-8.671634674072266;-137.2967987060547
339;1673376730.8616796;47.1286171;7.2378395;71.31000518798828;1673376730.975805;4.946469306945801;-7.301419734954834;-137.7113494873047
340;1673376731.0480702;47.1286105;7.237830199999999;71.5570068359375;1673376731.1914222;7.199279308319092;-8.04210090637207;-137.11654663085938
341;1673376731.26368;47.1286049;7.2378222999999995;71.76900482177734;1673376731.375568;7.795970439910889;-8.098005294799805;-136.408447265625
342;1673376731.455351;47.128600399999996;7.237815899999999;71.95600128173828;1673376731.582919;6.499066352844238;-8.215322494506836;-136.41453552246094
343;1673376731.6624064;47.128596699999996;7.2378108;72.11600494384766;1673376731.781051;4.948750019073486;-9.075263023376465;-136.6444549560547
344;1673376731.8484428;47.1285938;7.2378067999999995;72.24800109863281;1673376731.9627938;2.4807794094085693;-3.7045505046844482;-136.67901611328125
345;1673376732.0323663;47.1285914;7.2378035999999994;72.35700225830078;1673376732.1369474;7.480997562408447;21.543874740600586;-126.97257995605469
346;1673376732.2070904;47.1285902;7.2378002;72.45100402832031;1673376732.3224628;1.4868104457855225;19.861988067626953;-116.57952117919922
347;1673376732.3956213;47.1285904;7.2377962;72.51500701904297;1673376732.5140765;-2.0328197479248047;8.372584342956543;-106.42726135253906
348;1673376732.5878692;47.128591799999995;7.2377917;72.56700134277344;1673376732.7351866;-5.429867267608643;5.394501686096191;-98.40689086914062
349;1673376732.8077214;47.1285939;7.2377866;72.61300659179688;1673376732.9265413;-5.719537734985352;-0.5565106868743896;-90.28173065185547
350;1673376732.9994802;47.1285963;7.237781;72.6520004272461;1673376733.1260228;-5.286947727203369;-1.5928281545639038;-81.89689636230469
351;1673376733.2053437;47.1285988;7.2377752;72.68400573730469;1673376733.3269174;-2.5358641147613525;-2.357910394668579;-72.90316009521484
352;1673376733.4028747;47.1286014;7.2377692;72.71500396728516;1673376733.530349;0.3770827054977417;-2.377018928527832;-62.99424362182617
353;1673376733.6097894;47.128603999999996;7.237763299999999;72.74400329589844;1673376733.7418358;3.9962401390075684;-1.9335517883300781;-53.19335174560547
354;1673376733.8169537;47.128606399999995;7.237757599999999;72.77100372314453;1673376733.9250062;4.97499942779541;-2.1878788471221924;-43.38035202026367
355;1673376733.9978802;47.128608799999995;7.237751899999999;72.79700469970703;1673376734.126839;3.848646640777588;-3.504176378250122;-39.80536651611328
356;1673376734.1986578;47.1286109;7.2377462999999995;72.81999969482422;1673376734.3480287;-11.21703815460205;-2.5647246837615967;-42.09597396850586
357;1673376734.4276185;47.1286132;7.237740499999999;72.84300231933594;1673376734.5597332;-39.345584869384766;-1.6812081336975098;-44.678611755371094
358;1673376734.6468732;47.1286164;7.2377334;72.8800048828125;1673376734.7731013;-55.26911163330078;-1.0810091495513916;-45.26999282836914
359;1673376734.8538988;47.1286217;7.2377234999999995;72.9010009765625;1673376734.9665446;-55.04494094848633;-1.8987668752670288;-45.16648483276367
360;1673376735.0339146;47.1286296;7.2377101999999995;72.90800476074219;1673376735.1536696;-58.30695343017578;-0.9347083568572998;-46.111572265625
361;1673376735.2294512;47.128639799999995;7.2376933;72.9320068359375;1673376735.3540585;-60.903953552246094;-0.8912505507469177;-45.90153884887695
362;1673376735.420023;47.1286525;7.2376727;72.96000671386719;1673376735.5274496;-58.812679290771484;-0.3132895529270172;-45.36896896362305
363;1673376735.6077013;47.1286674;7.2376489;72.97600555419922;1673376735.7433252;-56.968990325927734;0.032531850039958954;-45.62057876586914
364;1673376735.8287017;47.1286841;7.237622999999999;72.98300170898438;1673376735.9413989;-57.324092864990234;-0.5292845368385315;-45.824485778808594
365;1673376736.0276206;47.128702;7.2375953;72.9780044555664;1673376736.1400745;-56.095611572265625;-0.7652203440666199;-45.92295837402344
366;1673376736.214457;47.1287209;7.2375661;72.95700073242188;1673376736.3459957;-53.58938980102539;-0.55951988697052;-46.0958251953125
367;1673376736.4286203;47.1287406;7.237535599999999;72.9260025024414;1673376736.538513;-51.27330780029297;-2.9203548431396484;-45.678131103515625
368;1673376736.618725;47.128760799999995;7.2375042999999994;72.89400482177734;1673376736.7325633;-48.640586853027344;-0.18161608278751373;-46.76508331298828
369;1673376736.80631;47.1287811;7.2374724;72.86800384521484;1673376736.9765017;-49.052024841308594;0.16998283565044403;-46.79264831542969
370;1673376737.045165;47.128801599999996;7.2374402;72.85100555419922;1673376737.1628122;-50.18925094604492;-0.22608621418476105;-46.5949821472168
371;1673376737.239989;47.1288224;7.2374076;72.83600616455078;1673376737.3616157;-49.48716735839844;-0.270065039396286;-46.642574310302734
372;1673376737.4363806;47.1288434;7.2373747999999996;72.82400512695312;1673376737.5598059;-49.013118743896484;-0.1171799972653389;-46.76072692871094
373;1673376737.638467;47.1288645;7.2373417;72.81400299072266;1673376737.761235;-48.68836975097656;-0.08213197439908981;-46.790706634521484
374;1673376737.8324854;47.1288856;7.2373084;72.8080062866211;1673376737.9552073;-48.58878707885742;0.0296922717243433;-46.84986114501953
375;1673376738.0274162;47.128906699999995;7.2372751;72.8070068359375;1673376738.1504173;-40.99608612060547;0.09037565439939499;-46.83183288574219
376;1673376738.224333;47.1289277;7.2372419;72.65900421142578;1673376738.3483698;-8.733918190002441;-0.10838907212018967;-46.63880157470703
377;1673376738.4264412;47.1289484;7.2372092;72.1550064086914;1673376738.5515296;47.26401901245117;-0.7250099778175354;-46.697330474853516
378;1673376738.6297903;47.128969;7.237176799999999;71.25900268554688;1673376738.7516217;69.6799087524414;-179.0318603515625;135.3584442138672
379;1673376738.8263881;47.1289896;7.2371441999999995;69.97900390625;1673376738.9455733;26.616989135742188;178.9404296875;132.53054809570312
380;1673376739.021042;47.129010199999996;7.2371118;68.35200500488281;1673376739.150497;11.94910717010498;178.18788146972656;127.72726440429688
381;1673376739.22453;47.1290304;7.2370798999999995;66.35200500488281;1673376739.3515358;26.46628761291504;177.4037322998047;128.6865692138672
382;1673376739.431417;47.129050199999995;7.2370486;63.967002868652344;1673376739.5523689;71.73861694335938;173.51185607910156;127.1058349609375
383;1673376739.6333427;47.129069699999995;7.2370176;61.22600173950195;1673376739.7544582;36.60356903076172;0.9960055351257324;-45.36185073852539
384;1673376739.8323522;47.1290895;7.236986399999999;58.118003845214844;1673376739.9534926;-32.25615692138672;0.6677111983299255;-45.690250396728516
385;1673376740.0285373;47.1291091;7.2369555;54.60000228881836;1673376740.1615047;-66.39574432373047;-1.5710777044296265;-42.83466339111328
386;1673376740.234575;47.1291283;7.2369251;50.743003845214844;1673376740.3562229;-58.59070587158203;0.02059614285826683;-42.760963439941406
387;1673376740.4395597;47.1291473;7.2368951;46.57200241088867;1673376740.5585241;-7.527400970458984;1.7908977270126343;-41.91398239135742
388;1673376740.629693;47.1291659;7.2368657;42.04500198364258;1673376740.7376053;65.63885498046875;9.899535179138184;-31.81654930114746
389;1673376740.8075593;47.1291844;7.2368364;37.10900115966797;1673376740.9456103;68.68701171875;163.6013641357422;122.84676361083984
390;1673376741.011626;47.1292031;7.236807;31.854001998901367;1673376741.1544466;75.384033203125;149.65260314941406;110.03778076171875
391;1673376741.2248175;47.1292215;7.2367779;26.309001922607422;1673376741.34164;44.054256439208984;7.968160629272461;-29.925745010375977
392;1673376741.4315464;47.1292402;7.2367487;20.452001571655273;1673376741.5555658;-29.965328216552734;0.9696391224861145;-35.58174514770508
393;1673376741.630757;47.129258799999995;7.2367196;14.193000793457031;1673376741.7547302;-62.51030349731445;-2.58746075630188;-33.666229248046875
394;1673376741.852735;47.1292768;7.2366912;7.616000175476074;1673376741.9694893;-34.289337158203125;2.7780637741088867;-35.099388122558594
395;1673376742.0436091;47.1292943;7.2366635;0.737000048160553;1673376742.1624417;-6.753767013549805;-12.534506797790527;-31.530447006225586
396;1673376742.2347326;47.1292958;7.2366494999999995;0.7100000381469727;1673376742.352516;-2.453221082687378;-0.9796534180641174;-28.743865966796875
397;1673376742.4253728;47.1292961;7.2366376;1.2920000553131104;1673376742.549361;-2.4448018074035645;-2.561452627182007;-27.22719383239746
398;1673376742.6604998;47.129296599999996;7.2366261;1.8700001239776611;1673376742.778388;-2.3135626316070557;-4.136687755584717;-26.509071350097656
399;1673376742.8394701;47.129297199999996;7.2366155;2.4210000038146973;1673376742.949587;-2.177280902862549;-5.021886825561523;-26.337865829467773
400;1673376743.0183501;47.1292981;7.236606399999999;2.93500018119812;1673376743.1296742;-2.0090932846069336;-5.665519714355469;-26.218605041503906
401;1673376743.2006457;47.1292987;7.236597799999999;3.4140002727508545;1673376743.3658016;-1.8810359239578247;-5.87528657913208;-26.108976364135742
402;1673376743.4674757;47.129299599999996;7.2365908999999995;3.8460001945495605;1673376743.5764015;-1.659970998764038;-5.603517532348633;-26.45020294189453
403;1673376743.6574912;47.1293006;7.2365879;4.232000350952148;1673376743.7831054;-1.448928713798523;-5.349292755126953;-26.874277114868164
404;1673376743.8535225;47.1293016;7.2365878;4.570000171661377;1673376744.0035453;-1.1715977191925049;-4.90330696105957;-27.255321502685547
405;1673376744.0714612;47.129302499999994;7.236589899999999;4.863000392913818;1673376744.1753688;-0.8772138357162476;-4.50049352645874;-27.65073585510254
406;1673376744.2526126;47.1293033;7.2365935;5.115000247955322;1673376744.3614075;-0.6310867071151733;-4.10019588470459;-27.977657318115234
407;1673376744.441477;47.1293037;7.2365979;5.328000068664551;1673376744.5665357;-0.404257208108902;-3.7362306118011475;-28.263832092285156
408;1673376744.6464248;47.1293041;7.2366009;5.519000053405762;1673376744.767463;-0.2709397077560425;-3.5455543994903564;-28.33126449584961
409;1673376744.8353758;47.1293042;7.2366036;5.684000492095947;1673376744.9631133;-0.07896464318037033;-3.172438144683838;-28.600706100463867
410;1673376745.0477436;47.1293037;7.2366132;5.773000240325928;1673376745.1707568;0.536716639995575;-2.3363897800445557;-29.127971649169922
411;1673376745.2499752;47.1293028;7.236627299999999;5.810000419616699;1673376745.3627632;0.7847736477851868;-1.9487762451171875;-29.281692504882812
412;1673376745.4581456;47.1293018;7.2366382;5.73900032043457;1673376745.5961502;0.9501054883003235;-1.697650671005249;-29.352825164794922
413;1673376745.679227;47.1293011;7.2366456999999995;5.509000301361084;1673376745.7932718;1.0482937097549438;-1.4376918077468872;-29.38765525817871
414;1673376745.8673995;47.1293005;7.236650099999999;5.304000377655029;1673376745.9936182;1.1060749292373657;-1.264971137046814;-29.428367614746094
415;1673376746.052384;47.129300099999995;7.236652599999999;5.113000392913818;1673376746.1542833;1.1687862873077393;-1.055348515510559;-29.44328498840332
416;1673376746.2245958;47.1292999;7.2366543;4.873000144958496;1673376746.3403187;1.2860956192016602;-0.8450292944908142;-29.4691219329834
417;1673376746.413253;47.1292997;7.2366554;4.641000270843506;1673376746.5546052;1.2745940685272217;-0.6779428720474243;-29.504240036010742
418;1673376746.642904;47.129299599999996;7.236656;4.414000034332275;1673376746.7737997;1.3783000707626343;-0.3921155333518982;-29.529266357421875
