;pos_time;latitude;longitude;altitude;alt_time;pitch;roll;yaw
0;1673387895.0481596;47.1306424;7.24062;-0.027000000700354576;1673387895.1570446;-0.05791667103767395;-0.30707666277885437;90.36602020263672
1;1673387895.256257;47.1306424;7.24062;-0.026000000536441803;1673387895.368514;-0.1381482034921646;-0.4057803750038147;90.40957641601562
2;1673387895.4746513;47.1306424;7.2406201;-0.024000000208616257;1673387895.5827374;-0.06668077409267426;-0.4360695779323578;90.2681884765625
3;1673387895.6778085;47.1306424;7.2406201;-0.021000001579523087;1673387895.780839;-0.010075408965349197;-0.5849432945251465;90.40998840332031
4;1673387895.8722503;47.1306424;7.2406201;-0.018000001087784767;1673387895.970415;0.2614043056964874;-0.32878848910331726;90.29486846923828
5;1673387896.063129;47.1306424;7.24062;-0.018000001087784767;1673387896.1745481;0.2217075377702713;-0.2942575514316559;90.22437286376953
6;1673387896.2664576;47.1306424;7.24062;-0.01900000125169754;1673387896.372877;0.12413809448480606;-0.5104812979698181;90.45038604736328
7;1673387896.4719334;47.1306424;7.24062;-0.021000001579523087;1673387896.5721512;-0.12937255203723907;-0.38595646619796753;90.21173858642578
8;1673387896.6922166;47.1306424;7.24062;-0.020000001415610313;1673387896.7932134;0.06893006712198257;-0.38643717765808105;90.1719970703125
9;1673387896.908904;47.1306423;7.24062;-0.018000001087784767;1673387896.9896853;-0.07851791381835938;-0.4158999025821686;90.28681182861328
10;1673387897.1094804;47.1306423;7.2406201;-0.015000000596046448;1673387897.1981132;-0.23287248611450195;-0.3091370165348053;90.17881774902344
11;1673387897.2831225;47.1306423;7.2406201;-0.009000000543892384;1673387897.3752966;-0.1914757937192917;-0.5059301853179932;90.30142211914062
12;1673387897.5109239;47.1306424;7.2406201;-0.004000000189989805;1673387897.6248171;-0.06754033267498016;-0.34913837909698486;90.1877670288086
13;1673387897.7136636;47.1306424;7.24062;-0.0020000000949949026;1673387897.8079095;0.19190366566181183;-0.48054689168930054;90.37451171875
14;1673387897.9609;47.1306424;7.24062;0.0;1673387898.0445042;0.021514346823096275;-0.45310190320014954;90.35431671142578
15;1673387898.147077;47.1306423;7.24062;-0.0020000000949949026;1673387898.237885;-0.2543420195579529;-0.4265185594558716;90.17598724365234
16;1673387898.3508904;47.1306423;7.2406201;-0.004000000189989805;1673387898.460908;0.12320245057344437;-0.3968563973903656;90.11334228515625
17;1673387898.549458;47.1306423;7.2406201;-0.006000000052154064;1673387898.627697;-0.18680523335933685;-0.39766138792037964;90.30864715576172
18;1673387898.7043707;47.1306423;7.2406201;-0.004000000189989805;1673387898.7886472;0.11585758626461029;-0.36898988485336304;90.08187103271484
19;1673387898.8737247;47.1306423;7.24062;-0.003000000026077032;1673387898.965708;-0.12179949879646301;-0.56275874376297;90.20399475097656
20;1673387899.1180654;47.1306423;7.24062;-0.004000000189989805;1673387899.2146125;-0.11315572261810303;-0.4922863245010376;90.20079040527344
21;1673387899.2999232;47.1306423;7.24062;-0.006000000052154064;1673387899.392576;-0.14246037602424622;-0.7755566835403442;90.33708190917969
22;1673387899.4876068;47.1306423;7.2406198999999996;0.0;1673387899.5825598;-0.12069430202245712;-0.10916033387184143;90.2975845336914
23;1673387899.6736479;47.1306423;7.240619799999999;-0.0010000000474974513;1673387899.7733786;-0.2614346742630005;0.5660006999969482;90.26300811767578
24;1673387899.8697555;47.1306424;7.240619799999999;-0.004000000189989805;1673387899.974544;-0.39858099818229675;-0.2985088527202606;90.22576904296875
25;1673387900.0691183;47.1306424;7.240619799999999;-0.00800000037997961;1673387900.1756363;-0.34964099526405334;-0.3184753954410553;90.0606460571289
26;1673387900.2659247;47.1306424;7.240619799999999;-0.010000000707805157;1673387900.377766;-0.3762879967689514;-0.16811344027519226;90.2222900390625
27;1673387900.46776;47.1306424;7.240619799999999;-0.012000000104308128;1673387900.5696266;-0.34698694944381714;0.06707411259412766;90.1275634765625
28;1673387900.6739671;47.1306424;7.2406198999999996;-0.012000000104308128;1673387900.785478;-0.394361674785614;-0.28913408517837524;90.01823425292969
29;1673387900.8825576;47.1306424;7.2406198999999996;-0.01100000087171793;1673387900.9825077;-0.24351687729358673;-0.05877339467406273;90.248291015625
30;1673387901.072058;47.1306424;7.2406198999999996;-0.010000000707805157;1673387901.163643;-0.6394569277763367;-0.1727704256772995;90.273193359375
31;1673387901.2594385;47.1306424;7.24062;-0.010000000707805157;1673387901.376884;-0.9798988103866577;-0.16419395804405212;91.23043060302734
32;1673387901.4747639;47.1306424;7.2406201999999995;-0.010000000707805157;1673387901.5598738;3.306734323501587;-0.46574917435646057;93.51703643798828
33;1673387901.6488376;47.1306423;7.2406207;0.0010000000474974513;1673387901.7526648;9.576691627502441;-1.214141607284546;92.66304016113281
34;1673387901.850577;47.1306423;7.2406213;0.024000000208616257;1673387901.9524353;12.76675796508789;2.1147193908691406;92.2350845336914
35;1673387902.0577075;47.130642099999996;7.2406217999999996;0.06400000303983688;1673387902.1517558;12.516499519348145;1.1015889644622803;91.81327056884766
36;1673387902.2528257;47.130641999999995;7.240622;0.12000000476837158;1673387902.3516138;12.48453426361084;-2.647874355316162;91.54402160644531
37;1673387902.442421;47.130642099999996;7.240622;0.1860000044107437;1673387902.5455258;11.877233505249023;0.12140572816133499;91.30955505371094
38;1673387902.6388373;47.1306422;7.240621699999999;0.2639999985694885;1673387902.7490468;10.985021591186523;2.607593059539795;91.06978607177734
39;1673387902.8657243;47.1306423;7.2406213;0.35200002789497375;1673387902.9632564;10.75172233581543;-1.6753202676773071;90.47997283935547
40;1673387903.0584111;47.1306425;7.240620799999999;0.4570000171661377;1673387903.153107;10.304545402526855;-1.0079368352890015;90.0788345336914
41;1673387903.2440608;47.130642599999995;7.2406201999999995;0.5830000042915344;1673387903.3420866;9.812374114990234;2.9492552280426025;90.37257385253906
42;1673387903.452696;47.130642599999995;7.2406197;0.7190000414848328;1673387903.6178226;9.035030364990234;-0.601064920425415;90.24940490722656
43;1673387903.712772;47.130642699999996;7.2406193;0.8690000176429749;1673387903.839382;8.351710319519043;-1.5200884342193604;90.18065643310547
44;1673387903.9615252;47.130642699999996;7.2406191;1.0350000858306885;1673387904.0343342;7.676176071166992;3.148190975189209;89.789794921875
45;1673387904.1208973;47.130642699999996;7.240619;1.2100000381469727;1673387904.207555;8.46290111541748;1.106942892074585;89.27777862548828
46;1673387904.2993689;47.130642699999996;7.240619;1.3920000791549683;1673387904.4040601;9.161127090454102;-3.019822359085083;88.79338836669922
47;1673387904.5032313;47.130642699999996;7.2406191;1.5790001153945923;1673387904.6092005;9.444217681884766;1.1634771823883057;89.37873840332031
48;1673387904.7044265;47.130642599999995;7.2406191;1.7690000534057617;1673387904.829063;10.124451637268066;1.2977389097213745;89.3082504272461
49;1673387904.9154937;47.1306425;7.2406191;1.9610000848770142;1673387905.0185163;9.905158042907715;-2.9893226623535156;89.25021362304688
50;1673387905.1388845;47.1306424;7.240619199999999;2.1550002098083496;1673387905.2269073;9.000088691711426;0.2529557943344116;89.146240234375
51;1673387905.3045495;47.1306424;7.2406193;2.3460001945495605;1673387905.3953316;9.418564796447754;2.208179235458374;88.76152801513672
52;1673387905.490953;47.1306425;7.2406194;2.5340001583099365;1673387905.5946424;9.891082763671875;-2.201547622680664;88.59812927246094
53;1673387905.6862645;47.1306425;7.240619499999999;2.7260000705718994;1673387905.7751102;9.819918632507324;-0.5028086304664612;88.48062896728516
54;1673387905.8670225;47.1306425;7.240619499999999;2.9190001487731934;1673387905.9823415;10.102046966552734;2.6504008769989014;88.8823471069336
55;1673387906.130081;47.1306423;7.2406194;3.1120002269744873;1673387906.226418;10.098128318786621;-2.4276838302612305;88.67413330078125
56;1673387906.3203933;47.130642099999996;7.2406193;3.308000087738037;1673387906.4001694;9.331026077270508;-2.658504009246826;88.6052017211914
57;1673387906.4747345;47.130641999999995;7.2406193;3.504000186920166;1673387906.5637374;8.690347671508789;1.8700077533721924;88.55487823486328
58;1673387906.6542723;47.130641999999995;7.2406194;3.700000286102295;1673387906.7820957;9.090046882629395;-1.135913372039795;88.40985870361328
59;1673387906.9088042;47.130642099999996;7.240619499999999;3.8930001258850098;1673387907.004455;9.134644508361816;-2.9479870796203613;88.67146301269531
60;1673387907.1080487;47.130641999999995;7.2406196;4.0920000076293945;1673387907.203933;9.644405364990234;1.3232086896896362;88.8080062866211
61;1673387907.362945;47.130641999999995;7.2406197;4.2920002937316895;1673387907.4468644;9.912690162658691;0.28919416666030884;89.01651000976562
62;1673387907.5591123;47.1306419;7.2406197;4.492000102996826;1673387907.638426;10.041604995727539;-3.5024356842041016;88.50752258300781
63;1673387907.7221296;47.130641999999995;7.2406197;4.693000316619873;1673387907.8095744;9.80675220489502;0.7434663772583008;88.75932312011719
64;1673387907.9108973;47.130642099999996;7.240619799999999;4.895000457763672;1673387908.0036836;9.556063652038574;1.929302453994751;88.84043884277344
65;1673387908.086339;47.1306422;7.2406198999999996;5.095000267028809;1673387908.1822097;9.440055847167969;-2.4070029258728027;88.67290496826172
66;1673387908.2835038;47.1306424;7.24062;5.2960004806518555;1673387908.373872;9.59644889831543;0.33293893933296204;89.10161590576172
67;1673387908.467152;47.1306424;7.24062;5.497000217437744;1673387908.566438;10.101853370666504;2.8391146659851074;89.01956176757812
68;1673387908.6624541;47.1306423;7.2406201;5.698000431060791;1673387908.7687247;10.296246528625488;-1.7954171895980835;88.79596710205078
69;1673387908.8768156;47.1306423;7.2406201;5.898000240325928;1673387908.9768965;10.126296043395996;-1.589051365852356;88.45868682861328
70;1673387909.0710156;47.1306423;7.2406201;6.093000411987305;1673387909.1654088;9.934459686279297;2.3839125633239746;88.68885803222656
71;1673387909.3071518;47.1306422;7.24062;6.289000511169434;1673387909.394898;9.590780258178711;-1.2307751178741455;88.4832763671875
72;1673387909.4854507;47.1306422;7.24062;6.484000205993652;1673387909.586265;9.16111946105957;-2.301626443862915;88.63284301757812
73;1673387909.6741686;47.1306422;7.24062;6.680000305175781;1673387909.7677462;9.319083213806152;2.1709794998168945;88.77763366699219
74;1673387909.866299;47.130641999999995;7.2406201;6.879000186920166;1673387909.9624617;9.641583442687988;-0.7419299483299255;88.32555389404297
75;1673387910.0778558;47.1306419;7.2406201;7.078000545501709;1673387910.1802783;10.36397647857666;-3.83960223197937;88.31520080566406
76;1673387910.2738874;47.1306419;7.2406201999999995;7.28000020980835;1673387910.3723905;10.28980541229248;0.9666313529014587;88.61162567138672
77;1673387910.4681742;47.130641999999995;7.2406201999999995;7.482000350952148;1673387910.5674016;9.940666198730469;0.8065659403800964;88.93746948242188
78;1673387910.6685028;47.130642099999996;7.2406201999999995;7.681000232696533;1673387910.7725537;9.470269203186035;-2.805122137069702;88.79641723632812
79;1673387910.8728604;47.1306422;7.2406201999999995;7.881000518798828;1673387910.98081;9.368549346923828;0.7969651818275452;88.97712707519531
80;1673387911.0695071;47.130642099999996;7.2406203;8.079999923706055;1673387911.1814876;9.764322280883789;1.7312980890274048;88.92855072021484
81;1673387911.265634;47.130642099999996;7.2406203;8.279000282287598;1673387911.3635592;10.218276977539062;-2.8512611389160156;88.35745239257812
82;1673387911.454028;47.130642099999996;7.2406204;8.480000495910645;1673387911.556692;10.365195274353027;-1.027604103088379;88.5555419921875
83;1673387911.656472;47.130642099999996;7.2406204;8.680000305175781;1673387911.7762456;10.285395622253418;2.217900037765503;88.70671081542969
84;1673387911.8861995;47.1306422;7.2406203;8.880000114440918;1673387911.9924517;9.861403465270996;-1.9134389162063599;88.8087158203125
85;1673387912.0999742;47.1306422;7.2406203;9.07800006866455;1673387912.2032285;9.1670560836792;-1.6720340251922607;88.7956314086914
86;1673387912.287835;47.1306422;7.2406203;9.27500057220459;1673387912.3890698;9.218168258666992;2.4373083114624023;89.007568359375
87;1673387912.4686615;47.130642099999996;7.2406204;9.472000122070312;1673387912.5632522;9.814698219299316;-1.214683175086975;88.56920623779297
88;1673387912.6566067;47.130642099999996;7.2406204999999995;9.668000221252441;1673387912.7675683;10.659406661987305;-3.0677108764648438;88.38754272460938
89;1673387912.8707454;47.1306422;7.2406204999999995;9.860000610351562;1673387912.9764278;10.555004119873047;2.23913311958313;88.73332214355469
90;1673387913.0810883;47.1306423;7.2406204999999995;10.051000595092773;1673387913.1765049;10.595917701721191;0.38631707429885864;88.5708999633789
91;1673387913.2750401;47.1306424;7.2406204999999995;10.26200008392334;1673387913.3848383;10.572090148925781;-2.4286510944366455;88.5095443725586
92;1673387913.4718907;47.1306424;7.2406204;10.565000534057617;1673387913.5709784;11.36532211303711;0.6629009246826172;88.6578598022461
93;1673387913.659421;47.1306424;7.2406201;10.93600082397461;1673387913.7608933;10.097065925598145;1.6928513050079346;88.91996765136719
94;1673387913.8538997;47.1306423;7.240619799999999;11.32300090789795;1673387913.960167;9.440410614013672;-2.481340169906616;88.71862030029297
95;1673387914.059414;47.1306423;7.2406194;11.718000411987305;1673387914.1685295;9.071154594421387;-0.7409878969192505;88.71688842773438
96;1673387914.2563784;47.1306423;7.2406191;12.116000175476074;1673387914.3591745;8.747303009033203;2.3997416496276855;89.12199401855469
97;1673387914.4673092;47.1306424;7.240618899999999;12.517000198364258;1673387914.5665088;8.837496757507324;-0.5481494665145874;88.75111389160156
98;1673387914.6584299;47.1306424;7.240618899999999;12.919000625610352;1673387914.761526;8.423893928527832;-1.9511326551437378;88.65105438232422
99;1673387914.8713787;47.1306423;7.240618899999999;13.321001052856445;1673387914.9744077;8.67270565032959;1.703805923461914;88.7271499633789
100;1673387915.07072;47.1306423;7.2406191;13.725000381469727;1673387915.1708364;9.054291725158691;0.1073114201426506;88.82744598388672
101;1673387915.2622194;47.1306423;7.2406193;14.132000923156738;1673387915.3642192;9.320083618164062;-2.6810457706451416;88.657470703125
102;1673387915.4566174;47.1306423;7.240619499999999;14.539000511169434;1673387915.570771;9.750150680541992;1.4008560180664062;88.68601989746094
103;1673387915.6816692;47.1306423;7.2406197;14.946001052856445;1673387915.7802122;10.336703300476074;1.4192554950714111;88.80797576904297
104;1673387915.8836927;47.1306424;7.2406197;15.350000381469727;1673387915.98946;10.398301124572754;-2.379077672958374;88.5238037109375
105;1673387916.0759096;47.1306424;7.240619799999999;15.75200080871582;1673387916.1779504;10.111204147338867;-0.5779755711555481;88.63965606689453
106;1673387916.2725074;47.1306423;7.2406197;16.158000946044922;1673387916.367792;9.942023277282715;2.293710470199585;88.8226089477539
107;1673387916.4803011;47.1306422;7.2406197;16.567001342773438;1673387916.5840237;9.631952285766602;-2.246544599533081;88.65270233154297
108;1673387916.6949012;47.1306422;7.2406197;16.976001739501953;1673387916.7934713;9.503928184509277;-1.2692943811416626;88.6559829711914
109;1673387916.9129205;47.1306422;7.2406196;17.385000228881836;1673387917.0132499;9.285768508911133;2.051400661468506;88.69181060791016
110;1673387917.1022024;47.1306422;7.2406196;17.793001174926758;1673387917.2058883;9.59988784790039;-1.3046281337738037;88.67778015136719
111;1673387917.3008313;47.1306422;7.2406196;18.196001052856445;1673387917.392763;9.706812858581543;-2.5286738872528076;88.61711883544922
112;1673387917.4930332;47.1306422;7.2406196;18.59800148010254;1673387917.6009278;9.772068977355957;1.9647125005722046;88.77291870117188
113;1673387917.6855853;47.1306422;7.2406196;19.0;1673387917.7838423;9.647370338439941;-0.2838979959487915;88.83316040039062
114;1673387917.8782766;47.1306422;7.2406196;19.405000686645508;1673387917.9868872;9.566978454589844;-2.8974130153656006;88.6151123046875
115;1673387918.0803056;47.1306422;7.2406196;19.810001373291016;1673387918.1765304;9.354484558105469;0.9844676852226257;88.79105377197266
116;1673387918.2789023;47.1306423;7.2406196;20.209001541137695;1673387918.3816407;9.326177597045898;1.6431251764297485;88.88582611083984
117;1673387918.4846616;47.1306424;7.2406196;20.59800148010254;1673387918.5850158;9.583609580993652;-2.527742624282837;88.64982604980469
118;1673387918.6714983;47.1306424;7.2406196;20.98900032043457;1673387918.7727704;9.69588851928711;0.4485850930213928;88.7168197631836
119;1673387918.8662565;47.1306424;7.240619499999999;21.386001586914062;1673387918.965414;9.644255638122559;2.2439730167388916;88.98653411865234
120;1673387919.0714738;47.1306424;7.240619499999999;21.78700065612793;1673387919.1846528;9.738685607910156;-2.2813720703125;88.7188720703125
121;1673387919.294649;47.1306424;7.2406194;22.191001892089844;1673387919.4060385;9.432372093200684;-1.0377063751220703;88.62945556640625
122;1673387919.5093675;47.1306424;7.2406194;22.59400177001953;1673387919.609971;9.278413772583008;2.2679901123046875;88.72476196289062
123;1673387919.7037153;47.1306424;7.2406193;22.9950008392334;1673387919.8059309;9.272564888000488;-1.3110941648483276;88.57771301269531
124;1673387919.898964;47.1306424;7.2406193;23.39000129699707;1673387920.001369;9.127148628234863;-1.7314635515213013;88.61092376708984
125;1673387920.0997388;47.1306424;7.2406193;23.785001754760742;1673387920.20004;9.399889945983887;2.015765428543091;88.76932525634766
126;1673387920.2953436;47.1306424;7.2406194;24.183000564575195;1673387920.4034767;9.543529510498047;-0.5375698804855347;88.6927719116211
127;1673387920.5022056;47.1306424;7.2406194;24.5830020904541;1673387920.6116426;9.79813289642334;-2.6226470470428467;88.61180877685547
128;1673387920.705302;47.1306424;7.2406194;24.98400115966797;1673387920.8010674;9.62556266784668;1.665581464767456;88.82279968261719
129;1673387920.8954444;47.1306425;7.2406194;25.38800048828125;1673387920.9889002;9.568365097045898;1.2807683944702148;88.958984375
130;1673387921.081421;47.130642599999995;7.2406194;25.788002014160156;1673387921.1787086;9.705875396728516;-2.1807315349578857;88.7657699584961
131;1673387921.276783;47.130642699999996;7.2406194;26.189001083374023;1673387921.3838458;9.477463722229004;1.2108311653137207;88.77650451660156
132;1673387921.481182;47.130642599999995;7.240619499999999;26.591001510620117;1673387921.588208;9.532217025756836;2.041844129562378;88.87401580810547
133;1673387921.683442;47.130642599999995;7.240619499999999;26.9950008392334;1673387921.7866604;9.55428409576416;-2.141557216644287;88.74178314208984
134;1673387921.8881018;47.1306425;7.240619499999999;27.4010009765625;1673387921.9867315;9.504409790039062;-0.43892979621887207;88.6909408569336
135;1673387922.0927913;47.1306425;7.240619499999999;27.808000564575195;1673387922.1940737;9.659193992614746;2.33904767036438;88.6993408203125
136;1673387922.2976077;47.1306425;7.240619499999999;28.214000701904297;1673387922.4032393;9.621983528137207;-1.280777096748352;88.67976379394531
137;1673387922.512304;47.1306425;7.2406196;28.61100196838379;1673387922.6151986;9.881245613098145;-1.6229770183563232;88.62828063964844
138;1673387922.7113867;47.1306424;7.2406196;29.00800132751465;1673387922.8145146;9.791119575500488;2.031463623046875;88.74256896972656
139;1673387922.896383;47.1306424;7.2406196;29.407001495361328;1673387922.9844685;9.825451850891113;0.017969124019145966;88.6918716430664
140;1673387923.0775232;47.1306423;7.2406197;29.809001922607422;1673387923.1811748;9.679287910461426;-2.707047939300537;88.63467407226562
141;1673387923.2873755;47.1306423;7.2406197;30.209001541137695;1673387923.384199;9.448301315307617;1.6226288080215454;88.71659851074219
142;1673387923.4711099;47.1306424;7.2406197;30.606000900268555;1673387923.5788448;9.717812538146973;1.0000689029693604;88.73835754394531
143;1673387923.6680093;47.1306425;7.240619799999999;30.998001098632812;1673387923.769092;9.598692893981934;-2.367098093032837;88.79438781738281
144;1673387923.8888505;47.1306425;7.240619799999999;31.393001556396484;1673387923.9893482;9.796757698059082;1.2280774116516113;88.81256866455078
145;1673387924.1118267;47.1306425;7.240619799999999;31.793001174926758;1673387924.2090826;9.836214065551758;1.9283640384674072;88.81053161621094
146;1673387924.302508;47.1306425;7.240619799999999;32.19600296020508;1673387924.3979752;9.796875;-2.3298346996307373;88.661865234375
147;1673387924.5119572;47.1306425;7.240619799999999;32.60000228881836;1673387924.615063;9.590386390686035;-0.2145937830209732;88.66664123535156
148;1673387924.6987126;47.1306425;7.240619799999999;33.00100326538086;1673387924.7900753;9.377116203308105;2.039510488510132;88.86824798583984
149;1673387924.8835773;47.1306425;7.240619799999999;33.40299987792969;1673387924.9866042;9.242013931274414;-0.9648372530937195;88.6601791381836
150;1673387925.0792155;47.1306425;7.240619799999999;33.801002502441406;1673387925.1833534;9.116609573364258;-1.9636002779006958;88.60514068603516
151;1673387925.294356;47.1306424;7.240619799999999;34.19900131225586;1673387925.3922138;9.38483715057373;1.6530331373214722;88.7086410522461
152;1673387925.500735;47.1306424;7.240619799999999;34.60100173950195;1673387925.599651;9.407018661499023;0.4715343117713928;88.78617095947266
153;1673387925.6905882;47.1306424;7.240619799999999;35.00699996948242;1673387925.7920542;9.719808578491211;-2.946587085723877;88.5494384765625
154;1673387925.8889291;47.1306424;7.240619799999999;35.413002014160156;1673387925.9899986;9.665425300598145;1.5564583539962769;88.78639221191406
155;1673387926.0864263;47.130642599999995;7.240619799999999;35.816001892089844;1673387926.1875103;9.645912170410156;1.580053448677063;88.9158706665039
156;1673387926.2856922;47.130642699999996;7.2406198999999996;36.21200180053711;1673387926.3849337;9.555002212524414;-2.2450125217437744;88.72049713134766
157;1673387926.4811456;47.130642699999996;7.2406198999999996;36.608001708984375;1673387926.5773475;9.442432403564453;1.2225565910339355;88.79924011230469
158;1673387926.6727629;47.130642699999996;7.24062;37.00800323486328;1673387926.777917;9.501959800720215;2.4457383155822754;88.9065170288086
159;1673387926.877131;47.130642699999996;7.24062;37.410003662109375;1673387926.9812503;9.602008819580078;-2.093191623687744;88.72480773925781
160;1673387927.0771585;47.130642699999996;7.24062;37.8120002746582;1673387927.1802523;9.717652320861816;-0.21294072270393372;88.57613372802734
161;1673387927.281032;47.130642699999996;7.24062;38.21500015258789;1673387927.3835316;9.776961326599121;2.6180431842803955;88.7601318359375
162;1673387927.4856164;47.130642699999996;7.24062;38.61800003051758;1673387927.5867088;9.947964668273926;-1.1464027166366577;88.74634552001953
163;1673387927.6828752;47.130642599999995;7.24062;39.01400375366211;1673387927.7927387;9.819514274597168;-1.7487438917160034;88.50733184814453
164;1673387927.8871067;47.1306425;7.24062;39.41100311279297;1673387927.9923427;9.678897857666016;2.114436149597168;88.79670715332031
165;1673387928.0906303;47.1306424;7.2406201;39.8120002746582;1673387928.1918662;9.894789695739746;-0.029274223372340202;88.7085189819336
166;1673387928.2911603;47.1306424;7.2406201;40.2140007019043;1673387928.391023;9.766725540161133;-2.607478141784668;88.63492584228516
167;1673387928.4914541;47.1306424;7.2406201;40.61600112915039;1673387928.587655;9.733560562133789;0.7188965678215027;88.6751937866211
168;1673387928.6816158;47.1306425;7.2406201;41.018001556396484;1673387928.7853284;9.659668922424316;2.2171382904052734;88.87982940673828
169;1673387928.8935335;47.130642599999995;7.2406201;41.413002014160156;1673387928.9993083;9.60228157043457;-1.8416754007339478;88.81864166259766
170;1673387929.0966475;47.1306428;7.24062;41.8120002746582;1673387929.1958036;9.652933120727539;0.10978996008634567;88.68046569824219
171;1673387929.3063323;47.1306428;7.2406198999999996;42.2140007019043;1673387929.403286;9.557682991027832;3.163038969039917;88.9146728515625
172;1673387929.500482;47.130642699999996;7.2406198999999996;42.61900329589844;1673387929.5978234;9.562501907348633;-0.9891284108161926;88.51051330566406
173;1673387929.6952298;47.130642699999996;7.240619799999999;43.0260009765625;1673387929.7875147;9.411065101623535;-2.036127805709839;88.62376403808594
174;1673387929.8919234;47.130642699999996;7.240619799999999;43.43100357055664;1673387929.9994378;9.426803588867188;2.039781332015991;88.72853088378906
175;1673387930.0874064;47.130642699999996;7.240619799999999;43.83100128173828;1673387930.1973388;9.389657974243164;1.1770236492156982;88.8601303100586
176;1673387930.3069322;47.130642699999996;7.240619799999999;44.22200393676758;1673387930.415518;9.411099433898926;-2.508681058883667;88.67178344726562
177;1673387930.5195584;47.130642699999996;7.240619799999999;44.6150016784668;1673387930.6131294;9.28376579284668;0.8985376954078674;88.8126220703125
178;1673387930.7066727;47.130642599999995;7.240619799999999;45.009002685546875;1673387930.8034112;9.444131851196289;1.8115299940109253;88.81898498535156
179;1673387930.8947794;47.1306425;7.240619799999999;45.406002044677734;1673387930.9958487;9.632965087890625;-2.1957342624664307;88.65385437011719
180;1673387931.089126;47.1306425;7.2406197;45.80600357055664;1673387931.1941087;9.674186706542969;-0.5940760374069214;88.6697006225586
181;1673387931.2912965;47.1306425;7.2406197;46.207000732421875;1673387931.3905244;9.493546485900879;2.405583620071411;88.75435638427734
182;1673387931.48682;47.130642599999995;7.2406197;46.60400390625;1673387931.5869985;9.642239570617676;-1.4763399362564087;88.59361267089844
183;1673387931.6802683;47.130642599999995;7.2406197;47.00400161743164;1673387931.7764764;9.557963371276855;-1.306115984916687;88.6673812866211
184;1673387931.8687744;47.130642699999996;7.2406197;47.406002044677734;1673387931.9689462;9.38264274597168;2.858081817626953;88.93458557128906
185;1673387932.0649214;47.130642599999995;7.2406197;47.80600357055664;1673387932.169907;9.453039169311523;-0.7096027135848999;88.82642364501953
186;1673387932.2867029;47.130642599999995;7.2406197;48.191001892089844;1673387932.3888228;9.45405387878418;-1.6292253732681274;88.30265808105469
187;1673387932.4939883;47.1306425;7.240619799999999;48.522003173828125;1673387932.5900793;9.385753631591797;1.9987000226974487;88.5821533203125
188;1673387932.682382;47.1306425;7.2406198999999996;48.80600357055664;1673387932.7973754;9.510675430297852;0.36261051893234253;88.77954864501953
189;1673387932.9188268;47.1306425;7.2406201;49.03900146484375;1673387933.0084085;9.797109603881836;-2.5045807361602783;88.79707336425781
190;1673387933.097826;47.1306425;7.2406203;49.237003326416016;1673387933.194032;10.14547061920166;1.5389615297317505;88.777099609375
191;1673387933.3050542;47.1306424;7.2406204999999995;49.40900421142578;1673387933.4120636;25.409160614013672;16.13860321044922;93.0538330078125
192;1673387933.518015;47.1306419;7.2406198999999996;49.56700134277344;1673387933.6234326;35.459510803222656;35.2158317565918;105.44551086425781
193;1673387933.7104332;47.130640299999996;7.240617299999999;49.707000732421875;1673387933.7961895;36.548683166503906;48.649452209472656;115.09245300292969
194;1673387933.8825605;47.1306365;7.2406114;49.82500076293945;1673387933.9856339;26.832395553588867;56.61534118652344;122.64077758789062
195;1673387934.0839093;47.1306302;7.240601799999999;49.906002044677734;1673387934.1862404;10.4423828125;60.17826461791992;134.07603454589844
196;1673387934.2763615;47.1306216;7.240589099999999;49.94600296020508;1673387934.376529;-8.938389778137207;54.6774787902832;145.44435119628906
197;1673387934.4660547;47.1306115;7.2405743;49.95900344848633;1673387934.5692344;-21.544246673583984;46.39078903198242;156.30711364746094
198;1673387934.6625717;47.130600199999996;7.2405582;49.95900344848633;1673387934.7638109;-33.42076873779297;43.66559600830078;165.3004913330078
199;1673387934.858807;47.1305876;7.2405409999999994;49.94600296020508;1673387934.973517;-42.167686462402344;39.069766998291016;177.44607543945312
200;1673387935.1149695;47.130573999999996;7.2405228;49.92500305175781;1673387935.2160642;-47.06576156616211;31.959491729736328;-169.41136169433594
201;1673387935.315245;47.1305595;7.240503299999999;49.88900375366211;1673387935.4153423;-46.717185974121094;25.3535099029541;-161.44215393066406
202;1673387935.5100734;47.1305445;7.2404828;49.83500289916992;1673387935.5962691;-45.262664794921875;20.027193069458008;-155.82496643066406
203;1673387935.6915748;47.1305291;7.2404617;49.78000259399414;1673387935.79657;-45.62773895263672;15.325350761413574;-148.88548278808594
204;1673387935.8939166;47.1305134;7.2404402;49.7390022277832;1673387935.9994173;-46.474124908447266;10.598334312438965;-141.1639404296875
205;1673387936.092917;47.1304976;7.2404182;49.71200180053711;1673387936.1957872;-46.10579299926758;6.1291303634643555;-134.3628692626953
206;1673387936.298646;47.1304818;7.240396;49.69900131225586;1673387936.403493;-47.4442138671875;0.720816433429718;-129.56629943847656
207;1673387936.5006378;47.1304661;7.240373399999999;49.698001861572266;1673387936.599829;-48.54959487915039;-2.3108952045440674;-131.5115203857422
208;1673387936.7118587;47.1304501;7.2403509999999995;49.69600296020508;1673387936.833269;-47.65241241455078;-1.3249956369400024;-134.33494567871094
209;1673387936.9315898;47.1304337;7.2403287;49.69700241088867;1673387937.044141;-47.85811996459961;-0.33995962142944336;-135.38487243652344
210;1673387937.1397479;47.130417099999995;7.2403067;49.70100402832031;1673387937.237468;-47.51447296142578;1.4678183794021606;-136.2588653564453
211;1673387937.3310666;47.130400099999996;7.2402849;49.71600341796875;1673387937.4302094;-47.8866081237793;2.8556149005889893;-136.68478393554688
212;1673387937.5384128;47.130382999999995;7.2402631;49.73400115966797;1673387937.637199;-48.805870056152344;3.7567460536956787;-136.84725952148438
213;1673387937.72381;47.1303657;7.2402412;49.75400161743164;1673387937.8253398;-48.841102600097656;4.21933650970459;-136.849853515625
214;1673387937.921249;47.1303483;7.2402191;49.77300262451172;1673387938.012553;-48.731929779052734;4.2804436683654785;-136.67318725585938
215;1673387938.099962;47.1303309;7.240196999999999;49.78000259399414;1673387938.1945581;-48.04584884643555;4.195673942565918;-136.43235778808594
216;1673387938.2897563;47.1303134;7.2401746;49.78700256347656;1673387938.3889992;-47.450443267822266;4.114420413970947;-136.29364013671875
217;1673387938.4812932;47.130296;7.2401522;49.802001953125;1673387938.5766256;-48.06570816040039;4.304497718811035;-136.2868194580078
218;1673387938.671061;47.130278499999996;7.2401297;49.82200241088867;1673387938.7722504;-48.89451599121094;4.3358154296875;-136.17861938476562
219;1673387938.8665001;47.1302611;7.2401070999999995;49.842002868652344;1673387938.9677;-49.02339172363281;4.205572128295898;-136.0190887451172
220;1673387939.0630815;47.1302437;7.2400842;49.858001708984375;1673387939.1722171;-48.781028747558594;4.023906230926514;-135.85919189453125
221;1673387939.2821915;47.130226199999996;7.2400613;49.86300277709961;1673387939.390207;-48.084747314453125;3.8547651767730713;-135.70645141601562
222;1673387939.4941916;47.1302088;7.240038299999999;49.86900329589844;1673387939.593163;-47.85862731933594;3.9084692001342773;-135.72256469726562
223;1673387939.6857321;47.1301914;7.2400153;49.87600326538086;1673387939.7900457;-48.14191436767578;4.04984712600708;-135.72244262695312
224;1673387939.8862762;47.130174;7.2399922;49.88100051879883;1673387939.9863381;-48.32640075683594;4.008304119110107;-135.6376953125
225;1673387940.081567;47.1301566;7.2399691;49.884002685546875;1673387940.1865642;-48.300262451171875;3.9623923301696777;-135.58303833007812
226;1673387940.2857118;47.130139299999996;7.2399458999999995;49.887001037597656;1673387940.3852527;-48.295494079589844;3.917569637298584;-135.55657958984375
227;1673387940.4781187;47.130122;7.2399226;49.88900375366211;1673387940.5801537;-48.19418716430664;3.9529776573181152;-135.55029296875
228;1673387940.6734314;47.1301047;7.239899299999999;49.884002685546875;1673387940.7776043;-47.95146179199219;3.881910562515259;-135.4920654296875
229;1673387940.892604;47.1300874;7.239876;49.88200378417969;1673387941.0185483;-47.90776062011719;3.8713510036468506;-135.48858642578125
230;1673387941.1604214;47.1300701;7.239852699999999;49.88200378417969;1673387941.274113;-48.23349380493164;3.9951367378234863;-135.52056884765625
231;1673387941.359364;47.130052899999995;7.2398294;49.88200378417969;1673387941.4630635;-48.52717208862305;3.9251110553741455;-135.47007751464844
232;1673387941.557705;47.1300357;7.2398061;49.88600158691406;1673387941.6506703;-48.489349365234375;3.9307496547698975;-135.4690704345703
233;1673387941.734539;47.1300185;7.239782699999999;49.8900032043457;1673387941.8235335;-48.49884033203125;3.9487648010253906;-135.43716430664062
234;1673387941.9209025;47.130001299999996;7.239759299999999;49.887001037597656;1673387942.0180016;-48.34355545043945;3.8800830841064453;-135.4081268310547
235;1673387942.111356;47.129984099999994;7.2397358999999994;49.88100051879883;1673387942.2096043;-48.035316467285156;3.7589850425720215;-135.3706817626953
236;1673387942.3029697;47.1299669;7.239712399999999;49.87800216674805;1673387942.4051263;-47.989906311035156;3.777148962020874;-135.40138244628906
237;1673387942.5024447;47.1299497;7.2396889;49.87700271606445;1673387942.61699;-48.14976119995117;3.813166856765747;-135.4142303466797
238;1673387942.716277;47.129932499999995;7.2396655;49.875003814697266;1673387942.8299904;-48.229061126708984;3.8542840480804443;-135.4407196044922
239;1673387942.919705;47.129915399999994;7.239642;49.87200164794922;1673387943.0165153;-48.15305709838867;3.8060169219970703;-135.39144897460938
240;1673387943.1175766;47.1298982;7.2396185;49.86600112915039;1673387943.227174;-47.895530700683594;3.868086099624634;-135.42601013183594
241;1673387943.313474;47.129881;7.239595;49.85900115966797;1673387943.4130716;-47.68942642211914;3.8112986087799072;-135.40145874023438
242;1673387943.5121956;47.129863799999995;7.2395716;49.855003356933594;1673387943.6072164;-47.70563888549805;3.8151180744171143;-135.37855529785156
243;1673387943.6958995;47.129846699999995;7.2395480999999995;49.85400390625;1673387943.8000457;-47.91691207885742;3.882051467895508;-135.42633056640625
244;1673387943.8934152;47.1298296;7.2395247;49.86100387573242;1673387943.9949975;-48.318565368652344;3.9673898220062256;-135.44752502441406
245;1673387944.094276;47.1298125;7.2395013;49.86900329589844;1673387944.2038848;-48.68594741821289;3.8480587005615234;-135.359130859375
246;1673387944.2972653;47.1297953;7.239477699999999;49.871002197265625;1673387944.3984869;-48.406959533691406;3.793931722640991;-135.34423828125
247;1673387944.4956858;47.1297782;7.2394542;49.86900329589844;1673387944.590998;-47.865570068359375;3.6722779273986816;-135.30279541015625
248;1673387944.6949935;47.129760999999995;7.2394305999999995;49.871002197265625;1673387944.8027632;-47.861183166503906;3.7013185024261475;-135.32554626464844
249;1673387944.9060261;47.1297439;7.239407099999999;49.874000549316406;1673387945.0068438;-48.136512756347656;3.8565871715545654;-135.38113403320312
250;1673387945.112839;47.1297267;7.2393836;49.87300109863281;1673387945.217869;-48.189598083496094;3.803093910217285;-135.3251190185547
251;1673387945.3074417;47.1297096;7.2393601;49.87300109863281;1673387945.4128833;-48.098995208740234;3.758474826812744;-135.32691955566406
252;1673387945.5182025;47.1296925;7.2393366;49.87300109863281;1673387945.6082647;-47.891048431396484;3.7446177005767822;-135.26724243164062
253;1673387945.6935325;47.129675299999995;7.2393132;49.875003814697266;1673387945.7955675;-48.04628372192383;3.721923589706421;-135.26312255859375
254;1673387945.900854;47.129658199999994;7.2392897;49.87800216674805;1673387945.9948065;-48.041805267333984;3.68967342376709;-135.2418975830078
255;1673387946.0881236;47.1296411;7.2392661;49.880001068115234;1673387946.1913393;-47.98781967163086;3.721836805343628;-135.23214721679688
256;1673387946.2835162;47.1296239;7.2392426;49.88100051879883;1673387946.391384;-47.815399169921875;3.749999523162842;-135.21067810058594
257;1673387946.4922972;47.1296067;7.2392191;49.884002685546875;1673387946.5956266;-47.920589447021484;3.728506565093994;-135.17568969726562
258;1673387946.6876025;47.129589599999996;7.2391957;49.8900032043457;1673387946.7888675;-48.18353271484375;3.693862199783325;-135.13720703125
259;1673387946.887036;47.1295724;7.2391722;49.89500427246094;1673387946.9871233;-48.16149139404297;3.7054171562194824;-135.0833282470703
260;1673387947.0815256;47.1295552;7.239148699999999;49.900001525878906;1673387947.2043672;-47.961631774902344;3.5930566787719727;-135.02320861816406
261;1673387947.305699;47.1295381;7.2391251;49.90400314331055;1673387947.4216254;-47.88091278076172;3.568159341812134;-134.9912567138672
262;1673387947.519047;47.129520899999996;7.2391016;49.91100311279297;1673387947.6183977;-48.05324935913086;3.654322624206543;-134.986083984375
263;1673387947.7147331;47.1295037;7.2390780999999995;49.919002532958984;1673387947.8055825;-48.24212646484375;3.6930792331695557;-134.9496612548828
264;1673387947.8983376;47.1294865;7.239054599999999;49.928001403808594;1673387948.0034723;-48.293212890625;3.6090917587280273;-134.87533569335938
265;1673387948.1003785;47.1294693;7.239031;49.93600082397461;1673387948.1975777;-48.18457794189453;3.5085155963897705;-134.79676818847656
266;1673387948.2932644;47.129452199999996;7.239007399999999;49.945003509521484;1673387948.3980827;-48.143310546875;3.483891248703003;-134.73300170898438
267;1673387948.49936;47.129435;7.2389838;49.9530029296875;1673387948.6040547;-48.270748138427734;3.5847110748291016;-134.71571350097656
268;1673387948.6984966;47.1294178;7.238960199999999;49.961002349853516;1673387948.8266983;-48.201358795166016;4.377362251281738;-134.83187866210938
269;1673387948.9393692;47.1294007;7.238936499999999;49.9640007019043;1673387949.0368083;-48.13190460205078;5.669339656829834;-134.9525146484375
270;1673387949.1249514;47.1293836;7.238912699999999;49.96600341796875;1673387949.238078;-47.801815032958984;3.9511635303497314;-134.15830993652344
271;1673387949.3237865;47.1293666;7.2388888;49.967002868652344;1673387949.4124732;-47.719818115234375;4.201200485229492;-134.15377807617188
272;1673387949.5147173;47.1293496;7.238864899999999;49.97100067138672;1673387949.6080823;-48.185874938964844;4.770778656005859;-134.15866088867188
273;1673387949.724198;47.1293327;7.238840799999999;49.974002838134766;1673387949.8327641;-48.438262939453125;5.165534019470215;-134.0970001220703
274;1673387949.9289467;47.129315899999995;7.2388167;49.97900390625;1673387950.033095;-48.2778205871582;4.77467679977417;-133.769775390625
275;1673387950.1175761;47.1292992;7.2387923999999995;49.98400115966797;1673387950.213907;-48.29830551147461;5.76472282409668;-133.9344482421875
276;1673387950.336928;47.129282499999995;7.238767999999999;49.98800277709961;1673387950.434733;-47.34434127807617;5.712708950042725;-133.51370239257812
277;1673387950.5143044;47.129266;7.2387435;49.99800109863281;1673387950.6062918;-40.7960205078125;4.996901512145996;-133.13868713378906
278;1673387950.6988757;47.1292498;7.2387191;50.0260009765625;1673387950.8031445;-28.866291046142578;6.4913506507873535;-134.4442901611328
279;1673387950.9117086;47.1292342;7.2386957;50.04900360107422;1673387951.0119305;-12.731216430664062;5.458436489105225;-134.5803985595703
280;1673387951.115196;47.1292198;7.2386741;50.057003021240234;1673387951.212554;-2.4278922080993652;5.476179599761963;-135.55938720703125
281;1673387951.313543;47.129207;7.2386551;50.05400085449219;1673387951.427572;5.10883903503418;5.484297275543213;-135.9134979248047
282;1673387951.5137131;47.129196;7.238639;50.044002532958984;1673387951.6249208;9.334341049194336;7.255938529968262;-136.46705627441406
283;1673387951.7276182;47.129186999999995;7.2386259;50.02700424194336;1673387951.8829656;10.6261568069458;9.843811988830566;-139.384033203125
284;1673387951.9813364;47.129179799999996;7.2386155;50.005001068115234;1673387952.0734298;7.445523262023926;10.310686111450195;-140.76637268066406
285;1673387952.1853964;47.129174299999995;7.2386073;49.99500274658203;1673387952.3070943;1.6076010465621948;5.74688720703125;-137.53114318847656
286;1673387952.3914547;47.129170099999996;7.2386009;49.99800109863281;1673387952.4847636;-4.8539228439331055;6.222592830657959;-136.434326171875
287;1673387952.5766766;47.1291667;7.238595999999999;50.00800323486328;1673387952.6709259;-8.979013442993164;3.8723673820495605;-136.32894897460938
288;1673387952.7771513;47.1291638;7.238592;50.025001525878906;1673387952.862624;-10.547950744628906;7.475963592529297;-137.26817321777344
289;1673387952.95995;47.1291612;7.2385885;50.03900146484375;1673387953.051532;-10.860066413879395;7.490872859954834;-136.76573181152344
290;1673387953.1284373;47.1291586;7.2385854;50.05000305175781;1673387953.2340558;-11.448473930358887;6.002590656280518;-135.635009765625
291;1673387953.326945;47.129156099999996;7.2385825;50.060001373291016;1673387953.418003;-14.358030319213867;6.0323686599731445;-134.99551391601562
292;1673387953.5095615;47.129153599999995;7.2385796;50.0780029296875;1673387953.6243913;-33.445621490478516;5.455358028411865;-138.1767578125
293;1673387953.7225902;47.1291507;7.2385759;50.13200378417969;1673387953.829513;-24.253087997436523;3.002681016921997;-136.2625274658203
294;1673387953.9306345;47.1291471;7.2385711;50.22800064086914;1673387954.0582592;-17.167158126831055;3.751612663269043;-136.90489196777344
295;1673387954.1779296;47.129143299999996;7.238566199999999;50.410003662109375;1673387954.271504;-16.07253646850586;5.1358747482299805;-137.19085693359375
296;1673387954.3588593;47.1291393;7.2385614;50.685001373291016;1673387954.4615257;-28.401020050048828;4.921327114105225;-136.720947265625
297;1673387954.596335;47.129134799999996;7.238556;51.06500244140625;1673387954.707198;-49.819984436035156;7.006235599517822;-136.19229125976562
298;1673387954.8024495;47.129129;7.2385487;51.4630012512207;1673387954.9358099;-47.512630462646484;5.63752555847168;-135.31163024902344
299;1673387955.01526;47.1291217;7.2385391;51.816001892089844;1673387955.0940268;-45.165611267089844;6.327650547027588;-135.048828125
300;1673387955.2333217;47.1291134;7.238527599999999;52.15200424194336;1673387955.3053591;-42.50614547729492;6.323747158050537;-135.4613494873047
301;1673387955.3981943;47.129104299999995;7.238514899999999;52.4640007019043;1673387955.4914563;-38.84452438354492;6.997913837432861;-135.61990356445312
302;1673387955.5775623;47.129094699999996;7.2385012;52.775001525878906;1673387955.6766865;-35.18950653076172;6.40186882019043;-135.85250854492188
303;1673387955.7664332;47.1290848;7.2384869;53.090003967285156;1673387955.857296;-33.78266525268555;6.508199691772461;-136.41929626464844
304;1673387955.9390342;47.1290749;7.2384724;53.41100311279297;1673387956.0401423;-32.32262420654297;5.996166706085205;-136.6334991455078
305;1673387956.1444478;47.129064799999995;7.2384578;53.74500274658203;1673387956.2385478;-30.946895599365234;5.92147970199585;-136.8225860595703
306;1673387956.3311973;47.1290548;7.2384433999999995;54.090003967285156;1673387956.4261487;-30.84864044189453;5.783897399902344;-136.93499755859375
307;1673387956.5224664;47.1290449;7.2384292;54.44200134277344;1673387956.6213372;-30.642860412597656;5.623205661773682;-136.93539428710938
308;1673387956.7165604;47.129034999999995;7.2384151;54.80500411987305;1673387956.8234544;-30.684175491333008;5.621532440185547;-136.95347595214844
309;1673387956.923285;47.1290252;7.2384011;55.17400360107422;1673387957.0391862;-31.087289810180664;5.468269348144531;-136.98358154296875
310;1673387957.1384254;47.1290154;7.238387299999999;55.548004150390625;1673387957.245394;-31.268259048461914;5.592213153839111;-137.0087890625
311;1673387957.3473997;47.1290056;7.2383736999999995;55.927001953125;1673387957.445678;-31.687551498413086;5.736081600189209;-137.0341339111328
312;1673387957.5416582;47.1289958;7.2383602;56.310001373291016;1673387957.6381493;-32.125389099121094;6.306248664855957;-137.11798095703125
313;1673387957.714382;47.128985899999996;7.2383466;56.69600296020508;1673387957.8216343;-32.264427185058594;6.261020660400391;-137.08514404296875
314;1673387957.9218156;47.128975999999994;7.238333099999999;57.08900451660156;1673387958.0209775;-32.28984832763672;6.2322163581848145;-137.00381469726562
315;1673387958.1870074;47.1289661;7.2383194;57.48500442504883;1673387958.3165956;-32.2685661315918;5.901250839233398;-136.8959503173828
316;1673387958.4125497;47.128956099999996;7.2383058;57.880001068115234;1673387958.4961617;-32.195213317871094;5.695870876312256;-136.78115844726562
317;1673387958.5884616;47.1289461;7.2382922;58.2760009765625;1673387958.6812806;-32.33262634277344;5.3047285079956055;-136.7193145751953
318;1673387958.7837496;47.1289362;7.2382785;58.673004150390625;1673387958.863356;-32.18733596801758;5.6790385246276855;-136.79550170898438
319;1673387958.9519582;47.128926299999996;7.2382649;59.070003509521484;1673387959.0463636;-32.15384292602539;5.877529621124268;-136.88656616210938
320;1673387959.1412938;47.1289164;7.2382513;59.46400451660156;1673387959.2295194;-32.1417350769043;6.473737716674805;-137.06829833984375
321;1673387959.31506;47.1289064;7.2382376;59.85900115966797;1673387959.4163575;-32.06407928466797;6.852210998535156;-137.1935272216797
322;1673387959.525354;47.128896499999996;7.238224;60.25400161743164;1673387959.6164184;-31.922164916992188;6.378233432769775;-137.04501342773438
323;1673387959.7069583;47.1288865;7.2382102999999995;60.6510009765625;1673387959.8129108;-31.99980354309082;6.079586505889893;-136.9808349609375
324;1673387959.9266253;47.1288766;7.238196599999999;61.04700469970703;1673387960.01811;-31.971853256225586;4.949989318847656;-136.67662048339844
325;1673387960.1188192;47.128866699999996;7.238182999999999;61.4430046081543;1673387960.2336128;-32.06494140625;5.008099555969238;-136.70582580566406
326;1673387960.3435466;47.1288567;7.2381693;61.842002868652344;1673387960.455679;-32.1496467590332;5.0386128425598145;-136.75070190429688
327;1673387960.5556002;47.1288468;7.2381557;62.2400016784668;1673387960.6634743;-31.968637466430664;5.83682918548584;-136.97891235351562
328;1673387960.7593758;47.128836799999995;7.238142;62.63600158691406;1673387960.864903;-32.010101318359375;6.557806968688965;-137.12603759765625
329;1673387960.9515207;47.1288268;7.2381283;63.03200149536133;1673387961.0330994;-32.157962799072266;6.80666971206665;-137.15199279785156
330;1673387961.1173398;47.128816799999996;7.2381147;63.43100357055664;1673387961.2213538;-32.18608856201172;6.338442802429199;-136.998046875
331;1673387961.3282108;47.1288068;7.2381009999999995;63.829002380371094;1673387961.4422362;-32.228126525878906;5.74829626083374;-136.7568359375
332;1673387961.5365531;47.128796799999996;7.2380873;64.22600555419922;1673387961.634819;-32.194854736328125;5.1761603355407715;-136.61752319335938
333;1673387961.7321954;47.128786899999994;7.238073699999999;64.6259994506836;1673387961.8305426;-32.0456428527832;5.147311687469482;-136.5517120361328
334;1673387961.9294415;47.1287769;7.238060099999999;65.02899932861328;1673387962.0278544;-32.19386672973633;5.520041465759277;-136.62628173828125
335;1673387962.1205387;47.128766899999995;7.238046499999999;65.4320068359375;1673387962.224768;-32.07282638549805;5.936500549316406;-136.7716522216797
336;1673387962.317746;47.1287569;7.2380328;65.83100128173828;1673387962.4205987;-32.03714370727539;6.505397796630859;-136.94871520996094
337;1673387962.526724;47.128746899999996;7.2380191;66.2300033569336;1673387962.633717;-32.098445892333984;6.963354587554932;-137.07550048828125
338;1673387962.7299647;47.1287369;7.2380054;66.62700653076172;1673387962.832055;-32.2391357421875;6.851849555969238;-137.0508575439453
339;1673387962.9214325;47.128727;7.237991699999999;67.02200317382812;1673387963.013047;-32.14893341064453;6.7313456535339355;-136.9830322265625
340;1673387963.105989;47.128716999999995;7.2379779;67.41699981689453;1673387963.2069519;-32.30365753173828;6.505436897277832;-136.92477416992188
341;1673387963.3154597;47.1287071;7.237964099999999;67.81200408935547;1673387963.4387581;-32.3791389465332;6.110082626342773;-136.84637451171875
342;1673387963.5389342;47.1286971;7.2379503;68.20800018310547;1673387963.6448276;-32.470176696777344;5.692432880401611;-136.74159240722656
343;1673387963.7455208;47.1286871;7.2379365;68.60400390625;1673387963.8338957;-32.396175384521484;5.4247727394104;-136.6320343017578
344;1673387963.9234793;47.1286771;7.2379228;69.0040054321289;1673387964.0235558;-32.42578125;5.321215629577637;-136.58372497558594
345;1673387964.121867;47.1286671;7.237908999999999;69.40299987792969;1673387964.2262743;-32.36729049682617;5.110572814941406;-136.56582641601562
346;1673387964.3281078;47.1286571;7.2378953;69.80000305175781;1673387964.445874;-32.40328598022461;5.155808925628662;-136.60023498535156
347;1673387964.557857;47.128647199999996;7.237881499999999;70.19600677490234;1673387964.668519;-22.73261260986328;6.485495567321777;-136.6692657470703
348;1673387964.791456;47.128637399999995;7.237868;70.56600189208984;1673387964.889855;-12.528881072998047;6.743222713470459;-136.60926818847656
349;1673387964.995849;47.128628299999995;7.237855499999999;70.89500427246094;1673387965.0901716;-8.816287994384766;7.1727681159973145;-136.86492919921875
350;1673387965.1756947;47.1286201;7.2378443;71.1830062866211;1673387965.270001;-3.2422590255737305;7.66715669631958;-136.9397735595703
351;1673387965.3551838;47.1286129;7.237834599999999;71.4330062866211;1673387965.4457824;-0.6683412194252014;8.88491439819336;-137.14736938476562
352;1673387965.5391748;47.1286069;7.237826399999999;71.6500015258789;1673387965.6492383;1.2621740102767944;8.742673873901367;-137.46730041503906
353;1673387965.7503476;47.1286018;7.2378195;71.84300231933594;1673387965.858544;1.1897263526916504;10.315193176269531;-138.16233825683594
354;1673387965.9618123;47.1285977;7.2378138;72.01600646972656;1673387966.092586;-0.11885902285575867;10.0142822265625;-137.71487426757812
355;1673387966.1892583;47.1285944;7.2378092;72.16400146484375;1673387966.2758877;-2.2293827533721924;9.313752174377441;-136.8477325439453
356;1673387966.3631961;47.128591899999996;7.2378054999999994;72.28700256347656;1673387966.4703867;-4.374855041503906;20.029624938964844;-134.86277770996094
357;1673387966.5626788;47.128589999999996;7.2378022;72.39500427246094;1673387966.6647933;-3.918280839920044;33.78520584106445;-122.64250183105469
358;1673387966.7582626;47.1285895;7.237798799999999;72.4800033569336;1673387966.8585427;-16.56220245361328;27.733734130859375;-111.85493469238281
359;1673387966.9441543;47.1285902;7.2377949;72.53400421142578;1673387967.0404432;-18.219911575317383;17.1723575592041;-101.05693817138672
360;1673387967.1376;47.128591799999995;7.2377907;72.58000183105469;1673387967.2513635;-21.850566864013672;13.27591323852539;-92.63871765136719
361;1673387967.3417401;47.1285938;7.2377861;72.62100219726562;1673387967.4389434;-21.938610076904297;8.15496826171875;-83.29367065429688
362;1673387967.5343885;47.1285962;7.2377812;72.6570053100586;1673387967.6413267;-21.494220733642578;1.454197645187378;-73.98881530761719
363;1673387967.7365167;47.1285989;7.237775999999999;72.69000244140625;1673387967.8320475;-19.23114013671875;-3.065120220184326;-64.82830047607422
364;1673387967.9328594;47.1286014;7.2377705;72.71800231933594;1673387968.033036;-15.995631217956543;-5.964273929595947;-55.77289962768555
365;1673387968.1312308;47.128603899999995;7.237764899999999;72.74400329589844;1673387968.2412353;-13.400435447692871;-7.8571085929870605;-46.62864685058594
366;1673387968.3363528;47.1286062;7.2377594;72.76800537109375;1673387968.4399707;-11.254966735839844;-8.808911323547363;-40.47706604003906
367;1673387968.5306225;47.128608299999996;7.2377541;72.79100036621094;1673387968.627401;-11.820052146911621;-8.750548362731934;-42.946189880371094
368;1673387968.7275777;47.1286104;7.237749099999999;72.81000518798828;1673387968.840573;-23.90968894958496;-6.656033992767334;-45.81978988647461
369;1673387968.9350207;47.1286126;7.2377439;72.83900451660156;1673387969.0314832;-44.75917053222656;-4.163992404937744;-46.6505012512207
370;1673387969.1434655;47.1286158;7.2377376;72.87700653076172;1673387969.2496343;-56.958457946777344;-2.119476318359375;-47.42451858520508
371;1673387969.3369446;47.128620999999995;7.237728499999999;72.91200256347656;1673387969.4346476;-61.93622589111328;-2.0988998413085938;-47.50332260131836
372;1673387969.5349026;47.1286286;7.2377163;72.93400573730469;1673387969.6377687;-60.399009704589844;-1.3041325807571411;-48.7950553894043
373;1673387969.7322302;47.1286382;7.237701599999999;72.94200134277344;1673387969.8356323;-57.20286178588867;-0.7722347974777222;-48.93730545043945
374;1673387969.9365075;47.128649599999996;7.2376847;72.94499969482422;1673387970.0411596;-54.28228759765625;-2.1241183280944824;-48.027523040771484
375;1673387970.1361938;47.1286622;7.2376662;72.95000457763672;1673387970.239402;-56.726688385009766;-3.296612501144409;-47.36613845825195
376;1673387970.3284752;47.128676;7.2376461999999995;72.94900512695312;1673387970.4291723;-55.81350326538086;-4.04629373550415;-47.04295349121094
377;1673387970.525411;47.1286905;7.2376248;72.93500518798828;1673387970.6323864;-52.51315689086914;-3.888423442840576;-47.30938720703125
378;1673387970.7463052;47.1287057;7.2376024999999995;72.906005859375;1673387970.8466966;-50.376739501953125;-4.042910575866699;-47.38764190673828
379;1673387970.9463189;47.1287212;7.2375795;72.87700653076172;1673387971.0536866;-48.90620803833008;-4.5201616287231445;-47.482093811035156
380;1673387971.1480026;47.128737;7.2375561;72.85700225830078;1673387971.2472775;-49.3763542175293;-5.114414215087891;-47.5235595703125
381;1673387971.3507078;47.1287528;7.2375321999999995;72.84400177001953;1673387971.4534204;-49.91375732421875;-4.096784591674805;-48.045257568359375
382;1673387971.5498555;47.128768699999995;7.2375080999999994;72.83200073242188;1673387971.6507957;-49.592384338378906;-3.5243566036224365;-48.2148323059082
383;1673387971.7480588;47.128784599999996;7.237483699999999;72.82400512695312;1673387971.8452282;-49.080406188964844;-3.5436689853668213;-48.16717529296875
384;1673387971.9512565;47.1288006;7.237458999999999;72.81700134277344;1673387972.0526254;-48.52378463745117;-3.4296786785125732;-48.21225357055664
385;1673387972.1538472;47.1288166;7.237434299999999;72.81000518798828;1673387972.2659314;-48.36377716064453;-3.422931671142578;-48.215675354003906
386;1673387972.3656127;47.128832599999996;7.2374094;72.80599975585938;1673387972.4651997;-48.531959533691406;-3.605748414993286;-48.1717414855957
387;1673387972.5499082;47.1288488;7.2373845;72.80599975585938;1673387972.6580637;-48.62398910522461;-3.7111198902130127;-48.17813491821289
388;1673387972.7533708;47.128864899999996;7.2373596;72.80599975585938;1673387972.8534496;-48.58194351196289;-3.7118380069732666;-48.19471740722656
389;1673387972.9457588;47.128881;7.237334499999999;72.80900573730469;1673387973.0411541;-48.42841720581055;-3.731370449066162;-48.23003005981445
390;1673387973.142047;47.128896999999995;7.2373094;72.81300354003906;1673387973.249023;-48.520164489746094;-3.6163511276245117;-48.29535675048828
391;1673387973.3505156;47.128913;7.2372841999999995;72.81500244140625;1673387973.4537096;-39.997276306152344;-2.603520393371582;-48.856380462646484
392;1673387973.551301;47.1289289;7.2372593;72.61200714111328;1673387973.6592364;-7.080697536468506;-0.1644556224346161;-49.56163024902344
393;1673387973.7591593;47.1289446;7.2372347999999995;72.05000305175781;1673387973.8684301;49.68096160888672;4.08350133895874;-47.38567352294922
394;1673387973.9764132;47.1289601;7.2372106;71.08800506591797;1673387974.1044195;67.4454574584961;173.00509643554688;119.73941040039062
395;1673387974.1926782;47.1289756;7.2371864;69.75;1673387974.2915158;25.654254913330078;178.5863037109375;123.51817321777344
396;1673387974.408193;47.128991;7.2371624;68.06400299072266;1673387974.51237;12.719841957092285;178.47265625;119.38489532470703
397;1673387974.604443;47.1290061;7.237139;65.99200439453125;1673387974.7158623;28.833017349243164;177.01727294921875;119.3648681640625
398;1673387974.8055582;47.1290209;7.2371162;63.54700469970703;1673387974.927425;77.38346099853516;167.1868133544922;113.07002258300781
399;1673387975.012506;47.1290355;7.2370937;60.7650032043457;1673387975.1044865;31.288711547851562;0.1780080795288086;-52.73870086669922
400;1673387975.1993158;47.129050299999996;7.2370709;57.60700225830078;1673387975.291566;-35.34992218017578;-0.8176454305648804;-51.682273864746094
401;1673387975.3686;47.129064899999996;7.2370487;54.04300308227539;1673387975.4554033;-65.78804016113281;-3.9582886695861816;-47.762176513671875
402;1673387975.5448308;47.1290792;7.237026999999999;50.14600372314453;1673387975.6414967;-54.003395080566406;-0.9263047575950623;-48.71475601196289
403;1673387975.7744865;47.1290932;7.2370057;45.92300033569336;1673387975.8756576;1.0604467391967773;1.9234492778778076;-47.2059326171875
404;1673387975.9704242;47.1291069;7.236985;41.329002380371094;1673387976.0673428;71.58320617675781;19.0887393951416;-29.92462730407715
405;1673387976.1587481;47.1291206;7.2369642;36.34300231933594;1673387976.2593591;67.92442321777344;160.3306427001953;111.43716430664062
406;1673387976.369277;47.1291344;7.2369435;31.05000114440918;1673387976.4657302;78.78626251220703;121.07801818847656;73.77322387695312
407;1673387976.5445225;47.129148099999995;7.236923;25.468000411987305;1673387976.6513028;33.70878982543945;8.643056869506836;-35.782752990722656
408;1673387976.7485366;47.129162;7.2369024;19.549001693725586;1673387976.852542;-36.22293472290039;-1.2154524326324463;-38.53012466430664
409;1673387976.9525304;47.129175599999996;7.236882;13.232000350952148;1673387977.0574024;-59.98787307739258;-7.4097089767456055;-33.89567947387695
410;1673387977.1463223;47.1291887;7.2368625;6.604000091552734;1673387977.2425694;-22.711580276489258;2.072566032409668;-36.69428253173828
411;1673387977.3365612;47.129200399999995;7.236845499999999;0.22500000894069672;1673387977.439297;-14.049280166625977;-0.3467213809490204;-32.964088439941406
412;1673387977.538101;47.129200499999996;7.236853999999999;0.2990000247955322;1673387977.635439;-10.579695701599121;10.93242359161377;-35.14527130126953
413;1673387977.7314818;47.1291996;7.236863199999999;0.17600001394748688;1673387977.830414;-5.107645034790039;6.1413421630859375;-33.69679260253906
414;1673387977.9367328;47.1291994;7.2368714999999995;0.09000000357627869;1673387978.033649;-4.915783405303955;5.831140041351318;-33.337196350097656
415;1673387978.140463;47.1291997;7.2368787;0.032999999821186066;1673387978.243373;-4.963558197021484;5.4524126052856445;-33.118465423583984
416;1673387978.3547142;47.1292003;7.2368860999999995;-0.023000001907348633;1673387978.45064;-4.931377410888672;5.165062427520752;-32.987281799316406
417;1673387978.5537188;47.1292013;7.2368915;-0.058000002056360245;1673387978.6526337;-5.041858196258545;4.926971435546875;-32.700767517089844
418;1673387978.7465045;47.1292025;7.2368944;-0.0690000057220459;1673387978.8474352;-5.147680282592773;4.669479846954346;-32.3958625793457
419;1673387978.9446075;47.129203999999994;7.2368954;-0.06400000303983688;1673387979.0494533;-5.258471488952637;4.408751964569092;-32.08332824707031
420;1673387979.1447585;47.1292057;7.2368947;-0.049000002443790436;1673387979.2425737;-5.437649250030518;4.156896114349365;-31.797842025756836
421;1673387979.3435295;47.1292074;7.2368928;-0.03100000135600567;1673387979.4483433;-5.543557643890381;3.9536325931549072;-31.515289306640625
