;pos_time;latitude;longitude;altitude;alt_time;pitch;roll;yaw
0;1673387784.7765882;47.1306424;7.24062;-0.012000000104308128;1673387784.9291239;-0.02870164066553116;0.017842229455709457;90.34856414794922
1;1673387784.9632747;47.1306424;7.2406198999999996;-0.012000000104308128;1673387785.11621;0.08434033393859863;-0.2723325490951538;90.3779067993164
2;1673387785.15548;47.1306424;7.240619799999999;-0.01100000087171793;1673387785.3328469;-0.010283675976097584;-0.3481880724430084;90.32243347167969
3;1673387785.366091;47.1306424;7.240619799999999;-0.01100000087171793;1673387785.519558;0.057863593101501465;-0.34890615940093994;90.42076873779297
4;1673387785.5583029;47.1306424;7.240619799999999;-0.013000000268220901;1673387785.755737;-0.01940511353313923;-0.278316468000412;90.34760284423828
5;1673387785.7880232;47.1306424;7.2406198999999996;-0.015000000596046448;1673387785.9419687;0.2703227698802948;-0.3642538785934448;90.50080871582031
6;1673387785.974166;47.1306424;7.2406198999999996;-0.01600000075995922;1673387786.131459;-0.022267255932092667;-0.24865873157978058;90.3204345703125
7;1673387786.175531;47.1306424;7.2406198999999996;-0.01900000125169754;1673387786.334732;-0.1691809594631195;-0.26643475890159607;90.17015075683594
8;1673387786.3708808;47.1306424;7.2406198999999996;-0.021000001579523087;1673387786.5252535;-0.013032427057623863;-0.442236065864563;90.35455322265625
9;1673387786.5604026;47.1306424;7.2406198999999996;-0.020000001415610313;1673387786.7102895;0.2708187997341156;-0.29082685708999634;90.30416870117188
10;1673387786.7469528;47.1306424;7.2406198999999996;0.0;1673387786.8998027;0.02386404015123844;-0.2174028903245926;90.14562225341797
11;1673387786.9354904;47.1306424;7.2406198999999996;0.0010000000474974513;1673387787.1071007;-0.21128305792808533;-0.18416491150856018;90.16004180908203
12;1673387787.1515853;47.1306424;7.2406198999999996;0.0;1673387787.3236969;-0.17371153831481934;-0.4309971034526825;90.32144927978516
13;1673387787.3677065;47.1306424;7.2406198999999996;-0.003000000026077032;1673387787.5109286;-0.04071647301316261;-0.10158129036426544;90.16790771484375
14;1673387787.5445962;47.1306424;7.240619799999999;-0.003000000026077032;1673387787.6991017;-0.04284324124455452;-0.307758092880249;90.22351837158203
15;1673387787.7358046;47.1306424;7.240619799999999;-0.0010000000474974513;1673387787.88471;0.12726393342018127;-0.12124978005886078;90.16187286376953
16;1673387787.919875;47.1306424;7.240619799999999;0.0;1673387788.0807707;-0.0073779369704425335;0.030782006680965424;90.294921875
17;1673387788.116682;47.1306424;7.2406198999999996;0.0;1673387788.2788725;0.024119438603520393;0.0484011210501194;90.2874526977539
18;1673387788.314649;47.1306424;7.2406198999999996;-0.0010000000474974513;1673387788.4878726;0.08083884418010712;-0.15595334768295288;90.2349853515625
19;1673387788.5258517;47.1306424;7.2406198999999996;-0.0010000000474974513;1673387788.7176912;-0.18232718110084534;-0.05413573607802391;90.39168548583984
20;1673387788.7576733;47.1306425;7.2406198999999996;-0.0020000000949949026;1673387788.9134412;-0.1020062118768692;-0.4882252514362335;90.25973510742188
21;1673387788.9606934;47.1306425;7.24062;-0.005000000353902578;1673387789.1536357;-0.04031892865896225;-0.21490375697612762;90.31399536132812
22;1673387789.2057128;47.1306425;7.24062;-0.010000000707805157;1673387789.3546972;-0.2453368604183197;0.06264084577560425;90.36984252929688
23;1673387789.3919475;47.1306425;7.24062;-0.01600000075995922;1673387789.5616004;-0.2491903454065323;-0.1914118230342865;90.2955551147461
24;1673387789.6096704;47.1306425;7.24062;-0.01900000125169754;1673387789.7757218;-0.2455494999885559;-0.09347834438085556;90.18989562988281
25;1673387789.8095362;47.130642599999995;7.24062;-0.021000001579523087;1673387789.956788;-0.2777630686759949;-0.12447107583284378;90.2371597290039
26;1673387789.9906185;47.130642599999995;7.24062;-0.024000000208616257;1673387790.1858988;-0.2039015144109726;-0.07810737937688828;91.77326202392578
27;1673387790.2338963;47.130642599999995;7.24062;-0.026000000536441803;1673387790.3835485;1.4601179361343384;0.5210917592048645;92.8647689819336
28;1673387790.41368;47.1306425;7.2406203;-0.018000001087784767;1673387790.5786772;5.4359130859375;2.087421178817749;93.3305892944336
29;1673387790.6087673;47.1306425;7.2406207;0.0020000000949949026;1673387790.7805872;11.596967697143555;1.0120137929916382;92.26744079589844
30;1673387790.8506193;47.1306424;7.240621099999999;0.02500000037252903;1673387790.9728067;11.80324935913086;-2.3265280723571777;91.30094146728516
31;1673387791.0096605;47.1306423;7.240621399999999;0.06200000271201134;1673387791.143666;12.36523151397705;1.1692975759506226;90.95157623291016
32;1673387791.1704674;47.1306422;7.2406215;0.11700000613927841;1673387791.3268516;11.540789604187012;1.0456795692443848;91.1014175415039
33;1673387791.3646247;47.1306422;7.240621399999999;0.1850000023841858;1673387791.531849;10.717569351196289;-3.2646853923797607;91.1057357788086
34;1673387791.5670307;47.130642099999996;7.240621099999999;0.2680000066757202;1673387791.7555861;10.044800758361816;0.2409955859184265;91.40833282470703
35;1673387791.8133235;47.130642099999996;7.240620799999999;0.36500000953674316;1673387791.9856255;9.420164108276367;2.4980194568634033;90.9743881225586
36;1673387792.0149128;47.1306423;7.2406204;0.4820000231266022;1673387792.1562226;10.015235900878906;-1.7165513038635254;90.1051025390625
37;1673387792.220879;47.1306424;7.2406201;0.6110000014305115;1673387792.3540075;10.362651824951172;-1.2371118068695068;89.699462890625
38;1673387792.3823464;47.1306425;7.2406198999999996;0.753000020980835;1673387792.5330238;9.867237091064453;2.4403162002563477;89.87793731689453
39;1673387792.583903;47.1306425;7.2406197;0.9070000648498535;1673387792.7214227;9.473201751708984;-1.360559105873108;89.82332611083984
40;1673387792.753311;47.1306424;7.240619499999999;1.0750000476837158;1673387792.904278;8.733860969543457;-2.1478326320648193;89.74552154541016
41;1673387792.9414499;47.1306424;7.2406193;1.2580000162124634;1673387793.1013942;8.275789260864258;2.650825023651123;89.6819839477539
42;1673387793.1409783;47.1306425;7.2406193;1.4470000267028809;1673387793.3122218;9.132288932800293;0.49550163745880127;88.83045196533203
43;1673387793.349864;47.130642599999995;7.240619199999999;1.6360000371932983;1673387793.5106452;9.805357933044434;-2.4587972164154053;90.50381469726562
44;1673387793.5523398;47.130642699999996;7.2406193;1.8260000944137573;1673387793.7283523;9.916123390197754;1.0443933010101318;90.05010223388672
45;1673387793.7644632;47.130642699999996;7.2406193;2.015000104904175;1673387793.93083;10.01360034942627;1.2638713121414185;90.07917022705078
46;1673387793.9688838;47.130642699999996;7.2406193;2.2060000896453857;1673387794.1302395;9.839945793151855;-2.956451892852783;89.8563461303711
47;1673387794.1722069;47.130642599999995;7.2406193;2.3990001678466797;1673387794.3449519;9.144256591796875;0.877208948135376;89.86322021484375
48;1673387794.3839924;47.130642699999996;7.2406193;2.5890002250671387;1673387794.555856;9.272688865661621;2.137523651123047;89.66897583007812
49;1673387794.5968356;47.1306428;7.2406193;2.7790000438690186;1673387794.761244;9.734583854675293;-1.7611305713653564;89.43079376220703
50;1673387794.8002727;47.1306428;7.2406194;2.9740002155303955;1673387794.9585335;10.074787139892578;-0.5215969085693359;89.75308990478516
51;1673387794.999571;47.130642699999996;7.240619499999999;3.1720001697540283;1673387795.153748;10.265939712524414;1.6797138452529907;89.81034851074219
52;1673387795.2066867;47.1306425;7.240619499999999;3.3650002479553223;1673387795.3655128;10.275304794311523;-1.5358668565750122;89.65730285644531
53;1673387795.3997824;47.1306423;7.240619499999999;3.56000018119812;1673387795.5637817;9.640657424926758;-2.8615949153900146;89.54734802246094
54;1673387795.6077015;47.1306422;7.240619499999999;3.754000186920166;1673387795.774461;9.126919746398926;1.8106138706207275;89.750244140625
55;1673387795.808619;47.1306423;7.2406194;3.952000141143799;1673387796.0254893;9.182421684265137;-0.33537036180496216;89.73934936523438
56;1673387796.0579395;47.1306423;7.240619499999999;4.152000427246094;1673387796.2070096;9.59943675994873;-2.8474462032318115;89.58442687988281
57;1673387796.237805;47.1306423;7.240619499999999;4.357000350952148;1673387796.398158;9.884856224060059;1.5972775220870972;90.04595947265625
58;1673387796.4343219;47.1306423;7.2406196;4.554000377655029;1673387796.5874588;10.321460723876953;0.9458546042442322;89.83714294433594
59;1673387796.624626;47.1306423;7.2406196;4.75100040435791;1673387796.7780514;10.138209342956543;-3.100550889968872;89.64073944091797
60;1673387796.8190827;47.1306423;7.2406196;4.949000358581543;1673387797.0013096;9.720521926879883;1.1340409517288208;89.6143569946289
61;1673387797.0336835;47.1306423;7.2406197;5.144000053405762;1673387797.2249033;9.522829055786133;1.8414884805679321;89.7599105834961
62;1673387797.2522917;47.1306424;7.240619799999999;5.342000484466553;1673387797.3992965;9.542600631713867;-1.9007819890975952;89.62615203857422
63;1673387797.4361837;47.1306425;7.2406198999999996;5.545000076293945;1673387797.6015775;9.721149444580078;-0.4812072813510895;89.81101989746094
64;1673387797.635304;47.1306425;7.2406198999999996;5.749000072479248;1673387797.7578623;10.547210693359375;2.4802727699279785;90.35037231445312
65;1673387797.7881193;47.1306424;7.2406198999999996;5.947000503540039;1673387797.940326;10.65764331817627;-1.516396403312683;89.74319458007812
66;1673387797.9773989;47.1306423;7.2406198999999996;6.14900016784668;1673387798.1249115;10.08614730834961;-1.7909704446792603;89.60001373291016
67;1673387798.1802616;47.1306423;7.2406198999999996;6.3520002365112305;1673387798.3375528;9.628686904907227;2.3005220890045166;89.68492889404297
68;1673387798.371702;47.1306423;7.240619799999999;6.553000450134277;1673387798.528753;9.466849327087402;-0.28826704621315;89.69275665283203
69;1673387798.5649667;47.1306424;7.240619799999999;6.752000331878662;1673387798.7361574;9.328729629516602;-1.9253002405166626;89.69091796875
70;1673387798.7782254;47.1306425;7.240619799999999;6.950000286102295;1673387798.9376214;9.788544654846191;2.3288192749023438;89.87940216064453
71;1673387798.976869;47.1306424;7.240619799999999;7.147000312805176;1673387799.157305;10.4151029586792;0.790137529373169;89.9135513305664
72;1673387799.1934028;47.1306424;7.240619799999999;7.3470001220703125;1673387799.3489285;10.032572746276855;-2.859896183013916;89.07637786865234
73;1673387799.3814092;47.1306422;7.2406198999999996;7.547000408172607;1673387799.5340087;10.079050064086914;0.5033044219017029;89.32836151123047
74;1673387799.5692413;47.1306422;7.2406198999999996;7.744000434875488;1673387799.7341669;9.621037483215332;1.1078603267669678;89.6625747680664
75;1673387799.7688892;47.1306423;7.2406198999999996;7.941000461578369;1673387799.9358945;9.418196678161621;-2.416370153427124;89.71389770507812
76;1673387799.9686387;47.1306423;7.24062;8.136000633239746;1673387800.1355386;9.557740211486816;-0.3969990313053131;90.006591796875
77;1673387800.1664689;47.1306423;7.24062;8.334000587463379;1673387800.320534;10.143568992614746;2.2918381690979004;90.0516586303711
78;1673387800.3607392;47.1306423;7.2406201;8.529000282287598;1673387800.5226977;10.662415504455566;-1.1457409858703613;89.94341278076172
79;1673387800.564192;47.1306422;7.2406201;8.725000381469727;1673387800.7306385;10.328645706176758;-2.1864874362945557;89.26902770996094
80;1673387800.7668328;47.130642099999996;7.2406201999999995;8.922000885009766;1673387800.937591;10.39454174041748;2.137984275817871;89.5462646484375
81;1673387800.9800944;47.1306422;7.2406203;9.12600040435791;1673387801.15033;9.9141206741333;-0.01806366816163063;89.71393585205078
82;1673387801.1874835;47.1306422;7.2406203;9.332000732421875;1673387801.3286228;9.589427947998047;-2.8596649169921875;89.51347351074219
83;1673387801.3633213;47.1306423;7.2406203;9.531000137329102;1673387801.5348816;9.868149757385254;1.849574089050293;89.82691955566406
84;1673387801.5735;47.1306423;7.2406201999999995;9.729000091552734;1673387801.7344596;10.34881591796875;1.0460578203201294;89.83625793457031
85;1673387801.7708013;47.1306422;7.2406203;9.929000854492188;1673387801.9301903;10.377581596374512;-2.7573788166046143;89.5084228515625
86;1673387801.9718895;47.1306422;7.2406203;10.128000259399414;1673387802.1392565;10.8211669921875;-0.16309085488319397;89.45326232910156
87;1673387802.1779213;47.1306422;7.2406203;10.37700080871582;1673387802.3308308;11.510775566101074;1.9578183889389038;89.9220962524414
88;1673387802.3782566;47.1306423;7.2406201;10.724000930786133;1673387802.5351071;10.869248390197754;-1.497915267944336;89.84864044189453
89;1673387802.573931;47.1306424;7.240619799999999;11.098000526428223;1673387802.7355502;9.442727088928223;-0.6934723854064941;89.72557067871094
90;1673387802.7782235;47.1306424;7.2406194;11.486001014709473;1673387802.932408;8.653589248657227;2.4408507347106934;89.83097839355469
91;1673387802.9666255;47.1306424;7.240619;11.880000114440918;1673387803.1434326;8.490474700927734;-1.012406826019287;89.71128845214844
92;1673387803.184664;47.1306423;7.2406188;12.279000282287598;1673387803.3600006;8.712528228759766;-2.2185823917388916;89.60752868652344
93;1673387803.3990388;47.1306423;7.2406187;12.680000305175781;1673387803.5853314;8.88396167755127;1.9751943349838257;89.89444732666016
94;1673387803.6146462;47.1306423;7.2406188;13.087000846862793;1673387803.7745352;8.89953327178955;0.5685762166976929;89.89082336425781
95;1673387803.807011;47.1306424;7.240618899999999;13.491000175476074;1673387803.9579556;9.18359661102295;-2.162446975708008;89.68040466308594
96;1673387803.9913;47.1306424;7.2406191;13.894001007080078;1673387804.1543183;9.133496284484863;1.4858195781707764;89.72647857666016
97;1673387804.186681;47.1306424;7.2406193;14.295001029968262;1673387804.3451145;9.56645679473877;1.6023765802383423;89.76640319824219
98;1673387804.395907;47.1306424;7.240619499999999;14.69800090789795;1673387804.5544343;9.689472198486328;-2.6008408069610596;89.71766662597656
99;1673387804.5876274;47.1306423;7.2406196;15.102001190185547;1673387804.747712;10.250658988952637;-0.45705941319465637;89.59825134277344
100;1673387804.792839;47.1306423;7.2406197;15.509000778198242;1673387804.9580681;10.266963958740234;2.172166585922241;89.87223052978516
101;1673387805.000463;47.1306423;7.240619799999999;15.921000480651855;1673387805.213709;10.248059272766113;-1.301929235458374;89.78936004638672
102;1673387805.246593;47.1306423;7.240619799999999;16.329999923706055;1673387805.4036298;9.910134315490723;-1.5004266500473022;89.70198822021484
103;1673387805.4350245;47.1306423;7.2406197;16.736000061035156;1673387805.581618;9.601849555969238;2.00203275680542;89.83634948730469
104;1673387805.6138322;47.1306422;7.2406197;17.135000228881836;1673387805.769646;9.427986145019531;-0.9669873714447021;89.718994140625
105;1673387805.8008795;47.1306422;7.2406196;17.533000946044922;1673387805.9371269;9.096446990966797;-2.0942559242248535;89.68134307861328
106;1673387805.9767177;47.1306422;7.2406196;17.93600082397461;1673387806.16836;9.243760108947754;1.872801661491394;89.75341033935547
107;1673387806.2035325;47.1306422;7.240619499999999;18.34200096130371;1673387806.4148605;9.370975494384766;0.3466789126396179;89.70420837402344
108;1673387806.4422;47.1306424;7.240619499999999;18.746000289916992;1673387806.5832891;9.619433403015137;-2.13922381401062;89.6160888671875
109;1673387806.621607;47.1306424;7.240619499999999;19.1510009765625;1673387806.7909951;9.602407455444336;1.6165276765823364;89.76708221435547
110;1673387806.8222961;47.1306425;7.240619499999999;19.55000114440918;1673387806.9710054;9.709240913391113;1.5849469900131226;89.85210418701172
111;1673387807.0121307;47.1306425;7.240619499999999;19.953001022338867;1673387807.1682646;9.5846586227417;-2.4357399940490723;89.64280700683594
112;1673387807.2043755;47.1306424;7.240619499999999;20.354000091552734;1673387807.3648028;9.563932418823242;0.16535605490207672;89.73957824707031
113;1673387807.401873;47.1306424;7.240619499999999;20.749000549316406;1673387807.5554874;9.43220043182373;2.237562656402588;89.88643646240234
114;1673387807.5925756;47.1306425;7.240619499999999;21.1460018157959;1673387807.761751;9.6963472366333;-1.6275343894958496;89.77072143554688
115;1673387807.804203;47.1306425;7.240619499999999;21.545000076293945;1673387807.9649603;9.702444076538086;-1.4070100784301758;89.70333099365234
116;1673387808.0000958;47.1306425;7.240619499999999;21.946001052856445;1673387808.1729562;9.836207389831543;2.177894353866577;89.68182373046875
117;1673387808.2041774;47.1306425;7.240619499999999;22.339000701904297;1673387808.3682268;9.812033653259277;-0.3006189465522766;89.73743438720703
118;1673387808.40434;47.1306424;7.240619499999999;22.737001419067383;1673387808.5477226;9.902511596679688;-2.612753391265869;89.61548614501953
119;1673387808.5913591;47.1306424;7.240619499999999;23.135000228881836;1673387808.779567;9.653314590454102;1.7454113960266113;89.81733703613281
120;1673387808.8484597;47.1306425;7.2406194;23.534000396728516;1673387809.0218847;9.57827377319336;0.7559645175933838;89.69629669189453
121;1673387809.0523074;47.130642599999995;7.2406194;23.9320011138916;1673387809.1962092;9.331006050109863;-2.231295585632324;89.60417175292969
122;1673387809.2284176;47.130642699999996;7.2406194;24.32900047302246;1673387809.3910077;9.456832885742188;1.5048446655273438;89.74147033691406
123;1673387809.434926;47.130642699999996;7.2406193;24.720001220703125;1673387809.5863278;9.589847564697266;1.9805365800857544;89.76469421386719
124;1673387809.6185496;47.130642699999996;7.2406193;25.112001419067383;1673387809.7707806;9.597597122192383;-1.9040764570236206;89.79242706298828
125;1673387809.8089187;47.130642699999996;7.2406193;25.50400161743164;1673387810.0356886;9.73408031463623;0.03307972848415375;89.64208221435547
126;1673387810.0753982;47.130642699999996;7.2406193;25.898000717163086;1673387810.2085066;9.750808715820312;2.7946817874908447;89.8748779296875
127;1673387810.2358348;47.1306428;7.2406193;26.295001983642578;1673387810.379377;9.541962623596191;-0.939513087272644;89.714599609375
128;1673387810.4077609;47.1306428;7.2406193;26.691001892089844;1673387810.5520954;9.259809494018555;-0.7333274483680725;89.686279296875
129;1673387810.5901175;47.1306428;7.2406193;27.082000732421875;1673387810.7712984;9.280424118041992;2.355219841003418;89.71321868896484
130;1673387810.8045957;47.130642699999996;7.2406193;27.466001510620117;1673387810.9626007;9.593990325927734;-0.791801929473877;89.52550506591797
131;1673387810.999874;47.130642699999996;7.2406193;27.850000381469727;1673387811.1747131;9.914911270141602;-1.801863193511963;89.61896514892578
132;1673387811.2118099;47.130642599999995;7.2406194;28.238000869750977;1673387811.3713756;10.048230171203613;1.7104930877685547;89.7545394897461
133;1673387811.4123666;47.130642699999996;7.2406194;28.628002166748047;1673387811.565603;10.021520614624023;1.1735999584197998;89.7746353149414
134;1673387811.6036763;47.1306428;7.2406194;29.022001266479492;1673387811.7439797;9.729280471801758;-1.7417405843734741;89.66702270507812
135;1673387811.775989;47.1306428;7.2406194;29.41600227355957;1673387811.9412131;9.371232032775879;1.5599558353424072;89.78202819824219
136;1673387811.9827383;47.1306428;7.240619499999999;29.804000854492188;1673387812.1635976;9.32665729522705;2.0343518257141113;89.7525863647461
137;1673387812.200795;47.1306428;7.240619499999999;30.19500160217285;1673387812.3690972;9.457743644714355;-1.943894386291504;89.73463439941406
138;1673387812.4051924;47.130642699999996;7.240619499999999;30.58700180053711;1673387812.5554302;9.598968505859375;-0.4035104513168335;89.84721374511719
139;1673387812.5942345;47.130642599999995;7.240619499999999;30.98000144958496;1673387812.7589862;9.536772727966309;2.615913152694702;89.98140716552734
140;1673387812.7882867;47.130642599999995;7.240619499999999;31.37200164794922;1673387812.9334335;9.793405532836914;-0.7747283577919006;89.71422576904297
141;1673387812.9785898;47.130642599999995;7.240619499999999;31.766000747680664;1673387813.1531434;9.600116729736328;-1.42971670627594;89.53559112548828
142;1673387813.1858804;47.130642599999995;7.240619499999999;32.159000396728516;1673387813.352458;9.677430152893066;2.298560380935669;89.67269897460938
143;1673387813.389529;47.1306425;7.240619499999999;32.547000885009766;1673387813.5411212;9.375789642333984;0.07838410139083862;89.75829315185547
144;1673387813.5743992;47.1306424;7.240619499999999;32.93600082397461;1673387813.750451;9.256861686706543;-2.3498528003692627;89.58238983154297
145;1673387813.7905533;47.1306424;7.240619499999999;33.33000183105469;1673387813.964758;9.197129249572754;0.9259642958641052;89.71859741210938
146;1673387814.0078125;47.1306424;7.240619499999999;33.72700119018555;1673387814.1775565;9.310330390930176;1.4790748357772827;89.7953109741211
147;1673387814.2118316;47.1306425;7.240619499999999;34.125;1673387814.3713117;9.520369529724121;-1.6146684885025024;89.6821060180664
148;1673387814.4103527;47.130642599999995;7.240619499999999;34.52300262451172;1673387814.5806873;9.783923149108887;0.09783928096294403;89.82488250732422
149;1673387814.6238601;47.130642699999996;7.240619499999999;34.91600036621094;1673387814.816043;9.69665813446045;3.285479784011841;89.91168212890625
150;1673387814.8498397;47.130642699999996;7.240619499999999;35.31300354003906;1673387814.991782;9.742671966552734;-1.2298359870910645;89.74848175048828
151;1673387815.0592265;47.130642599999995;7.240619499999999;35.71200180053711;1673387815.192323;9.738207817077637;-1.420390009880066;89.65707397460938
152;1673387815.2372158;47.1306425;7.240619499999999;36.11000061035156;1673387815.38767;9.511404037475586;2.427746295928955;89.77085876464844
153;1673387815.4208772;47.1306425;7.2406196;36.50699996948242;1673387815.5814722;9.487075805664062;-0.4847021698951721;89.66046142578125
154;1673387815.6166627;47.130642599999995;7.2406196;36.90299987792969;1673387815.7570066;9.491848945617676;-1.6234654188156128;89.62773132324219
155;1673387815.7907832;47.130642599999995;7.2406197;37.29500198364258;1673387815.9387195;9.697809219360352;1.4609647989273071;89.79486846923828
156;1673387815.9783108;47.130642599999995;7.2406197;37.68100357055664;1673387816.1441293;9.78425407409668;1.3636540174484253;89.71139526367188
157;1673387816.1843953;47.130642599999995;7.2406197;38.073001861572266;1673387816.3565004;9.879255294799805;-2.263976812362671;89.69528198242188
158;1673387816.403016;47.130642599999995;7.2406197;38.46900177001953;1673387816.5517888;9.749471664428711;0.6953626871109009;89.82605743408203
159;1673387816.5983536;47.130642599999995;7.2406197;38.86800003051758;1673387816.7665434;9.621103286743164;2.3269236087799072;89.93476867675781
160;1673387816.806567;47.130642699999996;7.240619799999999;39.26900100708008;1673387816.9547248;9.554162979125977;-1.4418878555297852;89.70733642578125
161;1673387816.989425;47.1306428;7.240619799999999;39.6670036315918;1673387817.1513057;9.501900672912598;0.3515825867652893;89.71170043945312
162;1673387817.1899145;47.1306429;7.240619799999999;40.060001373291016;1673387817.3873186;9.678082466125488;3.185546636581421;89.85305786132812
163;1673387817.4214776;47.1306429;7.240619799999999;40.45500183105469;1673387817.5681436;9.739950180053711;-0.7393882870674133;89.66337585449219
164;1673387817.613192;47.1306428;7.240619799999999;40.85300064086914;1673387817.7555056;9.691675186157227;-1.5309326648712158;89.60015869140625
165;1673387817.7873137;47.130642599999995;7.2406198999999996;41.25200271606445;1673387817.9423482;9.834382057189941;2.239349842071533;89.69926452636719
166;1673387817.978026;47.130642599999995;7.2406198999999996;41.652000427246094;1673387818.1523287;9.75882625579834;0.46160438656806946;89.85539245605469
167;1673387818.1938596;47.130642699999996;7.2406198999999996;42.05500030517578;1673387818.3444695;9.713361740112305;-2.0332748889923096;89.71266174316406
168;1673387818.3842099;47.130642699999996;7.2406198999999996;42.457000732421875;1673387818.555031;9.549018859863281;2.1323747634887695;89.84083557128906
169;1673387818.5960672;47.130642699999996;7.2406198999999996;42.85200119018555;1673387818.7538135;9.662897109985352;1.4139044284820557;89.77631378173828
170;1673387818.802371;47.130642699999996;7.2406198999999996;43.25300216674805;1673387818.9684117;9.695354461669922;-2.558675527572632;89.67069244384766
171;1673387819.0009654;47.130642599999995;7.2406198999999996;43.65800094604492;1673387819.1546357;9.625044822692871;0.6214351058006287;89.72130584716797
172;1673387819.192745;47.130642599999995;7.2406198999999996;44.064002990722656;1673387819.3493705;9.809183120727539;2.168339490890503;89.73253631591797
173;1673387819.3876424;47.130642699999996;7.2406198999999996;44.46800231933594;1673387819.5500214;9.625394821166992;-1.751267910003662;89.66291809082031
174;1673387819.5868945;47.130642699999996;7.240619799999999;44.87000274658203;1673387819.7632573;9.82153606414795;0.00797631498426199;89.8326644897461
175;1673387819.7999835;47.130642699999996;7.240619799999999;45.26300048828125;1673387819.961851;9.54952335357666;2.857600450515747;89.9480972290039
176;1673387819.9985104;47.130642699999996;7.240619799999999;45.65700149536133;1673387820.1504183;9.663880348205566;-1.180736780166626;89.74256134033203
177;1673387820.1870854;47.130642599999995;7.240619799999999;46.053001403808594;1673387820.4054806;9.447403907775879;-1.2988227605819702;89.6884994506836
178;1673387820.4368744;47.130642599999995;7.2406197;46.45000076293945;1673387820.58121;9.434708595275879;2.662064790725708;89.73055267333984
179;1673387820.6182988;47.130642599999995;7.2406196;46.85400390625;1673387820.7634797;9.542333602905273;-0.12209589779376984;89.5844955444336
180;1673387820.8020754;47.130642699999996;7.2406196;47.25800323486328;1673387820.943678;9.556327819824219;-1.7997498512268066;89.57416534423828
181;1673387820.9742029;47.130642699999996;7.2406196;47.660003662109375;1673387821.1361318;9.38937759399414;1.7986360788345337;89.6720199584961
182;1673387821.1757393;47.130642699999996;7.2406196;48.05400085449219;1673387821.3449774;9.327674865722656;1.2631237506866455;90.08522033691406
183;1673387821.3757892;47.130642599999995;7.2406196;48.410003662109375;1673387821.5452693;9.253301620483398;-2.283067464828491;89.65254974365234
184;1673387821.5841243;47.1306425;7.2406197;48.7140007019043;1673387821.7499533;9.35468578338623;0.6563913822174072;89.50655364990234
185;1673387821.7834866;47.1306425;7.240619799999999;48.96900177001953;1673387821.9517207;9.531760215759277;1.9063163995742798;89.7110595703125
186;1673387821.9873562;47.130642599999995;7.2406198999999996;49.182003021240234;1673387822.1501172;10.015119552612305;-1.3948800563812256;89.8008041381836
187;1673387822.1868272;47.130642599999995;7.2406201;49.35600280761719;1673387822.3634088;25.229150772094727;14.647090911865234;94.73548126220703
188;1673387822.4011283;47.1306424;7.2406198999999996;49.505001068115234;1673387822.572163;34.18992233276367;35.89564895629883;106.80379486083984
189;1673387822.6073618;47.1306413;7.2406181;49.6410026550293;1673387822.8082705;34.61280822753906;49.30634307861328;115.72835540771484
190;1673387822.8552196;47.1306382;7.240613199999999;49.75800323486328;1673387823.022437;25.0139102935791;57.47461700439453;124.003173828125
191;1673387823.0556812;47.1306326;7.2406047;49.85400390625;1673387823.2117574;8.111093521118164;59.98701477050781;135.58753967285156
192;1673387823.2597528;47.1306246;7.240593;49.91200256347656;1673387823.4097629;-11.215494155883789;53.779563903808594;146.95352172851562
193;1673387823.443018;47.130615;7.2405789;49.935001373291016;1673387823.583447;-23.558876037597656;47.780826568603516;156.5707244873047
194;1673387823.6264389;47.130604;7.2405631999999995;49.94400405883789;1673387823.78175;-34.804229736328125;42.430301666259766;167.51223754882812
195;1673387823.815905;47.1305917;7.2405463999999995;49.93800354003906;1673387823.9751246;-44.77640151977539;38.789588928222656;179.77903747558594
196;1673387824.022066;47.130578199999995;7.240528299999999;49.92100143432617;1673387824.1785676;-48.04893493652344;31.267744064331055;-167.7711181640625
197;1673387824.211743;47.130563699999996;7.2405089;49.88300323486328;1673387824.3686616;-45.305599212646484;23.623573303222656;-160.3434295654297
198;1673387824.404343;47.1305487;7.2404885;49.82200241088867;1673387824.5710907;-44.626583099365234;19.13328742980957;-155.23724365234375
199;1673387824.6096854;47.1305334;7.240467499999999;49.76300048828125;1673387824.7588172;-46.025054931640625;14.756574630737305;-148.2216339111328
200;1673387824.7903938;47.1305178;7.2404461;49.724002838134766;1673387824.971339;-46.33537292480469;9.614714622497559;-140.06317138671875
201;1673387825.0175085;47.130502299999996;7.2404243;49.702003479003906;1673387825.1788273;-47.88640213012695;6.631880283355713;-133.9470977783203
202;1673387825.2200792;47.1304866;7.2404021;49.69600296020508;1673387825.3730345;-48.64590835571289;-0.6882086992263794;-129.2529296875
203;1673387825.410382;47.1304708;7.2403796;49.695003509521484;1673387825.5517237;-48.02928924560547;-2.0518577098846436;-132.1161346435547
204;1673387825.5851746;47.130454799999995;7.2403569999999995;49.69300079345703;1673387825.7656937;-47.3910026550293;-1.2192037105560303;-134.55538940429688
205;1673387825.8057482;47.1304385;7.2403347;49.69300079345703;1673387825.9805803;-47.72319793701172;-0.13650482892990112;-135.51805114746094
206;1673387826.0147817;47.1304218;7.240312599999999;49.695003509521484;1673387826.1659715;-48.17564010620117;1.5089372396469116;-136.22732543945312
207;1673387826.2016494;47.130404899999995;7.2402907999999995;49.70100402832031;1673387826.356641;-47.7696418762207;3.07000470161438;-136.75625610351562
208;1673387826.3962243;47.1303877;7.240269;49.708003997802734;1673387826.5627666;-48.07252502441406;3.827665090560913;-136.8477783203125
209;1673387826.596584;47.1303704;7.2402472;49.72600173950195;1673387826.7435493;-48.98301696777344;4.28184700012207;-136.8728485107422
210;1673387826.7811775;47.130353;7.240225199999999;49.74700164794922;1673387826.9403715;-49.056949615478516;4.443744659423828;-136.69854736328125
211;1673387826.97957;47.130335599999995;7.2402031;49.76900100708008;1673387827.149037;-49.098602294921875;4.34868860244751;-136.4912872314453
212;1673387827.1905937;47.1303181;7.2401807;49.788002014160156;1673387827.362109;-48.76616668701172;4.2516937255859375;-136.3042449951172
213;1673387827.4083066;47.1303006;7.2401582;49.802001953125;1673387827.5604353;-48.29170227050781;4.139532089233398;-136.09310913085938
214;1673387827.598292;47.1302831;7.2401355999999994;49.80400085449219;1673387827.7580597;-47.93125915527344;4.007266044616699;-135.9994354248047
215;1673387827.7939405;47.1302656;7.2401129;49.80900192260742;1673387827.9383218;-47.755069732666016;4.044501781463623;-135.9596405029297
216;1673387827.97167;47.1302482;7.2400901;49.81700134277344;1673387828.1336262;-48.281917572021484;4.046236038208008;-135.8926239013672
217;1673387828.169747;47.1302309;7.2400673;49.83100128173828;1673387828.3251228;-48.76149368286133;4.119028568267822;-135.84971618652344
218;1673387828.3622053;47.130213499999996;7.2400445;49.84400177001953;1673387828.5263124;-48.85081481933594;4.033017635345459;-135.76071166992188
219;1673387828.5634003;47.1301961;7.2400214;49.855003356933594;1673387828.7265732;-48.59581756591797;3.9410505294799805;-135.69691467285156
220;1673387828.7666209;47.130178699999995;7.2399983;49.86000061035156;1673387828.9442954;-48.08028030395508;3.8226375579833984;-135.59071350097656
221;1673387828.9927108;47.1301613;7.239974999999999;49.855003356933594;1673387829.170947;-47.694358825683594;3.754492998123169;-135.57650756835938
222;1673387829.2085829;47.130144;7.2399518;49.85000228881836;1673387829.3575919;-47.67625045776367;3.8470299243927;-135.61106872558594
223;1673387829.4236283;47.1301267;7.2399286;49.84600067138672;1673387829.5933216;-47.92619323730469;3.905580520629883;-135.60496520996094
224;1673387829.6301005;47.130109399999995;7.2399054;49.84600067138672;1673387829.786446;-48.15757751464844;3.908642530441284;-135.5791473388672
225;1673387829.8168333;47.1300922;7.2398821;49.84700393676758;1673387829.9766335;-48.383888244628906;3.892306089401245;-135.5533905029297
226;1673387830.0084312;47.1300749;7.2398589;49.85600280761719;1673387830.167092;-48.59077072143555;3.945275068283081;-135.52993774414062
227;1673387830.2008138;47.130057699999995;7.239835599999999;49.858001708984375;1673387830.3674138;-48.348899841308594;3.9318370819091797;-135.4895477294922
228;1673387830.4060352;47.1300404;7.2398123;49.86000061035156;1673387830.566003;-48.17250061035156;3.900632858276367;-135.46104431152344
229;1673387830.6013114;47.130023099999995;7.2397889;49.85900115966797;1673387830.7652059;-48.15138626098633;3.9034149646759033;-135.43284606933594
230;1673387830.8026195;47.1300059;7.239765599999999;49.858001708984375;1673387830.9711313;-48.21596908569336;3.9677412509918213;-135.45315551757812
231;1673387831.0077426;47.1299887;7.239742199999999;49.85700225830078;1673387831.1713965;-48.41463851928711;3.888976812362671;-135.4204559326172
232;1673387831.2071548;47.129971499999996;7.2397187999999995;49.86000061035156;1673387831.3493972;-48.42374801635742;3.905358076095581;-135.44058227539062
233;1673387831.3881097;47.129954399999995;7.239695299999999;49.862003326416016;1673387831.5544798;-48.36226272583008;3.8265061378479004;-135.3956298828125
234;1673387831.5882285;47.1299372;7.2396718;49.85900115966797;1673387831.756284;-48.09421157836914;3.775761604309082;-135.39398193359375
235;1673387831.7938428;47.12992;7.2396483;49.85300064086914;1673387831.9564867;-47.903011322021484;3.7379770278930664;-135.3819580078125
236;1673387831.9882827;47.1299029;7.2396248;49.849002838134766;1673387832.148167;-47.970272064208984;3.7668955326080322;-135.4160919189453
237;1673387832.1936424;47.129885699999996;7.2396012999999995;49.85000228881836;1673387832.3542125;-48.25321960449219;3.8052711486816406;-135.4119415283203
238;1673387832.3892982;47.129868599999995;7.2395779;49.85300064086914;1673387832.5864303;-48.43110656738281;3.884190082550049;-135.4443359375
239;1673387832.6232493;47.1298514;7.239554399999999;49.85600280761719;1673387832.7921028;-48.3631477355957;3.82727313041687;-135.40748596191406
240;1673387832.8282146;47.1298343;7.2395309;49.85700225830078;1673387832.9729564;-48.128910064697266;3.8036906719207764;-135.40431213378906
241;1673387832.999386;47.1298172;7.2395073;49.85700225830078;1673387833.1406205;-47.94357681274414;3.7386281490325928;-135.38214111328125
242;1673387833.1777923;47.129799999999996;7.2394837999999995;49.85600280761719;1673387833.347781;-47.850868225097656;3.716165781021118;-135.35134887695312
243;1673387833.395329;47.1297828;7.239460299999999;49.85700225830078;1673387833.57494;-48.0054817199707;3.780867338180542;-135.41099548339844
244;1673387833.6161277;47.1297657;7.2394368;49.862003326416016;1673387833.7583585;-48.186832427978516;3.8440098762512207;-135.39788818359375
245;1673387833.7920973;47.1297485;7.2394133;49.86300277709961;1673387833.9608862;-48.255733489990234;3.76129412651062;-135.3407440185547
246;1673387833.996161;47.1297314;7.239389699999999;49.86600112915039;1673387834.1588204;-48.1839714050293;3.7707133293151855;-135.35398864746094
247;1673387834.202346;47.129714199999995;7.2393662;49.87000274658203;1673387834.3678083;-48.197147369384766;3.718210458755493;-135.30715942382812
248;1673387834.4083767;47.129697;7.2393426;49.87700271606445;1673387834.5743623;-48.287513732910156;3.7021100521087646;-135.27528381347656
249;1673387834.6108773;47.1296798;7.239319;49.88100051879883;1673387834.7714646;-48.222599029541016;3.767746925354004;-135.31085205078125
250;1673387834.8087103;47.129662599999996;7.2392954;49.884002685546875;1673387834.958282;-48.17217254638672;3.6708567142486572;-135.24815368652344
251;1673387835.0047104;47.129645499999995;7.239271899999999;49.88500213623047;1673387835.1652887;-48.054630279541016;3.6550803184509277;-135.2625274658203
252;1673387835.203041;47.1296283;7.2392483;49.88500213623047;1673387835.3548906;-47.87793731689453;3.610856533050537;-135.2104034423828
253;1673387835.394521;47.1296112;7.239224699999999;49.88800048828125;1673387835.562355;-48.118247985839844;3.598198413848877;-135.20753479003906
254;1673387835.6153107;47.129594;7.2392012;49.89200210571289;1673387835.7743304;-48.147830963134766;3.581101655960083;-135.16912841796875
255;1673387835.8078341;47.129576899999996;7.239177799999999;49.89800262451172;1673387835.9622824;-48.09052658081055;3.67584490776062;-135.1673583984375
256;1673387835.9977326;47.129559699999994;7.2391543;49.90200424194336;1673387836.1584737;-48.01563262939453;3.69480562210083;-135.12908935546875
257;1673387836.1953285;47.1295425;7.2391308;49.90700149536133;1673387836.3539066;-48.0421257019043;3.612989664077759;-135.05026245117188
258;1673387836.3946166;47.1295254;7.2391073;49.91100311279297;1673387836.5496294;-48.11600875854492;3.5102827548980713;-134.99546813964844
259;1673387836.5919857;47.1295082;7.239083699999999;49.91400146484375;1673387836.7594957;-48.04864501953125;3.4554784297943115;-134.94869995117188
260;1673387836.803204;47.129490999999994;7.2390601;49.919002532958984;1673387836.9689517;-47.928443908691406;3.3883302211761475;-134.89686584472656
261;1673387837.0076997;47.1294738;7.2390365999999995;49.923004150390625;1673387837.174236;-47.902496337890625;3.444300889968872;-134.8740692138672
262;1673387837.2111008;47.1294567;7.239013;49.926002502441406;1673387837.3785243;-47.964473724365234;3.4478847980499268;-134.81919860839844
263;1673387837.429875;47.1294395;7.2389895;49.92900085449219;1673387837.579874;-48.00009536743164;3.5995423793792725;-134.80364990234375
264;1673387837.6186478;47.129422299999995;7.238965899999999;49.93700408935547;1673387837.7663782;-48.1247673034668;4.485172271728516;-134.95091247558594
265;1673387837.804006;47.1294051;7.2389423;49.94600296020508;1673387837.976415;-48.30999755859375;5.473545551300049;-134.9365692138672
266;1673387838.0129728;47.129388;7.2389186;49.95500183105469;1673387838.1758158;-48.206966400146484;4.065185070037842;-134.31423950195312
267;1673387838.2056417;47.129371;7.2388946999999995;49.96600341796875;1673387838.3675556;-48.34601593017578;4.340446472167969;-134.24945068359375
268;1673387838.4051914;47.129354;7.2388708;49.97700119018555;1673387838.561284;-48.505043029785156;4.641298294067383;-134.10873413085938
269;1673387838.5963662;47.1293371;7.238846799999999;49.98400115966797;1673387838.75669;-48.32413101196289;4.781716346740723;-134.00852966308594
270;1673387838.7938223;47.129320199999995;7.2388227999999994;49.987003326416016;1673387838.9561825;-47.97200012207031;5.072249412536621;-133.8651885986328
271;1673387838.9952316;47.1293034;7.2387986;49.9900016784668;1673387839.1737611;-47.926483154296875;5.709558486938477;-133.86627197265625
272;1673387839.211458;47.129286699999994;7.238774299999999;49.99100112915039;1673387839.3761194;-47.10826110839844;5.449499130249023;-133.48355102539062
273;1673387839.4176784;47.1292702;7.2387498;49.99500274658203;1673387839.56782;-40.01264953613281;5.038475513458252;-133.04025268554688
274;1673387839.6061969;47.129253899999995;7.2387254;50.018001556396484;1673387839.756763;-27.732633590698242;6.063849449157715;-134.20516967773438
275;1673387839.7945685;47.129238099999995;7.238701799999999;50.044002532958984;1673387839.952331;-12.383296012878418;5.8443522453308105;-134.87588500976562
276;1673387839.993351;47.1292234;7.2386797;50.05400085449219;1673387840.1541505;-2.0459160804748535;6.131122589111328;-135.7415771484375
277;1673387840.1922715;47.129210099999995;7.2386599;50.052001953125;1673387840.3551877;5.921204566955566;6.558281421661377;-136.0441436767578
278;1673387840.3942895;47.129198699999996;7.2386431;50.048004150390625;1673387840.5692945;9.36054801940918;5.466569900512695;-136.15878295898438
279;1673387840.6110673;47.1291892;7.2386294;50.0260009765625;1673387840.7913036;7.491403102874756;6.674491882324219;-139.45980834960938
280;1673387840.8318644;47.1291815;7.238618499999999;50.00300216674805;1673387840.9917302;8.358098030090332;6.315227031707764;-138.4669647216797
281;1673387841.0460916;47.129175499999995;7.238609899999999;50.000003814697266;1673387841.2034926;3.6273856163024902;7.704529762268066;-136.00112915039062
282;1673387841.2356992;47.129170699999996;7.2386032;50.00800323486328;1673387841.3994603;-1.4389872550964355;9.500373840332031;-135.20166015625
283;1673387841.4479573;47.1291669;7.238598;50.02700424194336;1673387841.5859742;-7.1410346031188965;10.142702102661133;-134.88531494140625
284;1673387841.6188848;47.129163899999995;7.2385937;50.04500198364258;1673387841.765887;-11.34219741821289;8.841389656066895;-134.4213409423828
285;1673387841.8010244;47.1291614;7.2385899;50.06100082397461;1673387841.9690025;-13.484552383422852;6.767860412597656;-133.99087524414062
286;1673387842.0056741;47.129159099999995;7.2385864;50.07400131225586;1673387842.160589;-13.75223159790039;4.434140205383301;-133.74609375
287;1673387842.1957283;47.129157;7.238582999999999;50.08100128173828;1673387842.3715775;-13.277460098266602;3.008439540863037;-134.1365203857422
288;1673387842.4200046;47.129155;7.238579799999999;50.08700180053711;1673387842.5786963;-31.290184020996094;2.5224530696868896;-136.86895751953125
289;1673387842.6143897;47.1291527;7.2385763999999995;50.12900161743164;1673387842.7701259;-26.959230422973633;1.2951349020004272;-136.83258056640625
290;1673387842.8038576;47.1291495;7.238572;50.2030029296875;1673387842.9634953;-14.034031867980957;0.5135372877120972;-136.19386291503906
291;1673387842.9996085;47.1291456;7.2385673;50.3390007019043;1673387843.1618214;-14.048310279846191;3.0936331748962402;-135.80511474609375
292;1673387843.1969655;47.1291413;7.238563;50.56200408935547;1673387843.363038;-18.90740203857422;1.7084732055664062;-135.5548553466797
293;1673387843.4030554;47.129137;7.2385588;50.84800338745117;1673387843.5778546;-34.93671798706055;5.609755039215088;-136.60838317871094
294;1673387843.6145241;47.1291322;7.2385543;51.18600082397461;1673387843.8062165;-50.29297637939453;7.297452926635742;-135.94566345214844
295;1673387843.8423295;47.1291265;7.2385478999999995;51.538002014160156;1673387843.9873123;-48.724143981933594;8.081669807434082;-135.0873565673828
296;1673387844.0220304;47.1291194;7.238538699999999;51.880001068115234;1673387844.1798902;-45.70077133178711;8.956875801086426;-135.71119689941406
297;1673387844.2145953;47.129111099999996;7.2385271;52.20600128173828;1673387844.374396;-41.02352523803711;9.086548805236816;-136.027587890625
298;1673387844.4131105;47.1291022;7.2385139999999994;52.51900100708008;1673387844.5773923;-36.52115249633789;8.051530838012695;-136.28207397460938
299;1673387844.613245;47.129092799999995;7.2384998;52.82400131225586;1673387844.796341;-34.34596633911133;6.310654640197754;-136.41224670410156
300;1673387844.8732345;47.1290832;7.238485;53.138004302978516;1673387845.0142097;-32.77317810058594;4.656375408172607;-136.43417358398438
301;1673387845.045517;47.129073399999996;7.2384701;53.4640007019043;1673387845.186472;-31.305217742919922;3.820481061935425;-136.54293823242188
302;1673387845.2241538;47.1290635;7.2384553;53.80400085449219;1673387845.3857095;-30.29120445251465;3.889688014984131;-136.721923828125
303;1673387845.429196;47.1290536;7.238440799999999;54.15300369262695;1673387845.6461685;-29.799110412597656;4.426299571990967;-136.9665069580078
304;1673387845.6783757;47.1290437;7.2384265999999995;54.51400375366211;1673387845.8249788;-29.79053497314453;5.625449180603027;-137.26998901367188
305;1673387845.8583214;47.129033799999995;7.2384128;54.881004333496094;1673387845.9946566;-30.274784088134766;6.212791442871094;-137.32473754882812
306;1673387846.0269678;47.129024;7.2383992;55.255001068115234;1673387846.1836412;-30.79978370666504;6.278183937072754;-137.3013153076172
307;1673387846.2252011;47.1290142;7.2383858;55.63500213623047;1673387846.4192083;-31.4069881439209;6.229837417602539;-137.15573120117188
308;1673387846.458122;47.1290044;7.238372399999999;56.02100372314453;1673387846.588081;-32.086143493652344;5.460704326629639;-136.8230438232422
309;1673387846.6214716;47.1289946;7.238359099999999;56.406002044677734;1673387846.8239462;-32.36709976196289;5.066893577575684;-136.67015075683594
310;1673387846.8848612;47.1289848;7.2383457;56.79500198364258;1673387847.0565703;-32.44206619262695;5.163554668426514;-136.6995391845703
311;1673387847.0911229;47.128975;7.238332199999999;57.18300247192383;1673387847.2460713;-32.2431640625;5.962042808532715;-136.9030303955078
312;1673387847.2802913;47.128965199999996;7.2383188;57.57200241088867;1673387847.414182;-32.110939025878906;6.894477367401123;-137.11973571777344
313;1673387847.4434824;47.1289553;7.2383052999999995;57.96400451660156;1673387847.6072063;-32.13157653808594;7.171420097351074;-137.12216186523438
314;1673387847.6350634;47.1289454;7.2382918;58.35700225830078;1673387847.783965;-32.12104034423828;6.890251636505127;-137.0906524658203
315;1673387847.828453;47.128935399999996;7.2382781;58.74900436401367;1673387847.9919722;-32.07426071166992;6.19842004776001;-136.9035186767578
316;1673387848.0266776;47.1289255;7.2382645;59.1400032043457;1673387848.1833942;-31.977529525756836;5.440432071685791;-136.66001892089844
317;1673387848.2201982;47.1289156;7.2382509;59.53200149536133;1673387848.3837404;-32.14137268066406;5.018773078918457;-136.63909912109375
318;1673387848.4281874;47.1289057;7.2382373;59.923004150390625;1673387848.5921888;-31.93062400817871;5.358702659606934;-136.6931610107422
319;1673387848.632409;47.128895799999995;7.2382237;60.314002990722656;1673387848.7902172;-31.981048583984375;5.995466232299805;-136.85414123535156
320;1673387848.8259456;47.1288859;7.2382101;60.70700454711914;1673387848.9878259;-31.850364685058594;6.777515411376953;-137.084716796875
321;1673387849.0264957;47.1288759;7.2381965;61.10000228881836;1673387849.1841938;-31.87088966369629;7.207118034362793;-137.15086364746094
322;1673387849.217932;47.128865999999995;7.2381829;61.493003845214844;1673387849.380159;-31.96982192993164;6.910698413848877;-137.053955078125
323;1673387849.4222953;47.1288561;7.2381693;61.88600158691406;1673387849.5896955;-32.1291389465332;6.05031156539917;-136.84873962402344
324;1673387849.6283183;47.1288462;7.2381557;62.276004791259766;1673387849.7986968;-32.21925735473633;5.245491027832031;-136.66635131835938
325;1673387849.8314612;47.1288364;7.238142099999999;62.6660041809082;1673387849.9815238;-32.26764678955078;5.120900630950928;-136.62100219726562
326;1673387850.0181499;47.128826499999995;7.2381286;63.05900192260742;1673387850.1955361;-32.312870025634766;5.18737268447876;-136.63560485839844
327;1673387850.2282987;47.1288166;7.238115;63.4530029296875;1673387850.3823574;-32.16792678833008;5.479851722717285;-136.7164764404297
328;1673387850.4239554;47.1288067;7.238101299999999;63.846004486083984;1673387850.5867164;-32.15848159790039;6.268136501312256;-136.89434814453125
329;1673387850.6264234;47.128796699999995;7.2380876999999995;64.24000549316406;1673387850.7804043;-32.173370361328125;6.752631187438965;-137.02084350585938
330;1673387850.8239534;47.1287868;7.238073999999999;64.63800048828125;1673387850.9771652;-32.320289611816406;6.643742084503174;-137.02426147460938
331;1673387851.0142543;47.1287769;7.2380603;65.0320053100586;1673387851.1822777;-32.32024002075195;6.053584575653076;-136.84219360351562
332;1673387851.2145176;47.128766999999996;7.2380466;65.4280014038086;1673387851.4010594;-32.345001220703125;5.496862411499023;-136.68165588378906
333;1673387851.4475086;47.1287571;7.238033;65.82300567626953;1673387851.6129987;-32.33073806762695;4.978534698486328;-136.56712341308594
334;1673387851.6545405;47.1287472;7.2380192;66.21600341796875;1673387851.7987432;-32.155540466308594;4.885070323944092;-136.51162719726562
335;1673387851.8355803;47.128737199999996;7.2380055;66.61000061035156;1673387851.9923787;-32.27290344238281;5.081528663635254;-136.60733032226562
336;1673387852.0290303;47.1287273;7.2379918;67.0050048828125;1673387852.198407;-32.1251335144043;5.070591449737549;-136.643310546875
337;1673387852.238032;47.1287174;7.237978099999999;67.4020004272461;1673387852.399909;-32.20720672607422;5.630355358123779;-136.81829833984375
338;1673387852.4395316;47.128707399999996;7.2379644;67.79800415039062;1673387852.5946276;-32.135990142822266;6.099072456359863;-136.9504852294922
339;1673387852.6318932;47.1286975;7.2379507;68.19400024414062;1673387852.7894375;-32.186134338378906;6.370833873748779;-137.02061462402344
340;1673387852.8343782;47.1286875;7.237937;68.59000396728516;1673387852.991127;-32.19083786010742;6.712859630584717;-137.10968017578125
341;1673387853.0257046;47.128677499999995;7.237923299999999;68.98800659179688;1673387853.1716037;-32.3070068359375;6.728328704833984;-137.0576171875
342;1673387853.2047956;47.1286675;7.2379096;69.38300323486328;1673387853.3716445;-32.38810729980469;6.604500770568848;-136.9593963623047
343;1673387853.411718;47.128657499999996;7.2378959;69.77799987792969;1673387853.5963962;-32.38961410522461;6.510126113891602;-136.84739685058594
344;1673387853.6371193;47.1286475;7.2378822;70.17200469970703;1673387853.788057;-18.373586654663086;7.101438999176025;-136.33621215820312
345;1673387853.8228042;47.1286377;7.237868799999999;70.54199981689453;1673387853.9844003;-12.243977546691895;6.939216613769531;-136.51222229003906
346;1673387854.0195441;47.1286286;7.2378563;70.87600708007812;1673387854.1846898;-7.850733280181885;6.83128547668457;-136.55824279785156
347;1673387854.2198353;47.128620299999994;7.237845;71.17000579833984;1673387854.3890495;-3.0886898040771484;6.821915149688721;-136.5496063232422
348;1673387854.4237611;47.128613099999995;7.2378351;71.4280014038086;1673387854.5804706;0.09369294345378876;6.017512321472168;-136.26271057128906
349;1673387854.6175673;47.1286069;7.2378266;71.6510009765625;1673387854.7848763;1.230894684791565;5.166557788848877;-136.59910583496094
350;1673387854.8320947;47.1286019;7.2378196;71.84700012207031;1673387855.0057395;0.7230713367462158;5.371777057647705;-136.80828857421875
351;1673387855.0434291;47.128597799999994;7.237813999999999;72.01800537109375;1673387855.2553883;-0.4746730327606201;5.155327796936035;-136.08657836914062
352;1673387855.2926035;47.1285945;7.237809599999999;72.16300201416016;1673387855.4479861;-2.229473829269409;5.35429048538208;-135.65806579589844
353;1673387855.4821572;47.128591799999995;7.2378062;72.28800201416016;1673387855.6863172;-3.5038437843322754;24.580223083496094;-129.86822509765625
354;1673387855.7337124;47.1285898;7.2378032;72.4000015258789;1673387855.877652;-8.246917724609375;31.054122924804688;-117.02214050292969
355;1673387855.9088845;47.1285891;7.2378;72.49100494384766;1673387856.0503988;-17.708858489990234;21.113534927368164;-106.23770904541016
356;1673387856.0865104;47.128589899999994;7.2377962;72.5530014038086;1673387856.2762442;-21.369421005249023;11.872633934020996;-97.4163589477539
357;1673387856.306583;47.1285915;7.2377917;72.59500122070312;1673387856.4876926;-22.991207122802734;7.523615837097168;-88.66947174072266
358;1673387856.5150323;47.128593699999996;7.237786799999999;72.6310043334961;1673387856.6518164;-21.947986602783203;1.7014247179031372;-79.07103729248047
359;1673387856.6840363;47.128596099999996;7.2377815;72.66300201416016;1673387856.8296003;-20.318557739257812;-3.3205738067626953;-70.0159683227539
360;1673387856.8649457;47.1285987;7.2377759;72.69400024414062;1673387857.0233533;-18.074726104736328;-5.838649749755859;-61.2888069152832
361;1673387857.0612204;47.1286013;7.237770299999999;72.72200012207031;1673387857.232874;-15.402690887451172;-8.521197319030762;-52.04981994628906
362;1673387857.273049;47.1286038;7.237764599999999;72.7490005493164;1673387857.442213;-13.530180931091309;-9.770800590515137;-43.280426025390625
363;1673387857.47639;47.1286062;7.2377591;72.77400207519531;1673387857.63446;-12.879963874816895;-9.858918190002441;-40.94072341918945
364;1673387857.6647544;47.1286084;7.2377537;72.79500579833984;1673387857.8235111;-12.786277770996094;-8.52341365814209;-44.60166931152344
365;1673387857.8543732;47.128610699999996;7.2377486;72.81300354003906;1673387857.9996018;-32.41523742675781;-6.45858907699585;-46.17109298706055
366;1673387858.0333326;47.128612999999994;7.237743399999999;72.83900451660156;1673387858.1968055;-50.459129333496094;-3.3162436485290527;-46.5811653137207
367;1673387858.2325742;47.1286163;7.237737;72.8740005493164;1673387858.395047;-59.91714859008789;-2.012573480606079;-47.46541976928711
368;1673387858.430726;47.1286215;7.237728;72.906005859375;1673387858.612128;-60.805152893066406;-1.8726409673690796;-48.33367919921875
369;1673387858.6439235;47.1286291;7.2377158999999995;72.92400360107422;1673387858.794806;-57.681976318359375;-0.3504526615142822;-49.0068359375
370;1673387858.8292854;47.1286389;7.237700599999999;72.93000030517578;1673387858.987865;-56.8626823425293;-0.7767809629440308;-48.82461166381836
371;1673387859.0318446;47.1286504;7.2376834;72.9320068359375;1673387859.1940572;-55.044612884521484;-2.5396811962127686;-47.547515869140625
372;1673387859.2272723;47.1286632;7.2376648999999995;72.93000030517578;1673387859.3829627;-55.7288703918457;-3.3308568000793457;-47.304813385009766
373;1673387859.4200628;47.1286771;7.237645;72.92300415039062;1673387859.5911524;-55.16340637207031;-4.1450324058532715;-47.043758392333984
374;1673387859.6366386;47.1286917;7.2376238;72.91100311279297;1673387859.7924104;-51.409358978271484;-4.029582500457764;-47.33566665649414
375;1673387859.8266206;47.1287069;7.2376016;72.89500427246094;1673387860.0013807;-50.24293899536133;-4.218364238739014;-47.47602844238281
376;1673387860.0445096;47.128722499999995;7.2375788;72.87800598144531;1673387860.1897228;-50.057186126708984;-4.379219055175781;-47.654052734375
377;1673387860.2249448;47.1287381;7.2375552999999995;72.86200714111328;1673387860.3900373;-49.64295196533203;-5.296830177307129;-47.51601791381836
378;1673387860.434577;47.1287539;7.2375314;72.85100555419922;1673387860.6160593;-49.50883102416992;-4.678956985473633;-48.10588073730469
379;1673387860.6503577;47.1287698;7.237507099999999;72.84400177001953;1673387860.8231215;-49.69038772583008;-2.4392974376678467;-48.660037994384766
380;1673387860.8632257;47.128785799999996;7.2374826;72.83500671386719;1673387861.0073297;-48.874290466308594;-3.193484306335449;-48.18558883666992
381;1673387861.0372744;47.1288018;7.2374579;72.8280029296875;1673387861.221556;-48.333560943603516;-3.6596314907073975;-48.10052490234375
382;1673387861.3233001;47.1288179;7.2374331;72.82100677490234;1673387861.472299;-48.490928649902344;-3.553510904312134;-48.21859359741211
383;1673387861.500709;47.1288339;7.2374082;72.81700134277344;1673387861.6291773;-48.774024963378906;-3.5931556224823;-48.2025146484375
384;1673387861.6619186;47.12885;7.2373832;72.81700134277344;1673387861.8080745;-48.67561721801758;-3.7567148208618164;-48.17306137084961
385;1673387861.843762;47.128866099999996;7.2373582;72.81900024414062;1673387862.0044124;-48.503780364990234;-3.6750500202178955;-48.252418518066406
386;1673387862.0421195;47.1288822;7.237333199999999;72.81900024414062;1673387862.201536;-48.50119400024414;-3.6144325733184814;-48.29230880737305
387;1673387862.2372143;47.128898299999996;7.237308;72.81999969482422;1673387862.3929267;-45.243309020996094;-3.2413859367370605;-48.55624771118164
388;1673387862.432911;47.1289144;7.237282899999999;72.78400421142578;1673387862.5914161;-19.429019927978516;-1.0690237283706665;-49.52627944946289
389;1673387862.6369975;47.1289302;7.2372581;72.43400573730469;1673387862.8085837;32.06484603881836;1.9018501043319702;-48.92047882080078
390;1673387862.8394308;47.128945599999994;7.2372339;71.69900512695312;1673387862.999677;84.22215270996094;150.2412109375;97.66679382324219
391;1673387863.0326629;47.1289611;7.237209699999999;70.56800079345703;1673387863.2085369;35.16239929199219;178.28990173339844;124.135498046875
392;1673387863.2485843;47.128976599999994;7.2371855;69.08500671386719;1673387863.432671;13.82307243347168;178.85438537597656;121.36843872070312
393;1673387863.4646037;47.128991899999995;7.2371618;67.24500274658203;1673387863.6125321;21.026277542114258;177.66114807128906;118.2365951538086
394;1673387863.6504278;47.129006999999994;7.2371386;65.0260009765625;1673387863.7930331;59.09001159667969;173.91542053222656;118.42920684814453
395;1673387863.8246174;47.129021699999996;7.237115999999999;62.445003509521484;1673387863.9806218;53.55252456665039;-0.22374612092971802;-53.32383346557617
396;1673387864.0166607;47.1290364;7.2370934;59.51000213623047;1673387864.1857097;-18.781064987182617;-0.4817817807197571;-52.90000534057617
397;1673387864.2350383;47.1290511;7.2370708;56.172000885009766;1673387864.4103792;-61.13378143310547;-3.46138072013855;-48.68303680419922
398;1673387864.4467158;47.129065499999996;7.237048799999999;52.461002349853516;1673387864.6136162;-62.16795349121094;-2.704714298248291;-47.39683532714844
399;1673387864.6491604;47.1290797;7.2370272;48.42900085449219;1673387864.8146896;-19.255207061767578;1.0598667860031128;-47.70281219482422
400;1673387864.845515;47.129093499999996;7.2370062;44.07200241088867;1673387865.0184956;52.39769744873047;9.570448875427246;-39.1291389465332
401;1673387865.0494864;47.1291072;7.2369857;39.316001892089844;1673387865.2196894;72.96455383300781;152.10159301757812;103.77782440185547
402;1673387865.2513907;47.129121;7.2369648;34.202003479003906;1673387865.4066036;70.93986511230469;148.0117950439453;101.08154296875
403;1673387865.4426734;47.1291346;7.2369441;28.78400230407715;1673387865.6067383;55.1905632019043;17.281505584716797;-26.276721954345703
404;1673387865.6435935;47.1291483;7.236923699999999;23.076000213623047;1673387865.7958307;-18.351472854614258;1.0368597507476807;-37.082481384277344
405;1673387865.82752;47.129162199999996;7.236903;16.988000869750977;1673387865.9905567;-59.191646575927734;-7.7809672355651855;-32.25063705444336
406;1673387866.029106;47.129175599999996;7.2368831;10.538000106811523;1673387866.2096815;-41.253074645996094;-0.7093660235404968;-34.71401596069336
407;1673387866.2527893;47.1291887;7.2368638;3.7980000972747803;1673387866.4315853;-8.821273803710938;-14.785035133361816;-26.049837112426758
408;1673387866.4655135;47.129197399999995;7.236846099999999;0.4130000174045563;1673387866.6427689;-12.078219413757324;-8.737032890319824;-34.11137771606445
409;1673387866.6909146;47.129202799999995;7.2368315;0.6740000247955322;1673387866.842598;-4.806181907653809;-10.655984878540039;-34.95762634277344
410;1673387866.880476;47.129208;7.236818599999999;0.7800000309944153;1673387867.0289729;-4.445917129516602;-10.802087783813477;-34.96900177001953
411;1673387867.0618205;47.1292128;7.2368058;0.8540000319480896;1673387867.2346034;-4.238266468048096;-10.839595794677734;-35.01957702636719
412;1673387867.274713;47.129216899999996;7.2367934;0.8950000405311584;1673387867.434532;-3.911891222000122;-10.867347717285156;-35.17947006225586
413;1673387867.4715993;47.1292201;7.236782;0.9120000600814819;1673387867.6286266;-3.5573387145996094;-10.72303581237793;-35.424522399902344
414;1673387867.6626647;47.129222299999995;7.2367729;0.9020000696182251;1673387867.8265593;-3.0907130241394043;-10.559980392456055;-35.63734817504883
415;1673387867.8646355;47.129223499999995;7.2367650999999995;0.8950000405311584;1673387868.008597;-2.9918525218963623;-10.555203437805176;-35.70347213745117
416;1673387868.0415056;47.1292255;7.236752999999999;0.9130000472068787;1673387868.2189875;-2.952476978302002;-10.57314395904541;-35.72040939331055
417;1673387868.2566128;47.129227799999995;7.236738099999999;0.9170000553131104;1673387868.4093642;-2.932448148727417;-10.603519439697266;-35.759605407714844
418;1673387868.447696;47.129230199999995;7.2367212;0.9100000262260437;1673387868.6157935;-2.862302303314209;-10.57561206817627;-35.78953170776367
