;pos_time;latitude;longitude;altitude;alt_time;pitch;roll;yaw
0;1673378006.2354105;47.1306424;7.2406197;-0.032999999821186066;1673378006.307299;0.03196307644248009;0.15527360141277313;90.2543716430664
1;1673378006.4754767;47.1306424;7.2406197;-0.03200000151991844;1673378006.5254972;-0.058868736028671265;0.03899700939655304;90.2063217163086
2;1673378006.6545327;47.1306424;7.240619799999999;-0.030000001192092896;1673378006.6901965;0.08497166633605957;-0.20319439470767975;90.25141143798828
3;1673378006.84115;47.1306424;7.2406198999999996;-0.03400000184774399;1673378006.8758733;0.10614507645368576;0.17859505116939545;90.22442626953125
4;1673378007.0081894;47.1306423;7.2406198999999996;-0.032999999821186066;1673378007.0462546;-0.017745133489370346;-0.10593782365322113;90.13877868652344
5;1673378007.1976976;47.1306423;7.2406198999999996;-0.036000002175569534;1673378007.2386901;0.16645601391792297;-0.26578521728515625;90.21176147460938
6;1673378007.4069166;47.1306423;7.2406198999999996;-0.04000000283122063;1673378007.4469383;-0.01813405379652977;-0.05819927901029587;90.15503692626953
7;1673378007.6041672;47.1306422;7.240619799999999;-0.04500000178813934;1673378007.6414003;0.18560752272605896;-0.33886486291885376;90.33702850341797
8;1673378007.7995036;47.1306423;7.240619799999999;-0.05100000277161598;1673378007.8405077;-0.08621665835380554;-0.24383173882961273;90.26289367675781
9;1673378008.0055823;47.1306423;7.2406198999999996;0.0;1673378008.0514858;-0.03832685947418213;-0.22432613372802734;90.36609649658203
10;1673378008.2119255;47.1306423;7.24062;0.0010000000474974513;1673378008.2579303;0.08719675987958908;-0.15842083096504211;90.38489532470703
11;1673378008.4127357;47.1306424;7.24062;0.003000000026077032;1673378008.4488907;0.14949586987495422;-0.25087353587150574;90.14478302001953
12;1673378008.610776;47.1306424;7.2406201;0.005000000353902578;1673378008.6701605;0.37551349401474;-0.13981309533119202;90.24320220947266
13;1673378008.8380306;47.1306424;7.2406201;0.004000000189989805;1673378008.881651;0.024270769208669662;-0.29727497696876526;90.39203643798828
14;1673378009.034645;47.1306424;7.2406201999999995;0.0;1673378009.0697505;-0.12908151745796204;0.0023588291369378567;90.29121398925781
15;1673378009.223945;47.1306424;7.2406203;-0.0020000000949949026;1673378009.2677824;0.257860004901886;-0.10783430188894272;90.27920532226562
16;1673378009.4313023;47.1306424;7.2406203;0.0;1673378009.47496;0.19027505815029144;-0.05628856644034386;90.33609008789062
17;1673378009.6581063;47.1306424;7.2406204;0.0;1673378009.6970398;0.297386109828949;-0.04822637885808945;90.36186981201172
18;1673378009.8370025;47.1306424;7.2406204999999995;0.0;1673378009.8781464;0.24328044056892395;0.04721492528915405;90.4581527709961
19;1673378010.0420468;47.1306423;7.2406204999999995;0.0;1673378010.0829773;0.33828234672546387;-0.1694939136505127;90.44224548339844
20;1673378010.2319462;47.1306423;7.2406206;-0.0020000000949949026;1673378010.274745;0.3107391595840454;-0.0120704285800457;90.47933197021484
21;1673378010.4322042;47.1306423;7.2406207;0.0;1673378010.4738934;0.4580153226852417;-0.3328794240951538;90.55638122558594
22;1673378010.6340275;47.1306423;7.2406206;0.0010000000474974513;1673378010.6754925;2.2118492126464844;-0.13516941666603088;90.48539733886719
23;1673378010.838637;47.1306423;7.2406204999999995;0.009000000543892384;1673378010.8800926;3.905418634414673;-0.14132368564605713;90.45751190185547
24;1673378011.0340672;47.1306423;7.2406203;0.018000001087784767;1673378011.069075;5.942575454711914;-0.09584768861532211;90.42486572265625
25;1673378011.223088;47.1306423;7.2406201999999995;0.027000000700354576;1673378011.2628734;7.720028400421143;-0.2201370745897293;90.5539321899414
26;1673378011.423873;47.1306423;7.2406196;0.017000000923871994;1673378011.4608145;-2.155773878097534;-0.23811985552310944;91.2226791381836
27;1673378011.6239188;47.1306422;7.2406182;0.027000000700354576;1673378011.6660626;-6.557502269744873;0.21649955213069916;92.99097442626953
28;1673378011.8148685;47.1306422;7.2406160999999996;0.04500000178813934;1673378011.8638365;-11.487432479858398;1.2057894468307495;94.11048126220703
29;1673378012.0368164;47.130642099999996;7.2406137;0.07200000435113907;1673378012.0777283;-14.434181213378906;-2.172971248626709;93.53389739990234
30;1673378012.2310994;47.130641999999995;7.2406109999999995;0.11100000888109207;1673378012.2708108;-15.666958808898926;-3.8423423767089844;93.29621887207031
31;1673378012.434102;47.130641999999995;7.2406082;0.1680000126361847;1673378012.4726057;-17.170595169067383;-0.5661977529525757;92.2691879272461
32;1673378012.6258433;47.130642099999996;7.2406057;0.242000013589859;1673378012.6697044;-19.08362579345703;1.1078940629959106;91.5798568725586
33;1673378012.8180504;47.130642099999996;7.2406035;0.33000001311302185;1673378012.8571281;-21.121200561523438;-3.1561264991760254;92.07420349121094
34;1673378013.0151455;47.1306422;7.240601799999999;0.4360000193119049;1673378013.05813;-23.146217346191406;-1.80520761013031;91.70343780517578
35;1673378013.222809;47.1306423;7.2406007;0.5590000152587891;1673378013.2662826;-25.32470703125;1.6809232234954834;90.59748077392578
36;1673378013.427233;47.1306422;7.2406003;0.6940000057220459;1673378013.46784;-27.379444122314453;-2.1827492713928223;91.21526336669922
37;1673378013.624797;47.130642099999996;7.2406009;0.8460000157356262;1673378013.6661885;-29.36163902282715;-3.5021941661834717;91.5511703491211
38;1673378013.819778;47.130642099999996;7.240602399999999;1.0110000371932983;1673378013.8617961;-28.084510803222656;1.0422775745391846;90.19503021240234
39;1673378014.0196886;47.1306422;7.2406048;1.1810001134872437;1673378014.0621994;-25.20226287841797;-0.7699940800666809;90.4918212890625
40;1673378014.2229903;47.1306423;7.2406076;1.3670001029968262;1673378014.2645273;-22.06498908996582;-3.5018036365509033;91.25991821289062
41;1673378014.4193518;47.1306424;7.2406105;1.5600000619888306;1673378014.4589431;-18.319063186645508;1.6029576063156128;82.79336547851562
42;1673378014.6177254;47.1306424;7.2406133;1.75600004196167;1673378014.6621952;-15.387380599975586;0.4786030054092407;83.51741027832031
43;1673378014.8248787;47.1306423;7.2406155;1.9530000686645508;1673378014.870319;-14.005430221557617;-4.158591270446777;84.30606842041016
44;1673378015.0354722;47.1306422;7.2406172;2.1510000228881836;1673378015.0702155;-13.383244514465332;-0.099565789103508;83.33174896240234
45;1673378015.2305233;47.1306423;7.2406182;2.3480000495910645;1673378015.2701936;-13.651108741760254;0.28615322709083557;83.32463836669922
46;1673378015.4220312;47.1306424;7.2406185999999995;2.5420000553131104;1673378015.4675257;-14.629786491394043;-3.975020408630371;84.41402435302734
47;1673378015.626434;47.130642599999995;7.2406187;2.741000175476074;1673378015.6703207;-15.723838806152344;1.7417638301849365;83.75041198730469
48;1673378015.8238962;47.130642699999996;7.2406185;2.938000202178955;1673378015.8629787;-16.967586517333984;1.6824437379837036;84.12995910644531
49;1673378016.036689;47.130642699999996;7.2406182;3.140000104904175;1673378016.0772448;-18.20191764831543;-2.891735553741455;84.90044403076172
50;1673378016.2438953;47.130642699999996;7.2406179999999996;3.3420002460479736;1673378016.2868724;-19.3395938873291;0.6624606251716614;84.23726654052734
51;1673378016.4432487;47.130642699999996;7.2406177;3.5490002632141113;1673378016.4822748;-19.75367546081543;3.2080490589141846;83.73966979980469
52;1673378016.634883;47.130642699999996;7.240617599999999;3.751000165939331;1673378016.6788063;-20.19249725341797;-2.2266809940338135;84.93508911132812
53;1673378016.8368416;47.130642599999995;7.240617599999999;3.955000162124634;1673378016.8778596;-19.993867874145508;0.12917783856391907;84.41352844238281
54;1673378017.0421789;47.1306424;7.2406178;4.164000034332275;1673378017.0872524;-19.98309326171875;2.099203586578369;83.97816467285156
55;1673378017.2457616;47.1306419;7.2406181;4.369000434875488;1673378017.2887318;-19.18876075744629;-4.240423679351807;85.1666488647461
56;1673378017.4828408;47.1306416;7.2406185;4.569000244140625;1673378017.5568366;-19.05777359008789;-3.1534695625305176;84.73564147949219
57;1673378017.691104;47.130641499999996;7.2406188;4.766000270843506;1673378017.751343;-18.677387237548828;0.8911750316619873;83.819580078125
58;1673378017.8849394;47.130641499999996;7.240619199999999;4.960000038146973;1673378017.9259863;-18.21219825744629;-2.4931492805480957;84.62188720703125
59;1673378018.0913856;47.130641499999996;7.240619499999999;5.152000427246094;1673378018.129446;-17.86906623840332;-2.9883370399475098;84.77002716064453
60;1673378018.3110018;47.1306416;7.240619799999999;5.3480000495910645;1673378018.345764;-17.891958236694336;2.317452907562256;83.76041412353516
61;1673378018.4880893;47.1306416;7.24062;5.545000076293945;1673378018.5302603;-17.5731201171875;-1.5962986946105957;84.46382904052734
62;1673378018.7256951;47.130641499999996;7.2406201999999995;5.750000476837158;1673378018.7657444;-17.68641471862793;-3.3296003341674805;84.76456451416016
63;1673378018.9078624;47.1306416;7.2406203;5.955000400543213;1673378018.9435422;-17.765718460083008;2.0376088619232178;83.62710571289062
64;1673378019.1249049;47.1306417;7.2406203;6.1610002517700195;1673378019.1551924;-18.007253646850586;-0.059263020753860474;84.2540283203125
65;1673378019.2940812;47.1306418;7.2406201999999995;6.362000465393066;1673378019.3341074;-18.15146255493164;-3.0622684955596924;84.92311096191406
66;1673378019.4761095;47.130641999999995;7.2406201999999995;6.565000534057617;1673378019.5180693;-18.36732292175293;2.217484951019287;83.85890197753906
67;1673378019.6666603;47.130641999999995;7.2406201;6.766000270843506;1673378019.7117581;-18.39908790588379;0.06654872000217438;84.18756103515625
68;1673378019.868622;47.1306419;7.2406201;6.968000411987305;1673378019.9116;-18.50595474243164;-3.731499433517456;85.08948516845703
69;1673378020.0603824;47.1306419;7.24062;7.1660003662109375;1673378020.099957;-18.659521102905273;1.22276771068573;83.91842651367188
70;1673378020.2549145;47.130641999999995;7.24062;7.3610005378723145;1673378020.2980022;-18.542102813720703;1.1938148736953735;83.89551544189453
71;1673378020.4572544;47.130641999999995;7.24062;7.558000564575195;1673378020.4983919;-18.667402267456055;-3.531386137008667;85.22528076171875
72;1673378020.6633856;47.130641999999995;7.24062;7.75100040435791;1673378020.7034025;-18.588300704956055;0.4774622619152069;84.24842071533203
73;1673378020.856111;47.130641999999995;7.2406201;7.952000141143799;1673378020.8980784;-18.564973831176758;1.3408457040786743;83.91258239746094
74;1673378021.0620022;47.1306419;7.2406201;8.14900016784668;1673378021.1030853;-18.550018310546875;-3.7887308597564697;85.01997375488281
75;1673378021.2593944;47.130641999999995;7.24062;8.343000411987305;1673378021.3043056;-18.55497169494629;-0.05305450037121773;84.27429962158203
76;1673378021.4505696;47.130642099999996;7.24062;8.539999961853027;1673378021.4916687;-18.522058486938477;2.2249844074249268;83.88285064697266
77;1673378021.6434717;47.130642099999996;7.2406201;8.737000465393066;1673378021.6825383;-18.692731857299805;-2.4778616428375244;84.89573669433594
78;1673378021.8466618;47.1306422;7.2406201;8.934000015258789;1673378021.8880832;-18.440271377563477;-1.3165894746780396;84.66996765136719
79;1673378022.063659;47.1306422;7.2406201;9.130000114440918;1673378022.1012893;-18.64482879638672;2.7463724613189697;83.55696105957031
80;1673378022.273113;47.130642099999996;7.2406201;9.324000358581543;1673378022.3180156;-18.30392837524414;-1.8840805292129517;84.62586975097656
81;1673378022.4657888;47.130642099999996;7.2406201999999995;9.520000457763672;1673378022.5137377;-18.631488800048828;-2.373748540878296;84.59349822998047
82;1673378022.695628;47.1306422;7.2406201999999995;9.719000816345215;1673378022.7437422;-18.423982620239258;2.3206064701080322;83.64826965332031
83;1673378022.9142928;47.1306422;7.2406201999999995;9.91200065612793;1673378022.9626427;-18.459014892578125;-1.8840196132659912;84.4369888305664
84;1673378023.119086;47.1306422;7.2406201999999995;10.106000900268555;1673378023.1581633;-18.307861328125;-2.2546498775482178;84.52090454101562
85;1673378023.3377843;47.1306422;7.2406203;10.338000297546387;1673378023.365696;-20.094209671020508;0.9489700794219971;83.87519836425781
86;1673378023.5195637;47.1306422;7.2406207;10.660000801086426;1673378023.5535483;-23.118160247802734;-0.19391073286533356;83.6265640258789
87;1673378023.7070875;47.1306423;7.2406216;11.027000427246094;1673378023.7442229;-19.470722198486328;-3.6136269569396973;84.67715454101562
88;1673378023.9184425;47.1306425;7.2406226;11.41200065612793;1673378023.962656;-17.559402465820312;0.29341980814933777;84.20602416992188
89;1673378024.1109035;47.1306428;7.2406235;11.809000968933105;1673378024.1646254;-15.621927261352539;1.7127050161361694;83.78865814208984
90;1673378024.3069952;47.1306429;7.2406242999999995;12.206000328063965;1673378024.3505204;-14.464642524719238;-2.7441139221191406;84.94720458984375
91;1673378024.5035763;47.1306429;7.240624599999999;12.60400104522705;1673378024.5406854;-14.222217559814453;0.13600319623947144;84.21554565429688
92;1673378024.7029884;47.1306429;7.2406245;13.003000259399414;1673378024.7459745;-14.792819023132324;2.1161513328552246;83.62761688232422
93;1673378024.9112375;47.1306429;7.2406242;13.397000312805176;1673378024.9577796;-15.273294448852539;-2.1496899127960205;84.67500305175781
94;1673378025.1084101;47.1306429;7.2406236999999996;13.783000946044922;1673378025.146667;-16.39409828186035;-1.2299983501434326;84.59957885742188
95;1673378025.3069937;47.1306431;7.240622999999999;14.156001091003418;1673378025.3546374;-17.117584228515625;2.6082377433776855;83.87254333496094
96;1673378025.5353699;47.1306431;7.2406223;14.528000831604004;1673378025.5727148;-18.137645721435547;-0.9615122675895691;84.432373046875
97;1673378025.731281;47.1306431;7.240621699999999;14.897000312805176;1673378025.7700486;-18.635944366455078;-1.807585597038269;84.80099487304688
98;1673378025.9150774;47.130643;7.2406212;15.261000633239746;1673378025.9463663;-19.443248748779297;1.8401950597763062;83.7372817993164
99;1673378026.1106057;47.1306429;7.2406209;15.62700080871582;1673378026.1541538;-19.22617530822754;-0.6143257021903992;84.29592895507812
100;1673378026.3095295;47.1306428;7.2406207;15.996000289916992;1673378026.3515346;-19.23885154724121;-2.8911550045013428;84.98848724365234
101;1673378026.5046968;47.1306429;7.240620799999999;16.3700008392334;1673378026.5496554;-18.919639587402344;1.7725664377212524;83.96258544921875
102;1673378026.6903954;47.1306429;7.2406209;16.749000549316406;1673378026.7313845;-18.460708618164062;0.736159086227417;83.9719467163086
103;1673378026.8984737;47.1306429;7.240621099999999;17.12700080871582;1673378026.9435277;-18.020347595214844;-2.788996934890747;85.05793762207031
104;1673378027.1187751;47.1306428;7.2406213;17.498001098632812;1673378027.1544168;-17.780780792236328;0.5682985186576843;84.19119262695312
105;1673378027.3083243;47.130642599999995;7.240621399999999;17.87200164794922;1673378027.4302561;-17.775074005126953;1.2847107648849487;83.75289916992188
106;1673378027.5606782;47.1306425;7.240621399999999;18.25;1673378027.5860877;-17.682466506958008;-3.2559382915496826;84.92051696777344
107;1673378027.7343025;47.130642599999995;7.240621399999999;18.628000259399414;1673378027.7682128;-17.785036087036133;-1.421205997467041;84.6756362915039
108;1673378027.9624708;47.130642699999996;7.240621399999999;19.009000778198242;1673378027.9866683;-17.540470123291016;2.2729175090789795;83.86249542236328
109;1673378028.1230466;47.1306428;7.240621399999999;19.39000129699707;1673378028.1671398;-17.83568572998047;-2.4024641513824463;84.8396987915039
110;1673378028.393192;47.1306428;7.240621399999999;19.768001556396484;1673378028.4167435;-17.564716339111328;-1.3154865503311157;84.71426391601562
111;1673378028.5525753;47.1306428;7.2406213;20.142000198364258;1673378028.6058993;-17.90275001525879;2.142441987991333;83.89744567871094
112;1673378028.7375867;47.1306428;7.2406212;20.517000198364258;1673378028.8046815;-17.856407165527344;-0.839882493019104;84.41838073730469
113;1673378028.92732;47.1306428;7.2406212;20.8960018157959;1673378028.959133;-18.154569625854492;-3.034087896347046;85.05795288085938
114;1673378029.1370974;47.130643;7.240621099999999;21.277000427246094;1673378029.1944623;-17.857723236083984;1.6164400577545166;84.0376968383789
115;1673378029.3238397;47.130643;7.240621099999999;21.661001205444336;1673378029.3598297;-17.979530334472656;0.9691336750984192;84.1146240234375
116;1673378029.552025;47.130643;7.240621099999999;22.042001724243164;1673378029.5828214;-17.999479293823242;-3.129636764526367;85.06549835205078
117;1673378029.7239623;47.1306429;7.240621;22.415000915527344;1673378029.7646263;-17.98157501220703;0.9614512324333191;84.0711441040039
118;1673378029.9020004;47.1306428;7.2406209;22.793001174926758;1673378029.9381142;-17.953611373901367;1.2234176397323608;83.92012786865234
119;1673378030.0955484;47.130642699999996;7.2406209;23.179000854492188;1673378030.138487;-18.10567283630371;-3.1971824169158936;84.99910736083984
120;1673378030.2899451;47.1306428;7.2406209;23.56300163269043;1673378030.3301117;-17.982988357543945;0.23250144720077515;84.2984390258789
121;1673378030.511968;47.1306429;7.2406209;23.94700050354004;1673378030.5593607;-18.119285583496094;2.0546815395355225;83.90062713623047
122;1673378030.711354;47.1306429;7.240620799999999;24.33100128173828;1673378030.7620873;-17.926259994506836;-3.179704427719116;85.1362075805664
123;1673378030.9294126;47.1306428;7.2406207;24.71200180053711;1673378030.9777844;-17.94889259338379;-0.19456595182418823;84.33715057373047
124;1673378031.1370497;47.1306428;7.2406206;25.08500099182129;1673378031.1722412;-18.385408401489258;2.1683096885681152;83.66963195800781
125;1673378031.3104095;47.130642699999996;7.2406206;25.466001510620117;1673378031.3585556;-18.204124450683594;-1.7312923669815063;84.51387023925781
126;1673378031.5258102;47.1306428;7.2406204999999995;25.852001190185547;1673378031.5660539;-18.08363914489746;-1.5277721881866455;84.66325378417969
127;1673378031.7110894;47.1306429;7.2406204999999995;26.240001678466797;1673378031.7503;-18.015567779541016;3.3033204078674316;83.67864227294922
128;1673378031.896729;47.1306429;7.2406204999999995;26.62900161743164;1673378031.9387121;-18.182880401611328;-1.7580838203430176;84.66889953613281
129;1673378032.0945685;47.1306428;7.2406204999999995;27.016000747680664;1673378032.1336093;-17.936389923095703;-1.8383517265319824;84.6811294555664
130;1673378032.3160532;47.1306428;7.2406204999999995;27.394001007080078;1673378032.3550954;-18.155397415161133;2.3838367462158203;83.8003158569336
131;1673378032.4928806;47.130642699999996;7.2406204;27.777000427246094;1673378032.5338838;-18.077478408813477;-1.200724720954895;84.60047912597656
132;1673378032.6825407;47.130642699999996;7.2406204;28.16400146484375;1673378032.7264633;-18.292890548706055;-2.2885305881500244;84.8758544921875
133;1673378032.8908226;47.1306428;7.2406204;28.551000595092773;1673378032.9339182;-18.142419815063477;2.4890053272247314;83.90574645996094
134;1673378033.0832179;47.1306429;7.2406203;28.941001892089844;1673378033.123232;-18.273784637451172;0.09909532219171524;84.27607727050781
135;1673378033.2777197;47.1306428;7.2406203;29.336000442504883;1673378033.3217983;-18.246383666992188;-2.4656121730804443;84.99617767333984
136;1673378033.4834137;47.1306428;7.2406203;29.726001739501953;1673378033.5234308;-18.201942443847656;1.521039366722107;84.12055206298828
137;1673378033.688458;47.1306428;7.2406203;30.106000900268555;1673378033.7401843;-17.84288215637207;0.9386589527130127;84.05926513671875
138;1673378033.9013283;47.130642699999996;7.2406203;30.490001678466797;1673378033.9420824;-18.280080795288086;-2.8315627574920654;84.9487075805664
139;1673378034.0992844;47.130642699999996;7.2406201999999995;30.876001358032227;1673378034.1402748;-18.291793823242188;0.9051117300987244;84.03313446044922
140;1673378034.297219;47.130642699999996;7.2406201;31.26500129699707;1673378034.3533251;-18.27412223815918;1.8222543001174927;83.81940460205078
141;1673378034.5259178;47.130642599999995;7.2406201;31.655000686645508;1673378034.5655174;-18.449718475341797;-3.196070432662964;85.1003646850586
142;1673378034.7186542;47.130642599999995;7.2406201;32.04800033569336;1673378034.7615995;-18.279529571533203;0.103272445499897;84.36905670166016
143;1673378034.9065979;47.1306425;7.2406201;32.430999755859375;1673378034.9505036;-18.571929931640625;1.711643099784851;83.8233871459961
144;1673378035.1126766;47.1306425;7.2406201;32.82100296020508;1673378035.1806731;-18.31410789489746;-2.5634517669677734;84.89207458496094
145;1673378035.3217893;47.1306425;7.2406201999999995;33.21500015258789;1673378035.3648925;-18.376523971557617;-0.15278612077236176;84.50996398925781
146;1673378035.519045;47.130642599999995;7.2406203;33.611000061035156;1673378035.5630016;-18.195833206176758;2.438089370727539;83.7518539428711
147;1673378035.724342;47.130642599999995;7.2406203;34.00699996948242;1673378035.7797773;-18.27350616455078;-1.2890483140945435;84.54228210449219
148;1673378035.928501;47.1306425;7.2406204;34.402000427246094;1673378035.9656065;-18.035045623779297;-2.0717294216156006;84.88941955566406
149;1673378036.133063;47.1306425;7.2406204;34.79600143432617;1673378036.1665304;-18.271137237548828;2.426710844039917;83.69255828857422
150;1673378036.3222165;47.1306425;7.2406204;35.18100357055664;1673378036.3725612;-17.938373565673828;-0.6037784814834595;84.32701873779297
151;1673378036.5187683;47.1306425;7.2406204;35.57400131225586;1673378036.5646877;-18.123050689697266;-2.5470774173736572;84.84263610839844
152;1673378036.7180629;47.130642599999995;7.2406204;35.97100067138672;1673378036.7658966;-18.020917892456055;2.1890482902526855;83.9080810546875
153;1673378036.9301126;47.130642599999995;7.2406204;36.36900329589844;1673378036.9851081;-18.249101638793945;0.17574726045131683;84.31827545166016
154;1673378037.1617513;47.1306425;7.2406204;36.7660026550293;1673378037.194495;-18.057859420776367;-2.9631917476654053;85.01959991455078
155;1673378037.3447442;47.130642599999995;7.2406203;37.16400146484375;1673378037.3892114;-18.16769027709961;1.6752703189849854;83.93684387207031
156;1673378037.5656915;47.130642599999995;7.2406203;37.55000305175781;1673378037.5965023;-18.27741241455078;1.2621146440505981;83.9577865600586
157;1673378037.7405248;47.130642599999995;7.2406201999999995;37.94300079345703;1673378037.7849925;-18.454811096191406;-2.5886967182159424;84.96511840820312
158;1673378037.9350283;47.130642699999996;7.2406201999999995;38.33100128173828;1673378037.9691978;-18.307865142822266;1.2168241739273071;84.24526977539062
159;1673378038.1086009;47.130642699999996;7.2406201999999995;38.72600173950195;1673378038.1505892;-18.305932998657227;2.3148014545440674;83.96039581298828
160;1673378038.3101087;47.130642699999996;7.2406203;39.12000274658203;1673378038.3501403;-18.227506637573242;-2.2739226818084717;84.87346649169922
161;1673378038.5153453;47.130642599999995;7.2406203;39.512001037597656;1673378038.5593362;-18.294597625732422;-0.23542404174804688;84.53382873535156
162;1673378038.7020442;47.130642599999995;7.2406203;39.90700149536133;1673378038.7500455;-18.173376083374023;2.6675243377685547;83.74090576171875
163;1673378038.920826;47.130642599999995;7.2406203;40.29100036621094;1673378038.9530342;-18.133712768554688;-1.4121124744415283;84.58670806884766
164;1673378039.1306808;47.130642699999996;7.2406203;40.68100357055664;1673378039.173216;-18.296751022338867;-0.8892182111740112;84.72257995605469
165;1673378039.319317;47.130642699999996;7.2406203;41.073001861572266;1673378039.3671525;-18.052845001220703;2.817051649093628;83.75148010253906
166;1673378039.5235724;47.130642699999996;7.2406203;41.4640007019043;1673378039.5626156;-18.149309158325195;-1.587831974029541;84.5877456665039
167;1673378039.739444;47.130642599999995;7.2406203;41.85900115966797;1673378039.7875748;-18.180740356445312;-1.944946050643921;84.89851379394531
168;1673378039.9484856;47.130642599999995;7.2406203;42.25400161743164;1673378039.9871023;-18.245946884155273;2.60994815826416;83.85388946533203
169;1673378040.1444595;47.1306425;7.2406201999999995;42.63900375366211;1673378040.1943321;-18.267902374267578;-0.547443151473999;84.46695709228516
170;1673378040.3639355;47.130642599999995;7.2406201999999995;43.031002044677734;1673378040.4074333;-18.325227737426758;-2.4012558460235596;84.98863983154297
171;1673378040.5512676;47.130642599999995;7.2406201999999995;43.427001953125;1673378040.5885715;-18.154348373413086;2.5127060413360596;84.05921173095703
172;1673378040.7263973;47.130642599999995;7.2406201999999995;43.82200241088867;1673378040.7655606;-18.3547420501709;0.1902669221162796;84.32991027832031
173;1673378040.907308;47.1306425;7.2406201999999995;44.21800231933594;1673378040.9504433;-18.145538330078125;-2.8784234523773193;84.91820526123047
174;1673378041.097925;47.130642599999995;7.2406201999999995;44.61100387573242;1673378041.1360672;-18.31458854675293;1.0790387392044067;84.0962142944336
175;1673378041.2925727;47.130642599999995;7.2406201;45.00200271606445;1673378041.342578;-18.25772476196289;1.938840389251709;84.09072875976562
176;1673378041.4946446;47.130642599999995;7.2406201;45.38200378417969;1673378041.5376375;-18.346675872802734;-2.842442035675049;84.94786071777344
177;1673378041.694045;47.130642599999995;7.24062;45.772003173828125;1673378041.7330952;-18.49609375;0.6611377000808716;84.21932983398438
178;1673378041.8875554;47.130642599999995;7.24062;46.1670036315918;1673378041.929533;-18.515533447265625;2.6110846996307373;83.98855590820312
179;1673378042.0850909;47.1306425;7.24062;46.56100082397461;1673378042.1260812;-18.308643341064453;-2.058142900466919;84.88494110107422
180;1673378042.2795331;47.1306424;7.24062;46.952003479003906;1673378042.3319435;-18.49627113342285;-0.25756773352622986;84.37934875488281
181;1673378042.4891434;47.1306425;7.24062;47.34700393676758;1673378042.536023;-18.442874908447266;2.513313055038452;83.72113800048828
182;1673378042.6962335;47.1306425;7.24062;47.733001708984375;1673378042.7451687;-18.34904670715332;-1.5710514783859253;84.68759155273438
183;1673378042.912194;47.130642599999995;7.2406198999999996;48.125003814697266;1673378042.9706478;-18.93227195739746;0.2809305489063263;84.50514221191406
184;1673378043.1144269;47.130642599999995;7.240619799999999;48.47500228881836;1673378043.1612918;-18.646648406982422;2.8377907276153564;83.77832794189453
185;1673378043.3293667;47.1306425;7.2406196;48.777000427246094;1673378043.3732905;-18.384004592895508;-1.7538886070251465;84.58905029296875
186;1673378043.535834;47.1306424;7.2406194;49.03000259399414;1673378043.5768893;-18.760910034179688;-0.9410861730575562;84.73236083984375
187;1673378043.772335;47.1306424;7.240619;49.242000579833984;1673378043.807072;-18.937192916870117;2.6110353469848633;83.7987060546875
188;1673378043.9720829;47.1306423;7.2406185999999995;49.419002532958984;1673378044.0199368;-6.223714351654053;11.883587837219238;86.62529754638672
189;1673378044.163949;47.1306416;7.240617299999999;49.55400085449219;1673378044.2006152;12.878114700317383;31.76297950744629;100.87752532958984
190;1673378044.3594089;47.1306394;7.2406133;49.673004150390625;1673378044.3980224;18.178869247436523;48.96950912475586;110.90522766113281
191;1673378044.5569637;47.130634799999996;7.2406051;49.75700378417969;1673378044.5982215;10.928175926208496;54.91089630126953;117.03379821777344
192;1673378044.7740607;47.1306276;7.2405924;49.810001373291016;1673378044.8171387;-5.486394882202148;57.0040283203125;126.5540542602539
193;1673378044.958494;47.1306181;7.2405756;49.8390007019043;1673378044.999061;-20.759822845458984;54.64932632446289;138.19110107421875
194;1673378045.1755836;47.1306064;7.240555199999999;49.84300231933594;1673378045.2093067;-34.07207107543945;47.84864807128906;149.97842407226562
195;1673378045.374797;47.1305926;7.2405319;49.840003967285156;1673378045.4104645;-45.82353973388672;43.05081558227539;160.90869140625
196;1673378045.5557797;47.1305769;7.240505499999999;49.80900192260742;1673378045.6218054;-48.861297607421875;32.014915466308594;172.9458770751953
197;1673378045.772004;47.1305597;7.2404769;49.75600051879883;1673378045.8171022;-47.983463287353516;21.843608856201172;-179.36221313476562
198;1673378045.9710877;47.1305413;7.2404471;49.69300079345703;1673378046.0170963;-48.299251556396484;15.04014778137207;-171.5093231201172
199;1673378046.1741266;47.1305219;7.240416499999999;49.6410026550293;1673378046.2097976;-49.78848648071289;7.6905670166015625;-163.56185913085938
200;1673378046.3666544;47.130501699999996;7.2403854;49.58500289916992;1673378046.4101431;-47.654319763183594;3.277094841003418;-156.94558715820312
201;1673378046.5954618;47.1304808;7.240354;49.54300308227539;1673378046.637644;-47.83909225463867;0.6827399134635925;-150.83108520507812
202;1673378046.7713985;47.130459699999996;7.2403227999999995;49.5260009765625;1673378046.8111856;-47.08028793334961;-4.455995082855225;-143.3846435546875
203;1673378046.975367;47.130438299999994;7.240291;49.50100326538086;1673378047.0100877;-43.159217834472656;-10.027807235717773;-135.5543975830078
204;1673378047.191087;47.1304167;7.2402592;49.49700164794922;1673378047.226224;-43.699466705322266;-16.701208114624023;-133.716064453125
205;1673378047.3831458;47.1303948;7.2402276;49.509002685546875;1673378047.4337084;-46.55732727050781;-17.453481674194336;-137.77183532714844
206;1673378047.582635;47.1303724;7.2401966;49.52700424194336;1673378047.6309958;-47.80293655395508;-14.271690368652344;-140.769287109375
207;1673378047.7664783;47.130349599999995;7.240165999999999;49.553001403808594;1673378047.820345;-48.332096099853516;-12.822891235351562;-141.19241333007812
208;1673378048.0217304;47.1303266;7.240136;49.579002380371094;1673378048.0481215;-47.45690155029297;-11.413068771362305;-141.2265167236328
209;1673378048.2216456;47.1303033;7.2401059;49.595001220703125;1673378048.2608013;-46.20146942138672;-10.639986038208008;-140.76333618164062
210;1673378048.4566836;47.1302798;7.2400758;49.61000061035156;1673378048.4821217;-45.35145950317383;-10.055456161499023;-140.3157501220703
211;1673378048.5945432;47.1302563;7.2400458;49.624000549316406;1673378048.625775;-45.22896194458008;-9.7589750289917;-139.95516967773438
212;1673378048.7967405;47.130232899999996;7.2400158;49.63900375366211;1673378048.835781;-45.658531188964844;-9.595895767211914;-139.71099853515625
213;1673378049.0080516;47.1302095;7.2399857;49.656002044677734;1673378049.0353796;-46.238494873046875;-9.510884284973145;-139.51316833496094
214;1673378049.209372;47.1301862;7.2399553999999995;49.67100143432617;1673378049.2555182;-46.51810836791992;-9.487406730651855;-139.3878936767578
215;1673378049.4065766;47.130162999999996;7.2399252999999995;49.685001373291016;1673378049.434863;-46.247779846191406;-9.320192337036133;-139.28115844726562
216;1673378049.6212027;47.130139899999996;7.2398948999999995;49.70000076293945;1673378049.6602433;-46.288570404052734;-9.343812942504883;-139.1598663330078
217;1673378049.7997696;47.130116699999995;7.2398643;49.71200180053711;1673378049.8329728;-46.56547546386719;-9.426469802856445;-139.09706115722656
218;1673378049.9905083;47.130093599999995;7.2398335;49.72500228881836;1673378050.0257952;-46.85485076904297;-9.524081230163574;-139.0692901611328
219;1673378050.1759768;47.130070499999995;7.2398025;49.737003326416016;1673378050.215568;-47.01900100708008;-9.546101570129395;-139.0778045654297
220;1673378050.412217;47.1300473;7.2397713999999995;49.74500274658203;1673378050.4875429;-46.780235290527344;-9.5548095703125;-139.06629943847656
221;1673378050.6031609;47.130024299999995;7.2397405;49.755001068115234;1673378050.6354516;-46.8139762878418;-9.448452949523926;-139.09400939941406
222;1673378050.8073878;47.130001199999995;7.2397094;49.75800323486328;1673378050.839601;-46.740478515625;-9.512471199035645;-139.05441284179688
223;1673378050.9950023;47.129978099999995;7.2396781;49.76100158691406;1673378051.03014;-46.58393859863281;-9.404536247253418;-139.0957794189453
224;1673378051.172269;47.1299551;7.239646899999999;49.768001556396484;1673378051.2216277;-46.625797271728516;-9.472752571105957;-139.0571746826172
225;1673378051.3707557;47.129932;7.2396156;49.78200149536133;1673378051.426936;-47.24057388305664;-9.578304290771484;-139.03228759765625
226;1673378051.5897846;47.1299089;7.2395841999999995;49.7920036315918;1673378051.6313791;-47.62583923339844;-9.56679916381836;-139.11129760742188
227;1673378051.7664526;47.1298858;7.239552799999999;49.79600143432617;1673378051.8104062;-47.198543548583984;-9.399114608764648;-139.18052673339844
228;1673378051.9711802;47.1298628;7.2395214999999995;49.801002502441406;1673378052.016619;-46.6486930847168;-9.24471664428711;-139.16079711914062
229;1673378052.1626;47.1298396;7.239490099999999;49.803001403808594;1673378052.209996;-46.70487976074219;-9.197248458862305;-139.14588928222656
230;1673378052.4054315;47.1298165;7.2394586;49.80600357055664;1673378052.4436455;-47.0583610534668;-9.290939331054688;-139.1158447265625
231;1673378052.6023276;47.1297934;7.2394270999999994;49.81300354003906;1673378052.6365237;-47.328426361083984;-9.229198455810547;-139.19200134277344
232;1673378052.8097768;47.1297703;7.2393955;49.820003509521484;1673378052.8471446;-47.29551696777344;-9.22636604309082;-139.2376708984375
233;1673378053.003323;47.129747099999996;7.2393638;49.823001861572266;1673378053.0550776;-47.232418060302734;-9.178576469421387;-139.267333984375
234;1673378053.2017286;47.129723899999995;7.2393323;49.83000183105469;1673378053.2935598;-47.23042297363281;-9.156807899475098;-139.2583465576172
235;1673378053.4108105;47.1297007;7.2393006;49.8280029296875;1673378053.4420428;-47.13151931762695;-9.06656265258789;-139.3230743408203
236;1673378053.624147;47.1296775;7.2392688;49.8280029296875;1673378053.6545892;-46.91455078125;-9.091368675231934;-139.33251953125
237;1673378053.8063426;47.1296544;7.2392370999999995;49.829002380371094;1673378053.885602;-46.94459915161133;-9.06917667388916;-139.36585998535156
238;1673378054.0067966;47.1296312;7.2392053;49.83000183105469;1673378054.0399814;-47.09122085571289;-9.083659172058105;-139.41473388671875
239;1673378054.191035;47.1296081;7.2391736;49.8280029296875;1673378054.2306194;-46.97056579589844;-9.003700256347656;-139.48243713378906
240;1673378054.4309688;47.1295849;7.2391418;49.82500076293945;1673378054.462213;-46.66579055786133;-8.9065580368042;-139.5392608642578
241;1673378054.6361165;47.1295617;7.2391100999999995;49.832000732421875;1673378054.6673474;-46.875423431396484;-8.893943786621094;-139.55711364746094
242;1673378054.8345568;47.1295386;7.2390785;49.836002349853516;1673378054.8889415;-47.08391189575195;-8.853606224060059;-139.60971069335938
243;1673378055.0364287;47.129515399999995;7.239046699999999;49.8390007019043;1673378055.0657125;-47.20505905151367;-8.819742202758789;-139.72732543945312
244;1673378055.216167;47.129492299999995;7.2390149;49.845001220703125;1673378055.2561824;-47.15953826904297;-8.745121002197266;-139.8050994873047
245;1673378055.3884919;47.129469099999994;7.2389831;49.85100173950195;1673378055.4300106;-47.25112533569336;-8.682731628417969;-139.9158477783203
246;1673378055.6390293;47.129445999999994;7.2389513999999995;49.85700225830078;1673378055.6683393;-47.244327545166016;-8.958072662353516;-139.920654296875
247;1673378055.824003;47.1294227;7.2389198;49.86900329589844;1673378055.8552518;-47.442909240722656;-11.118395805358887;-139.8167266845703
248;1673378055.9905694;47.1293994;7.2388882;49.87900161743164;1673378056.0263236;-47.59113693237305;-13.515442848205566;-140.06446838378906
249;1673378056.2012217;47.1293758;7.2388569;49.88900375366211;1673378056.236533;-47.004940032958984;-15.092040061950684;-140.94273376464844
250;1673378056.3999498;47.129352;7.2388262999999995;49.893001556396484;1673378056.4342296;-46.673343658447266;-15.738058090209961;-141.35496520996094
251;1673378056.619832;47.129328;7.2387963;49.9010009765625;1673378056.653162;-40.89821243286133;-14.705668449401855;-142.69137573242188
252;1673378056.8607166;47.1293041;7.238767299999999;49.928001403808594;1673378056.9286206;-24.364099502563477;-16.198945999145508;-141.3372039794922
253;1673378057.06699;47.1292809;7.2387397;49.954002380371094;1673378057.0944026;-2.8090550899505615;-14.212124824523926;-139.18899536132812
254;1673378057.2549708;47.1292597;7.2387144999999995;49.974002838134766;1673378057.2833333;13.316134452819824;-10.674052238464355;-136.82186889648438
255;1673378057.4351416;47.129241;7.2386918;49.97300338745117;1673378057.4683397;24.837106704711914;-9.079384803771973;-136.61216735839844
256;1673378057.6276486;47.129225399999996;7.2386721;49.94000244140625;1673378057.661809;29.641925811767578;-8.663671493530273;-136.63221740722656
257;1673378057.8388946;47.129212599999995;7.238655199999999;49.875003814697266;1673378057.8642712;27.632282257080078;-11.824657440185547;-134.2254180908203
258;1673378058.0070298;47.1292025;7.238641299999999;49.840003967285156;1673378058.0421662;32.09445571899414;-15.530855178833008;-134.59532165527344
259;1673378058.2308736;47.1291947;7.238630799999999;49.83700180053711;1673378058.2699678;24.5730037689209;-15.778851509094238;-135.04234313964844
260;1673378058.4108627;47.1291885;7.238623;49.867000579833984;1673378058.4529817;19.830883026123047;-14.522595405578613;-135.90187072753906
261;1673378058.6242464;47.129183499999996;7.238616899999999;49.90300369262695;1673378058.6575413;11.548906326293945;-14.099034309387207;-136.03860473632812
262;1673378058.8164172;47.129179099999995;7.2386117;49.93700408935547;1673378058.849747;3.281212091445923;-11.145895004272461;-136.26947021484375
263;1673378059.0120566;47.129174899999995;7.2386067;49.967002868652344;1673378059.046261;-1.2652945518493652;-14.964177131652832;-136.21823120117188
264;1673378059.2431283;47.129170699999996;7.2386016;49.99400329589844;1673378059.272408;-1.8813742399215698;-11.702215194702148;-135.67431640625
265;1673378059.4191313;47.1291666;7.238596299999999;50.018001556396484;1673378059.453279;0.8966878056526184;-9.894913673400879;-135.15673828125
266;1673378059.6390686;47.129162699999995;7.2385907;50.040000915527344;1673378059.6722848;5.241390228271484;-9.161704063415527;-135.30331420898438
267;1673378059.8037722;47.129159;7.238585;50.06200408935547;1673378059.838623;11.090897560119629;-9.076188087463379;-135.65704345703125
268;1673378059.9760535;47.1291557;7.2385797;50.08100128173828;1673378060.0117245;12.9458646774292;-11.611703872680664;-136.1170654296875
269;1673378060.1550157;47.1291527;7.2385747;50.1140022277832;1673378060.1991081;-14.5017728805542;-15.054241180419922;-135.01605224609375
270;1673378060.3458278;47.1291492;7.238569;50.18600082397461;1673378060.391743;-22.374208450317383;-12.364957809448242;-136.23619079589844
271;1673378060.544231;47.129144499999995;7.2385616;50.33000183105469;1673378060.5862644;-19.911558151245117;-5.862218856811523;-137.49571228027344
272;1673378060.7455642;47.1291389;7.2385525;50.592002868652344;1673378060.7807324;-24.225597381591797;-6.3075947761535645;-138.1170196533203
273;1673378060.9361675;47.1291322;7.2385414;50.95000076293945;1673378060.9803958;-33.56587219238281;-17.935861587524414;-138.30137634277344
274;1673378061.1538916;47.129123899999996;7.238529199999999;51.35300064086914;1673378061.1998053;-30.95696258544922;-15.91375732421875;-139.19236755371094
275;1673378061.4058614;47.1291142;7.2385161;51.75700378417969;1673378061.4459295;-26.96690559387207;-16.114788055419922;-138.13430786132812
276;1673378061.5831094;47.1291036;7.2385024;52.156002044677734;1673378061.6227562;-21.30877685546875;-15.658376693725586;-138.0252685546875
277;1673378061.7853773;47.129092299999996;7.2384885;52.55600357055664;1673378061.8239942;-17.82695960998535;-14.91723346710205;-137.15298461914062
278;1673378061.963495;47.1290809;7.2384745;52.958003997802734;1673378062.0065162;-13.520840644836426;-14.181588172912598;-136.89266967773438
279;1673378062.2117898;47.1290696;7.238460399999999;53.36000442504883;1673378062.25086;-10.6551513671875;-12.149590492248535;-136.73779296875
280;1673378062.3979044;47.129058699999995;7.2384466;53.75800323486328;1673378062.434555;-9.541324615478516;-10.37771224975586;-136.5702362060547
281;1673378062.570767;47.1290482;7.2384328;54.15900421142578;1673378062.6098166;-9.226678848266602;-8.864158630371094;-136.65257263183594
282;1673378062.7878008;47.129038099999995;7.2384189999999995;54.56200408935547;1673378062.8293402;-9.819040298461914;-9.083136558532715;-136.78085327148438
283;1673378062.9775105;47.129028399999996;7.2384052;54.96400451660156;1673378063.0229409;-11.491910934448242;-9.62134838104248;-136.9029541015625
284;1673378063.1720786;47.1290189;7.2383916;55.36600112915039;1673378063.213752;-13.027885437011719;-12.566031455993652;-136.52243041992188
285;1673378063.3590338;47.129009499999995;7.238378099999999;55.768001556396484;1673378063.3961227;-14.170882225036621;-14.935985565185547;-136.39743041992188
286;1673378063.5457032;47.1290001;7.2383647;56.16400146484375;1673378063.5821085;-15.34317684173584;-16.199398040771484;-136.40769958496094
287;1673378063.7470484;47.1289905;7.238351499999999;56.56100082397461;1673378063.790177;-15.832104682922363;-15.463830947875977;-136.7541961669922
288;1673378063.948804;47.1289807;7.238338199999999;56.96200180053711;1673378063.9908204;-16.046510696411133;-14.245487213134766;-136.80140686035156
289;1673378064.151974;47.1289708;7.238324899999999;57.36000442504883;1673378064.195894;-16.150711059570312;-12.865862846374512;-136.886474609375
290;1673378064.35538;47.128960799999994;7.2383115;57.75800323486328;1673378064.393467;-16.132722854614258;-11.33023738861084;-136.9775390625
291;1673378064.5557823;47.1289507;7.2382979;58.15500259399414;1673378064.598762;-15.967137336730957;-10.196271896362305;-137.1595916748047
292;1673378064.7604399;47.1289406;7.2382842;58.553001403808594;1673378064.8045955;-15.86436653137207;-10.146834373474121;-137.1370086669922
293;1673378064.9830194;47.128930499999996;7.2382705;58.945003509521484;1673378065.026638;-15.383572578430176;-11.398772239685059;-136.9271240234375
294;1673378065.1785085;47.1289203;7.238256799999999;59.33700180053711;1673378065.2126708;-15.257115364074707;-12.313154220581055;-136.8158721923828
295;1673378065.3720787;47.1289101;7.2382431;59.72900390625;1673378065.4225655;-14.63449764251709;-12.813386917114258;-136.7108612060547
296;1673378065.601898;47.1288999;7.2382294;60.12300109863281;1673378065.646492;-14.436245918273926;-13.712851524353027;-136.51031494140625
297;1673378065.794574;47.128889799999996;7.2382157;60.51900100708008;1673378065.839054;-14.10481071472168;-14.042540550231934;-136.56582641601562
298;1673378066.0133443;47.1288798;7.238201999999999;60.9160041809082;1673378066.0511527;-14.20341968536377;-13.184659957885742;-136.7749481201172
299;1673378066.227441;47.1288698;7.2381883;61.310001373291016;1673378066.2777696;-14.498636245727539;-12.670909881591797;-136.8035888671875
300;1673378066.4138405;47.128859999999996;7.2381744999999995;61.70700454711914;1673378066.470228;-14.747298240661621;-11.950583457946777;-137.0116729736328
301;1673378066.6348393;47.128850199999995;7.238160499999999;62.10400390625;1673378066.6836677;-15.096397399902344;-11.130581855773926;-137.08428955078125
302;1673378066.826396;47.1288404;7.2381467;62.505001068115234;1673378066.8703306;-15.320570945739746;-10.842684745788574;-137.1490936279297
303;1673378067.0164247;47.1288305;7.2381328;62.90900421142578;1673378067.0581033;-15.372756958007812;-11.235137939453125;-137.2737274169922
304;1673378067.2039347;47.1288206;7.238118999999999;63.30900192260742;1673378067.2498555;-15.329033851623535;-12.482515335083008;-137.13563537597656
305;1673378067.4146311;47.128810699999995;7.2381052;63.70900344848633;1673378067.452855;-15.395317077636719;-13.973590850830078;-136.82395935058594
306;1673378067.647326;47.1288007;7.2380914999999995;64.10400390625;1673378067.6844373;-15.413789749145508;-14.656888008117676;-136.6400146484375
307;1673378067.8397095;47.128790599999995;7.2380778999999995;64.4990005493164;1673378067.922278;-15.25422477722168;-14.409415245056152;-136.77293395996094
308;1673378068.072042;47.1287805;7.2380644;64.89400482177734;1673378068.1014996;-15.36008071899414;-13.640491485595703;-136.7748565673828
309;1673378068.240486;47.1287703;7.238050899999999;65.28700256347656;1673378068.2805169;-15.015235900878906;-13.008362770080566;-136.738037109375
310;1673378068.4371998;47.128760199999995;7.238037299999999;65.68600463867188;1673378068.486963;-15.079509735107422;-12.70462703704834;-136.62954711914062
311;1673378068.6464415;47.1287501;7.2380235;66.08399963378906;1673378068.6954145;-15.128623962402344;-11.250300407409668;-136.8391876220703
312;1673378068.8480456;47.128740099999995;7.2380097999999995;66.4780044555664;1673378068.887242;-15.175545692443848;-10.661883354187012;-136.9434356689453
313;1673378069.0468829;47.1287302;7.2379959;66.8759994506836;1673378069.0810342;-15.27185344696045;-10.574538230895996;-136.9567413330078
314;1673378069.2511344;47.1287202;7.237981899999999;67.2760009765625;1673378069.2883737;-15.149948120117188;-10.596854209899902;-137.147705078125
315;1673378069.4481232;47.128710299999995;7.237967899999999;67.67500305175781;1673378069.4874325;-15.096330642700195;-11.144062995910645;-137.21401977539062
316;1673378069.6492267;47.1287004;7.237953999999999;68.07500457763672;1673378069.6853826;-15.212061882019043;-11.399367332458496;-137.14959716796875
317;1673378069.841431;47.1286905;7.237940099999999;68.47700500488281;1673378069.8815458;-15.25192928314209;-11.933897972106934;-137.13734436035156
318;1673378070.0556624;47.128680499999994;7.2379263;68.88200378417969;1673378070.0937803;-15.368356704711914;-12.018562316894531;-137.2008514404297
319;1673378070.247217;47.1286706;7.2379126;69.281005859375;1673378070.2852945;-15.526605606079102;-12.190799713134766;-137.2685089111328
320;1673378070.4250486;47.128660499999995;7.237899;69.6780014038086;1673378070.476772;-15.784584999084473;-11.818990707397461;-137.18142700195312
321;1673378070.6645117;47.1286504;7.2378855;70.07400512695312;1673378070.7064788;-15.549949645996094;-11.619601249694824;-137.0272216796875
322;1673378070.8530786;47.128640399999995;7.237871999999999;70.45899963378906;1673378070.8942275;3.044957399368286;-12.607297897338867;-137.47537231445312
323;1673378071.0498407;47.128631;7.237859299999999;70.81300354003906;1673378071.0840921;7.326778411865234;-12.237056732177734;-136.52943420410156
324;1673378071.2637668;47.1286224;7.237847599999999;71.13300323486328;1673378071.3234468;13.219513893127441;-12.700577735900879;-136.17190551757812
325;1673378071.4760902;47.128614999999996;7.2378371999999995;71.40800476074219;1673378071.5353308;17.302549362182617;-13.062740325927734;-135.98365783691406
326;1673378071.683535;47.1286086;7.2378281;71.64200592041016;1673378071.7138588;18.874069213867188;-13.372806549072266;-136.01063537597656
327;1673378071.8969321;47.128603299999995;7.2378203999999995;71.84700012207031;1673378071.9306455;20.042598724365234;-14.879472732543945;-136.1376190185547
328;1673378072.0904424;47.1285989;7.237813999999999;72.0270004272461;1673378072.1341097;20.015769958496094;-15.031189918518066;-136.3928680419922
329;1673378072.2694004;47.128595399999995;7.2378086999999995;72.18500518798828;1673378072.3221364;19.15508270263672;-15.22015380859375;-136.9160919189453
330;1673378072.474568;47.1285926;7.237804499999999;72.31700134277344;1673378072.516829;17.966035842895508;-8.955582618713379;-136.21437072753906
331;1673378072.6723669;47.128590599999995;7.237800699999999;72.42500305175781;1673378072.7065272;21.7659969329834;15.418177604675293;-126.12677001953125
332;1673378072.8550062;47.128589999999996;7.2377965;72.51200103759766;1673378072.8940532;15.503997802734375;17.099042892456055;-117.22198486328125
333;1673378073.0553565;47.1285907;7.2377915999999995;72.56700134277344;1673378073.0939744;12.842440605163574;10.867262840270996;-106.62506103515625
334;1673378073.263761;47.1285923;7.2377864;72.61000061035156;1673378073.3057745;8.800832748413086;11.046091079711914;-97.48727416992188
335;1673378073.4544346;47.1285945;7.2377807;72.64800262451172;1673378073.4935365;8.086546897888184;9.644951820373535;-88.7437515258789
336;1673378073.6762078;47.128597;7.2377749;72.68500518798828;1673378073.7152479;7.077578544616699;8.09321403503418;-79.28528594970703
337;1673378073.8551245;47.1285996;7.2377688;72.72400665283203;1673378073.892213;6.45045280456543;9.218674659729004;-69.6385726928711
338;1673378074.0351923;47.128602099999995;7.237762699999999;72.75800323486328;1673378074.0722926;5.561851978302002;10.315093994140625;-59.90837860107422
339;1673378074.2564769;47.1286047;7.237756699999999;72.79199981689453;1673378074.2935605;5.284778118133545;12.713726043701172;-50.02827835083008
340;1673378074.4455695;47.1286073;7.237750699999999;72.82500457763672;1673378074.4836335;4.43864107131958;14.231040000915527;-41.19749069213867
341;1673378074.6344945;47.1286099;7.2377448;72.8550033569336;1673378074.67369;4.118632793426514;13.661988258361816;-39.57193374633789
342;1673378074.8390276;47.128612499999996;7.2377388;72.88300323486328;1673378074.873188;-15.903230667114258;12.168514251708984;-44.64122009277344
343;1673378075.032149;47.1286158;7.237731999999999;72.91699981689453;1673378075.0703087;-41.8849983215332;9.134608268737793;-45.394752502441406
344;1673378075.2212367;47.1286207;7.2377226;72.9530029296875;1673378075.2588632;-57.589542388916016;6.313207149505615;-43.934391021728516
345;1673378075.4179106;47.1286282;7.2377088;72.96100616455078;1673378075.476541;-55.18227767944336;3.564703941345215;-44.29869079589844
346;1673378075.6454525;47.1286379;7.237690799999999;72.97500610351562;1673378075.689427;-56.82525634765625;3.651470184326172;-43.90256118774414
347;1673378075.8361382;47.1286497;7.2376689999999995;72.99800109863281;1673378075.877235;-58.467987060546875;3.535881280899048;-43.2876091003418
348;1673378076.0324793;47.128663499999995;7.237643899999999;73.01800537109375;1673378076.074746;-58.99115753173828;5.134673118591309;-42.80110168457031
349;1673378076.2289028;47.1286789;7.237616099999999;73.02300262451172;1673378076.2689855;-57.199424743652344;6.225894451141357;-42.695865631103516
350;1673378076.4220033;47.128695699999994;7.237586299999999;73.01300048828125;1673378076.4626102;-54.52210998535156;8.007528305053711;-43.3161506652832
351;1673378076.6117709;47.1287138;7.2375552;72.99600219726562;1673378076.6562774;-54.986324310302734;9.328720092773438;-43.94746017456055
352;1673378076.807164;47.128732899999996;7.2375231;72.96900177001953;1673378076.848718;-53.417579650878906;10.471447944641113;-44.24669647216797
353;1673378077.0191803;47.128752899999995;7.2374901;72.9320068359375;1673378077.0637088;-49.9333381652832;9.328986167907715;-44.110687255859375
354;1673378077.2265582;47.1287734;7.2374567;72.89800262451172;1673378077.276177;-48.347557067871094;9.15394115447998;-44.26083755493164
355;1673378077.446164;47.128794299999996;7.237423;72.86700439453125;1673378077.4890985;-47.555782318115234;9.238585472106934;-44.42392349243164
356;1673378077.646205;47.1288153;7.237389299999999;72.83900451660156;1673378077.6903937;-47.40926742553711;9.454292297363281;-44.43095016479492
357;1673378077.8744326;47.1288365;7.237355399999999;72.81900024414062;1673378077.9125493;-47.62596893310547;9.670722007751465;-44.577781677246094
358;1673378078.0909503;47.1288578;7.2373216;72.80599975585938;1673378078.1292017;-47.143394470214844;9.651204109191895;-44.599300384521484
359;1673378078.2828474;47.1288793;7.2372876999999995;72.79700469970703;1673378078.3346004;-46.89693832397461;9.671890258789062;-44.64076232910156
360;1673378078.469964;47.1289008;7.2372537999999995;72.79100036621094;1673378078.507065;-46.83329772949219;9.682703018188477;-44.731327056884766
361;1673378078.6597636;47.1289224;7.2372198999999995;72.71800231933594;1673378078.7016573;-31.899658203125;5.667263984680176;-42.283809661865234
362;1673378078.8746808;47.1289437;7.2371864;72.3290023803711;1673378078.917561;7.1802873611450195;-1.8664906024932861;-40.64090347290039
363;1673378079.0719023;47.1289647;7.2371531;71.5510025024414;1673378079.1196957;66.18309783935547;-23.31291389465332;-54.83644485473633
364;1673378079.279671;47.1289855;7.23712;70.35000610351562;1673378079.3196523;52.29662322998047;-170.6593780517578;163.05897521972656
365;1673378079.4686282;47.129006399999994;7.2370868999999995;68.8070068359375;1673378079.5045254;20.011333465576172;178.81939697265625;152.99534606933594
366;1673378079.6557002;47.129027;7.237054;66.9020004272461;1673378079.6986315;14.976923942565918;177.0824737548828;150.98011779785156
367;1673378079.856508;47.1290471;7.2370215;64.62100219726562;1673378079.9024646;38.200950622558594;174.83279418945312;147.3961639404297
368;1673378080.0627167;47.1290669;7.2369894;61.98600387573242;1673378080.1153421;85.56415557861328;44.332828521728516;15.337248802185059
369;1673378080.2878306;47.129086799999996;7.236957299999999;59.00100326538086;1673378080.3218148;12.429160118103027;4.610687732696533;-28.426233291625977
370;1673378080.4877694;47.1291065;7.2369251;55.60400390625;1673378080.523691;-47.51496124267578;6.415951728820801;-32.37997817993164
371;1673378080.6688168;47.129125699999996;7.2368934;51.829002380371094;1673378080.7116776;-68.8541030883789;7.236013889312744;-33.98731231689453
372;1673378080.8715923;47.1291446;7.2368619;47.74400329589844;1673378080.9156644;-48.34062576293945;2.452803134918213;-29.342334747314453
373;1673378081.0699248;47.1291632;7.2368308;43.33400344848633;1673378081.1098962;14.976325988769531;-0.0035630143247544765;-26.976776123046875
374;1673378081.270631;47.1291815;7.2367998;38.522003173828125;1673378081.3105838;83.13104248046875;7.655531883239746;-17.690874099731445
375;1673378081.4607627;47.1292001;7.2367688;33.36000061035156;1673378081.4986594;66.41072082519531;174.92774963378906;149.55198669433594
376;1673378081.6826603;47.1292185;7.236738;27.9010009765625;1673378081.7216012;87.49820709228516;106.30089569091797;79.31166076660156
377;1673378081.871121;47.1292367;7.2367072;22.13800048828125;1673378081.914801;21.06262969970703;3.1532087326049805;-26.398927688598633
378;1673378082.0557923;47.129255099999995;7.2366763999999995;15.994000434875488;1673378082.0941527;-45.590763092041016;3.3976783752441406;-29.302589416503906
379;1673378082.2555096;47.129273;7.2366459999999995;9.5;1673378082.301064;-61.99262237548828;2.139843702316284;-28.972015380859375
380;1673378082.4608164;47.129290399999995;7.236616;2.7220001220703125;1673378082.518656;-18.12070655822754;0.769853949546814;-27.88944435119629
381;1673378082.673755;47.1293065;7.2365945;0.6310000419616699;1673378082.7286522;-30.264314651489258;-8.337116241455078;-33.489593505859375
382;1673378082.8891776;47.129323199999995;7.2365778;1.2300000190734863;1673378082.946869;-31.138660430908203;-5.6153717041015625;-33.85502243041992
383;1673378083.096391;47.1293395;7.2365620999999996;1.7730001211166382;1673378083.1297417;-15.480986595153809;-9.399742126464844;-33.94095993041992
384;1673378083.2758186;47.129357299999995;7.236544599999999;2.264000177383423;1673378083.314688;-16.883529663085938;-9.759176254272461;-34.06153869628906
385;1673378083.455785;47.129375599999996;7.236526;2.7090001106262207;1673378083.4884949;-17.268827438354492;-9.667245864868164;-34.217708587646484
386;1673378083.6475904;47.129394399999995;7.2365061;3.1080000400543213;1673378083.686543;-17.13886260986328;-10.000786781311035;-34.31756591796875
387;1673378083.8621783;47.1294137;7.2364853;3.4710001945495605;1673378083.9048805;-17.049280166625977;-10.083939552307129;-34.42491912841797
388;1673378084.0565615;47.1294336;7.2364634;3.7810001373291016;1673378084.097941;-16.956714630126953;-10.098262786865234;-34.50956344604492
389;1673378084.2579653;47.1294542;7.2364409;3.894000291824341;1673378084.298995;-16.826366424560547;-9.931060791015625;-34.65769577026367
390;1673378084.4587772;47.129475199999995;7.236417299999999;4.01200008392334;1673378084.4992232;-16.649137496948242;-9.826813697814941;-34.7689323425293
391;1673378084.6408029;47.129497;7.236393;3.9870002269744873;1673378084.6776495;-16.554506301879883;-9.643542289733887;-34.88463592529297
392;1673378084.8626611;47.1295195;7.2363675999999995;3.9030001163482666;1673378084.902095;-16.45929527282715;-9.439861297607422;-35.01189422607422
393;1673378085.0460484;47.129542699999995;7.2363412;3.7860002517700195;1673378085.0894847;-16.371845245361328;-9.251333236694336;-35.10548782348633
394;1673378085.2363777;47.129566499999996;7.236313699999999;3.6520001888275146;1673378085.2767372;-16.334863662719727;-9.044008255004883;-35.18243408203125
395;1673378085.4306867;47.1295909;7.236285;3.515000104904175;1673378085.4735627;-16.24953269958496;-8.797924995422363;-35.28190231323242
396;1673378085.6898544;47.1296159;7.2362553;3.38100004196167;1673378085.727607;-16.197635650634766;-8.624605178833008;-35.33965301513672
397;1673378085.8678834;47.129641199999995;7.236224699999999;3.2950000762939453;1673378085.9057233;-16.077138900756836;-8.362237930297852;-35.424339294433594
398;1673378086.0531404;47.1296672;7.2361929;3.182000160217285;1673378086.0865874;-16.004384994506836;-8.124130249023438;-35.50577163696289
399;1673378086.2589688;47.1296937;7.23616;3.052000045776367;1673378086.306631;-15.957669258117676;-7.85970401763916;-35.59626770019531
400;1673378086.4580247;47.1297208;7.2361261;2.9140000343322754;1673378086.4966874;-15.872793197631836;-7.636765003204346;-35.67435073852539
401;1673378086.6398857;47.129748299999996;7.2360912;2.7770001888275146;1673378086.685525;-15.849409103393555;-7.390908241271973;-35.730472564697266
402;1673378086.837931;47.129776299999996;7.236055299999999;2.638000011444092;1673378086.8786507;-15.77241039276123;-7.160098552703857;-35.81798553466797
403;1673378087.084683;47.1298046;7.2360187;2.509000062942505;1673378087.130809;-15.635427474975586;-6.905397415161133;-35.889869689941406
404;1673378087.296552;47.1298333;7.2359811999999994;2.375;1673378087.336747;-15.57924747467041;-6.668888092041016;-35.97639465332031
405;1673378087.5066433;47.1298624;7.2359428999999995;2.240000009536743;1673378087.5618718;-15.422270774841309;-6.442557334899902;-36.06182098388672
406;1673378087.6976092;47.129891799999996;7.235903899999999;2.1080000400543213;1673378087.750002;-15.352287292480469;-6.219968318939209;-36.138301849365234
407;1673378087.9239545;47.129921499999995;7.235864299999999;1.9800001382827759;1673378087.974617;-15.20755386352539;-6.011789798736572;-36.24578857421875
408;1673378088.1145353;47.1299275;7.2358562;1.8630000352859497;1673378088.1461227;-15.138532638549805;-5.773320198059082;-36.31571960449219
409;;;;;1673378088.353958;-15.015777587890625;-5.587979316711426;-36.37937927246094
410;;;;;1673378088.536921;-14.904189109802246;-5.346302032470703;-36.465579986572266
411;;;;;1673378088.7119498;-14.737780570983887;-4.676685810089111;-36.53295135498047
412;;;;;1673378088.9298742;-14.617444038391113;-4.375072956085205;-36.64435577392578
