;pos_time;latitude;longitude;altitude;alt_time;pitch;roll;yaw
0;1673388592.6754007;47.1306424;7.2406201999999995;-0.01900000125169754;1673388592.7875898;0.04499990865588188;0.05075812339782715;90.33515167236328
1;1673388592.8776135;47.1306423;7.2406201999999995;-0.01600000075995922;1673388592.992558;-0.03730800002813339;0.07364170998334885;90.4450454711914
2;1673388593.114475;47.1306424;7.2406201999999995;-0.015000000596046448;1673388593.2254312;0.05255570635199547;-0.22059845924377441;90.65786743164062
3;1673388593.3021133;47.1306424;7.2406203;-0.015000000596046448;1673388593.4248726;-0.004707027226686478;-0.30544978380203247;90.5401611328125
4;1673388593.5084877;47.1306424;7.2406203;-0.013000000268220901;1673388593.6231327;0.0688798576593399;-0.28730669617652893;90.47463989257812
5;1673388593.7027452;47.1306424;7.2406203;-0.010000000707805157;1673388593.8264248;-0.09900688380002975;-0.2393113523721695;90.54533386230469
6;1673388593.9136868;47.1306424;7.2406203;-0.007000000216066837;1673388594.038232;-0.19184859097003937;-0.11339849978685379;90.40292358398438
7;1673388594.1274488;47.1306424;7.2406203;-0.00800000037997961;1673388594.2345934;-0.20060473680496216;-0.24550390243530273;90.4865493774414
8;1673388594.3080122;47.1306424;7.2406203;-0.00800000037997961;1673388594.4139788;-0.18446333706378937;-0.13582643866539001;90.5196304321289
9;1673388594.486212;47.1306424;7.2406201999999995;-0.010000000707805157;1673388594.6007836;-0.12281166017055511;-0.16236473619937897;90.40970611572266
10;1673388594.6927223;47.1306424;7.2406201;-0.01600000075995922;1673388594.7968857;-0.1392187476158142;-0.26848065853118896;90.60285949707031
11;1673388594.878438;47.1306423;7.2406201;-0.021000001579523087;1673388595.01266;-0.07476944476366043;-0.012810733169317245;90.50780487060547
12;1673388595.1037328;47.1306423;7.24062;-0.023000001907348633;1673388595.209736;-0.08129508048295975;-0.24713069200515747;90.48851776123047
13;1673388595.2920008;47.1306423;7.24062;-0.02500000037252903;1673388595.4018693;-0.3150346279144287;-0.17649000883102417;90.55865478515625
14;1673388595.502885;47.1306423;7.24062;-0.0010000000474974513;1673388595.6064768;-0.07211687415838242;-0.2718515396118164;90.52409362792969
15;1673388595.69067;47.1306423;7.24062;-0.006000000052154064;1673388595.8065083;-0.24236689507961273;-0.2135380655527115;90.53380584716797
16;1673388595.8997009;47.1306424;7.24062;-0.009000000543892384;1673388596.0165808;-0.2813478112220764;-0.1700536161661148;90.66097259521484
17;1673388596.1021538;47.1306424;7.24062;-0.00800000037997961;1673388596.2219007;-0.3149305582046509;-0.29794615507125854;90.78084564208984
18;1673388596.3110483;47.1306424;7.2406201;-0.007000000216066837;1673388596.4289403;-0.4072711765766144;-0.20068061351776123;90.7342529296875
19;1673388596.5153084;47.1306423;7.2406201;-0.004000000189989805;1673388596.6273642;-0.49224454164505005;-0.3893706202507019;90.80538940429688
20;1673388596.7092;47.1306423;7.2406201;-0.0020000000949949026;1673388596.8151264;-0.6599776744842529;0.10102362185716629;90.76811218261719
21;1673388596.9361696;47.1306423;7.2406201;-0.003000000026077032;1673388597.0362163;-0.7954021692276001;-0.3886224627494812;90.92985534667969
22;1673388597.1103806;47.1306423;7.2406201;0.0;1673388597.2250266;-0.9063024520874023;-0.07182737439870834;90.96919250488281
23;1673388597.3069124;47.1306423;7.2406201;-0.0020000000949949026;1673388597.4189565;-0.8726566433906555;-0.08441590517759323;90.67387390136719
24;1673388597.502846;47.1306423;7.2406201;0.0;1673388597.6120589;-1.101636290550232;-0.1253121942281723;90.83577728271484
25;1673388597.6897788;47.1306423;7.2406201;0.0;1673388597.804902;-1.0242756605148315;0.29191160202026367;90.70081329345703
26;1673388597.8920188;47.1306423;7.2406201;0.0;1673388598.0151026;-1.0800375938415527;0.051306188106536865;90.90926361083984
27;1673388598.1009722;47.1306423;7.2406201;-0.0010000000474974513;1673388598.2175722;-1.3801189661026;0.03231622278690338;90.39718627929688
28;1673388598.3022523;47.1306423;7.2406201999999995;-0.0010000000474974513;1673388598.414818;-1.4925390481948853;0.07771381735801697;89.16879272460938
29;1673388598.510005;47.1306422;7.2406203;-0.003000000026077032;1673388598.6280694;1.005525827407837;0.25054094195365906;81.25599670410156
30;1673388598.713896;47.130642099999996;7.240621099999999;-0.0010000000474974513;1673388598.8272681;1.8023736476898193;-0.5067548155784607;81.30168914794922
31;1673388598.9063241;47.130642099999996;7.240622999999999;0.007000000216066837;1673388599.009201;6.953068733215332;-0.28080713748931885;80.06522369384766
32;1673388599.085994;47.1306422;7.2406258999999995;0.017000000923871994;1673388599.196168;12.496241569519043;-0.7359316349029541;77.93153381347656
33;1673388599.2799253;47.1306422;7.2406296;0.027000000700354576;1673388599.398141;15.30256462097168;-2.899348258972168;79.03134155273438
34;1673388599.4780207;47.1306422;7.240634099999999;0.03800000250339508;1673388599.5999708;15.872672080993652;-3.6641385555267334;80.62069702148438
35;1673388599.6890821;47.1306423;7.2406393;0.06100000441074371;1673388599.8070574;17.138784408569336;-3.1077239513397217;81.95069122314453
36;1673388599.8940682;47.1306425;7.2406448999999995;0.09100000560283661;1673388600.0109308;18.81025505065918;-2.4763529300689697;82.99298095703125
37;1673388600.0929165;47.1306428;7.2406508999999994;0.12400000542402267;1673388600.1972117;20.640249252319336;-2.3477556705474854;83.82213592529297
38;1673388600.2900674;47.1306431;7.240657;0.15900000929832458;1673388600.4042847;22.57761001586914;-2.431361198425293;84.5105209350586
39;1673388600.5015185;47.1306434;7.2406631;0.19600000977516174;1673388600.616997;24.60841941833496;-1.6076653003692627;85.19043731689453
40;1673388600.704981;47.1306437;7.240669;0.23200000822544098;1673388600.8178651;26.684995651245117;-1.2099989652633667;85.72257232666016
41;1673388600.8996284;47.1306438;7.2406745;0.26500001549720764;1673388601.0161304;28.78850555419922;-1.8685550689697266;85.92955780029297
42;1673388601.105763;47.130644;7.2406795;0.2930000126361847;1673388601.2280905;30.938337326049805;-1.4408934116363525;86.24993133544922
43;1673388601.3160775;47.1306442;7.240683799999999;0.3160000145435333;1673388601.4343328;33.128971099853516;-0.5868616700172424;86.65779876708984
44;1673388601.5163171;47.1306444;7.240687299999999;0.33800002932548523;1673388601.6328108;35.298641204833984;-1.079960584640503;86.77354431152344
45;1673388601.7198257;47.130644499999995;7.240689799999999;0.3580000102519989;1673388601.834489;37.46427917480469;-1.2243543863296509;86.84344482421875
46;1673388601.9109168;47.1306446;7.2406913;0.3760000169277191;1673388602.0197356;39.65576934814453;-0.6628486514091492;87.08402252197266
47;1673388602.0912018;47.130644499999995;7.2406916;0.39400002360343933;1673388602.2079735;41.87892532348633;-0.6845811605453491;87.20127868652344
48;1673388602.304668;47.130644499999995;7.2406906;0.4130000174045563;1673388602.4165716;44.081390380859375;-1.01337730884552;87.19901275634766
49;1673388602.5054588;47.1306444;7.2406882999999995;0.4300000071525574;1673388602.628631;46.24150085449219;-0.6870694160461426;87.46080017089844
50;1673388602.7176986;47.1306442;7.240684399999999;0.44700002670288086;1673388602.834892;48.402347564697266;-0.8297035098075867;87.53925323486328
51;1673388602.9191132;47.130644;7.2406789;0.46300002932548523;1673388603.036981;46.5582275390625;-1.0514906644821167;87.60740661621094
52;1673388603.1152446;47.1306437;7.240672099999999;0.47200003266334534;1673388603.2135801;41.419612884521484;-0.9740380644798279;87.88020324707031
53;1673388603.2996805;47.1306434;7.2406644;0.4750000238418579;1673388603.414112;36.59421920776367;-1.0388420820236206;88.00349426269531
54;1673388603.511331;47.130643199999994;7.2406564;0.4710000157356262;1673388603.6288133;29.965036392211914;-0.9203266501426697;88.1447982788086
55;1673388603.7147882;47.1306429;7.2406486999999995;0.49900001287460327;1673388603.830079;26.819496154785156;-1.2103208303451538;88.15692138671875
56;1673388603.9240372;47.130642699999996;7.240641699999999;0.5390000343322754;1673388604.0469985;21.799997329711914;-1.4615708589553833;88.12323760986328
57;1673388604.1599593;47.130642599999995;7.2406359;0.5820000171661377;1673388604.2698803;20.250295639038086;-0.8675011992454529;88.2417984008789
58;1673388604.3506794;47.1306425;7.2406312999999995;0.6240000128746033;1673388604.4844418;19.603078842163086;-0.9972914457321167;88.08152770996094
59;1673388604.5656755;47.1306424;7.2406282;0.6690000295639038;1673388604.6854756;20.82527732849121;-1.6100045442581177;87.79891967773438
60;1673388604.7642624;47.1306424;7.2406263;0.7240000367164612;1673388604.8723574;22.681129455566406;-0.6742917895317078;87.93055725097656
61;1673388604.9490638;47.1306425;7.240625199999999;0.7920000553131104;1673388605.053715;24.307687759399414;1.0899256467819214;88.49349212646484
62;1673388605.1260433;47.1306425;7.2406247;0.8730000257492065;1673388605.2217498;26.116065979003906;-2.2604591846466064;87.55902862548828
63;1673388605.296459;47.1306425;7.240624599999999;0.9640000462532043;1673388605.4043953;27.569408416748047;-0.8649318218231201;87.5938949584961
64;1673388605.4979055;47.1306425;7.240624599999999;1.0670000314712524;1673388605.6265182;28.71451759338379;1.2429790496826172;88.17476654052734
65;1673388605.7056143;47.130642599999995;7.240624599999999;1.183000087738037;1673388605.8214538;29.29100799560547;-1.22450590133667;87.49688720703125
66;1673388605.9147685;47.130642599999995;7.2406245;1.3140000104904175;1673388606.0312154;29.292911529541016;-1.2500981092453003;87.38873291015625
67;1673388606.1103668;47.130642599999995;7.2406242999999995;1.4570000171661377;1673388606.2306423;29.179229736328125;1.0559935569763184;88.18592071533203
68;1673388606.3069417;47.1306425;7.2406239;1.6140000820159912;1673388606.4210243;28.79227066040039;-1.857306957244873;85.88825225830078
69;1673388606.495414;47.1306424;7.2406234;1.7820000648498535;1673388606.6025116;28.09784698486328;-2.6370997428894043;85.65706634521484
70;1673388606.6821537;47.1306423;7.2406228;1.9620001316070557;1673388606.7943695;27.750980377197266;0.3532555401325226;86.40864562988281
71;1673388606.9139173;47.1306423;7.2406223;2.1530001163482666;1673388607.0321293;27.342060089111328;-0.8913846015930176;86.15730285644531
72;1673388607.1084096;47.1306423;7.2406217999999996;2.3450000286102295;1673388607.2285717;26.767976760864258;-2.272662401199341;85.62821960449219
73;1673388607.3063555;47.1306424;7.240621399999999;2.5380001068115234;1673388607.416832;26.885162353515625;0.7752735018730164;86.50328063964844
74;1673388607.5054145;47.1306423;7.240621099999999;2.7290000915527344;1673388607.624125;27.246706008911133;-0.3031463623046875;86.45935821533203
75;1673388607.7053726;47.1306422;7.240621;2.9210002422332764;1673388607.872711;27.186063766479492;-3.15539813041687;85.8582763671875
76;1673388607.9603643;47.130642099999996;7.2406209;3.116000175476074;1673388608.0727828;27.44428062438965;-0.6649074554443359;86.51077270507812
77;1673388608.151551;47.130641999999995;7.240620799999999;3.314000129699707;1673388608.260727;27.635408401489258;-0.14885304868221283;86.58003234863281
78;1673388608.3477948;47.130641999999995;7.240620799999999;3.510000228881836;1673388608.4567661;27.736705780029297;-2.9946844577789307;85.8526382446289
79;1673388608.5355349;47.130641999999995;7.2406207;3.704000234603882;1673388608.6522896;27.716421127319336;-0.8174129128456116;86.36946868896484
80;1673388608.7474663;47.130642099999996;7.2406207;3.8960001468658447;1673388608.853344;27.801864624023438;0.23466138541698456;86.65570831298828
81;1673388608.936479;47.130642099999996;7.2406206;4.091000080108643;1673388609.045553;27.78230094909668;-2.46034574508667;85.93946075439453
82;1673388609.130509;47.130642099999996;7.2406206;4.2870001792907715;1673388609.245149;27.682231903076172;-1.4672588109970093;86.01337432861328
83;1673388609.3243895;47.1306422;7.2406204999999995;4.485000133514404;1673388609.437471;27.84958267211914;0.900912344455719;86.71639251708984
84;1673388609.5225933;47.1306423;7.2406204999999995;4.683000087738037;1673388609.642839;27.69536018371582;-1.9830189943313599;85.83329010009766
85;1673388609.730928;47.1306423;7.2406204;4.880000114440918;1673388609.8522224;27.48203468322754;-1.5823549032211304;85.86346435546875
86;1673388609.9332318;47.1306424;7.2406204;5.074000358581543;1673388610.0438437;27.630340576171875;1.0601128339767456;86.72402954101562
87;1673388610.1278474;47.1306424;7.2406204;5.269000053405762;1673388610.2291114;27.6848201751709;-1.7586597204208374;86.04932403564453
88;1673388610.3088558;47.1306424;7.2406204;5.465000152587891;1673388610.4198244;27.712677001953125;-2.1198034286499023;85.93136596679688
89;1673388610.5053566;47.1306424;7.2406204;5.6620001792907715;1673388610.6302676;27.780675888061523;1.0383867025375366;86.73272705078125
90;1673388610.727914;47.1306425;7.2406204;5.8580002784729;1673388610.8434849;27.850719451904297;-1.1903108358383179;86.07804107666016
91;1673388610.9167404;47.1306425;7.2406204;6.053000450134277;1673388611.042965;27.83118438720703;-2.442528009414673;85.7188720703125
92;1673388611.1298735;47.1306424;7.2406204;6.248000144958496;1673388611.2422419;27.798690795898438;0.6227874159812927;86.70394897460938
93;1673388611.3371313;47.1306424;7.2406204;6.442000389099121;1673388611.4426777;27.94365692138672;-0.9206407070159912;86.36637878417969
94;1673388611.5295537;47.1306423;7.2406204;6.636000156402588;1673388611.6866844;27.666433334350586;-2.7147634029388428;85.84599304199219
95;1673388611.767408;47.1306423;7.2406203;6.829000473022461;1673388611.8667805;27.723947525024414;0.40002429485321045;86.62128448486328
96;1673388611.9473803;47.1306423;7.2406203;7.023000240325928;1673388612.047671;27.7624454498291;0.06169282644987106;86.47209930419922
97;1673388612.1180458;47.1306424;7.2406201999999995;7.216000556945801;1673388612.2286358;27.663305282592773;-2.5984153747558594;85.78672790527344
98;1673388612.313814;47.1306424;7.2406201999999995;7.4110002517700195;1673388612.4261172;27.513408660888672;0.05900733545422554;86.434814453125
99;1673388612.5117674;47.1306423;7.2406201;7.6080002784729;1673388612.641812;27.76991844177246;0.20961375534534454;86.60772705078125
100;1673388612.7389786;47.1306423;7.2406201;7.805000305175781;1673388612.8529117;27.612836837768555;-2.806231737136841;85.67802429199219
101;1673388612.9344232;47.1306422;7.2406201;8.004000663757324;1673388613.0435042;27.55759620666504;-0.7315159440040588;86.24256896972656
102;1673388613.1324306;47.1306422;7.2406201;8.204000473022461;1673388613.2438743;27.735013961791992;0.5908867120742798;86.62310791015625
103;1673388613.31512;47.1306423;7.2406201;8.405000686645508;1673388613.4220414;27.792186737060547;-2.1213767528533936;85.89533996582031
104;1673388613.5008452;47.1306423;7.2406201;8.60300064086914;1673388613.6167061;27.647945404052734;-1.3905919790267944;86.10542297363281
105;1673388613.7061906;47.1306422;7.2406201;8.79800033569336;1673388613.8218062;27.65056800842285;0.7667344212532043;86.78234100341797
106;1673388613.9092715;47.1306422;7.2406201;8.997000694274902;1673388614.0142782;27.630477905273438;-2.0895838737487793;85.9488296508789
107;1673388614.0978453;47.1306422;7.2406201;9.201000213623047;1673388614.210421;27.60805892944336;-1.776792049407959;86.0004653930664
108;1673388614.2958739;47.1306422;7.2406201;9.405000686645508;1673388614.421489;27.722265243530273;0.8900818228721619;86.73309326171875
109;1673388614.5100498;47.1306422;7.2406201;9.612000465393066;1673388614.6246288;27.57145118713379;-1.6497637033462524;86.01177215576172
110;1673388614.7101421;47.1306422;7.2406201;9.82300090789795;1673388614.8356347;27.643325805664062;-2.0927135944366455;85.7921142578125
111;1673388614.9232779;47.1306422;7.2406201;10.033000946044922;1673388615.0432894;27.788087844848633;0.7097517251968384;86.55903625488281
112;1673388615.119768;47.1306422;7.2406201;10.268000602722168;1673388615.2375505;27.214664459228516;-0.9038083553314209;86.1842269897461
113;1673388615.317078;47.1306422;7.240619799999999;10.616000175476074;1673388615.4304233;28.79126739501953;-2.602306365966797;85.73947143554688
114;1673388615.5140603;47.1306422;7.240619199999999;11.01400089263916;1673388615.6341715;27.239198684692383;0.14758498966693878;86.42840576171875
115;1673388615.7216427;47.1306422;7.2406185999999995;11.42400074005127;1673388615.8303874;26.06492042541504;-0.002117571420967579;86.52497863769531
116;1673388615.902167;47.1306422;7.2406179999999996;11.836000442504883;1673388616.0218673;25.490459442138672;-2.3418140411376953;85.81108856201172
117;1673388616.107994;47.1306422;7.2406177;12.247000694274902;1673388616.2204835;25.064424514770508;-0.31734952330589294;86.29782104492188
118;1673388616.3010757;47.1306422;7.2406175;12.656000137329102;1673388616.4159737;25.232135772705078;0.37554627656936646;86.5760498046875
119;1673388616.5080361;47.1306422;7.2406174;13.066000938415527;1673388616.622688;25.3636474609375;-2.3609507083892822;85.89016723632812
120;1673388616.7033103;47.1306422;7.240617599999999;13.480000495910645;1673388616.8255508;25.800304412841797;-0.45349881052970886;86.29853820800781
121;1673388616.9191573;47.1306422;7.240617899999999;13.892000198364258;1673388617.0327845;26.27778434753418;0.4309060871601105;86.58831787109375
122;1673388617.1111429;47.1306423;7.2406181;14.305000305175781;1673388617.2319286;26.56239891052246;-2.093599796295166;85.89901733398438
123;1673388617.3138425;47.1306423;7.2406184;14.717000961303711;1673388617.4184802;26.906234741210938;-0.6278119087219238;86.22537231445312
124;1673388617.4985101;47.1306423;7.2406187;15.122000694274902;1673388617.6208143;27.055532455444336;0.5953875780105591;86.60145568847656
125;1673388617.7053785;47.1306423;7.240618899999999;15.522000312805176;1673388617.8183618;27.25265884399414;-2.025958776473999;85.97221374511719
126;1673388617.9038737;47.1306423;7.2406191;15.92300033569336;1673388618.0296576;27.208274841308594;-1.2072901725769043;86.11797332763672
127;1673388618.177789;47.1306424;7.240619199999999;16.326000213623047;1673388618.2915576;27.39707374572754;0.8974097371101379;86.66433715820312
128;1673388618.3741002;47.1306424;7.2406193;16.73000144958496;1673388618.4861557;27.135591506958008;-1.9331011772155762;85.99835205078125
129;1673388618.5614448;47.1306424;7.2406193;17.137001037597656;1673388618.664012;26.9211483001709;-1.1713918447494507;86.06635284423828
130;1673388618.7545555;47.1306424;7.2406193;17.543001174926758;1673388618.8557692;26.968263626098633;0.9193949699401855;86.63062286376953
131;1673388618.9348714;47.1306424;7.240619199999999;17.942001342773438;1673388619.0691612;26.78245735168457;-1.226102590560913;86.07034301757812
132;1673388619.1546452;47.1306424;7.240619199999999;18.339000701904297;1673388619.2625654;26.72325325012207;-1.3349910974502563;85.94363403320312
133;1673388619.3341548;47.1306425;7.240619199999999;18.743000030517578;1673388619.444476;26.833520889282227;1.2680127620697021;86.63092041015625
134;1673388619.5293071;47.1306425;7.2406193;19.152000427246094;1673388619.637322;26.69977378845215;-1.2147718667984009;86.05148315429688
135;1673388619.7261975;47.1306425;7.2406193;19.560001373291016;1673388619.8274753;26.725812911987305;-1.5450294017791748;85.84451293945312
136;1673388619.9051273;47.1306424;7.2406193;19.964000701904297;1673388620.0309117;26.745027542114258;0.9407116770744324;86.67696380615234
137;1673388620.1098816;47.1306423;7.2406194;20.361000061035156;1673388620.2178457;26.796314239501953;-1.3488072156906128;86.07535552978516
138;1673388620.3113139;47.1306423;7.2406194;20.759000778198242;1673388620.4287572;26.820880889892578;-2.1406517028808594;85.82762145996094
139;1673388620.5249076;47.1306423;7.240619499999999;21.159000396728516;1673388620.6443849;26.915386199951172;0.8698354363441467;86.60159301757812
140;1673388620.7320402;47.1306423;7.240619499999999;21.560001373291016;1673388620.8529751;26.99861717224121;-0.41240358352661133;86.40162658691406
141;1673388620.9392235;47.1306423;7.2406196;21.96200180053711;1673388621.0571315;26.82910919189453;-2.366175651550293;85.83627319335938
142;1673388621.1769855;47.1306422;7.2406197;22.363000869750977;1673388621.2790022;27.08480453491211;0.4314134120941162;86.60514068603516
143;1673388621.3586812;47.1306422;7.240619799999999;22.764001846313477;1673388621.46175;27.004817962646484;-0.19155332446098328;86.474365234375
144;1673388621.543757;47.1306422;7.240619799999999;23.160001754760742;1673388621.6519737;26.87954330444336;-2.1895337104797363;85.81952667236328
145;1673388621.7237742;47.1306423;7.240619799999999;23.558000564575195;1673388621.8363273;26.923828125;0.2547360360622406;86.37149047851562
146;1673388621.9274232;47.1306423;7.240619799999999;23.961000442504883;1673388622.0309122;27.000831604003906;0.357700914144516;86.58494567871094
147;1673388622.111514;47.1306423;7.240619799999999;24.36600112915039;1673388622.2184486;26.927806854248047;-2.437349319458008;85.75431823730469
148;1673388622.313792;47.1306422;7.240619799999999;24.7710018157959;1673388622.4324381;26.8897762298584;-0.37261366844177246;86.35456848144531
149;1673388622.5208964;47.1306422;7.240619799999999;25.176000595092773;1673388622.6351542;26.91103172302246;0.39922988414764404;86.62312316894531
150;1673388622.7351298;47.1306422;7.240619799999999;25.577001571655273;1673388622.8459988;26.675472259521484;-2.373704433441162;85.81145477294922
151;1673388622.9563959;47.1306422;7.2406197;25.97800064086914;1673388623.0955489;26.871797561645508;-0.4730111062526703;86.18909454345703
152;1673388623.16833;47.1306423;7.240619799999999;26.382001876831055;1673388623.2840402;26.853023529052734;0.8456948399543762;86.56494140625
153;1673388623.3684115;47.1306423;7.240619799999999;26.78900146484375;1673388623.4949713;26.89410972595215;-2.042823076248169;85.99681854248047
154;1673388623.5786648;47.1306423;7.240619799999999;27.19700050354004;1673388623.679832;26.806259155273438;-1.0799481868743896;86.12008666992188
155;1673388623.7503512;47.1306423;7.240619799999999;27.601001739501953;1673388623.8553889;26.936912536621094;1.1426739692687988;86.6961669921875
156;1673388623.9359698;47.1306424;7.2406198999999996;28.00200080871582;1673388624.0351622;26.918283462524414;-1.4583994150161743;86.0472640991211
157;1673388624.1196508;47.1306424;7.240619799999999;28.398000717163086;1673388624.22465;26.82600212097168;-1.046458125114441;85.99073791503906
158;1673388624.3131936;47.1306424;7.240619799999999;28.793001174926758;1673388624.4271739;26.976093292236328;1.1763250827789307;86.61652374267578
159;1673388624.5137572;47.1306424;7.2406198999999996;29.194002151489258;1673388624.6217494;26.903305053710938;-1.0953561067581177;86.05577850341797
160;1673388624.704279;47.1306424;7.2406198999999996;29.599000930786133;1673388624.817134;26.86382293701172;-2.023266077041626;85.8419418334961
161;1673388624.9058313;47.1306424;7.2406198999999996;30.00400161743164;1673388625.0402277;26.860260009765625;0.7324396967887878;86.5776138305664
162;1673388625.1267126;47.1306424;7.2406198999999996;30.408000946044922;1673388625.23465;26.980396270751953;0.13650628924369812;86.4615478515625
163;1673388625.3178358;47.1306424;7.2406198999999996;30.803001403808594;1673388625.4261215;26.803991317749023;-2.029306650161743;85.82185363769531
164;1673388625.508585;47.1306424;7.2406198999999996;31.200000762939453;1673388625.6342733;26.875980377197266;0.387145072221756;86.32968139648438
165;1673388625.7242124;47.1306425;7.2406198999999996;31.60000228881836;1673388625.8343308;26.956727981567383;0.3653500974178314;86.44107055664062
166;1673388625.9114695;47.1306424;7.2406198999999996;32.00100326538086;1673388626.0265133;26.901996612548828;-2.206727981567383;85.77976989746094
167;1673388626.1103349;47.1306424;7.2406198999999996;32.40500259399414;1673388626.2381463;26.90435218811035;-0.16050344705581665;86.29862213134766
168;1673388626.3214214;47.1306423;7.2406198999999996;32.81100082397461;1673388626.4401624;26.87074089050293;0.8015064001083374;86.6370849609375
169;1673388626.5286205;47.1306423;7.2406198999999996;33.21600341796875;1673388626.6517358;26.808399200439453;-1.9964643716812134;85.86396789550781
170;1673388626.7343602;47.1306423;7.2406198999999996;33.6150016784668;1673388626.8521082;26.873567581176758;-0.4363560974597931;86.30412292480469
171;1673388626.9357755;47.1306423;7.2406198999999996;34.01300048828125;1673388627.039673;26.92503547668457;0.9841970205307007;86.72406005859375
172;1673388627.1166127;47.1306423;7.2406198999999996;34.41600036621094;1673388627.2299044;26.85365867614746;-1.9495025873184204;85.91050720214844
173;1673388627.31944;47.1306423;7.240619799999999;34.823001861572266;1673388627.4351604;26.713375091552734;-1.232822060585022;86.06388092041016
174;1673388627.5150185;47.1306422;7.240619799999999;35.22700119018555;1673388627.6304362;26.914539337158203;0.9826891422271729;86.65167999267578
175;1673388627.71112;47.1306423;7.240619799999999;35.62900161743164;1673388627.829562;26.746562957763672;-1.2583428621292114;86.02078247070312
176;1673388627.915007;47.1306423;7.240619799999999;36.025001525878906;1673388628.0331395;26.783857345581055;-1.7361327409744263;85.99122619628906
177;1673388628.1210194;47.1306423;7.240619799999999;36.419002532958984;1673388628.233846;26.717714309692383;1.1201448440551758;86.73924255371094
178;1673388628.318344;47.1306423;7.240619799999999;36.81500244140625;1673388628.4340565;26.884658813476562;-1.159594178199768;86.1723403930664
179;1673388628.524602;47.1306423;7.240619799999999;37.2140007019043;1673388628.6325357;26.730623245239258;-1.8425450325012207;85.87728881835938
180;1673388628.7170126;47.1306423;7.240619799999999;37.617000579833984;1673388628.8219922;26.870195388793945;0.8480678796768188;86.51162719726562
181;1673388628.9025717;47.1306423;7.2406197;38.02000045776367;1673388629.0075705;26.667036056518555;-0.27107369899749756;86.39176940917969
182;1673388629.0881536;47.1306423;7.2406197;38.42500305175781;1673388629.2097309;26.75921630859375;-2.1158015727996826;85.8124008178711
183;1673388629.299106;47.1306423;7.2406197;38.82500076293945;1673388629.4148254;26.67710304260254;0.3638421595096588;86.43858337402344
184;1673388629.5101686;47.1306423;7.2406197;39.22300338745117;1673388629.6269653;26.86629295349121;0.08049499243497849;86.42420196533203
185;1673388629.7154;47.1306423;7.2406197;39.624000549316406;1673388629.8293815;26.740772247314453;-2.228036642074585;85.8539810180664
186;1673388629.901211;47.1306423;7.2406197;40.0260009765625;1673388630.014864;26.713359832763672;-0.18113839626312256;86.2630615234375
187;1673388630.1044998;47.1306423;7.2406197;40.428001403808594;1673388630.2223797;26.752784729003906;0.8374871015548706;86.63823699951172
188;1673388630.3059711;47.1306424;7.2406197;40.83400344848633;1673388630.4209597;26.713550567626953;-1.8006017208099365;85.87092590332031
189;1673388630.5005686;47.1306424;7.2406197;41.23200225830078;1673388630.6145146;26.77845573425293;-0.4787260591983795;86.12279510498047
190;1673388630.6980085;47.1306424;7.2406197;41.62800216674805;1673388630.8162868;26.799209594726562;0.9861602783203125;86.6186752319336
191;1673388630.900436;47.1306424;7.2406197;42.03000259399414;1673388631.0248687;26.836713790893555;-1.9468324184417725;85.9062728881836
192;1673388631.1114802;47.1306425;7.2406197;42.43400192260742;1673388631.226145;26.720531463623047;-0.6521731615066528;86.08642578125
193;1673388631.3098269;47.1306425;7.2406197;42.8380012512207;1673388631.421036;26.881450653076172;1.1830703020095825;86.63057708740234
194;1673388631.497396;47.1306425;7.2406197;43.243003845214844;1673388631.6375613;26.791845321655273;-1.5470128059387207;85.96788787841797
195;1673388631.7193255;47.1306425;7.2406197;43.64500045776367;1673388631.8460433;26.698009490966797;-1.10808527469635;86.02650451660156
196;1673388631.9869976;47.1306425;7.2406197;44.04100036621094;1673388632.094591;26.7081241607666;0.9275882840156555;86.65086364746094
197;1673388632.1684756;47.1306425;7.2406197;44.43600082397461;1673388632.284309;26.750526428222656;-1.3583120107650757;86.0479736328125
198;1673388632.3585463;47.1306425;7.2406197;44.83700180053711;1673388632.464559;26.717905044555664;-1.583186388015747;85.8938217163086
199;1673388632.5379186;47.1306425;7.240619799999999;45.23800277709961;1673388632.6386333;26.799367904663086;1.330194115638733;86.69407653808594
200;1673388632.716604;47.1306425;7.240619799999999;45.6410026550293;1673388632.8285885;26.83751678466797;-0.8596650958061218;86.21240234375
201;1673388632.9199343;47.1306425;7.240619799999999;46.0420036315918;1673388633.033977;26.81450080871582;-1.4298776388168335;85.9574203491211
202;1673388633.115628;47.1306425;7.2406198999999996;46.43700408935547;1673388633.2344038;26.76224136352539;0.8380197882652283;86.5709457397461
203;1673388633.3201802;47.1306425;7.2406198999999996;46.83100128173828;1673388633.4419749;26.964305877685547;-0.39902201294898987;86.28742218017578
204;1673388633.5276573;47.1306424;7.2406198999999996;47.22900390625;1673388633.6449635;26.784940719604492;-2.012763261795044;85.77497863769531
205;1673388633.7492747;47.1306424;7.2406198999999996;47.63200378417969;1673388633.8679633;26.9177188873291;0.44164952635765076;86.38831329345703
206;1673388633.9505267;47.1306424;7.2406198999999996;48.034000396728516;1673388634.0634956;27.16644287109375;0.41895630955696106;86.47425842285156
207;1673388634.1500356;47.1306424;7.24062;48.400001525878906;1673388634.2661135;26.985580444335938;-1.8866559267044067;85.79533386230469
208;1673388634.3521898;47.1306424;7.2406201;48.71200180053711;1673388634.4579735;27.04511833190918;0.43778517842292786;86.52816772460938
209;1673388634.544596;47.1306424;7.2406204;48.967002868652344;1673388634.6881979;27.38035011291504;0.7152929306030273;86.62808227539062
210;1673388634.768741;47.1306424;7.240620799999999;49.177001953125;1673388634.882423;27.787654876708984;-2.2313404083251953;85.73941040039062
211;1673388634.9644828;47.1306423;7.2406213;49.358001708984375;1673388635.0739272;37.33415603637695;10.167015075683594;89.85342407226562
212;1673388635.1481674;47.130642099999996;7.2406213;49.522003173828125;1673388635.2773304;46.511985778808594;29.992765426635742;102.19027709960938
213;1673388635.3457956;47.130640799999995;7.240619799999999;49.66800308227539;1673388635.4636664;48.22206115722656;43.39455795288086;111.01509857177734
214;1673388635.5408168;47.130637799999995;7.240615699999999;49.78900146484375;1673388635.6585612;44.988075256347656;51.478450775146484;116.3369369506836
215;1673388635.7421327;47.1306326;7.2406090999999995;49.84600067138672;1673388635.8540797;25.898740768432617;43.94001388549805;123.25170135498047
216;1673388635.931846;47.1306258;7.2406009;49.849002838134766;1673388636.0465894;12.809083938598633;44.38645935058594;141.73193359375
217;1673388636.1242435;47.130618399999996;7.2405919999999995;49.862003326416016;1673388636.236122;-2.9015533924102783;44.6356201171875;153.62391662597656
218;1673388636.3176801;47.130610499999996;7.2405826;49.880001068115234;1673388636.4375076;-17.438247680664062;43.7404899597168;163.54620361328125
219;1673388636.5173;47.1306021;7.2405729999999995;49.89200210571289;1673388636.6321745;-28.39617156982422;40.819786071777344;172.73468017578125
220;1673388636.7207148;47.130593;7.2405631999999995;49.89200210571289;1673388636.847548;-37.06410217285156;38.22310256958008;-177.6606903076172
221;1673388636.9555683;47.130583099999996;7.240552999999999;49.89200210571289;1673388637.0659242;-46.27565383911133;35.540061950683594;-166.83419799804688
222;1673388637.1377451;47.1305724;7.2405421;49.8900032043457;1673388637.2388139;-47.82820129394531;28.379037857055664;-154.52093505859375
223;1673388637.3233268;47.1305611;7.240530199999999;49.8640022277832;1673388637.4422636;-44.52961349487305;22.47254753112793;-148.06109619140625
224;1673388637.5386739;47.130549599999995;7.2405177;49.823001861572266;1673388637.6404705;-44.36102294921875;18.55469512939453;-142.98828125
225;1673388637.7256477;47.130538099999995;7.240505;49.78600311279297;1673388637.8940158;-46.807865142822266;15.086797714233398;-135.753662109375
226;1673388637.980219;47.130526599999996;7.240492;49.7650032043457;1673388638.0821037;-48.202335357666016;10.112016677856445;-128.2068328857422
227;1673388638.1592069;47.1305152;7.2404785;49.75400161743164;1673388638.2584403;-46.46338653564453;5.8719258308410645;-127.77911376953125
228;1673388638.3380957;47.1305038;7.2404649;49.72700119018555;1673388638.4443092;-43.22111511230469;6.162650108337402;-131.81480407714844
229;1673388638.528183;47.1304923;7.2404516;49.69700241088867;1673388638.66739;-44.14057159423828;7.1065778732299805;-133.60940551757812
230;1673388638.7519734;47.1304807;7.2404386;49.685001373291016;1673388638.8621101;-46.45513916015625;8.381743431091309;-134.23399353027344
231;1673388638.951518;47.1304689;7.2404259;49.689002990722656;1673388639.0672562;-48.234405517578125;9.638345718383789;-134.52464294433594
232;1673388639.1603346;47.1304569;7.240413299999999;49.704002380371094;1673388639.277878;-48.64679718017578;10.442184448242188;-134.47265625
233;1673388639.3574226;47.1304447;7.2404003999999995;49.724002838134766;1673388639.4599714;-48.42473220825195;11.01010799407959;-134.33746337890625
234;1673388639.5525503;47.130432299999995;7.2403873999999995;49.742000579833984;1673388639.6712885;-47.41716003417969;14.963541984558105;-131.7830352783203
235;1673388639.7509394;47.130420099999995;7.2403739;49.74500274658203;1673388639.8519313;-43.620941162109375;9.185128211975098;-119.66931915283203
236;1673388639.9424343;47.1304084;7.2403602;49.742000579833984;1673388640.064059;-42.1920280456543;2.564504623413086;-109.8763427734375
237;1673388640.148635;47.1303973;7.2403466;49.74700164794922;1673388640.265615;-41.759159088134766;-3.6528666019439697;-101.1356201171875
238;1673388640.3481903;47.1303869;7.240333;49.75600051879883;1673388640.4561787;-40.26066589355469;-9.174139976501465;-92.41748046875
239;1673388640.540664;47.1303771;7.2403197;49.762001037597656;1673388640.6497262;-38.20050048828125;-14.446329116821289;-83.24899291992188
240;1673388640.7322507;47.130367899999996;7.240306599999999;49.7660026550293;1673388640.847931;-34.53701400756836;-18.99065399169922;-73.56832885742188
241;1673388640.9227297;47.1303591;7.240293899999999;49.762001037597656;1673388641.0333993;-30.84621238708496;-22.533462524414062;-63.73403549194336
242;1673388641.121386;47.130351;7.240281599999999;49.7650032043457;1673388641.258563;-29.64292335510254;-27.92791175842285;-53.416831970214844
243;1673388641.3461246;47.1303434;7.2402695999999995;49.794002532958984;1673388641.4728792;-27.97711181640625;-38.470218658447266;-42.47046661376953
244;1673388641.5638323;47.130336299999996;7.240257199999999;49.85200119018555;1673388641.6803646;-25.011045455932617;-46.67555618286133;-35.34847640991211
245;1673388641.771944;47.130329599999996;7.2402441;49.919002532958984;1673388641.887313;-24.228919982910156;-44.91905975341797;-38.4344367980957
246;1673388641.9780915;47.130322899999996;7.2402301;49.96900177001953;1673388642.0922115;-28.335050582885742;-39.44674301147461;-48.402000427246094
247;1673388642.1800935;47.130316199999996;7.240215699999999;49.99700164794922;1673388642.2794688;-38.55532455444336;-29.148603439331055;-65.1020736694336
248;1673388642.3639529;47.1303093;7.240201;50.03200149536133;1673388642.4689667;-45.57695007324219;-13.362286567687988;-82.43091583251953
249;1673388642.544736;47.1303025;7.240185899999999;50.06200408935547;1673388642.6469927;-48.22834777832031;-7.132686138153076;-89.33000183105469
250;1673388642.7463596;47.130296099999995;7.2401705;50.082000732421875;1673388642.8581505;-52.914527893066406;-8.716378211975098;-95.94071197509766
251;1673388642.9484973;47.1302898;7.2401544;50.10900115966797;1673388643.0669188;-43.09880447387695;12.29408073425293;-105.54794311523438
252;1673388643.1580184;47.1302838;7.2401377;50.13900375366211;1673388643.2787366;-49.309104919433594;-1.8838958740234375;-105.86471557617188
253;1673388643.3630884;47.1302783;7.2401209;50.12900161743164;1673388643.4868047;-45.06181716918945;-11.24686336517334;-121.13700103759766
254;1673388643.602033;47.130271799999996;7.2401047;50.083003997802734;1673388643.7106605;-38.30902862548828;-10.999072074890137;-131.0323944091797
255;1673388643.826639;47.1302641;7.2400902;50.0260009765625;1673388643.981597;-34.92420196533203;-8.5335054397583;-138.06373596191406
256;1673388644.0354536;47.130255299999995;7.2400781;49.97700119018555;1673388644.1190422;-38.19894027709961;-3.4162540435791016;-141.11195373535156
257;1673388644.1986816;47.1302455;7.240068099999999;49.9640007019043;1673388644.30582;-45.9434814453125;5.18942403793335;-141.03663635253906
258;1673388644.3797054;47.130234699999995;7.240059199999999;49.98800277709961;1673388644.4905705;-51.34967803955078;9.071863174438477;-138.8076171875
259;1673388644.571215;47.130223;7.2400503;50.02300262451172;1673388644.6939719;-52.5449104309082;14.225679397583008;-137.31468200683594
260;1673388644.7703302;47.1302108;7.2400402999999995;50.051002502441406;1673388644.9058332;-52.61186599731445;15.983865737915039;-136.6607666015625
261;1673388644.9774218;47.130198199999995;7.2400291;50.070003509521484;1673388645.0878327;-49.93336486816406;13.43984317779541;-134.79794311523438
262;1673388645.1636164;47.1301856;7.2400169;50.077003479003906;1673388645.2631845;-49.538963317871094;11.799944877624512;-134.22158813476562
263;1673388645.3418615;47.130173;7.240004099999999;50.08000183105469;1673388645.4607344;-48.85302734375;11.39283561706543;-134.00137329101562
264;1673388645.5549016;47.1301604;7.2399909;50.08000183105469;1673388645.6714664;-47.52046585083008;11.129478454589844;-133.73898315429688
265;1673388645.7542062;47.130147699999995;7.2399773;50.07400131225586;1673388645.8651285;-47.28083038330078;12.00863265991211;-133.84368896484375
266;1673388645.953658;47.1301351;7.2399635;50.07100296020508;1673388646.0683265;-47.5001335144043;11.769159317016602;-133.49327087402344
267;1673388646.1513548;47.1301226;7.2399495;50.06700134277344;1673388646.2719648;-47.15972900390625;11.524041175842285;-133.36148071289062
268;1673388646.357718;47.130110099999996;7.2399352;50.060001373291016;1673388646.4685812;-47.11128616333008;11.545306205749512;-133.5019073486328
269;1673388646.5501342;47.130097799999994;7.2399208999999995;50.05000305175781;1673388646.6646461;-46.398433685302734;11.460148811340332;-133.52407836914062
270;1673388646.7556107;47.1300855;7.2399064;50.03700256347656;1673388646.8721414;-46.06843948364258;11.559836387634277;-133.53054809570312
271;1673388646.9656003;47.1300733;7.2398919;50.02400207519531;1673388647.085048;-46.202632904052734;12.263753890991211;-133.62066650390625
272;1673388647.1775763;47.1300612;7.2398773;50.018001556396484;1673388647.2942138;-45.681793212890625;15.096631050109863;-128.90061950683594
273;1673388647.369582;47.1300494;7.2398625999999995;50.005001068115234;1673388647.4776123;-43.650115966796875;8.752015113830566;-117.21253204345703
274;1673388647.5670013;47.1300382;7.239847699999999;49.983001708984375;1673388647.6822982;-42.35536193847656;2.4832956790924072;-108.20925903320312
275;1673388647.79099;47.1300277;7.2398329;49.9640007019043;1673388647.9051716;-41.80315399169922;-3.6539196968078613;-99.47553253173828
276;1673388647.9814076;47.1300179;7.239818199999999;49.94900131225586;1673388648.09612;-40.5665283203125;-9.539112091064453;-90.598388671875
277;1673388648.1771286;47.1300087;7.2398038;49.932003021240234;1673388648.2872972;-36.95025634765625;-15.365286827087402;-81.31901550292969
278;1673388648.3712695;47.129999999999995;7.239789699999999;49.919002532958984;1673388648.4881203;-43.2589225769043;-24.799734115600586;-81.11781311035156
279;1673388648.5746927;47.129991399999994;7.2397757;49.939002990722656;1673388648.6798754;-48.21852493286133;-24.097230911254883;-98.60665893554688
280;1673388648.7606423;47.129982;7.2397614;49.95500183105469;1673388648.8834639;-45.76612854003906;-14.64892578125;-112.60640716552734
281;1673388648.9774766;47.129971499999996;7.239747599999999;49.961002349853516;1673388649.0864134;-44.86083984375;-9.10317611694336;-119.86542510986328
282;1673388649.1539493;47.1299603;7.2397345;49.95900344848633;1673388649.2592037;-44.2086296081543;-1.0197097063064575;-128.50509643554688
283;1673388649.3464415;47.1299485;7.2397221;49.954002380371094;1673388649.467194;-45.752159118652344;7.483055114746094;-135.246337890625
284;1673388649.5577567;47.1299364;7.2397101;49.96000289916992;1673388649.6940296;-45.92778396606445;14.603962898254395;-126.76062774658203
285;1673388649.7924736;47.1299243;7.2396978;49.94900131225586;1673388649.9287972;-42.66350555419922;9.843488693237305;-112.50506591796875
286;1673388650.0007784;47.129912999999995;7.2396851;49.932003021240234;1673388650.106741;-39.95540237426758;3.7766482830047607;-101.48768615722656
287;1673388650.1789982;47.1299029;7.239672199999999;49.91400146484375;1673388650.2951012;-41.16082763671875;-0.33206474781036377;-93.4272232055664
288;1673388650.3715072;47.1298939;7.239659499999999;49.90300369262695;1673388650.4811027;-40.28586196899414;-7.373046398162842;-83.38094329833984
289;1673388650.567702;47.1298858;7.2396467;49.90200424194336;1673388650.6854203;-42.20548629760742;-12.684269905090332;-75.05723571777344
290;1673388650.7728229;47.1298787;7.2396338;49.910003662109375;1673388650.8925917;-38.54084777832031;-10.387502670288086;-65.7039794921875
291;1673388650.9752257;47.1298725;7.2396208;49.928001403808594;1673388651.0978065;-28.37917137145996;8.08764362335205;-54.897369384765625
292;1673388651.1658418;47.129868099999996;7.2396091;49.96900177001953;1673388651.2900717;-32.75613784790039;21.99266242980957;-46.84891891479492
293;1673388651.369208;47.1298661;7.239600299999999;49.98600387573242;1673388651.4763627;-32.90156555175781;30.11281967163086;-52.04521942138672
294;1673388651.5621006;47.129866899999996;7.239594899999999;49.97300338745117;1673388651.669206;-21.345314025878906;28.264568328857422;-63.37849044799805
295;1673388651.7547128;47.12987;7.239592399999999;49.96200180053711;1673388651.8685272;-8.795490264892578;21.820789337158203;-83.19803619384766
296;1673388651.950116;47.129874699999995;7.2395926;49.992000579833984;1673388652.0643134;-10.628572463989258;12.463061332702637;-97.73729705810547
297;1673388652.1546571;47.12988;7.2395945;50.03300094604492;1673388652.2696486;-20.85846710205078;6.124621868133545;-105.692138671875
298;1673388652.3532522;47.129885099999996;7.2395973;50.07400131225586;1673388652.4651744;-28.586179733276367;2.5346555709838867;-113.06370544433594
299;1673388652.546754;47.1298896;7.2396002;50.10700225830078;1673388652.6567402;-35.578895568847656;0.5422266721725464;-121.85029602050781
300;1673388652.735543;47.129892899999994;7.239602499999999;50.13300323486328;1673388652.847397;-40.20462417602539;5.302303791046143;-132.11387634277344
301;1673388652.9319174;47.1298946;7.2396042;50.150001525878906;1673388653.052632;-41.89802169799805;12.522916793823242;-141.14410400390625
302;1673388653.1393204;47.129894799999995;7.2396049;50.16400146484375;1673388653.2533417;-38.74856948852539;22.890195846557617;-143.5865020751953
303;1673388653.3453453;47.129893599999996;7.2396044999999996;50.173004150390625;1673388653.4688876;-37.87336349487305;24.33978843688965;-138.76739501953125
304;1673388653.5718505;47.129891699999995;7.2396027;50.182003021240234;1673388653.6835508;-44.77069854736328;19.822364807128906;-137.45423889160156
305;1673388653.7709727;47.1298892;7.2395995;50.19300079345703;1673388653.8774836;-49.03276443481445;15.736148834228516;-136.30023193359375
306;1673388653.9566414;47.1298855;7.239594599999999;50.2030029296875;1673388654.0784342;-54.07672119140625;11.720593452453613;-135.555419921875
307;1673388654.1551034;47.1298806;7.2395879;50.215003967285156;1673388654.2680507;-58.42824935913086;8.640334129333496;-134.09600830078125
308;1673388654.349371;47.129874;7.2395796;50.2140007019043;1673388654.4638624;-58.551822662353516;8.080790519714355;-132.98733520507812
309;1673388654.5464437;47.1298658;7.2395695;50.18400192260742;1673388654.656648;-51.14015579223633;6.462168216705322;-133.6649627685547
310;1673388654.7489245;47.129856499999995;7.2395586;50.13600158691406;1673388654.8931715;-47.42902374267578;5.991265296936035;-134.22291564941406
311;1673388654.9664435;47.1298463;7.2395473;50.08500289916992;1673388655.0691862;-48.63294982910156;6.337945461273193;-134.7203369140625
312;1673388655.1489964;47.1298355;7.2395359;50.048004150390625;1673388655.260048;-45.99835205078125;7.836441993713379;-135.26600646972656
313;1673388655.346583;47.129824;7.2395245;50.01900100708008;1673388655.474377;-47.75518798828125;8.378281593322754;-134.8487091064453
314;1673388655.5610251;47.129812199999996;7.239512899999999;50.00100326538086;1673388655.6946847;-46.85367965698242;10.423396110534668;-134.95236206054688
315;1673388655.816875;47.1298001;7.239501;49.98800277709961;1673388655.9435806;-49.468257904052734;11.304412841796875;-134.7245635986328
316;1673388656.0162134;47.1297877;7.2394887;49.98400115966797;1673388656.11848;-48.309852600097656;11.134254455566406;-134.10684204101562
317;1673388656.196709;47.1297752;7.239476;49.97800064086914;1673388656.306674;-48.31622314453125;10.906460762023926;-133.69500732421875
318;1673388656.3843784;47.1297626;7.2394628999999995;49.970001220703125;1673388656.4923036;-47.49943542480469;11.26881217956543;-133.48387145996094
319;1673388656.572576;47.129750099999995;7.2394495;49.96600341796875;1673388656.6722517;-46.76245880126953;13.196439743041992;-132.82550048828125
320;1673388656.753847;47.1297375;7.2394358;49.9630012512207;1673388656.8735921;-46.4786262512207;13.417916297912598;-125.93268585205078
321;1673388656.956223;47.1297253;7.239421699999999;49.948001861572266;1673388657.084335;-42.25689697265625;6.083863258361816;-114.16210174560547
322;1673388657.1632774;47.1297138;7.2394074999999996;49.927001953125;1673388657.282657;-42.009315490722656;-0.06544438749551773;-105.47431945800781
323;1673388657.3736835;47.1297029;7.2393933;49.91200256347656;1673388657.4871697;-41.22705841064453;-6.399254322052002;-96.57596588134766
324;1673388657.5718982;47.1296928;7.2393792999999995;49.89600372314453;1673388657.7005298;-39.39826202392578;-12.275248527526855;-87.40870666503906
325;1673388657.785003;47.1296831;7.2393655;49.880001068115234;1673388657.889006;-36.42986297607422;-17.409503936767578;-78.02153015136719
326;1673388657.967665;47.129674;7.2393521;49.86600112915039;1673388658.087528;-32.19843292236328;-21.1617431640625;-68.14595794677734
327;1673388658.176549;47.1296654;7.2393392;49.85700225830078;1673388658.3083322;-30.07851219177246;-26.11067771911621;-57.88459396362305
328;1673388658.372832;47.1296574;7.2393266;49.86300277709961;1673388658.4740822;-29.32784080505371;-34.723079681396484;-47.099212646484375
329;1673388658.5661893;47.1296499;7.239313999999999;49.88800048828125;1673388658.6702492;-27.46259117126465;-44.12062072753906;-36.975067138671875
330;1673388658.7480373;47.1296428;7.2393008;49.935001373291016;1673388658.8814604;-23.433521270751953;-45.55296325683594;-37.458683013916016
331;1673388658.9631767;47.1296359;7.2392867999999995;49.958003997802734;1673388659.092409;-23.79772186279297;-37.50900650024414;-51.38508224487305
332;1673388659.1773076;47.1296288;7.2392726;49.95600128173828;1673388659.281454;-34.796566009521484;-33.703392028808594;-66.607177734375
333;1673388659.3611267;47.1296213;7.2392585;49.97500228881836;1673388659.5003293;-48.46952819824219;-26.122419357299805;-83.41207122802734
334;1673388659.58224;47.129613199999994;7.239243999999999;50.00600051879883;1673388659.679985;-51.78987121582031;-13.161520004272461;-94.87767791748047
335;1673388659.7567992;47.1296046;7.2392287;50.02100372314453;1673388659.868692;-48.2170524597168;-6.093076705932617;-100.67240905761719
336;1673388659.9494302;47.1295959;7.2392129999999995;50.02700424194336;1673388660.0656931;-47.76192855834961;-2.4463813304901123;-107.09561157226562
337;1673388660.191905;47.129587099999995;7.239197099999999;50.03600311279297;1673388660.3218007;-50.2532844543457;-1.8288534879684448;-113.16114807128906
338;1673388660.4127662;47.1295782;7.2391809;50.04500198364258;1673388660.5213475;-47.40602111816406;-2.588996171951294;-120.88642883300781
339;1673388660.6016743;47.129568899999995;7.2391649;50.03200149536133;1673388660.7302375;-40.03590393066406;-1.1378772258758545;-131.49839782714844
340;1673388660.8073673;47.1295589;7.239149899999999;49.999000549316406;1673388660.9074976;-36.54124450683594;1.0607585906982422;-139.24179077148438
341;1673388661.0218492;47.1295485;7.2391364;49.97600173950195;1673388661.1414754;-43.95759582519531;5.832690238952637;-139.27809143066406
342;1673388661.2171726;47.1295374;7.2391242;49.98800277709961;1673388661.3192737;-51.065093994140625;7.972693920135498;-136.02615356445312
343;1673388661.3889341;47.1295256;7.2391122;50.01100158691406;1673388661.4951406;-48.69196701049805;11.569096565246582;-135.32672119140625
344;1673388661.582649;47.1295134;7.239099899999999;50.025001525878906;1673388661.6988952;-49.258785247802734;12.938187599182129;-134.66046142578125
345;1673388661.794465;47.129501;7.2390873;50.03900146484375;1673388661.8979225;-48.62833786010742;12.82071304321289;-133.52944946289062
346;1673388661.9807825;47.129488599999995;7.239074;50.048004150390625;1673388662.1079493;-49.678443908691406;11.82166862487793;-132.6161651611328
347;1673388662.1965876;47.1294762;7.239060299999999;50.052001953125;1673388662.3110855;-48.060054779052734;10.46934700012207;-131.98960876464844
348;1673388662.391709;47.129463799999996;7.2390462;50.048004150390625;1673388662.4960072;-47.47467803955078;9.818469047546387;-131.7757568359375
349;1673388662.5770016;47.1294514;7.239032;50.040000915527344;1673388662.689423;-47.37691116333008;10.078937530517578;-131.74411010742188
350;1673388662.77345;47.129439;7.2390175999999995;50.03600311279297;1673388662.8833447;-46.86339569091797;10.380468368530273;-131.4941864013672
351;1673388662.9710228;47.129426599999995;7.2390031;50.02900314331055;1673388663.0906873;-47.30791091918945;10.577091217041016;-131.12379455566406
352;1673388663.1678534;47.1294143;7.2389886;50.02300262451172;1673388663.2881303;-47.24629592895508;11.747308731079102;-131.0286407470703
353;1673388663.369255;47.1294021;7.2389738999999995;50.01900100708008;1673388663.4840722;-45.40836715698242;11.834636688232422;-123.87635803222656
354;1673388663.5584967;47.1293903;7.2389589999999995;50.005001068115234;1673388663.66549;-42.922935485839844;5.978524684906006;-112.96025085449219
355;1673388663.7623672;47.1293791;7.238944099999999;49.9900016784668;1673388663.8705535;-41.35246658325195;0.11533567309379578;-103.74723815917969
356;1673388663.9639778;47.1293686;7.2389294;49.97200393676758;1673388664.1044924;-40.692047119140625;-6.587132930755615;-94.64946746826172
357;1673388664.185795;47.1293588;7.238914899999999;49.958003997802734;1673388664.2859726;-39.46145248413086;-14.00174617767334;-85.65895080566406
358;1673388664.3676896;47.1293496;7.2389008;49.95100402832031;1673388664.475218;-36.2708625793457;-20.279083251953125;-76.79640197753906
359;1673388664.563942;47.1293408;7.238887;49.94400405883789;1673388664.6914706;-34.05254364013672;-27.31993865966797;-68.77088165283203
360;1673388664.783008;47.1293322;7.238873399999999;49.954002380371094;1673388664.9037368;-39.11907196044922;-35.35829162597656;-74.7921142578125
361;1673388664.988135;47.129323299999996;7.2388597;49.97200393676758;1673388665.0957534;-42.316402435302734;-29.56964874267578;-96.83616638183594
362;1673388665.1762564;47.1293132;7.2388463;49.97800064086914;1673388665.2928395;-41.964813232421875;-22.30293083190918;-107.62924194335938
363;1673388665.3771107;47.129301999999996;7.2388338999999995;49.98800277709961;1673388665.490655;-43.44778823852539;-18.192745208740234;-115.50664520263672
364;1673388665.5751455;47.129289799999995;7.2388224999999995;49.992000579833984;1673388665.6784527;-44.966888427734375;-6.970653533935547;-114.84365844726562
365;1673388665.7647574;47.1292769;7.238811699999999;49.980003356933594;1673388665.8758285;-38.65546798706055;-4.474071979522705;-100.15308380126953
366;1673388665.9560711;47.129264299999996;7.238801;49.952003479003906;1673388666.0701296;-35.489173889160156;1.6955488920211792;-87.35320281982422
367;1673388666.1557736;47.1292529;7.2387907;49.922000885009766;1673388666.277937;-37.13798904418945;20.524723052978516;-78.55750274658203
368;1673388666.3610811;47.129243699999996;7.2387809999999995;49.89800262451172;1673388666.4741611;-32.90196228027344;21.83222198486328;-63.39419937133789
369;1673388666.5651238;47.129237599999996;7.238772699999999;49.8640022277832;1673388666.6819012;-26.022953033447266;12.531916618347168;-53.301368713378906
370;1673388666.7587073;47.1292344;7.238766699999999;49.833003997802734;1673388666.8747027;-31.526412963867188;16.413394927978516;-53.149757385253906
371;1673388666.9539485;47.1292336;7.2387628;49.83500289916992;1673388667.0581012;-41.21604537963867;-2.254558563232422;-45.056922912597656
372;1673388667.1397705;47.129235;7.2387599;49.874000549316406;1673388667.2583947;-37.9130859375;-17.823246002197266;-42.69254684448242
373;1673388667.3508651;47.129238;7.238756599999999;49.939002990722656;1673388667.4800494;-35.893795013427734;-18.46001625061035;-44.94448471069336
374;1673388667.5646696;47.1292416;7.2387526;49.999000549316406;1673388667.6863437;-35.39973449707031;-20.496265411376953;-45.68428421020508
375;1673388667.7670622;47.129245499999996;7.2387481;50.051002502441406;1673388667.8828506;-38.165191650390625;-17.096389770507812;-53.86117172241211
376;1673388667.9665248;47.1292495;7.2387429;50.09400177001953;1673388668.0874627;-42.5839729309082;-10.728389739990234;-66.42147064208984
377;1673388668.1782782;47.1292536;7.2387369999999995;50.13100051879883;1673388668.2998424;-44.44461441040039;-4.900173664093018;-76.37470245361328
378;1673388668.3882318;47.1292575;7.2387301;50.15900421142578;1673388668.5060685;-38.679805755615234;-0.3822402060031891;-85.8188247680664
379;1673388668.5798044;47.129261199999995;7.2387225;50.173004150390625;1673388668.6751127;-37.40159606933594;-3.5535390377044678;-93.68128204345703
380;1673388668.7527542;47.1292644;7.2387149;50.182003021240234;1673388668.8705716;-38.27984619140625;-8.43126106262207;-103.674560546875
381;1673388668.96817;47.129266699999995;7.2387073;50.18300247192383;1673388669.081971;-41.44144821166992;-18.059326171875;-112.25922393798828
382;1673388669.1695664;47.129267;7.2387003;50.177001953125;1673388669.2940748;-45.38691711425781;-16.964153289794922;-122.48291015625
383;1673388669.3786538;47.1292648;7.2386941;50.17000198364258;1673388669.4950142;-48.64350128173828;-13.985432624816895;-130.08970642089844
384;1673388669.5820901;47.129260099999996;7.238688799999999;50.16200256347656;1673388669.7068355;-55.54355239868164;-5.6916584968566895;-139.32937622070312
385;1673388669.7924845;47.1292526;7.238683999999999;50.1410026550293;1673388669.932519;-53.807884216308594;5.399227619171143;-147.02926635742188
386;1673388670.0542905;47.1292429;7.238678999999999;50.1150016784668;1673388670.151438;-49.219337463378906;11.767680168151855;-147.2503662109375
387;1673388670.2320132;47.1292316;7.2386737;50.095001220703125;1673388670.3448825;-51.59709167480469;16.5480899810791;-142.3888702392578
388;1673388670.4412444;47.129219299999995;7.2386671;50.09400177001953;1673388670.5395062;-53.386810302734375;16.090023040771484;-137.0348663330078
389;1673388670.612999;47.129206499999995;7.2386589;50.10400390625;1673388670.7206016;-47.224647521972656;18.11811637878418;-134.0501251220703
390;1673388670.8141048;47.129193799999996;7.238649199999999;50.11600112915039;1673388670.9127505;-41.46785354614258;24.957500457763672;-130.3555145263672
391;1673388671.0008402;47.129182;7.2386384999999995;50.11600112915039;1673388671.1079977;-29.18687629699707;32.661338806152344;-125.22500610351562
392;1673388671.1881318;47.129171799999995;7.2386273;50.10900115966797;1673388671.297771;-25.212142944335938;28.19936752319336;-122.4504623413086
393;1673388671.3775835;47.1291636;7.2386162999999994;50.09800338745117;1673388671.4874978;-15.509493827819824;24.40027618408203;-118.91130828857422
394;1673388671.575191;47.129157299999996;7.2386061999999995;50.086002349853516;1673388671.6885107;-15.964043617248535;22.655616760253906;-118.94044494628906
395;1673388671.7788823;47.1291525;7.2385977;50.077003479003906;1673388671.8897233;-17.12640953063965;20.375463485717773;-115.86845397949219
396;1673388671.9644463;47.1291492;7.2385905;50.066001892089844;1673388672.0684679;-17.16306495666504;17.72509765625;-114.34666442871094
397;1673388672.1529593;47.1291471;7.2385847;50.06900405883789;1673388672.2844086;-36.71311950683594;6.272212505340576;-121.5024185180664
398;1673388672.3776891;47.1291454;7.238579499999999;50.1510009765625;1673388672.4983044;-46.058658599853516;3.2243008613586426;-133.20635986328125
399;1673388672.5872338;47.1291423;7.2385734;50.30400085449219;1673388672.70456;-26.6312313079834;-2.698179006576538;-141.7288818359375
400;1673388672.7932634;47.129137799999995;7.2385679;50.499000549316406;1673388672.9047308;-20.92985725402832;2.5185039043426514;-140.84861755371094
401;1673388673.017584;47.1291326;7.238564299999999;50.78200149536133;1673388673.1097496;-26.466934204101562;8.923676490783691;-137.4544677734375
402;1673388673.1788106;47.1291272;7.2385617;51.12700271606445;1673388673.3033745;-50.59383010864258;25.512691497802734;-140.36744689941406
403;1673388673.3849232;47.1291212;7.2385579;51.51000213623047;1673388673.4958818;-52.98733139038086;22.997896194458008;-135.54026794433594
404;1673388673.5827336;47.1291146;7.2385511;51.84800338745117;1673388673.6902916;-50.699832916259766;22.403581619262695;-134.506591796875
405;1673388673.7652383;47.1291077;7.238542;52.15500259399414;1673388673.8709247;-48.329078674316406;18.171485900878906;-132.66127014160156
406;1673388673.9545417;47.1291005;7.238531099999999;52.445003509521484;1673388674.070337;-47.76701354980469;17.49321746826172;-132.6383819580078
407;1673388674.1716592;47.1290931;7.238518999999999;52.724002838134766;1673388674.298366;-48.227333068847656;16.818729400634766;-133.5186004638672
408;1673388674.3842993;47.1290853;7.2385059;52.983001708984375;1673388674.5001786;-45.60829162597656;15.250604629516602;-133.62208557128906
409;1673388674.582292;47.1290772;7.238492;53.22800064086914;1673388674.6909099;-36.789363861083984;11.914586067199707;-134.04464721679688
410;1673388674.775519;47.1290689;7.2384783;53.467002868652344;1673388674.8874412;-30.129650115966797;9.959980010986328;-134.96253967285156
411;1673388674.970194;47.129060599999995;7.238465499999999;53.72300338745117;1673388675.0861046;-33.78325653076172;9.317842483520508;-134.9148406982422
412;1673388675.1732621;47.1290522;7.2384536;54.01400375366211;1673388675.2875607;-35.963111877441406;14.702215194702148;-136.28231811523438
413;1673388675.3711112;47.1290439;7.2384422;54.332000732421875;1673388675.4954011;-43.65669631958008;18.667644500732422;-136.90794372558594
414;1673388675.5835423;47.1290354;7.2384305;54.67500305175781;1673388675.678796;-46.52104568481445;18.633047103881836;-135.99839782714844
415;1673388675.7546291;47.1290268;7.2384181;55.0150032043457;1673388675.882046;-44.68679428100586;16.956594467163086;-135.33909606933594
416;1673388675.9632084;47.129017999999995;7.2384048;55.342002868652344;1673388676.0742495;-39.4415397644043;13.022294044494629;-134.39439392089844
417;1673388676.166366;47.1290092;7.2383915;55.66800308227539;1673388676.2812672;-33.562835693359375;12.273051261901855;-135.29855346679688
418;1673388676.3674262;47.1290003;7.2383786;55.99700164794922;1673388676.4822006;-35.324623107910156;12.78632640838623;-135.53123474121094
419;1673388676.5696898;47.1289915;7.2383663;56.34100341796875;1673388676.6865716;-39.13096618652344;16.230587005615234;-136.2983856201172
420;1673388676.764231;47.128982799999996;7.2383542;56.70000457763672;1673388676.86958;-43.14527130126953;16.896785736083984;-136.03579711914062
