;pos_time;latitude;longitude;altitude;alt_time;pitch;roll;yaw
0;1673377348.7223494;47.1306425;7.2406198999999996;-0.01900000125169754;1673377348.8225145;-0.009473818354308605;-0.5905863642692566;90.60653686523438
1;1673377348.9255316;47.1306425;7.240619799999999;-0.018000001087784767;1673377349.0324516;0.30547279119491577;-0.4119676649570465;90.52314758300781
2;1673377349.132541;47.1306425;7.240619799999999;-0.01900000125169754;1673377349.240439;0.4385293126106262;-0.3073307275772095;90.52377319335938
3;1673377349.335648;47.1306424;7.240619799999999;-0.020000001415610313;1673377349.4435449;-0.13400202989578247;-0.0029479016084223986;90.54278564453125
4;1673377349.5270436;47.1306424;7.2406198999999996;-0.01600000075995922;1673377349.6252124;-0.0051504625007510185;-0.11046037822961807;90.3633041381836
5;1673377349.7233772;47.1306424;7.2406198999999996;-0.013000000268220901;1673377349.8188052;0.29504135251045227;-0.10437364131212234;90.643310546875
6;1673377349.9169512;47.1306424;7.24062;-0.012000000104308128;1673377350.031752;-0.09441592544317245;-0.15887834131717682;90.46078491210938
7;1673377350.1357737;47.1306424;7.24062;-0.013000000268220901;1673377350.2369075;0.06283558905124664;-0.03862672299146652;90.42664337158203
8;1673377350.3243155;47.1306424;7.2406201;-0.01600000075995922;1673377350.4166002;0.1624787151813507;-0.2487451732158661;90.47298431396484
9;1673377350.5093217;47.1306424;7.2406201;-0.017000000923871994;1673377350.6094522;-0.04168306663632393;-0.09930174797773361;90.49360656738281
10;1673377350.7178886;47.1306424;7.2406201999999995;-0.01600000075995922;1673377350.8287625;-0.3110513389110565;-0.20747065544128418;90.52730560302734
11;1673377350.9210436;47.1306424;7.2406203;-0.015000000596046448;1673377351.0416327;-0.1449517458677292;0.012479362078011036;90.53034210205078
12;1673377351.1407483;47.1306424;7.2406203;-0.01600000075995922;1673377351.2310784;-0.13031376898288727;-0.25316861271858215;90.54527282714844
13;1673377351.3360486;47.1306424;7.2406204;0.0;1673377351.4390686;0.08756716549396515;-1.5954562425613403;90.5688247680664
14;1673377351.541114;47.1306424;7.2406203;-0.003000000026077032;1673377351.646084;-0.2120450735092163;-0.8682873845100403;90.43063354492188
15;1673377351.7432475;47.1306424;7.2406203;-0.004000000189989805;1673377351.8429272;-0.1528371274471283;-1.3310459852218628;90.44624328613281
16;1673377351.9319186;47.1306424;7.2406201999999995;-0.0010000000474974513;1673377352.031947;-0.24479548633098602;-0.8697157502174377;90.38007354736328
17;1673377352.1242304;47.1306425;7.2406201;-0.0010000000474974513;1673377352.2312746;-0.12284333258867264;-1.1011059284210205;90.26486206054688
18;1673377352.3324246;47.1306425;7.24062;-0.004000000189989805;1673377352.4339674;0.24643033742904663;-1.5374361276626587;90.32482147216797
19;1673377352.5165207;47.1306425;7.24062;-0.007000000216066837;1673377352.6115913;0.05516349524259567;-2.047083854675293;90.27918243408203
20;1673377352.709423;47.1306425;7.24062;-0.01100000087171793;1673377352.8210049;0.30727383494377136;-1.724367618560791;89.75584411621094
21;1673377352.9126925;47.1306425;7.2406198999999996;-0.0010000000474974513;1673377353.0107121;0.31773391366004944;-2.209595203399658;89.68164825439453
22;1673377353.119598;47.1306425;7.2406198999999996;-0.003000000026077032;1673377353.231511;0.0913483202457428;-0.8164731860160828;89.19849395751953
23;1673377353.3342662;47.1306425;7.24062;0.0;1673377353.435603;0.36766883730888367;-0.6863657236099243;89.53192901611328
24;1673377353.5325816;47.130642599999995;7.24062;-0.0020000000949949026;1673377353.6305594;0.8755902647972107;-1.0062472820281982;88.49124145507812
25;1673377353.7254975;47.130642699999996;7.24062;-0.004000000189989805;1673377353.8305652;0.9441315531730652;-1.166020154953003;86.9649658203125
26;1673377353.9265077;47.1306428;7.24062;-0.00800000037997961;1673377354.0235722;1.4866302013397217;-1.1433451175689697;86.44036102294922
27;1673377354.1186578;47.130643;7.24062;-0.004000000189989805;1673377354.2245727;2.4809489250183105;-0.8760586380958557;84.6564712524414
28;1673377354.3194764;47.130643199999994;7.2406198999999996;0.0010000000474974513;1673377354.4254026;0.008060396648943424;-0.7787255048751831;71.5282211303711
29;1673377354.5200665;47.130643899999995;7.240619;-0.00800000037997961;1673377354.6235945;0.7632400989532471;-0.06943739205598831;70.88957977294922
30;1673377354.7095256;47.1306452;7.2406174;-0.013000000268220901;1673377354.8156803;-0.9781298041343689;3.931544542312622;74.71463775634766
31;1673377354.9126234;47.1306471;7.2406146;-0.004000000189989805;1673377355.013476;-4.758496284484863;8.099349021911621;78.6408920288086
32;1673377355.1165507;47.1306495;7.2406109999999995;0.007000000216066837;1673377355.2264032;-7.487148761749268;10.706777572631836;79.32402038574219
33;1673377355.3164225;47.1306522;7.240606799999999;0.026000000536441803;1673377355.4216595;-8.307596206665039;13.43874740600586;79.076904296875
34;1673377355.520354;47.1306552;7.240602;0.05700000375509262;1673377355.6224914;-9.32525634765625;14.468340873718262;79.1644058227539
35;1673377355.7167244;47.1306583;7.240596699999999;0.09100000560283661;1673377355.8197212;-10.894889831542969;15.201539993286133;79.38932800292969
36;1673377355.92439;47.130661499999995;7.2405914;0.12600000202655792;1673377356.022498;-12.244670867919922;17.077974319458008;79.41388702392578
37;1673377356.1196733;47.1306647;7.2405859999999995;0.16600000858306885;1673377356.2504673;-13.60377025604248;18.764629364013672;79.45311737060547
38;1673377356.3447013;47.1306678;7.2405807;0.20600001513957977;1673377356.4457693;-15.1566162109375;19.947961807250977;79.64864349365234
39;1673377356.5497837;47.130670699999996;7.2405757;0.24300001561641693;1673377356.6577783;-16.691272735595703;21.45621681213379;79.78536224365234
40;1673377356.7549722;47.1306734;7.2405710999999995;0.2840000092983246;1673377356.8654444;-18.222105026245117;22.975997924804688;79.87601470947266
41;1673377357.0051568;47.1306758;7.240566899999999;0.32600000500679016;1673377357.0955112;-19.8321590423584;24.34625816345215;80.1012954711914
42;1673377357.2053714;47.1306778;7.2405634;0.37300002574920654;1673377357.294756;-21.622793197631836;25.767202377319336;80.3598861694336
43;1673377357.385093;47.1306794;7.240560599999999;0.4230000078678131;1673377357.4832342;-23.406770706176758;27.084569931030273;80.72063446044922
44;1673377357.584301;47.1306806;7.2405585;0.47600001096725464;1673377357.6814644;-25.27822494506836;28.569555282592773;81.03807067871094
45;1673377357.7669122;47.1306813;7.2405573;0.5320000052452087;1673377357.8763387;-27.170764923095703;29.877363204956055;81.52415466308594
46;1673377357.9710467;47.130681499999994;7.2405572;0.5910000205039978;1673377358.0624042;-29.273237228393555;31.05982208251953;82.09342193603516
47;1673377358.144925;47.130680999999996;7.240558099999999;0.6540000438690186;1673377358.2421045;-31.371925354003906;32.35284423828125;82.73564147949219
48;1673377358.3402658;47.13068;7.2405601;0.718000054359436;1673377358.4384737;-33.61466979980469;33.540550231933594;83.4113998413086
49;1673377358.54051;47.1306781;7.2405631999999995;0.7850000262260437;1673377358.6407714;-36.24608612060547;34.425209045410156;84.3487548828125
50;1673377358.7355747;47.130675499999995;7.2405675;0.8530000448226929;1673377358.838628;-38.06874084472656;34.2847900390625;85.72691345214844
51;1673377358.926143;47.1306721;7.2405731;0.9220000505447388;1673377359.0272064;-34.73823928833008;30.41327667236328;88.14193725585938
52;1673377359.1204696;47.1306681;7.240579599999999;0.9850000739097595;1673377359.230379;-30.85628890991211;26.069602966308594;89.93295288085938
53;1673377359.3285723;47.130663899999995;7.2405864;1.0450000762939453;1673377359.4306624;-25.86511993408203;21.978801727294922;90.97974395751953
54;1673377359.530756;47.130659699999995;7.240593199999999;1.1040000915527344;1673377359.6298862;-20.75660514831543;18.156843185424805;91.39888763427734
55;1673377359.7329776;47.1306559;7.2405994;1.159000039100647;1673377359.8391209;-16.571805953979492;15.296690940856934;91.30325317382812
56;1673377359.936318;47.1306526;7.2406047;1.2050000429153442;1673377360.0315928;-14.128893852233887;13.636690139770508;90.94153594970703
57;1673377360.122964;47.130649899999995;7.2406087999999995;1.2480000257492065;1673377360.2186744;-13.114473342895508;13.863736152648926;90.26359558105469
58;1673377360.3232505;47.130648;7.2406118;1.2920000553131104;1673377360.4379823;-13.618592262268066;14.130170822143555;89.77355194091797
59;1673377360.542965;47.1306467;7.2406137;1.3410000801086426;1673377360.6420784;-15.048877716064453;14.387215614318848;89.54827880859375
60;1673377360.749976;47.1306459;7.2406147;1.4010000228881836;1673377360.8598874;-16.552141189575195;17.288209915161133;88.67500305175781
61;1673377360.9609542;47.1306454;7.2406152;1.4780000448226929;1673377361.0533006;-17.48301124572754;19.531251907348633;88.1263427734375
62;1673377361.152473;47.130645099999995;7.240615399999999;1.5690001249313354;1673377361.270203;-19.83388900756836;16.703998565673828;90.57958221435547
63;1673377361.3928175;47.130645;7.240615399999999;1.6700000762939453;1673377361.4831836;-21.288589477539062;19.278921127319336;90.26160430908203
64;1673377361.5735235;47.130645;7.2406155;1.7820000648498535;1673377361.6667974;-20.934770584106445;22.521162033081055;89.53643798828125
65;1673377361.754228;47.130645;7.2406156;1.902000069618225;1673377361.857299;-21.736024856567383;20.276222229003906;90.28948974609375
66;1673377361.9583647;47.130645;7.2406159;2.0329999923706055;1673377362.058454;-22.26653480529785;20.059579849243164;90.5844955444336
67;1673377362.1458557;47.1306448;7.2406163999999995;2.1710000038146973;1673377362.2430131;-21.27569580078125;22.454381942749023;90.05348205566406
68;1673377362.3392396;47.1306444;7.2406169;2.317000150680542;1673377362.4462554;-20.71527099609375;19.999446868896484;90.34263610839844
69;1673377362.5522497;47.1306441;7.2406175;2.4690001010894775;1673377362.6464605;-20.998258590698242;18.44057273864746;90.69099426269531
70;1673377362.730938;47.1306438;7.2406181;2.632000207901001;1673377362.836911;-19.312469482421875;21.200809478759766;89.84033966064453
71;1673377362.9361129;47.1306435;7.2406188;2.808000087738037;1673377363.045963;-19.008344650268555;19.82761573791504;90.05558776855469
72;1673377363.1431222;47.130643199999994;7.2406194;2.995000123977661;1673377363.2422383;-19.124618530273438;17.68406105041504;90.69674682617188
73;1673377363.3608668;47.130643;7.240619799999999;3.184000253677368;1673377363.4590063;-18.739484786987305;20.316904067993164;89.97358703613281
74;1673377363.5561693;47.130642699999996;7.24062;3.369000196456909;1673377363.6435716;-18.212730407714844;19.937137603759766;89.75745391845703
75;1673377363.7407348;47.1306425;7.2406201999999995;3.5510001182556152;1673377363.8418708;-19.146068572998047;16.67051124572754;90.68971252441406
76;1673377363.941962;47.1306425;7.2406201999999995;3.7340002059936523;1673377364.0469322;-18.99897575378418;19.72589111328125;90.01304626464844
77;1673377364.1354072;47.1306425;7.2406201999999995;3.9230000972747803;1673377364.2413802;-19.01422882080078;20.68758773803711;89.68267059326172
78;1673377364.3483043;47.130642599999995;7.2406201999999995;4.11400032043457;1673377364.4415903;-19.765789031982422;17.831344604492188;90.4377670288086
79;1673377364.5309417;47.130642599999995;7.2406201;4.302000045776367;1673377364.6320665;-19.95562171936035;19.61490249633789;90.0474624633789
80;1673377364.7341633;47.130642599999995;7.2406201;4.490000247955322;1673377364.8293905;-19.52297592163086;21.214038848876953;89.70946502685547
81;1673377364.9285033;47.1306425;7.24062;4.680000305175781;1673377365.0305467;-19.97688102722168;17.978389739990234;90.52426147460938
82;1673377365.128697;47.1306425;7.24062;4.872000217437744;1673377365.226866;-20.449861526489258;18.653968811035156;90.47865295410156
83;1673377365.3244698;47.1306425;7.24062;5.060000419616699;1673377365.4456017;-19.535751342773438;21.129228591918945;89.72637939453125
84;1673377365.5525632;47.1306424;7.24062;5.250000476837158;1673377365.6585786;-20.099063873291016;18.263700485229492;90.37750244140625
85;1673377365.7586663;47.1306424;7.2406201;5.442000389099121;1673377365.861749;-20.249454498291016;17.990297317504883;90.57585906982422
86;1673377365.9492426;47.1306424;7.2406201999999995;5.635000228881836;1673377366.0522811;-19.516582489013672;21.29138946533203;89.77962493896484
87;1673377366.1474946;47.1306424;7.2406203;5.830000400543213;1673377366.249537;-19.22447395324707;18.994749069213867;90.24658966064453
88;1673377366.3379147;47.1306424;7.2406204;6.026000499725342;1673377366.4389796;-20.014095306396484;17.76737403869629;90.55201721191406
89;1673377366.548828;47.1306425;7.2406204;6.2220001220703125;1673377366.6508696;-19.30875015258789;21.239473342895508;89.8343276977539
90;1673377366.7441268;47.1306425;7.2406204999999995;6.4150004386901855;1673377366.8501592;-19.25263023376465;19.648033142089844;90.20957946777344
91;1673377366.9561021;47.130642599999995;7.2406204999999995;6.609000205993652;1673377367.0630283;-19.966909408569336;17.633193969726562;90.7090072631836
92;1673377367.1543343;47.130642599999995;7.2406204999999995;6.803000450134277;1673377367.247591;-19.563753128051758;20.68741226196289;89.9771728515625
93;1673377367.3398736;47.1306425;7.2406204999999995;6.997000217437744;1673377367.4428937;-19.354949951171875;20.131010055541992;89.93915557861328
94;1673377367.534196;47.1306425;7.2406204999999995;7.191000461578369;1673377367.6352599;-20.01142692565918;17.695730209350586;90.6541976928711
95;1673377367.7402453;47.130642599999995;7.2406204999999995;7.385000228881836;1673377367.8394296;-19.82223129272461;20.396194458007812;90.1064224243164
96;1673377367.9346385;47.130642599999995;7.2406204999999995;7.584000587463379;1673377368.0386314;-19.43815803527832;21.070125579833984;89.77227783203125
97;1673377368.169067;47.130642599999995;7.2406204999999995;7.783000469207764;1673377368.270169;-20.000350952148438;18.049518585205078;90.44207000732422
98;1673377368.350762;47.1306425;7.2406204999999995;7.9810004234313965;1673377368.4518359;-20.120800018310547;19.371793746948242;90.2384262084961
99;1673377368.552969;47.1306425;7.2406204999999995;8.182000160217285;1673377368.6539981;-19.35675048828125;20.884557723999023;89.83686828613281
100;1673377368.7424464;47.1306424;7.2406206;8.384000778198242;1673377368.8397398;-19.779617309570312;17.895023345947266;90.56290435791016
101;1673377368.9368992;47.1306424;7.2406206;8.589000701904297;1673377369.037967;-20.03618049621582;18.240480422973633;90.50410461425781
102;1673377369.140992;47.1306424;7.2406207;8.793000221252441;1673377369.2469501;-19.137413024902344;21.34917449951172;89.68681335449219
103;1673377369.3431501;47.1306424;7.240620799999999;8.996000289916992;1673377369.4393342;-19.549345016479492;18.55571937561035;90.37307739257812
104;1673377369.54041;47.1306425;7.240620799999999;9.195000648498535;1673377369.6502984;-19.908702850341797;18.368087768554688;90.4807357788086
105;1673377369.751377;47.1306424;7.240620799999999;9.398000717163086;1673377369.8554025;-19.514657974243164;21.29759407043457;89.7626724243164
106;1673377369.95259;47.1306424;7.2406207;9.60300064086914;1673377370.0507858;-19.482141494750977;19.304851531982422;90.18160247802734
107;1673377370.1499226;47.1306424;7.2406207;9.807000160217285;1673377370.2422066;-20.253114700317383;17.772655487060547;90.59764862060547
108;1673377370.3384879;47.1306425;7.2406207;10.01400089263916;1673377370.4463863;-19.672998428344727;20.316864013671875;89.94243621826172
109;1673377370.5543258;47.1306425;7.2406207;10.238000869750977;1673377370.6535435;-19.373193740844727;19.390159606933594;90.4684829711914
110;1673377370.747791;47.1306423;7.2406209;10.563000679016113;1673377370.8665318;-22.94506072998047;20.421321868896484;90.39798736572266
111;1673377370.9579015;47.130641999999995;7.2406213;10.951000213623047;1673377371.0521042;-21.09521484375;20.51308250427246;90.35086059570312
112;1673377371.1434147;47.1306416;7.240622;11.347000122070312;1673377371.248399;-18.743637084960938;19.695154190063477;89.77535247802734
113;1673377371.3475127;47.1306412;7.240622699999999;11.749000549316406;1673377371.4534779;-17.99740219116211;16.69440460205078;90.48931884765625
114;1673377371.5516114;47.130641;7.240623299999999;12.156000137329102;1673377371.6507528;-17.23089027404785;17.376489639282227;90.3138656616211
115;1673377371.75084;47.130640899999996;7.240623599999999;12.568000793457031;1673377371.8549423;-16.430185317993164;18.95456886291504;89.80084991455078
116;1673377371.9569793;47.130640799999995;7.2406236999999996;12.976000785827637;1673377372.0541794;-16.838228225708008;16.83622169494629;90.28934478759766
117;1673377372.151448;47.130640899999996;7.240623599999999;13.382000923156738;1673377372.2497003;-17.71002960205078;17.051502227783203;90.31875610351562
118;1673377372.3430133;47.130641;7.240623299999999;13.794000625610352;1673377372.4431076;-17.71999168395996;19.81389617919922;89.71963500976562
119;1673377372.5393307;47.1306411;7.2406229;14.210000991821289;1673377372.636536;-18.344947814941406;18.137737274169922;90.18891143798828
120;1673377372.7312038;47.130641399999995;7.2406225;14.625000953674316;1673377372.8368;-19.57117462158203;17.45348358154297;90.5365219116211
121;1673377372.9438;47.1306416;7.2406220999999995;15.03800106048584;1673377373.0517747;-19.51291275024414;20.726457595825195;89.81910705566406
122;1673377373.1568015;47.1306418;7.240621699999999;15.449000358581543;1673377373.2511263;-19.429161071777344;19.616952896118164;90.19207000732422
123;1673377373.3502703;47.1306419;7.240621399999999;15.856000900268555;1673377373.456212;-20.253355026245117;18.01508903503418;90.52770233154297
124;1673377373.549471;47.130641999999995;7.2406212;16.256000518798828;1673377373.6408176;-19.999088287353516;19.706939697265625;90.05335998535156
125;1673377373.7370136;47.130641999999995;7.240621099999999;16.65999984741211;1673377373.8392525;-19.497379302978516;20.21382713317871;89.9469223022461
126;1673377373.9403014;47.130641999999995;7.240621099999999;17.067001342773438;1673377374.0433557;-19.64356231689453;17.765764236450195;90.72010803222656
127;1673377374.1365716;47.130642099999996;7.2406212;17.475000381469727;1673377374.2435555;-19.54424285888672;19.169933319091797;90.37113952636719
128;1673377374.3446248;47.130642099999996;7.2406212;17.88300132751465;1673377374.446695;-18.77085304260254;20.676198959350586;89.88494110107422
129;1673377374.5448873;47.130642099999996;7.2406213;18.288000106811523;1673377374.6449833;-18.86868667602539;18.126617431640625;90.37608337402344
130;1673377374.7402549;47.130642099999996;7.2406213;18.68600082397461;1673377374.8463914;-19.110631942749023;18.283334732055664;90.35832977294922
131;1673377374.9494836;47.130642099999996;7.2406213;19.08500099182129;1673377375.0495777;-18.71583366394043;20.570066452026367;89.83087158203125
132;1673377375.1486888;47.130642099999996;7.2406212;19.488000869750977;1673377375.236535;-18.73350715637207;18.596479415893555;90.33029174804688
133;1673377375.3317459;47.130642099999996;7.2406212;19.89000129699707;1673377375.4328113;-19.521488189697266;17.91814422607422;90.53977966308594
134;1673377375.5402596;47.1306422;7.240621099999999;20.292001724243164;1673377375.6432745;-18.92561149597168;20.51976776123047;89.89208984375
135;1673377375.7415197;47.1306422;7.240621;20.694000244140625;1673377375.85333;-18.897207260131836;19.51798439025879;90.07772827148438
136;1673377375.9593613;47.1306422;7.240621;21.09600067138672;1673377376.0653632;-19.35239028930664;17.56511878967285;90.66577911376953
137;1673377376.1634817;47.1306422;7.240621;21.494001388549805;1673377376.2860205;-19.156982421875;19.92073631286621;90.03425598144531
138;1673377376.3948882;47.130642099999996;7.2406209;21.894001007080078;1673377376.5086982;-18.767786026000977;20.124752044677734;89.93267059326172
139;1673377376.6019998;47.130642099999996;7.240620799999999;22.296001434326172;1673377376.6983135;-19.45298957824707;17.621864318847656;90.52664184570312
140;1673377376.7847648;47.1306422;7.240620799999999;22.69900131225586;1673377376.9064257;-19.461441040039062;19.784997940063477;90.11952209472656
141;1673377377.030963;47.1306422;7.240620799999999;23.102001190185547;1673377377.1125078;-18.855688095092773;20.50653839111328;89.89048767089844
142;1673377377.1960013;47.1306422;7.240620799999999;23.503000259399414;1673377377.2941427;-19.47916603088379;17.925722122192383;90.49111938476562
143;1673377377.382537;47.1306422;7.240620799999999;23.900001525878906;1673377377.4738343;-19.446388244628906;18.622358322143555;90.33598327636719
144;1673377377.5690296;47.130642099999996;7.240620799999999;24.302001953125;1673377377.6652288;-19.00585174560547;20.780702590942383;89.82215881347656
145;1673377377.7575078;47.130642099999996;7.240620799999999;24.70400047302246;1673377377.8490524;-18.884891510009766;18.639047622680664;90.2928695678711
146;1673377377.9452505;47.1306422;7.2406209;25.10700035095215;1673377378.052171;-19.487159729003906;18.371145248413086;90.52599334716797
147;1673377378.1551843;47.1306422;7.2406209;25.511001586914062;1673377378.26796;-18.841449737548828;20.782703399658203;89.8737564086914
148;1673377378.3700037;47.1306422;7.2406209;25.915000915527344;1673377378.4739952;-18.949384689331055;18.86075210571289;90.2904052734375
149;1673377378.5789814;47.1306422;7.2406209;26.319002151489258;1673377378.6801333;-19.445438385009766;17.715669631958008;90.6236343383789
150;1673377378.7773516;47.1306422;7.2406209;26.71700096130371;1673377378.8872957;-18.957632064819336;20.4672908782959;89.86148834228516
151;1673377379.0176785;47.130642099999996;7.240620799999999;27.119001388549805;1673377379.1041377;-18.780241012573242;19.757301330566406;89.93499755859375
152;1673377379.1944818;47.1306422;7.240620799999999;27.522001266479492;1673377379.2975938;-19.47925567626953;17.537010192871094;90.56089782714844
153;1673377379.3928392;47.1306422;7.240620799999999;27.926000595092773;1673377379.4753706;-19.186016082763672;20.040571212768555;90.07552337646484
154;1673377379.5608284;47.1306423;7.240620799999999;28.328001022338867;1673377379.6696985;-18.99279022216797;20.174245834350586;89.95735931396484
155;1673377379.7668874;47.1306423;7.240620799999999;28.73200225830078;1673377379.871929;-19.532581329345703;17.567209243774414;90.65142059326172
156;1673377379.9661932;47.1306423;7.2406207;29.12900161743164;1673377380.064296;-19.395402908325195;19.455204010009766;90.2069091796875
157;1673377380.1566312;47.1306423;7.2406207;29.532001495361328;1673377380.2645316;-18.860065460205078;20.556501388549805;89.93281555175781
158;1673377380.372479;47.1306423;7.2406207;29.934001922607422;1673377380.4628649;-19.28445053100586;18.074533462524414;90.44957733154297
159;1673377380.5571678;47.1306424;7.240620799999999;30.339000701904297;1673377380.65823;-19.43904685974121;18.986675262451172;90.37773132324219
160;1673377380.7563684;47.1306425;7.240620799999999;30.740001678466797;1673377380.8643086;-18.99148941040039;21.049694061279297;89.92443084716797
161;1673377380.9693491;47.1306425;7.2406209;31.139001846313477;1673377381.0714107;-18.915544509887695;18.98497772216797;90.46001434326172
162;1673377381.188076;47.1306425;7.2406209;31.540000915527344;1673377381.2901554;-19.490854263305664;18.31679916381836;90.54396057128906
163;1673377381.3853562;47.1306425;7.2406209;31.935001373291016;1673377381.4757123;-18.810144424438477;20.91701889038086;89.78787994384766
164;1673377381.573841;47.1306424;7.2406209;32.33300018310547;1673377381.6749635;-18.75152587890625;19.15973472595215;90.16839599609375
165;1673377381.7730985;47.1306425;7.2406209;32.73200225830078;1673377381.875172;-19.416919708251953;18.154827117919922;90.50102233886719
166;1673377381.9781888;47.1306425;7.2406209;33.134002685546875;1673377382.077311;-18.92138671875;20.577123641967773;90.03784942626953
167;1673377382.1764727;47.1306425;7.2406209;33.538002014160156;1673377382.2833924;-18.953001022338867;19.757837295532227;90.15597534179688
168;1673377382.37958;47.1306424;7.240620799999999;33.939002990722656;1673377382.4757972;-19.4725399017334;17.719633102416992;90.50843811035156
169;1673377382.560274;47.1306424;7.240620799999999;34.33500289916992;1673377382.6623154;-19.09649658203125;20.085721969604492;89.9805679321289
170;1673377382.7614324;47.1306423;7.240620799999999;34.73800277709961;1673377382.862543;-18.698925018310547;20.575111389160156;89.79065704345703
171;1673377382.9577513;47.1306423;7.240620799999999;35.143001556396484;1673377383.067606;-19.304399490356445;17.65914535522461;90.57440948486328
172;1673377383.1686823;47.1306424;7.240620799999999;35.54800033569336;1673377383.275617;-19.213457107543945;19.619375228881836;90.17144775390625
173;1673377383.3679028;47.1306425;7.240620799999999;35.95100021362305;1673377383.467996;-18.534317016601562;20.85317039489746;89.88626098632812
174;1673377383.5680783;47.1306425;7.240620799999999;36.35200119018555;1673377383.6701334;-19.14307975769043;18.15102767944336;90.49095916748047
175;1673377383.7643573;47.1306425;7.2406207;36.75400161743164;1673377383.8664582;-19.365001678466797;18.91519546508789;90.34773254394531
176;1673377383.9626424;47.1306425;7.2406206;37.150001525878906;1673377384.058834;-18.870208740234375;20.90462875366211;89.75537109375
177;1673377384.15014;47.1306425;7.2406204999999995;37.551002502441406;1673377384.2541635;-19.079444885253906;18.51801872253418;90.41586303710938
178;1673377384.3601136;47.1306425;7.2406204999999995;37.952003479003906;1673377384.4699748;-19.771448135375977;18.400590896606445;90.544921875
179;1673377384.56624;47.1306425;7.2406204;38.35200119018555;1673377384.678039;-18.931198120117188;20.96788215637207;89.94898223876953
180;1673377384.7830074;47.130642599999995;7.2406204;38.749000549316406;1673377384.888992;-19.20250701904297;19.123823165893555;90.25934600830078
181;1673377384.9812717;47.130642599999995;7.2406204;39.14900207519531;1673377385.0823643;-19.531919479370117;18.119321823120117;90.61498260498047
182;1673377385.1707447;47.1306425;7.2406204;39.54500198364258;1673377385.2698658;-19.251161575317383;20.740585327148438;89.97364044189453
183;1673377385.384586;47.1306425;7.2406204;39.94600296020508;1673377385.4876022;-18.847848892211914;19.881099700927734;90.13379669189453
184;1673377385.5772297;47.1306425;7.2406203;40.34800338745117;1673377385.6666083;-19.729660034179688;17.842527389526367;90.62779998779297
185;1673377385.7569866;47.130642599999995;7.2406203;40.749000549316406;1673377385.8629558;-19.258089065551758;20.352800369262695;90.10771179199219
186;1673377385.9679263;47.130642599999995;7.2406203;41.14900207519531;1673377386.069968;-18.9543399810791;20.345125198364258;89.94435119628906
187;1673377386.1690984;47.130642599999995;7.2406203;41.54800033569336;1673377386.2896845;-19.40787124633789;17.99542236328125;90.5333023071289
188;1673377386.400539;47.1306425;7.2406203;41.95000076293945;1673377386.510396;-19.241687774658203;19.69249725341797;90.2677230834961
189;1673377386.6007159;47.1306425;7.2406204;42.34400177001953;1673377386.694964;-18.771480560302734;20.82638168334961;89.80122375488281
190;1673377386.78919;47.1306425;7.2406204;42.742000579833984;1673377386.9059165;-19.0485897064209;18.402690887451172;90.49465942382812
191;1673377387.006027;47.130642599999995;7.2406204;43.13800048828125;1673377387.1002624;-19.572582244873047;19.085622787475586;90.42459869384766
192;1673377387.201327;47.130642599999995;7.2406204;43.535003662109375;1673377387.2946045;-18.788957595825195;21.133407592773438;89.81644439697266
193;1673377387.3946922;47.130642599999995;7.2406204;43.93300247192383;1673377387.4899223;-19.004798889160156;18.936901092529297;90.30224609375
194;1673377387.5831847;47.1306425;7.2406204;44.327003479003906;1673377387.6861825;-19.483518600463867;18.120689392089844;90.5579605102539
195;1673377387.7882206;47.1306425;7.2406204;44.71900177001953;1673377387.884463;-18.892858505249023;20.709529876708984;89.8631362915039
196;1673377387.9747994;47.1306424;7.2406203;45.11600112915039;1673377388.0768325;-18.831090927124023;19.46978187561035;90.1523666381836
197;1673377388.1886313;47.1306424;7.2406203;45.51700210571289;1673377388.3034172;-19.519775390625;17.914226531982422;90.60547637939453
198;1673377388.384004;47.1306425;7.2406203;45.91800308227539;1673377388.4782352;-19.0145263671875;20.627735137939453;89.927490234375
199;1673377388.5734477;47.1306425;7.2406204;46.320003509521484;1673377388.678429;-18.838226318359375;20.2399959564209;90.00096893310547
200;1673377388.78732;47.1306425;7.2406204;46.71900177001953;1673377388.8884149;-19.233667373657227;18.076744079589844;90.5729751586914
201;1673377388.9826458;47.1306425;7.2406203;47.117000579833984;1673377389.090561;-19.420785903930664;19.865577697753906;90.24927520751953
202;1673377389.186743;47.1306425;7.2406203;47.51000213623047;1673377389.2907665;-18.781503677368164;20.83258819580078;89.88799285888672
203;1673377389.389872;47.1306425;7.2406203;47.909000396728516;1673377389.4928708;-19.518430709838867;18.57305145263672;90.54558563232422
204;1673377389.5900428;47.130642599999995;7.2406201999999995;48.28300094604492;1673377389.701856;-19.411588668823242;20.4668025970459;89.99674224853516
205;1673377389.7989998;47.130642599999995;7.2406201;48.60300064086914;1673377389.8932834;-19.501026153564453;20.835166931152344;89.94649505615234
206;1673377389.988529;47.130642699999996;7.2406198999999996;48.871002197265625;1673377390.0866544;-20.187274932861328;19.500713348388672;90.33340454101562
207;1673377390.1877174;47.1306429;7.2406196;49.09300231933594;1673377390.2907405;-20.550270080566406;21.417415618896484;90.05399322509766
208;1673377390.387893;47.1306431;7.2406193;49.272003173828125;1673377390.495787;-17.03898048400879;26.13349723815918;90.08329010009766
209;1673377390.6007555;47.130643199999994;7.2406188;49.427001953125;1673377390.6979427;-2.283935308456421;40.00321960449219;100.4619140625
210;1673377390.7960877;47.1306425;7.240616999999999;49.57200241088867;1673377390.8914351;0.9489684104919434;53.9832763671875;112.3586196899414
211;1673377390.9867027;47.1306401;7.2406123;49.69400405883789;1673377391.087775;-5.6927876472473145;63.633331298828125;121.7730484008789
212;1673377391.1937196;47.1306356;7.2406036;49.762001037597656;1673377391.2899597;-18.330862045288086;54.700843811035156;132.07022094726562
213;1673377391.383334;47.1306291;7.2405909;49.79600143432617;1673377391.4775803;-28.617473602294922;50.06830596923828;142.10125732421875
214;1673377391.572787;47.130620799999996;7.240575;49.820003509521484;1673377391.6689706;-39.098243713378906;48.28490447998047;151.11834716796875
215;1673377391.7661293;47.1306112;7.2405558999999995;49.81700134277344;1673377391.8663447;-45.984580993652344;37.62834930419922;161.41580200195312
216;1673377391.992794;47.130600199999996;7.2405344;49.797000885009766;1673377392.092874;-47.343101501464844;28.870197296142578;171.2821044921875
217;1673377392.1783202;47.1305881;7.2405111;49.76700210571289;1673377392.27841;-48.236568450927734;23.556440353393555;179.5977783203125
218;1673377392.3785539;47.1305753;7.2404861;49.72600173950195;1673377392.4836137;-48.21581268310547;16.132078170776367;-172.4045867919922
219;1673377392.577844;47.1305621;7.2404597;49.68300247192383;1673377392.679885;-48.18975067138672;8.918160438537598;-164.65814208984375
220;1673377392.790705;47.1305486;7.2404323999999995;49.64800262451172;1673377392.8869398;-48.757144927978516;-2.170973062515259;-157.69117736816406
221;1673377392.9928813;47.130534999999995;7.2404049;49.612003326416016;1673377393.0891008;-39.7132568359375;-1.9620188474655151;-170.71543884277344
222;1673377393.183386;47.1305213;7.2403778;49.544002532958984;1673377393.293195;-31.034486770629883;1.2560466527938843;174.2116241455078
223;1673377393.4050522;47.1305082;7.2403521;49.47900390625;1673377393.503224;-29.835880279541016;3.8712716102600098;164.15426635742188
224;1673377393.5867302;47.1304959;7.240328099999999;49.452003479003906;1673377393.6781118;-36.09140396118164;11.15890884399414;154.203125
225;1673377393.801653;47.1304841;7.2403058;49.47700119018555;1673377393.904694;-42.37128829956055;15.556175231933594;145.1261444091797
226;1673377394.0292122;47.1304723;7.2402853;49.53700256347656;1673377394.1429448;-44.84453201293945;27.94899559020996;134.56124877929688
227;1673377394.2216043;47.13046;7.240266699999999;49.61600112915039;1673377394.3148742;-44.37358474731445;32.4255485534668;126.8025894165039
228;1673377394.413975;47.1304468;7.240250199999999;49.69600296020508;1673377394.51798;-45.64921951293945;32.08944320678711;126.05741882324219
229;1673377394.6063516;47.130433;7.240235299999999;49.7760009765625;1673377394.7064342;-50.79507064819336;25.424631118774414;131.57916259765625
230;1673377394.8016548;47.1304186;7.240221999999999;49.840003967285156;1673377394.9008915;-49.585357666015625;-0.5387938618659973;136.3859405517578
231;1673377394.9932117;47.130404299999995;7.2402112999999995;49.87200164794922;1673377395.1021028;-42.32740020751953;-18.5549373626709;132.4358367919922
232;1673377395.2051187;47.130391499999995;7.2402042;49.89200210571289;1673377395.31204;-38.79547119140625;-27.634811401367188;132.50613403320312
233;1673377395.4150875;47.130381;7.240200499999999;49.89200210571289;1673377395.5171466;-29.33221435546875;-29.490734100341797;131.55972290039062
234;1673377395.6065106;47.130373299999995;7.2401995999999995;49.89800262451172;1673377395.6939163;-25.351774215698242;-28.88277816772461;132.42762756347656
235;1673377395.8096092;47.130368399999995;7.240200799999999;49.919002532958984;1673377395.9165688;-25.171905517578125;-40.88351821899414;143.23956298828125
236;1673377396.0138516;47.130365999999995;7.2402045;49.96800231933594;1673377396.1149273;-16.736391067504883;-40.833404541015625;155.34500122070312
237;1673377396.2101352;47.1303659;7.2402105;50.018001556396484;1673377396.3482904;-8.182044982910156;-34.49555587768555;169.749755859375
238;1673377396.437637;47.130367299999996;7.2402175;50.06500244140625;1673377396.5269923;-6.294876575469971;-26.991985321044922;-179.9331512451172
239;1673377396.6036563;47.1303698;7.2402248;50.10300064086914;1673377396.6978955;-11.873383522033691;-20.581262588500977;-171.5669403076172
240;1673377396.7960255;47.130372799999996;7.2402315999999995;50.12300109863281;1673377396.9030461;-19.486936569213867;-18.122486114501953;-163.10882568359375
241;1673377396.9944093;47.1303754;7.2402371;50.13800048828125;1673377397.0906034;-27.817514419555664;-17.51279640197754;-154.4517364501953
242;1673377397.1819196;47.130377499999994;7.240240999999999;50.15400314331055;1673377397.2781038;-35.86792755126953;-19.096168518066406;-145.37071228027344
243;1673377397.3811219;47.1303784;7.240242599999999;50.17900085449219;1673377397.4909697;-41.93794250488281;-22.927616119384766;-136.6683807373047
244;1673377397.5891068;47.1303778;7.2402413;50.208003997802734;1673377397.697983;-47.32327651977539;-26.7501163482666;-130.5574493408203
245;1673377397.790314;47.130375199999996;7.240236899999999;50.21900177001953;1673377397.8875375;-52.12208557128906;-24.439117431640625;-132.91064453125
246;1673377397.9837356;47.1303705;7.240229299999999;50.22500228881836;1673377398.078937;-53.15259552001953;-17.75202178955078;-137.16639709472656
247;1673377398.178064;47.1303634;7.2402185;50.22700119018555;1673377398.2898674;-55.795387268066406;-14.663080215454102;-140.8408203125
248;1673377398.38315;47.1303547;7.240205;50.215003967285156;1673377398.4910488;-54.64508056640625;-12.453458786010742;-142.6652374267578
249;1673377398.589183;47.1303446;7.240189099999999;50.19600296020508;1673377398.6941557;-52.44822311401367;-11.913820266723633;-141.7874755859375
250;1673377398.8059635;47.1303335;7.240170999999999;50.172000885009766;1673377398.907123;-51.73878479003906;-12.067094802856445;-140.8610076904297
251;1673377399.007196;47.1303215;7.240151099999999;50.1400032043457;1673377399.105353;-51.6442985534668;-12.68482494354248;-140.00401306152344
252;1673377399.2045;47.130308799999995;7.2401297;50.10300064086914;1673377399.3046157;-48.199134826660156;-12.974360466003418;-139.6943817138672
253;1673377399.3988247;47.1302956;7.240107;50.053001403808594;1673377399.5311315;-46.69110107421875;-14.096353530883789;-139.45510864257812
254;1673377399.6263678;47.130282099999995;7.2400835;50.00300216674805;1673377399.7499714;-45.52364730834961;-14.773995399475098;-139.5269012451172
255;1673377399.8379102;47.1302683;7.2400592999999995;49.9630012512207;1673377399.9170873;-43.99893569946289;-15.960851669311523;-139.58804321289062
256;1673377400.00352;47.1302544;7.2400348;49.93400192260742;1673377400.106537;-44.976688385009766;-17.418495178222656;-139.8605499267578
257;1673377400.2007947;47.130240199999996;7.2400101;49.9160041809082;1673377400.2989504;-46.55795669555664;-19.806575775146484;-141.39300537109375
258;1673377400.4205532;47.1302257;7.2399856;49.913002014160156;1673377400.5225775;-47.18230438232422;-18.316041946411133;-151.66346740722656
259;1673377400.6188488;47.1302107;7.2399618;49.91100311279297;1673377400.7111418;-46.68623352050781;-12.310736656188965;-162.1779327392578
260;1673377400.7917092;47.1301954;7.239939199999999;49.90800094604492;1673377400.8879738;-45.53969192504883;-7.471928596496582;-170.49655151367188
261;1673377400.9812827;47.130179899999995;7.2399176;49.90400314331055;1673377401.0843582;-44.19457244873047;-3.7164816856384277;-179.28077697753906
262;1673377401.1766686;47.1301646;7.239897099999999;49.89200210571289;1673377401.2826717;-42.064231872558594;-0.2849336862564087;171.42330932617188
263;1673377401.3847492;47.1301494;7.239878;49.87600326538086;1673377401.4907057;-39.86020278930664;2.5818874835968018;162.70352172851562
264;1673377401.5917854;47.1301346;7.239860299999999;49.86300277709961;1673377401.7026227;-40.231842041015625;-3.1896955966949463;155.7329559326172
265;1673377401.8056686;47.130120299999994;7.239844499999999;49.842002868652344;1673377401.926345;-35.10087966918945;-24.761348724365234;145.0179443359375
266;1673377402.007949;47.130107599999995;7.2398318999999995;49.81300354003906;1673377402.0943825;-32.34147262573242;-27.840160369873047;134.21180725097656
267;1673377402.1886423;47.1300975;7.2398232;49.77400207519531;1673377402.2868392;-19.196916580200195;-20.097572326660156;134.3938446044922
268;1673377402.3821096;47.130089899999994;7.239816599999999;49.73400115966797;1673377402.4861188;-10.257048606872559;-31.365943908691406;157.33546447753906
269;1673377402.57741;47.1300849;7.239812199999999;49.76100158691406;1673377402.674626;-1.3728328943252563;-47.50638198852539;169.65606689453125
270;1673377402.7728825;47.1300823;7.2398107;49.81500244140625;1673377402.8769367;8.070098876953125;-46.508270263671875;-179.9528045654297
271;1673377402.9761112;47.130081999999994;7.2398121;49.85700225830078;1673377403.076244;11.804222106933594;-42.881004333496094;-168.13604736328125
272;1673377403.1802351;47.1300835;7.2398161;49.92900085449219;1673377403.2804072;13.830007553100586;-38.90605545043945;-156.21092224121094
273;1673377403.3775978;47.1300861;7.239821999999999;49.993003845214844;1673377403.5040796;9.504551887512207;-34.777896881103516;-146.8350372314453
274;1673377403.6129928;47.1300892;7.2398286999999995;50.0420036315918;1673377403.7287552;2.3132338523864746;-33.157997131347656;-140.01707458496094
275;1673377403.822103;47.1300923;7.2398355;50.077003479003906;1673377403.9271624;-3.8647239208221436;-31.962329864501953;-132.24087524414062
276;1673377404.0243206;47.130094899999996;7.2398419;50.09700393676758;1673377404.1234312;-6.626790523529053;-32.651222229003906;-130.46206665039062
277;1673377404.217693;47.1300968;7.2398473999999995;50.11100387573242;1673377404.3187685;-13.55024242401123;-32.69206237792969;-134.32867431640625
278;1673377404.414937;47.130097799999994;7.2398519;50.13100051879883;1673377404.5150304;-18.93044090270996;-31.858869552612305;-136.8767547607422
279;1673377404.6083195;47.130097899999996;7.2398552;50.1400032043457;1673377404.7123158;-22.695926666259766;-31.122577667236328;-137.69944763183594
280;1673377404.8115063;47.1300968;7.239857199999999;50.15900421142578;1673377404.907714;-30.604997634887695;-30.01845359802246;-137.51528930664062
281;1673377405.0020342;47.1300945;7.2398577;50.18400192260742;1673377405.1109543;-39.9495964050293;-28.264331817626953;-137.30508422851562
282;1673377405.2051945;47.1300909;7.2398564;50.20600128173828;1673377405.3141568;-47.41438674926758;-23.73534393310547;-138.01846313476562
283;1673377405.4152584;47.1300856;7.2398526;50.22600173950195;1673377405.5193033;-54.05881118774414;-13.941675186157227;-139.00241088867188
284;1673377405.620422;47.130078499999996;7.2398454999999995;50.24400329589844;1673377405.7186642;-58.32791519165039;-9.972843170166016;-139.33900451660156
285;1673377405.818777;47.1300698;7.2398343999999994;50.233001708984375;1673377405.9189508;-54.21714401245117;-9.188669204711914;-139.76992797851562
286;1673377406.0064018;47.1300598;7.2398197;50.2030029296875;1673377406.1134129;-50.85244369506836;-7.716066837310791;-142.05386352539062
287;1673377406.207643;47.130049;7.239802399999999;50.178001403808594;1673377406.3116357;-51.05879592895508;-9.799140930175781;-141.92626953125
288;1673377406.3961642;47.1300374;7.2397829;50.150001525878906;1673377406.5138485;-48.98406219482422;-10.429620742797852;-141.43887329101562
289;1673377406.6178975;47.1300253;7.2397616;50.121002197265625;1673377406.7228987;-49.70906066894531;-13.407380104064941;-140.2398223876953
290;1673377406.8279579;47.1300126;7.2397390999999995;50.09300231933594;1673377406.9418654;-50.15107727050781;-14.389517784118652;-139.87059020996094
291;1673377407.0283585;47.129999399999996;7.2397155;50.060001373291016;1673377407.1265075;-48.223323822021484;-14.799287796020508;-139.70802307128906
292;1673377407.2071488;47.1299858;7.239691199999999;50.02700424194336;1673377407.3024187;-46.647090911865234;-15.496606826782227;-139.51251220703125
293;1673377407.4006128;47.1299718;7.2396664;49.99500274658203;1673377407.5085306;-44.77517318725586;-16.809574127197266;-139.61727905273438
294;1673377407.6047785;47.1299576;7.2396414;49.97300338745117;1673377407.7107012;-44.83503723144531;-17.99172019958496;-140.0969696044922
295;1673377407.804991;47.1299432;7.2396163;49.95600128173828;1673377407.9149323;-45.9986572265625;-16.754600524902344;-140.58399963378906
296;1673377408.0120883;47.1299285;7.239591099999999;49.939002990722656;1673377408.1346402;-44.628238677978516;-16.728456497192383;-140.32997131347656
297;1673377408.2259474;47.129913699999996;7.239566;49.926002502441406;1673377408.3211923;-44.323848724365234;-16.97504425048828;-140.46279907226562
298;1673377408.4232886;47.1298988;7.239541;49.92100143432617;1673377408.5253613;-46.8855094909668;-21.24036407470703;-143.65992736816406
299;1673377408.6547492;47.1298836;7.239516399999999;49.926002502441406;1673377408.7567923;-48.263710021972656;-16.659603118896484;-155.79212951660156
300;1673377408.844733;47.129867999999995;7.239492599999999;49.928001403808594;1673377408.9414053;-47.02271270751953;-10.789369583129883;-165.6745147705078
301;1673377409.0375779;47.129852199999995;7.2394699;49.919002532958984;1673377409.1562252;-45.02399826049805;-5.8143205642700195;-174.4253692626953
302;1673377409.2465644;47.1298363;7.2394484;49.90200424194336;1673377409.3740168;-42.26176071166992;0.505641520023346;176.63778686523438
303;1673377409.468304;47.1298205;7.2394281;49.88600158691406;1673377409.5576634;-41.995277404785156;6.16972017288208;168.3818359375
304;1673377409.6424742;47.129805;7.2394088;49.87300109863281;1673377409.7655723;-41.82978057861328;6.885751247406006;160.61761474609375
305;1673377409.8500235;47.1297898;7.2393905;49.85300064086914;1673377409.951942;-39.100101470947266;-9.902013778686523;153.7917938232422
306;1673377410.0521252;47.1297754;7.2393743;49.816001892089844;1673377410.1453927;-29.966421127319336;-27.708127975463867;139.831298828125
307;1673377410.2320151;47.129763;7.2393617;49.77900314331055;1673377410.325481;-22.469257354736328;-28.980552673339844;136.26690673828125
308;1673377410.4189236;47.1297534;7.2393522;49.730003356933594;1673377410.5309103;-8.973455429077148;-26.408885955810547;146.82342529296875
309;1673377410.6231995;47.1297467;7.2393449;49.70100402832031;1673377410.7186522;0.7538590431213379;-33.94601058959961;164.5882568359375
310;1673377410.8180356;47.1297426;7.2393395;49.69600296020508;1673377410.92689;10.266491889953613;-34.57093811035156;176.6680450439453
311;1673377411.0250049;47.1297411;7.239336199999999;49.707000732421875;1673377411.1291564;18.008235931396484;-36.833717346191406;-171.83599853515625
312;1673377411.2256837;47.1297421;7.239334899999999;49.7650032043457;1673377411.327315;23.527610778808594;-39.3909912109375;-159.46609497070312
313;1673377411.420619;47.129745;7.2393363;49.85400390625;1673377411.5121355;24.34092903137207;-37.075801849365234;-149.41798400878906
314;1673377411.6142747;47.129748899999996;7.239339999999999;49.927001953125;1673377411.711536;18.344993591308594;-36.41221618652344;-139.9413604736328
315;1673377411.8075268;47.1297533;7.2393452;49.97600173950195;1673377411.9164753;12.432120323181152;-36.11277389526367;-132.2899932861328
316;1673377412.0139532;47.129757399999995;7.239351399999999;50.00400161743164;1673377412.1143641;4.555390357971191;-35.90900802612305;-130.68128967285156
317;1673377412.2077432;47.1297609;7.239357699999999;50.02400207519531;1673377412.3252378;-6.837414741516113;-35.79294967651367;-134.8532257080078
318;1673377412.425483;47.129763499999996;7.239363699999999;50.04300308227539;1673377412.5260022;-16.910594940185547;-32.803733825683594;-137.9303741455078
319;1673377412.6300068;47.1297649;7.239368799999999;50.05600357055664;1673377412.7479134;-23.58863639831543;-30.776031494140625;-139.14564514160156
320;1673377412.8401468;47.129765299999995;7.2393725;50.06500244140625;1673377412.957062;-24.179227828979492;-30.871084213256836;-140.0927734375
321;1673377413.0510476;47.1297645;7.2393749;50.073001861572266;1673377413.1332257;-21.695926666259766;-29.30209732055664;-139.8404083251953
322;1673377413.2372463;47.129762799999995;7.239376099999999;50.077003479003906;1673377413.3286166;-22.966005325317383;-27.811609268188477;-138.98178100585938
323;1673377413.4210815;47.1297603;7.239376099999999;50.090003967285156;1673377413.5312967;-29.65768051147461;-26.182281494140625;-138.25881958007812
324;1673377413.6232615;47.129757;7.2393746;50.099002838134766;1673377413.7185688;-46.3016471862793;-21.640413284301758;-137.61302185058594
325;1673377413.8180594;47.1297524;7.2393708;50.121002197265625;1673377413.9201877;-56.77058792114258;-14.408452033996582;-138.8847198486328
326;1673377414.0179927;47.129745899999996;7.2393635;50.13200378417969;1673377414.1182632;-56.489322662353516;-11.780431747436523;-139.2423858642578
327;1673377414.2288284;47.1297378;7.239352599999999;50.117000579833984;1673377414.3335366;-53.81269454956055;-10.10692310333252;-141.21165466308594
328;1673377414.4289196;47.1297284;7.239338399999999;50.09400177001953;1673377414.5292132;-50.6851921081543;-8.232207298278809;-143.4132080078125
329;1673377414.6216521;47.129717899999996;7.2393215;50.082000732421875;1673377414.7149978;-51.50570297241211;-9.266717910766602;-143.7062530517578
330;1673377414.8092642;47.1297067;7.239302299999999;50.06900405883789;1673377414.91522;-47.89056396484375;-10.522533416748047;-142.94813537597656
331;1673377415.0105104;47.129694799999996;7.2392816;50.053001403808594;1673377415.1058624;-49.94990158081055;-13.718903541564941;-142.0823211669922
332;1673377415.2157104;47.1296823;7.2392596;50.0410041809082;1673377415.3170269;-50.58958435058594;-14.054564476013184;-142.31283569335938
333;1673377415.4162786;47.1296691;7.2392366;50.03400421142578;1673377415.5174518;-50.54248809814453;-15.667256355285645;-141.55624389648438
334;1673377415.6196377;47.129655299999996;7.2392126999999995;50.01700210571289;1673377415.7161252;-48.817867279052734;-15.753446578979492;-141.46678161621094
335;1673377415.8192883;47.129641;7.2391884;49.992000579833984;1673377415.922602;-45.363407135009766;-17.537057876586914;-143.35585021972656
336;1673377416.0307157;47.1296263;7.2391638;49.980003356933594;1673377416.1268485;-48.31137466430664;-18.356670379638672;-151.5692596435547
337;1673377416.2328773;47.1296112;7.239139799999999;49.974002838134766;1673377416.326497;-47.75843048095703;-10.8151216506958;-163.17140197753906
338;1673377416.4281201;47.129595699999996;7.2391169;49.967002868652344;1673377416.5362678;-47.154319763183594;-6.030355453491211;-171.57827758789062
339;1673377416.6428974;47.12958;7.239094799999999;49.9530029296875;1673377416.7468667;-45.476905822753906;-2.6406097412109375;179.95999145507812
340;1673377416.8589265;47.1295643;7.2390738;49.932003021240234;1673377416.958446;-42.068565368652344;-1.207568883895874;170.85479736328125
341;1673377417.0586429;47.129548799999995;7.239053999999999;49.900001525878906;1673377417.1547844;-38.711238861083984;-2.872549057006836;161.58883666992188
342;1673377417.238838;47.129533699999996;7.2390361;49.855003356933594;1673377417.335014;-36.35991668701172;-3.771914482116699;152.1903076171875
343;1673377417.4360094;47.129519599999995;7.239020399999999;49.816001892089844;1673377417.5410213;-36.48686981201172;-1.8785982131958008;142.51150512695312
344;1673377417.6398835;47.1295064;7.239007;49.797000885009766;1673377417.739197;-45.41753005981445;-3.0056447982788086;137.74972534179688
345;1673377417.8424022;47.1294943;7.2389965;49.80000305175781;1673377417.95644;-44.18306350708008;10.04302978515625;138.69271850585938
346;1673377418.057398;47.1294824;7.2389883;49.81300354003906;1673377418.158844;-49.24724197387695;12.487115859985352;154.2523956298828
347;1673377418.2385712;47.12947;7.238981;49.85000228881836;1673377418.3323605;-56.804500579833984;19.427806854248047;165.43399047851562
348;1673377418.4266934;47.1294566;7.2389728;49.86100387573242;1673377418.5279052;-48.895477294921875;21.217605590820312;177.89175415039062
349;1673377418.6495314;47.129442399999995;7.238962399999999;49.840003967285156;1673377418.7467458;-36.533931732177734;20.3142032623291;-170.7919464111328
350;1673377418.8447008;47.1294287;7.238949099999999;49.80000305175781;1673377418.948348;-33.464019775390625;18.384403228759766;-165.5218048095703
351;1673377419.0622334;47.129416;7.238932999999999;49.77000045776367;1673377419.1634307;-35.44621658325195;14.008085250854492;-157.03147888183594
352;1673377419.2635036;47.1294043;7.238914599999999;49.76700210571289;1673377419.3815947;-42.55643844604492;6.699944972991943;-148.166748046875
353;1673377419.4733758;47.1293933;7.238893999999999;49.78600311279297;1673377419.5667048;-48.797019958496094;0.22083409130573273;-139.93853759765625
354;1673377419.671825;47.1293825;7.238871;49.820003509521484;1673377419.759255;-49.39072799682617;-13.950916290283203;-133.30349731445312
355;1673377419.8537254;47.1293714;7.2388461;49.86000061035156;1673377419.9489846;-53.02798080444336;-21.34099578857422;-135.1874237060547
356;1673377420.0493083;47.1293595;7.238820199999999;49.89800262451172;1673377420.1515863;-51.15910339355469;-20.96134376525879;-142.3125
357;1673377420.243559;47.1293465;7.2387942;49.922000885009766;1673377420.3497086;-51.40279006958008;-20.089017868041992;-144.79420471191406
358;1673377420.4539719;47.1293325;7.238768599999999;49.939002990722656;1673377420.5530303;-49.476829528808594;-19.585514068603516;-146.29946899414062
359;1673377420.6443417;47.129317699999994;7.238743599999999;49.9530029296875;1673377420.74471;-46.35716247558594;-23.69093894958496;-150.69345092773438
360;1673377420.8414936;47.1293024;7.2387194;49.94900131225586;1673377420.9433858;-43.33128356933594;-19.65829086303711;-161.62631225585938
361;1673377421.0485666;47.129286799999996;7.238696999999999;49.93100357055664;1673377421.1478148;-40.0102424621582;-18.588834762573242;-170.53042602539062
362;1673377421.2381487;47.1292714;7.2386766;49.90900421142578;1673377421.3375053;-32.75252151489258;-32.02959060668945;-179.56446838378906
363;1673377421.4319644;47.1292568;7.238659299999999;49.8900032043457;1673377421.5287642;-15.011775016784668;-46.61167907714844;168.51217651367188
364;1673377421.6277893;47.129244299999996;7.2386468;49.87000274658203;1673377421.7299335;-7.3412184715271;-32.133121490478516;159.9868621826172
365;1673377421.8429193;47.1292349;7.2386377;49.832000732421875;1673377421.9412024;-3.4637176990509033;-31.41967010498047;164.58132934570312
366;1673377422.0490508;47.1292283;7.238630799999999;49.794002532958984;1673377422.144032;3.731793165206909;-27.616403579711914;177.11610412597656
367;1673377422.243239;47.129224199999996;7.2386257;49.76900100708008;1673377422.32983;16.254865646362305;-28.96799087524414;-166.38275146484375
368;1673377422.4183273;47.1292225;7.238622299999999;49.790000915527344;1673377422.5233588;31.75067901611328;-32.61030960083008;-151.20663452148438
369;1673377422.6325195;47.129222999999996;7.2386216;49.855003356933594;1673377422.7392552;36.028350830078125;-29.673877716064453;-140.26158142089844
370;1673377422.8271275;47.129225399999996;7.2386237;49.913002014160156;1673377422.9352088;28.003896713256836;-33.8445930480957;-141.598876953125
371;1673377423.0395954;47.1292288;7.2386281;49.9630012512207;1673377423.1325068;11.610554695129395;-38.06559753417969;-145.04701232910156
372;1673377423.2312634;47.129232599999995;7.2386339;49.996002197265625;1673377423.3344917;0.2871158719062805;-36.71562576293945;-147.51290893554688
373;1673377423.430992;47.1292362;7.2386403999999995;50.01700210571289;1673377423.530432;-10.941400527954102;-33.10066604614258;-147.84214782714844
374;1673377423.622454;47.129239299999995;7.2386468;50.02700424194336;1673377423.7254922;-14.569761276245117;-30.77029037475586;-148.1526336669922
375;1673377423.8353636;47.1292415;7.2386526;50.0410041809082;1673377423.939422;-18.35453224182129;-29.236114501953125;-147.23519897460938
376;1673377424.0346477;47.1292428;7.2386574999999995;50.057003021240234;1673377424.1431549;-17.485790252685547;-29.76430892944336;-146.49708557128906
377;1673377424.2369897;47.1292432;7.2386614;50.06200408935547;1673377424.3331807;-14.354172706604004;-30.028661727905273;-145.94183349609375
378;1673377424.4323971;47.129242999999995;7.2386646;50.06900405883789;1673377424.5305786;-13.097258567810059;-30.87619972229004;-144.82391357421875
379;1673377424.6296713;47.1292423;7.2386672999999995;50.077003479003906;1673377424.7258148;-12.089619636535645;-31.1612548828125;-143.68936157226562
380;1673377424.8259716;47.129241199999996;7.2386696;50.08100128173828;1673377424.931064;-14.399443626403809;-31.64543914794922;-142.4479522705078
381;1673377425.0276027;47.1292397;7.2386713;50.095001220703125;1673377425.1337497;-20.753395080566406;-31.36802101135254;-141.41995239257812
382;1673377425.23446;47.129237499999995;7.2386725;50.105003356933594;1673377425.3434048;-24.324243545532227;-27.358749389648438;-141.03079223632812
383;1673377425.4416363;47.1292346;7.238672599999999;50.11100387573242;1673377425.5465221;-32.377349853515625;-21.490964889526367;-140.27537536621094
384;1673377425.6498117;47.129230899999996;7.238671;50.12200164794922;1673377425.761615;-40.931697845458984;-15.613237380981445;-139.69070434570312
385;1673377425.8550327;47.1292264;7.2386672;50.13300323486328;1673377425.9542127;-47.27958297729492;-17.356815338134766;-138.77825927734375
386;1673377426.0466797;47.1292207;7.2386604;50.1410026550293;1673377426.148729;-45.38603973388672;-18.87842559814453;-140.192138671875
387;1673377426.2443876;47.1292137;7.238651;50.14600372314453;1673377426.3469837;-40.9114875793457;-18.351783752441406;-141.01614379882812
388;1673377426.4461641;47.1292058;7.2386398;50.150001525878906;1673377426.5477326;-32.50636291503906;-19.835594177246094;-141.80844116210938
389;1673377426.662085;47.1291975;7.2386273999999995;50.15300369262695;1673377426.7808163;-21.83380889892578;-25.812641143798828;-141.62130737304688
390;1673377426.8903804;47.1291891;7.2386149;50.14200210571289;1673377427.0027525;-6.126761436462402;-33.16773986816406;-144.0152587890625
391;1673377427.079605;47.1291813;7.2386035;50.134002685546875;1673377427.174562;0.2665806710720062;-29.091745376586914;-143.1975860595703
392;1673377427.2720454;47.129174299999995;7.2385937;50.130001068115234;1673377427.3614624;0.8402902483940125;-30.08376121520996;-143.39207458496094
393;1673377427.4459789;47.129168299999996;7.2385853;50.124000549316406;1673377427.5393686;1.1430387496948242;-29.592247009277344;-145.4053497314453
394;1673377427.636383;47.1291632;7.2385784;50.12200164794922;1673377427.7445543;3.880290985107422;-30.657062530517578;-147.54666137695312
395;1673377427.8429043;47.129159099999995;7.238573;50.12300109863281;1673377427.9471283;-0.941625714302063;-29.004732131958008;-147.53070068359375
396;1673377428.0445318;47.1291558;7.2385689;50.13900375366211;1673377428.160507;-27.153213500976562;-23.586898803710938;-136.59564208984375
397;1673377428.259646;47.1291523;7.2385648;50.255001068115234;1673377428.3636694;-38.74662399291992;-23.019277572631836;-131.84954833984375
398;1673377428.4669256;47.1291477;7.2385585;50.42900085449219;1673377428.576666;-25.076148986816406;-6.747244358062744;-136.72877502441406
399;1673377428.6706877;47.129142599999994;7.23855;50.6670036315918;1673377428.7639463;-19.02458381652832;-8.473847389221191;-138.01144409179688
400;1673377428.850972;47.1291377;7.238539899999999;51.012001037597656;1673377428.9478025;-37.573265075683594;-30.97676658630371;-138.09579467773438
401;1673377429.0382528;47.1291322;7.2385285999999995;51.397003173828125;1673377429.1419961;-39.666770935058594;-31.281478881835938;-140.19483947753906
402;1673377429.2353246;47.129124999999995;7.2385171999999995;51.759002685546875;1673377429.3345265;-37.49745178222656;-29.682832717895508;-139.73922729492188
403;1673377429.4395766;47.129116499999995;7.238505699999999;52.118003845214844;1673377429.5445569;-35.86076354980469;-28.006664276123047;-140.0762481689453
404;1673377429.6439507;47.129107;7.2384939;52.474002838134766;1673377429.745064;-33.4864616394043;-26.282442092895508;-139.72622680664062
405;1673377429.8355935;47.1290969;7.2384818;52.8280029296875;1673377429.939265;-31.337528228759766;-25.143112182617188;-138.7296905517578
406;1673377430.040684;47.1290864;7.238469599999999;53.189002990722656;1673377430.1427357;-29.258028030395508;-24.1002254486084;-137.9415283203125
407;1673377430.2363436;47.1290757;7.2384569999999995;53.551002502441406;1673377430.3344796;-27.92070770263672;-23.08403778076172;-137.50076293945312
408;1673377430.4327605;47.1290651;7.2384442;53.9170036315918;1673377430.5369737;-26.957895278930664;-22.723514556884766;-137.18807983398438
409;1673377430.648934;47.129054499999995;7.238431299999999;54.28600311279297;1673377430.746896;-26.601343154907227;-22.779577255249023;-137.0079803466797
410;1673377430.855327;47.129044199999996;7.2384181;54.656002044677734;1673377430.9549153;-26.02090835571289;-22.829959869384766;-137.03692626953125
411;1673377431.0548651;47.129034;7.2384048;55.03200149536133;1673377431.1639614;-26.35512924194336;-23.176250457763672;-136.9927978515625
412;1673377431.2660534;47.129024;7.238391399999999;55.413002014160156;1673377431.3809116;-26.362627029418945;-23.62152099609375;-137.0391387939453
413;1673377431.4697506;47.1290141;7.238378099999999;55.79600143432617;1673377431.5557168;-26.469554901123047;-23.873472213745117;-137.0871124267578
414;1673377431.6510146;47.1290043;7.2383647;56.182003021240234;1673377431.7492733;-26.721614837646484;-24.359493255615234;-137.10435485839844
415;1673377431.8489096;47.1289945;7.2383513;56.56800079345703;1673377431.9525776;-27.020645141601562;-24.40418243408203;-137.1979217529297
416;1673377432.0497377;47.1289848;7.238337899999999;56.954002380371094;1673377432.1478946;-27.061786651611328;-24.48430061340332;-137.26101684570312
417;1673377432.251807;47.1289751;7.238324599999999;57.340003967285156;1673377432.350983;-27.239273071289062;-24.6496524810791;-137.25135803222656
