;pos_time;latitude;longitude;altitude;alt_time;pitch;roll;yaw
0;1673376447.5147636;47.130642599999995;7.2406198999999996;0.004000000189989805;1673376447.6209054;0.04987545683979988;0.1495216190814972;90.23113250732422
1;1673376447.7149348;47.1306425;7.240619799999999;0.006000000052154064;1673376447.8093028;0.01880638487637043;0.21678124368190765;90.16084289550781
2;1673376447.9036036;47.1306425;7.2406197;0.007000000216066837;1673376448.0253599;0.3792249262332916;-0.35884350538253784;90.19459533691406
3;1673376448.1168752;47.1306425;7.2406197;0.004000000189989805;1673376448.2333877;0.18404215574264526;-0.11220414191484451;90.20438385009766
4;1673376448.3257084;47.1306425;7.240619799999999;0.003000000026077032;1673376448.4317768;0.3690369129180908;-0.08159833401441574;90.18702697753906
5;1673376448.5164254;47.1306425;7.240619799999999;0.0;1673376448.609729;0.21894575655460358;-0.14382269978523254;89.99409484863281
6;1673376448.7010381;47.1306425;7.240619799999999;-0.0020000000949949026;1673376448.8021097;0.3618350625038147;-0.1247609481215477;90.22830963134766
7;1673376448.8968947;47.1306424;7.2406198999999996;-0.007000000216066837;1673376448.998989;0.10729702562093735;-0.08275613188743591;89.97084045410156
8;1673376449.114453;47.1306424;7.24062;-0.006000000052154064;1673376449.2365882;-0.15169773995876312;-0.13403555750846863;90.05499267578125
9;1673376449.3283796;47.1306424;7.24062;-0.0020000000949949026;1673376449.425661;-0.13962146639823914;-0.17606952786445618;90.11015319824219
10;1673376449.5189643;47.1306425;7.24062;0.0010000000474974513;1673376449.6308527;-0.05588370934128761;-0.6595162749290466;90.1742935180664
11;1673376449.729207;47.1306425;7.24062;-0.0010000000474974513;1673376449.8363183;-0.16937647759914398;-0.41054779291152954;90.00513458251953
12;1673376449.9371314;47.1306424;7.2406198999999996;-0.003000000026077032;1673376450.0424113;-0.13626474142074585;-0.49614065885543823;90.11534881591797
13;1673376450.1346593;47.1306424;7.2406198999999996;-0.004000000189989805;1673376450.2289445;-0.07919023931026459;-0.42337390780448914;90.14163970947266
14;1673376450.3165288;47.1306424;7.240619799999999;-0.0020000000949949026;1673376450.4274879;0.18117591738700867;-0.2918842136859894;89.9520263671875
15;1673376450.535366;47.1306424;7.2406196;-0.0020000000949949026;1673376450.633389;0.2157391905784607;-0.3827889561653137;89.95000457763672
16;1673376450.726418;47.1306425;7.2406196;-0.003000000026077032;1673376450.8194635;0.13821762800216675;-0.7725184559822083;89.92574310302734
17;1673376450.91666;47.1306425;7.240619499999999;-0.0010000000474974513;1673376451.023577;0.2668897211551666;-0.5728952288627625;90.0210952758789
18;1673376451.117458;47.1306425;7.2406196;0.0010000000474974513;1673376451.222631;0.6166399717330933;-0.39770451188087463;90.08744049072266
19;1673376451.3254728;47.1306425;7.2406196;0.0020000000949949026;1673376451.4255059;0.1175835132598877;-0.16799943149089813;89.9375228881836
20;1673376451.520547;47.1306425;7.240619799999999;0.0020000000949949026;1673376451.6247554;0.4987421929836273;-0.3323768973350525;90.08270263671875
21;1673376451.7236602;47.1306425;7.240619799999999;0.0010000000474974513;1673376451.8217385;0.13225194811820984;-0.5873547196388245;89.9783706665039
22;1673376451.9225073;47.1306425;7.2406198999999996;0.0010000000474974513;1673376452.0262718;0.4297582805156708;-0.38286250829696655;90.28948211669922
23;1673376452.117413;47.1306424;7.24062;0.0010000000474974513;1673376452.2244468;0.23136000335216522;0.026063667610287666;90.31536102294922
24;1673376452.3234928;47.1306424;7.2406201;0.0010000000474974513;1673376452.4354186;0.3495788276195526;-0.31121739745140076;90.04341125488281
25;1673376452.527354;47.1306425;7.2406201;0.0010000000474974513;1673376452.6494243;0.4261097311973572;-0.28328216075897217;89.9661865234375
26;1673376452.7555077;47.1306425;7.24062;0.0020000000949949026;1673376452.8716357;0.7692139148712158;-0.2640100419521332;89.53784942626953
27;1673376452.978574;47.1306425;7.24062;0.0020000000949949026;1673376453.0736682;0.6854431629180908;-0.110915407538414;86.6409912109375
28;1673376453.1605582;47.130642699999996;7.240619799999999;0.0;1673376453.2512693;-0.7399578094482422;2.1311755180358887;81.64574432373047
29;1673376453.3372698;47.1306428;7.2406194;0.01100000087171793;1673376453.430991;-3.2165091037750244;3.1106784343719482;84.504638671875
30;1673376453.5297065;47.130643;7.2406188;0.036000002175569534;1673376453.626495;-6.945835113525391;9.621466636657715;85.60282897949219
31;1673376453.7373674;47.1306431;7.2406182;0.07200000435113907;1673376453.8315012;-7.709483623504639;10.4915132522583;86.21373748779297
32;1673376453.920466;47.1306431;7.2406178;0.125;1673376454.0155468;-8.641670227050781;5.084333896636963;87.20751190185547
33;1673376454.1185758;47.130643;7.240617599999999;0.19700001180171967;1673376454.2206728;-9.038758277893066;6.6665940284729;87.51092529296875
34;1673376454.3242378;47.130643;7.240617599999999;0.2840000092983246;1673376454.4224033;-8.581424713134766;10.65006160736084;87.4461669921875
35;1673376454.518728;47.130643;7.240617899999999;0.38600000739097595;1673376454.625668;-7.77597188949585;6.16640567779541;88.2421646118164
36;1673376454.7240329;47.1306429;7.2406182;0.49900001287460327;1673376454.842667;-7.329017162322998;5.099050045013428;88.72999572753906
37;1673376454.9517415;47.1306428;7.2406187;0.6230000257492065;1673376455.0460172;-6.17044734954834;9.329654693603516;88.51296997070312
38;1673376455.1356044;47.130642599999995;7.240619199999999;0.7590000629425049;1673376455.2587836;-5.83755350112915;5.42620849609375;89.23954772949219
39;1673376455.3786414;47.1306425;7.240619499999999;0.909000039100647;1673376455.49606;-5.754945755004883;3.6179842948913574;89.83524322509766
40;1673376455.5811713;47.1306424;7.240619799999999;1.0730000734329224;1673376455.6726515;-5.292972087860107;8.404947280883789;89.43753051757812
41;1673376455.7630394;47.1306423;7.2406198999999996;1.255000114440918;1673376455.8634088;-5.355849742889404;6.42517614364624;89.69580078125
42;1673376455.950441;47.1306424;7.24062;1.4470000267028809;1673376456.0478067;-5.666999340057373;3.664566993713379;88.82643127441406
43;1673376456.1432858;47.1306424;7.24062;1.6390000581741333;1673376456.2529442;-5.980437755584717;8.159712791442871;88.45262145996094
44;1673376456.3374777;47.1306423;7.2406198999999996;1.8290001153945923;1673376456.4583187;-6.308248996734619;7.250510215759277;88.70294952392578
45;1673376456.54849;47.1306423;7.240619799999999;2.0210001468658447;1673376456.6448445;-7.07267427444458;3.1051597595214844;89.44271087646484
46;1673376456.7344239;47.1306423;7.2406196;2.2200000286102295;1673376456.8308673;-6.921477794647217;7.4695515632629395;89.11335754394531
47;1673376456.9416301;47.1306423;7.240619499999999;2.4240000247955322;1673376457.033727;-6.91700553894043;8.378639221191406;89.18462371826172
48;1673376457.1503613;47.1306425;7.2406194;2.628000020980835;1673376457.2485976;-7.019283771514893;4.534538745880127;90.15009307861328
49;1673376457.3517249;47.130642699999996;7.240619499999999;2.830000162124634;1673376457.4987974;-7.150385856628418;7.69264030456543;89.71646881103516
50;1673376457.6262372;47.130642599999995;7.240619499999999;3.0270001888275146;1673376457.7082374;-7.104245185852051;8.862722396850586;89.24858093261719
51;1673376457.7878258;47.130642599999995;7.240619499999999;3.2240002155303955;1673376457.8810737;-7.159729957580566;3.666445255279541;89.97605895996094
52;1673376457.995975;47.1306425;7.240619499999999;3.4250001907348633;1673376458.0941606;-6.92850923538208;5.976014137268066;89.81983947753906
53;1673376458.1886544;47.130642599999995;7.2406196;3.632000207901001;1673376458.2830882;-6.656397819519043;10.020877838134766;89.4628677368164
54;1673376458.376078;47.130642699999996;7.2406196;3.8390002250671387;1673376458.46403;-6.769401550292969;5.098036766052246;89.9410171508789
55;1673376458.5466084;47.1306428;7.2406197;4.039999961853027;1673376458.650676;-6.589531898498535;5.9852681159973145;89.81832885742188
56;1673376458.7388499;47.130642599999995;7.2406198999999996;4.240000247955322;1673376458.8371375;-6.336453914642334;9.262779235839844;89.25080871582031
57;1673376458.9295373;47.130642599999995;7.2406198999999996;4.440000057220459;1673376459.0512223;-6.56796407699585;4.380863666534424;89.91477966308594
58;1673376459.156429;47.1306425;7.24062;4.638000011444092;1673376459.2551804;-6.688412189483643;4.971625328063965;89.81717681884766
59;1673376459.3515966;47.1306425;7.24062;4.837000370025635;1673376459.44589;-6.587074279785156;9.835463523864746;89.2112808227539
60;1673376459.5363882;47.130642599999995;7.24062;5.038000106811523;1673376459.6443758;-6.536274433135986;6.122386455535889;89.62633514404297
61;1673376459.7563581;47.130642699999996;7.24062;5.23900032043457;1673376459.8584127;-6.699741363525391;4.969533443450928;89.90522003173828
62;1673376459.9538722;47.130642599999995;7.24062;5.440000057220459;1673376460.0644968;-6.614497661590576;9.558270454406738;89.28058624267578
63;1673376460.15239;47.1306425;7.2406198999999996;5.642000198364258;1673376460.2525241;-6.894786357879639;6.303988456726074;89.84890747070312
64;1673376460.3300452;47.1306425;7.2406198999999996;5.845000267028809;1673376460.439076;-7.134519577026367;4.062145709991455;90.1348648071289
65;1673376460.5311553;47.1306424;7.240619799999999;6.051000118255615;1673376460.6342254;-6.978580474853516;9.295934677124023;89.36797332763672
66;1673376460.728551;47.1306425;7.240619799999999;6.25700044631958;1673376460.8258657;-6.802008152008057;7.2774739265441895;89.50176239013672
67;1673376460.9348073;47.130642599999995;7.240619799999999;6.462000370025635;1673376461.0398786;-7.002920627593994;4.2555155754089355;89.93196868896484
68;1673376461.1410847;47.1306425;7.2406198999999996;6.664000511169434;1673376461.2393131;-6.736865520477295;8.510078430175781;89.38077545166016
69;1673376461.3306887;47.1306424;7.2406198999999996;6.867000102996826;1673376461.425921;-6.6484761238098145;7.869941711425781;89.32572937011719
70;1673376461.5369189;47.1306425;7.2406198999999996;7.069000244140625;1673376461.645883;-6.778873443603516;4.168249607086182;89.9159164428711
71;1673376461.7518373;47.1306425;7.2406198999999996;7.267000198364258;1673376461.8628325;-6.684636116027832;8.32636833190918;89.56861877441406
72;1673376461.9867742;47.130642599999995;7.2406198999999996;7.465000152587891;1673376462.1481974;-6.729290008544922;9.385233879089355;89.56775665283203
73;1673376462.2238982;47.130642699999996;7.2406198999999996;7.664000511169434;1673376462.3146856;-6.801706314086914;4.142016410827637;90.04572296142578
74;1673376462.3885417;47.130642599999995;7.24062;7.863000392913818;1673376462.477569;-6.890413761138916;7.258272647857666;89.5812759399414
75;1673376462.58192;47.1306424;7.24062;8.0600004196167;1673376462.6735058;-6.643270969390869;9.180445671081543;89.38423156738281
76;1673376462.7841425;47.1306424;7.24062;8.259000778198242;1673376462.881616;-6.904513359069824;4.03113317489624;90.02497100830078
77;1673376462.9794483;47.1306423;7.24062;8.457000732421875;1673376463.0774763;-7.138307571411133;5.918454170227051;89.66334533691406
78;1673376463.1727483;47.1306423;7.24062;8.654000282287598;1673376463.3071458;-6.974003314971924;9.487749099731445;89.16020202636719
79;1673376463.4036357;47.1306424;7.24062;8.85300064086914;1673376463.515145;-6.7317399978637695;5.15194034576416;89.76341247558594
80;1673376463.6056135;47.1306424;7.2406201;9.050000190734863;1673376463.6941812;-6.6849565505981445;5.511563301086426;89.85617065429688
81;1673376463.7718935;47.1306424;7.2406201;9.247000694274902;1673376463.8623898;-6.447526931762695;9.586625099182129;89.28761291503906
82;1673376463.9567337;47.1306424;7.2406201;9.447000503540039;1673376464.0588694;-6.6950483322143555;5.685324192047119;89.80614471435547
83;1673376464.1554673;47.1306425;7.2406201;9.644000053405762;1673376464.25462;-6.93824577331543;5.07199764251709;89.9165267944336
84;1673376464.3540137;47.1306425;7.2406201;9.84000015258789;1673376464.4559946;-6.909854412078857;10.078612327575684;89.31482696533203
85;1673376464.5521798;47.130642599999995;7.2406201;10.039000511169434;1673376464.655957;-7.066044330596924;6.928250312805176;89.67070007324219
86;1673376464.75235;47.130642599999995;7.2406201;10.257000923156738;1673376464.8563526;-6.969398498535156;4.994247913360596;89.90967559814453
87;1673376464.9593759;47.1306425;7.2406201999999995;10.568000793457031;1673376465.0634384;-7.744507789611816;8.961648941040039;89.57283020019531
88;1673376465.1626103;47.1306422;7.2406204;10.93600082397461;1673376465.2629185;-6.838870525360107;8.681554794311523;89.47232818603516
89;1673376465.3524766;47.130642099999996;7.2406207;11.32300090789795;1673376465.455503;-6.647561073303223;3.581317186355591;90.07926940917969
90;1673376465.5535407;47.1306419;7.240621;11.71500015258789;1673376465.6517236;-5.998690128326416;6.255841255187988;89.78619384765625
91;1673376465.7528074;47.1306418;7.2406212;12.111001014709473;1673376465.8537233;-5.555858135223389;7.93871545791626;89.3861312866211
92;1673376465.959711;47.1306419;7.240621399999999;12.510000228881836;1673376466.0539992;-5.321336269378662;3.859177589416504;89.86524963378906
93;1673376466.1384952;47.1306418;7.240621399999999;12.91100025177002;1673376466.2398286;-5.630976676940918;5.2384467124938965;89.74750518798828
94;1673376466.3352473;47.1306418;7.2406213;13.316000938415527;1673376466.4402623;-5.860017776489258;8.74903678894043;89.29244995117188
95;1673376466.5465372;47.1306419;7.240621099999999;13.720000267028809;1673376466.647628;-6.1813740730285645;4.827152252197266;89.86408996582031
96;1673376466.7437325;47.130642099999996;7.2406209;14.125000953674316;1673376466.8456645;-6.707674026489258;5.441734313964844;89.87866973876953
97;1673376466.9437954;47.1306422;7.2406207;14.528000831604004;1673376467.0419154;-6.712031841278076;10.04297161102295;89.28438568115234
98;1673376467.1438172;47.1306423;7.2406206;14.930000305175781;1673376467.2509844;-6.893087387084961;6.506322383880615;89.66963195800781
99;1673376467.3413446;47.1306423;7.2406204999999995;15.333001136779785;1673376467.4460998;-7.1177568435668945;4.782292366027832;90.02471923828125
100;1673376467.5509067;47.1306422;7.2406204;15.74000072479248;1673376467.6459558;-6.729861736297607;8.776022911071777;89.35442352294922
101;1673376467.73636;47.130642099999996;7.2406204;16.148000717163086;1673376467.8371716;-6.648744583129883;6.662697792053223;89.49478912353516
102;1673376467.928596;47.130642099999996;7.2406204;16.5570011138916;1673376468.025544;-6.741296768188477;4.066688060760498;89.93904876708984
103;1673376468.1213307;47.130642099999996;7.2406204;16.9689998626709;1673376468.2299123;-6.660778999328613;7.737093448638916;89.62477111816406
104;1673376468.3309999;47.1306422;7.2406204999999995;17.38300132751465;1673376468.4440212;-6.543313503265381;8.590962409973145;89.54680633544922
105;1673376468.5510452;47.1306422;7.2406204999999995;17.795000076293945;1673376468.649215;-6.664027214050293;3.767857074737549;89.98979949951172
106;1673376468.751467;47.130642099999996;7.2406204999999995;18.204999923706055;1673376468.8466673;-6.626434326171875;6.5330047607421875;89.55215454101562
107;1673376468.946221;47.130641999999995;7.2406204999999995;18.618000030517578;1673376469.0461395;-6.361706733703613;8.779467582702637;89.33849334716797
108;1673376469.1433609;47.130642099999996;7.2406204999999995;19.0310001373291;1673376469.2502816;-6.492031097412109;4.2149271965026855;90.00254821777344
109;1673376469.346552;47.130642099999996;7.2406204999999995;19.44099998474121;1673376469.4427917;-6.682371139526367;5.9830803871154785;89.78936767578125
110;1673376469.5401359;47.1306422;7.2406204999999995;19.85300064086914;1673376469.6472816;-6.424315929412842;9.453075408935547;89.21283721923828
111;1673376469.7494047;47.1306423;7.2406204999999995;20.2710018157959;1673376469.8505797;-6.3164167404174805;5.775019645690918;89.74002075195312
112;1673376469.9507403;47.1306423;7.2406204999999995;20.68800163269043;1673376470.0714438;-6.489593982696533;5.052883625030518;89.95508575439453
113;1673376470.167856;47.1306423;7.2406204999999995;21.101001739501953;1673376470.2709424;-6.381807804107666;8.699113845825195;89.49043273925781
114;1673376470.3613186;47.1306422;7.2406204999999995;21.514001846313477;1673376470.4604979;-6.457686901092529;6.571495532989502;89.7078857421875
115;1673376470.5730052;47.1306423;7.2406204999999995;21.921001434326172;1673376470.6693792;-6.661511421203613;4.17474365234375;89.79925537109375
116;1673376470.8067014;47.1306424;7.2406204999999995;22.326000213623047;1673376470.9143355;-6.593992710113525;8.635547637939453;89.40711212158203
117;1673376471.0518367;47.1306425;7.2406204;22.729001998901367;1673376471.1344516;-6.569190502166748;8.361746788024902;89.56285095214844
118;1673376471.2058203;47.130642599999995;7.2406204;23.12900161743164;1673376471.3108795;-6.609525680541992;4.592168807983398;90.12512969970703
119;1673376471.3898358;47.1306425;7.2406203;23.531002044677734;1673376471.4695683;-6.6448893547058105;6.849268436431885;89.67416381835938
120;1673376471.565563;47.1306425;7.2406203;23.93600082397461;1673376471.6658728;-6.494744777679443;9.289775848388672;89.24182891845703
121;1673376471.801216;47.1306425;7.2406201999999995;24.341001510620117;1673376471.9011352;-6.6157732009887695;5.085906505584717;89.69853210449219
122;1673376472.0139773;47.1306425;7.2406201999999995;24.742000579833984;1673376472.099508;-6.797207832336426;5.166116714477539;89.88038635253906
123;1673376472.1812277;47.1306425;7.2406201;25.144001007080078;1673376472.290339;-6.593071937561035;9.754045486450195;89.45684051513672
124;1673376472.3768122;47.130642599999995;7.24062;25.54800033569336;1673376472.4741807;-6.796883583068848;6.528173446655273;89.75867462158203
125;1673376472.561575;47.130642599999995;7.24062;25.95100212097168;1673376472.6598487;-7.0367841720581055;4.41841459274292;89.80433654785156
126;1673376472.7521944;47.1306425;7.2406198999999996;26.35300064086914;1673376472.8554013;-6.723243236541748;8.776263236999512;89.32681274414062
127;1673376472.9655125;47.1306425;7.2406198999999996;26.75400161743164;1673376473.0745823;-6.476870059967041;7.2613139152526855;89.53783416748047
128;1673376473.1729999;47.1306425;7.24062;27.1510009765625;1673376473.2852604;-6.633091449737549;4.002045154571533;90.00968170166016
129;1673376473.386859;47.1306425;7.24062;27.549001693725586;1673376473.4821014;-6.626909255981445;8.638677597045898;89.47415161132812
130;1673376473.5715547;47.130642599999995;7.24062;27.952001571655273;1673376473.6702907;-6.445230484008789;8.314677238464355;89.4260025024414
131;1673376473.7742934;47.130642699999996;7.24062;28.354001998901367;1673376473.8657188;-6.590035438537598;4.735636234283447;89.99615478515625
132;1673376473.9631152;47.130642599999995;7.24062;28.75200080871582;1673376474.062401;-6.598499774932861;6.873737812042236;89.6674575805664
133;1673376474.1548295;47.1306425;7.24062;29.15300178527832;1673376474.2560737;-6.4803009033203125;9.777900695800781;89.30762481689453
134;1673376474.3908663;47.130642599999995;7.24062;29.560001373291016;1673376474.4975734;-6.666638374328613;4.913975715637207;89.88597106933594
135;1673376474.5871131;47.130642599999995;7.24062;29.963001251220703;1673376474.6779752;-6.642932891845703;6.323152542114258;89.68392944335938
136;1673376474.7635047;47.130642599999995;7.24062;30.363000869750977;1673376474.8627622;-6.527769565582275;9.979783058166504;89.37569427490234
137;1673376474.9631026;47.130642599999995;7.24062;30.762001037597656;1673376475.057419;-6.5269951820373535;5.982619285583496;89.89659881591797
138;1673376475.1547558;47.130642599999995;7.24062;31.158000946044922;1673376475.2658515;-6.74505615234375;5.0288543701171875;89.85922241210938
139;1673376475.360287;47.1306424;7.24062;31.555002212524414;1673376475.511549;-6.55414342880249;8.752500534057617;89.15081024169922
140;1673376475.590209;47.1306423;7.2406198999999996;31.955001831054688;1673376475.6854248;-6.509769439697266;6.431718349456787;89.53961181640625
141;1673376475.7955139;47.1306423;7.2406198999999996;32.35200119018555;1673376475.8895261;-6.652271270751953;4.02810001373291;89.98120880126953
142;1673376475.9857495;47.1306424;7.24062;32.74700164794922;1673376476.0958698;-6.548407077789307;8.871514320373535;89.54500579833984
143;1673376476.186483;47.1306424;7.24062;33.145999908447266;1673376476.2896574;-6.514156818389893;8.675087928771973;89.5994644165039
144;1673376476.386676;47.1306425;7.24062;33.54600143432617;1673376476.4840698;-6.781795978546143;4.333664417266846;89.97953796386719
145;1673376476.5783868;47.1306424;7.24062;33.94700241088867;1673376476.6672878;-6.813847541809082;7.407840251922607;89.5546875
146;1673376476.747862;47.1306423;7.24062;34.34800338745117;1673376476.8468528;-6.559967517852783;8.708166122436523;89.3599853515625
147;1673376476.9467158;47.1306424;7.24062;34.75;1673376477.0642066;-6.7081828117370605;4.8675055503845215;89.86431121826172
148;1673376477.1663346;47.1306424;7.24062;35.147003173828125;1673376477.2574358;-6.9040656089782715;6.480937480926514;89.6493911743164
149;1673376477.3478277;47.1306425;7.24062;35.53900146484375;1673376477.4548185;-6.401317596435547;9.658698081970215;89.15122985839844
150;1673376477.5538695;47.130642599999995;7.2406201;35.935001373291016;1673376477.655093;-6.444126129150391;5.589508056640625;89.73580169677734
151;1673376477.7552786;47.1306425;7.2406201;36.33300018310547;1673376477.852485;-6.436622619628906;5.242734909057617;89.95440673828125
152;1673376477.9516504;47.1306424;7.2406201;36.737003326416016;1673376478.074255;-6.453873634338379;9.270608901977539;89.37775421142578
153;1673376478.1556942;47.1306424;7.2406201;37.14500045776367;1673376478.2558436;-6.536839962005615;5.580936431884766;89.70264434814453
154;1673376478.355808;47.1306424;7.2406201;37.54900360107422;1673376478.5011754;-6.721922874450684;4.591639995574951;89.84527587890625
155;1673376478.5861588;47.1306425;7.24062;37.95000076293945;1673376478.7099295;-6.819607734680176;9.52656078338623;89.2756576538086
156;1673376478.8041902;47.130642599999995;7.24062;38.35700225830078;1673376478.8986504;-6.572312355041504;7.743241786956787;89.5365982055664
157;1673376478.9939675;47.130642599999995;7.24062;38.762001037597656;1673376479.096024;-6.8407182693481445;4.382543087005615;89.87334442138672
158;1673376479.2093213;47.130642599999995;7.24062;39.16400146484375;1673376479.306154;-6.725223541259766;7.91409969329834;89.4351806640625
159;1673376479.3945541;47.1306425;7.24062;39.566001892089844;1673376479.4865677;-6.4585371017456055;8.562251091003418;89.312255859375
160;1673376479.5770862;47.130642599999995;7.24062;39.96900177001953;1673376479.6731987;-6.676284313201904;4.490034580230713;89.90853118896484
161;1673376479.7656972;47.130642699999996;7.24062;40.36600112915039;1673376479.8713145;-6.741648197174072;7.0719895362854;89.79794311523438
162;1673376479.968735;47.130642699999996;7.24062;40.76000213623047;1673376480.0697103;-6.47019624710083;9.882892608642578;89.4941177368164
163;1673376480.1679323;47.1306428;7.24062;41.15700149536133;1673376480.2662754;-6.524543762207031;5.54020881652832;89.81343078613281
164;1673376480.3577476;47.130642699999996;7.24062;41.55600357055664;1673376480.4607952;-6.762791633605957;5.414749622344971;89.7337417602539
165;1673376480.559146;47.130642599999995;7.24062;41.954002380371094;1673376480.6601183;-6.696537494659424;9.324196815490723;89.32360076904297
166;1673376480.7553682;47.130642599999995;7.24062;42.35300064086914;1673376480.8621216;-6.6458587646484375;6.41668701171875;89.82184600830078
167;1673376480.9630482;47.130642699999996;7.24062;42.75200271606445;1673376481.067123;-6.857117652893066;4.682140827178955;89.9320297241211
168;1673376481.1625316;47.130642699999996;7.24062;43.152000427246094;1673376481.2577527;-6.671897888183594;9.140865325927734;89.21559143066406
169;1673376481.3467433;47.130642699999996;7.24062;43.55400085449219;1673376481.458335;-6.504014492034912;7.883031845092773;89.38728332519531
170;1673376481.559257;47.130642699999996;7.24062;43.95500183105469;1673376481.6623416;-6.561975002288818;4.38151216506958;89.93083190917969
171;1673376481.7624393;47.130642599999995;7.24062;44.358001708984375;1673376481.8684056;-6.494654655456543;7.371669292449951;89.69755554199219
172;1673376481.9620967;47.130642599999995;7.24062;44.762001037597656;1673376482.0659182;-6.509158611297607;8.95063304901123;89.51251220703125
173;1673376482.1738436;47.130642599999995;7.24062;45.169002532958984;1673376482.2737994;-6.8503923416137695;4.644075870513916;89.98453521728516
174;1673376482.376552;47.130642599999995;7.24062;45.56800079345703;1673376482.4765298;-6.83273458480835;6.557705402374268;89.70020294189453
175;1673376482.5698986;47.130642599999995;7.24062;45.965003967285156;1673376482.668093;-6.677254676818848;9.599395751953125;89.27564239501953
176;1673376482.7662902;47.130642599999995;7.24062;46.3650016784668;1673376482.8614976;-6.69541072845459;4.964698314666748;89.77581787109375
177;1673376482.9607618;47.1306425;7.24062;46.76300048828125;1673376483.0530744;-6.925209045410156;5.521340847015381;89.82939147949219
178;1673376483.147741;47.1306424;7.2406198999999996;47.16100311279297;1673376483.2561889;-6.585357189178467;9.20901870727539;89.291259765625
179;1673376483.3652968;47.1306424;7.2406198999999996;47.564002990722656;1673376483.480185;-6.658429145812988;5.640258312225342;89.67314147949219
180;1673376483.585413;47.1306425;7.2406198999999996;47.96000289916992;1673376483.6926136;-6.768017768859863;5.804563999176025;89.91880798339844
181;1673376483.786065;47.130642599999995;7.2406198999999996;48.320003509521484;1673376483.8907561;-6.891118049621582;10.86311149597168;89.45333099365234
182;1673376483.987964;47.130642699999996;7.240619799999999;48.63300323486328;1673376484.0900059;-6.971853256225586;5.900900363922119;89.85997772216797
183;1673376484.190185;47.130642699999996;7.2406197;48.89500045776367;1673376484.2973902;-7.152742385864258;5.950193881988525;89.8678207397461
184;1673376484.3825262;47.130642699999996;7.2406196;49.1150016784668;1673376484.4797006;-7.166430473327637;9.268196105957031;89.45804595947266
185;1673376484.5761738;47.1306428;7.240619499999999;49.297000885009766;1673376484.6660383;0.3710636794567108;15.229975700378418;90.42083740234375
186;1673376484.7603812;47.130642699999996;7.2406191;49.44900131225586;1673376484.8829644;16.757539749145508;33.230037689208984;101.7638931274414
187;1673376485.0116928;47.1306417;7.2406171;49.582000732421875;1673376485.103982;21.05586814880371;49.0861930847168;112.61872863769531
188;1673376485.1923707;47.1306388;7.240611899999999;49.69700241088867;1673376485.2899532;14.860219955444336;58.88392639160156;120.86705017089844
189;1673376485.3906088;47.1306334;7.240602699999999;49.781002044677734;1673376485.4876838;-3.310302972793579;59.450740814208984;130.0561981201172
190;1673376485.5853314;47.1306255;7.24059;49.83100128173828;1673376485.6958358;-17.3309326171875;55.41724395751953;140.65509033203125
191;1673376485.774311;47.1306157;7.240574499999999;49.8650016784668;1673376485.8675277;-30.07270050048828;48.58796691894531;152.1231689453125
192;1673376485.9667099;47.1306042;7.2405567;49.87300109863281;1673376486.0706959;-43.33982849121094;44.75206756591797;163.98858642578125
193;1673376486.1690211;47.1305911;7.2405365999999995;49.86100387573242;1673376486.2741947;-50.27473831176758;39.05238723754883;176.35728454589844
194;1673376486.3675568;47.1305767;7.2405140999999995;49.820003509521484;1673376486.471614;-45.56844711303711;25.655502319335938;-174.21778869628906
195;1673376486.5710936;47.1305614;7.240489999999999;49.746002197265625;1673376486.6722677;-45.029964447021484;19.64449119567871;-169.295166015625
196;1673376486.7636962;47.1305456;7.2404649999999995;49.673004150390625;1673376486.8708992;-47.82009506225586;14.124326705932617;-161.47052001953125
197;1673376486.9700751;47.1305293;7.2404392;49.618003845214844;1673376487.0731483;-46.118900299072266;8.946250915527344;-153.56394958496094
198;1673376487.1666994;47.1305128;7.2404129;49.57400131225586;1673376487.2668946;-46.40352249145508;3.2371602058410645;-146.4333038330078
199;1673376487.3711462;47.130496099999995;7.2403863;49.55000305175781;1673376487.4791322;-47.35445785522461;0.05824270844459534;-140.46063232421875
200;1673376487.5879288;47.1304793;7.240359499999999;49.54500198364258;1673376487.6929278;-47.086875915527344;-7.389679431915283;-133.2900848388672
201;1673376487.7853096;47.1304624;7.2403324;49.551002502441406;1673376487.8821683;-47.4542121887207;-13.31796646118164;-133.27236938476562
202;1673376487.9810333;47.1304452;7.2403054;49.56200408935547;1673376488.0774748;-46.80012130737305;-11.296663284301758;-137.322509765625
203;1673376488.1776786;47.1304276;7.2402788;49.57500076293945;1673376488.2706437;-47.506046295166016;-10.375652313232422;-138.98817443847656
204;1673376488.36293;47.1304096;7.2402527;49.592002868652344;1673376488.4696333;-47.72261428833008;-8.85838508605957;-140.06126403808594
205;1673376488.5690105;47.1303913;7.240227099999999;49.61900329589844;1673376488.6710825;-49.07957458496094;-7.558119773864746;-140.61825561523438
206;1673376488.7614934;47.1303726;7.2402017999999995;49.64500045776367;1673376488.8779647;-49.740562438964844;-6.206931114196777;-140.9424591064453
207;1673376488.9803472;47.1303536;7.240176699999999;49.66400146484375;1673376489.085949;-48.88094711303711;-5.191383361816406;-140.9779510498047
208;1673376489.2155688;47.1303345;7.2401515;49.678001403808594;1673376489.3146956;-47.647647857666016;-5.236664772033691;-140.598876953125
209;1673376489.4070175;47.1303152;7.2401262;49.69200134277344;1673376489.5121136;-47.124412536621094;-5.5344157218933105;-140.1781005859375
210;1673376489.61013;47.130296;7.2401009;49.70500183105469;1673376489.714251;-47.38044357299805;-5.7526397705078125;-139.9423370361328
211;1673376489.8129582;47.130276699999996;7.2400756;49.71600341796875;1673376489.9106455;-47.58473587036133;-5.967835426330566;-139.68038940429688
212;1673376490.010658;47.1302575;7.2400503;49.72700119018555;1673376490.1100447;-47.50647735595703;-5.99808406829834;-139.5484161376953
213;1673376490.198577;47.1302382;7.2400250999999995;49.73400115966797;1673376490.3043945;-47.19188690185547;-5.952698707580566;-139.34033203125
214;1673376490.4149244;47.130218899999996;7.2399999;49.73800277709961;1673376490.5270486;-46.96291732788086;-5.962407112121582;-139.2128448486328
215;1673376490.6207702;47.1301997;7.239974699999999;49.74400329589844;1673376490.7156014;-46.94097137451172;-5.972066402435303;-139.10084533691406
216;1673376490.8023126;47.130180599999996;7.2399493999999995;49.75300216674805;1673376490.8866177;-47.21222686767578;-6.102071285247803;-138.9734649658203
217;1673376491.012326;47.1301614;7.2399241;49.762001037597656;1673376491.1032867;-47.57059097290039;-6.131491184234619;-138.91464233398438
218;1673376491.2136629;47.130142299999996;7.2398986999999995;49.77000045776367;1673376491.3055122;-47.56595993041992;-6.1234450340271;-138.8864288330078
219;1673376491.397238;47.1301232;7.2398734;49.7760009765625;1673376491.4901724;-47.41776657104492;-6.071337699890137;-138.81671142578125
220;1673376491.620513;47.1301041;7.239847999999999;49.78000259399414;1673376491.7248716;-47.181434631347656;-6.0197978019714355;-138.76870727539062
221;1673376491.8507986;47.130085;7.2398226;49.78700256347656;1673376491.9382272;-47.29105758666992;-6.047833442687988;-138.73272705078125
222;1673376492.029554;47.130066;7.239796999999999;49.79300308227539;1673376492.1239913;-47.67993927001953;-6.132622241973877;-138.7080078125
223;1673376492.205603;47.130047;7.2397715;49.798004150390625;1673376492.3040147;-47.792137145996094;-6.123315811157227;-138.7259521484375
224;1673376492.393784;47.130027899999995;7.2397459;49.79900360107422;1673376492.499336;-47.3812370300293;-6.055638313293457;-138.7290496826172
225;1673376492.5962682;47.1300089;7.2397202;49.79500198364258;1673376492.6976104;-46.943477630615234;-6.028616428375244;-138.68716430664062
226;1673376492.7867353;47.1299899;7.2396946;49.79300308227539;1673376492.8917348;-47.07551193237305;-6.049121856689453;-138.66180419921875
227;1673376492.991635;47.129971;7.239668999999999;49.79300308227539;1673376493.0976653;-47.38979721069336;-6.054222106933594;-138.657470703125
228;1673376493.1987991;47.129951999999996;7.2396433;49.79600143432617;1673376493.3153088;-47.569522857666016;-6.071086883544922;-138.6804962158203
229;1673376493.4078407;47.129933099999995;7.2396176;49.801002502441406;1673376493.5057354;-47.72804260253906;-6.110416889190674;-138.6812286376953
230;1673376493.6050465;47.129914199999995;7.2395919;49.807003021240234;1673376493.7022738;-47.879459381103516;-6.069540977478027;-138.7034454345703
231;1673376493.8043284;47.1298953;7.239566099999999;49.81200408935547;1673376493.909006;-47.85472869873047;-6.0412678718566895;-138.7247314453125
232;1673376494.0060694;47.1298763;7.2395403;49.81800079345703;1673376494.102769;-47.65315628051758;-5.959447860717773;-138.74281311035156
233;1673376494.2009172;47.1298573;7.239514499999999;49.82200241088867;1673376494.3141518;-47.62961959838867;-5.955841541290283;-138.7165069580078
234;1673376494.4107354;47.129838199999995;7.2394886;49.82500076293945;1673376494.514097;-47.65102005004883;-5.946147441864014;-138.73745727539062
235;1673376494.6106856;47.1298192;7.2394627;49.82500076293945;1673376494.7169225;-47.62116241455078;-5.977284908294678;-138.7337188720703
236;1673376494.8064375;47.1298002;7.2394367;49.827003479003906;1673376494.9243438;-47.56919860839844;-5.97018575668335;-138.76681518554688
237;1673376495.0242746;47.1297812;7.2394107;49.83000183105469;1673376495.1448097;-47.5904426574707;-5.978565692901611;-138.7975311279297
238;1673376495.227496;47.129762199999995;7.2393847;49.83500289916992;1673376495.3218474;-47.693641662597656;-5.982217311859131;-138.8240509033203
239;1673376495.416259;47.1297432;7.2393588;49.840003967285156;1673376495.5115652;-47.82744216918945;-5.9611945152282715;-138.84877014160156
240;1673376495.5981998;47.1297242;7.2393328;49.84400177001953;1673376495.6904802;-47.65148162841797;-5.883535861968994;-138.88853454589844
241;1673376495.7720385;47.1297052;7.2393068;49.845001220703125;1673376495.8712373;-47.43765640258789;-5.876046180725098;-138.89393615722656
242;1673376495.9734504;47.129686199999995;7.2392807999999995;49.84600067138672;1673376496.0784695;-47.246742248535156;-5.822226047515869;-138.9156951904297
243;1673376496.1875346;47.1296671;7.239254799999999;49.849002838134766;1673376496.2925787;-47.32122802734375;-5.8262457847595215;-138.9204864501953
244;1673376496.3846853;47.1296481;7.239228799999999;49.85700225830078;1673376496.494578;-47.771324157714844;-5.835227966308594;-138.95004272460938
245;1673376496.586047;47.1296292;7.239202799999999;49.867000579833984;1673376496.6861434;-48.04867935180664;-5.840744495391846;-139.0041961669922
246;1673376496.7874744;47.1296101;7.2391768;49.87300109863281;1673376496.8915806;-47.91498565673828;-5.737701416015625;-139.09713745117188
247;1673376496.9899726;47.1295911;7.2391507;49.87700271606445;1673376497.086236;-47.537322998046875;-5.638786792755127;-139.1123504638672
248;1673376497.1796896;47.129571999999996;7.2391247;49.884002685546875;1673376497.2925138;-47.59638214111328;-5.653791427612305;-139.12449645996094
249;1673376497.385949;47.1295529;7.239098599999999;49.88900375366211;1673376497.4889884;-47.758209228515625;-5.6026692390441895;-139.21290588378906
250;1673376497.5803962;47.1295339;7.2390725;49.89200210571289;1673376497.6815386;-47.76020431518555;-5.572030544281006;-139.2241973876953
251;1673376497.7779431;47.129514799999995;7.2390465;49.89500427246094;1673376497.882203;-47.698665618896484;-5.515898704528809;-139.31314086914062
252;1673376497.9841797;47.1294957;7.239020399999999;49.89900207519531;1673376498.0873308;-47.52035140991211;-5.437589168548584;-139.36660766601562
253;1673376498.185179;47.1294767;7.2389943;49.90300369262695;1673376498.2855232;-47.64691162109375;-5.4118876457214355;-139.45753479003906
254;1673376498.389685;47.129457599999995;7.2389681999999995;49.90400314331055;1673376498.4819705;-47.63524627685547;-5.458196640014648;-139.493896484375
255;1673376498.5753675;47.1294386;7.2389421;49.90300369262695;1673376498.6784408;-47.269203186035156;-6.297647476196289;-139.46278381347656
256;1673376498.7741044;47.1294195;7.2389161;49.90400314331055;1673376498.8865814;-47.53166580200195;-6.431845188140869;-139.70448303222656
257;1673376498.9857714;47.1294003;7.2388901;49.90700149536133;1673376499.0947616;-47.194923400878906;-7.971218109130859;-139.60134887695312
258;1673376499.189792;47.129381099999996;7.2388644;49.9170036315918;1673376499.2860212;-47.85221862792969;-7.747063159942627;-140.0955047607422
259;1673376499.38424;47.1293618;7.2388388;49.926002502441406;1673376499.4806726;-48.144046783447266;-8.027350425720215;-140.29623413085938
260;1673376499.5746117;47.1293424;7.2388135;49.932003021240234;1673376499.6869411;-47.497703552246094;-8.842617988586426;-140.53634643554688
261;1673376499.784116;47.129322699999996;7.2387882999999995;49.93700408935547;1673376499.8883893;-47.102447509765625;-9.429744720458984;-140.703369140625
262;1673376499.987591;47.129303;7.2387635999999995;49.94400405883789;1673376500.0918932;-45.968894958496094;-9.657790184020996;-141.11659240722656
263;1673376500.1915772;47.129283099999995;7.2387391999999995;49.96000289916992;1673376500.2913153;-36.13898468017578;-9.834716796875;-141.0120849609375
264;1673376500.3925896;47.1292633;7.2387155;49.996002197265625;1673376500.498417;-18.732778549194336;-9.382987022399902;-139.73379516601562
265;1673376500.6036198;47.1292445;7.238693199999999;50.02400207519531;1673376500.7027826;-2.740042209625244;-7.137706756591797;-137.946533203125
266;1673376500.7941294;47.1292275;7.2386728;50.03900146484375;1673376500.9000955;9.367727279663086;-5.634167671203613;-136.76844787597656
267;1673376500.9923909;47.1292128;7.238654899999999;50.04300308227539;1673376501.1004982;15.425832748413086;-4.743775367736816;-136.7821502685547
268;1673376501.1957424;47.1292006;7.2386398;50.02700424194336;1673376501.298771;22.84906578063965;-3.8806264400482178;-135.79185485839844
269;1673376501.3920336;47.1291909;7.2386275;49.96600341796875;1673376501.48825;20.163833618164062;-5.010529041290283;-134.96771240234375
270;1673376501.5981798;47.129183499999996;7.2386175999999995;49.87600326538086;1673376501.7012136;18.46768569946289;-12.527719497680664;-134.4922332763672
271;1673376501.7934935;47.1291782;7.2386104;49.833003997802734;1673376501.88262;8.203093528747559;-9.371319770812988;-136.54449462890625
272;1673376501.9718947;47.129174299999995;7.238605199999999;49.832000732421875;1673376502.086702;-0.7903731465339661;-12.764337539672852;-136.32052612304688
273;1673376502.1878283;47.1291711;7.238601399999999;49.86000061035156;1673376502.3107097;-6.847954750061035;-7.683419227600098;-136.3831787109375
274;1673376502.4149003;47.129168199999995;7.2385981;49.90300369262695;1673376502.5209162;-10.489531517028809;-6.912717342376709;-136.28570556640625
275;1673376502.6348503;47.1291654;7.2385947999999996;49.94600296020508;1673376502.7623532;-10.753523826599121;-8.072579383850098;-135.9828643798828
276;1673376502.8751123;47.1291626;7.2385911;49.983001708984375;1673376502.9833746;-10.169280052185059;-10.866789817810059;-135.1733856201172
277;1673376503.0616002;47.1291598;7.238587;50.0150032043457;1673376503.14916;-9.750106811523438;-10.448563575744629;-134.70654296875
278;1673376503.237798;47.1291571;7.2385828;50.04300308227539;1673376503.3359344;-7.96089506149292;-8.793391227722168;-135.41323852539062
279;1673376503.4685106;47.1291545;7.238578599999999;50.07100296020508;1673376503.6229255;-25.475236892700195;-5.925858974456787;-136.7327423095703
280;1673376503.6956987;47.1291515;7.238574;50.13500213623047;1673376503.779683;-28.46654510498047;-2.7477989196777344;-139.14117431640625
281;1673376503.86614;47.129147599999996;7.238568;50.24800109863281;1673376503.9554987;-18.435638427734375;-1.9586552381515503;-139.4876251220703
282;1673376504.0636332;47.129143299999996;7.238561;50.432003021240234;1673376504.1436217;-18.72333335876465;-3.5798113346099854;-138.53802490234375
283;1673376504.2250597;47.129138999999995;7.238553199999999;50.7030029296875;1673376504.3189228;-22.70615577697754;-0.9927577972412109;-138.9032745361328
284;1673376504.4153008;47.129134699999994;7.238544699999999;51.051002502441406;1673376504.5207765;-38.1435661315918;-9.060546875;-138.63821411132812
285;1673376504.6076288;47.1291294;7.238535;51.42000198364258;1673376504.7065058;-45.2960090637207;-13.390799522399902;-138.20339965820312
286;1673376504.8063467;47.1291221;7.238524099999999;51.79500198364258;1673376504.9116843;-41.21037292480469;-12.768020629882812;-137.9228515625
287;1673376505.006607;47.1291133;7.2385122;52.15800094604492;1673376505.110611;-36.77095031738281;-12.54875659942627;-138.49691772460938
288;1673376505.1991482;47.1291033;7.2384995;52.505001068115234;1673376505.2975128;-31.4885196685791;-11.70334529876709;-137.8661651611328
289;1673376505.3888364;47.1290927;7.238486399999999;52.84800338745117;1673376505.496834;-29.0225887298584;-9.367466926574707;-137.7415313720703
290;1673376505.6007628;47.129081799999994;7.238473099999999;53.19400405883789;1673376505.7118354;-26.403928756713867;-7.202944755554199;-137.63192749023438
291;1673376505.8287454;47.129070899999995;7.2384596;53.547000885009766;1673376505.929847;-24.855173110961914;-5.400485038757324;-137.61631774902344
292;1673376506.0350242;47.1290602;7.2384461;53.91100311279297;1673376506.1328902;-24.121273040771484;-4.358994007110596;-137.64114379882812
293;1673376506.2234719;47.129049599999995;7.2384327;54.281002044677734;1673376506.3186922;-23.787248611450195;-4.07503604888916;-137.55450439453125
294;1673376506.4120467;47.129039299999995;7.2384192;54.65400314331055;1673376506.514837;-23.998489379882812;-5.775324821472168;-137.17710876464844
295;1673376506.6125336;47.1290293;7.2384056999999995;55.03300094604492;1673376506.715377;-24.317012786865234;-7.672492980957031;-136.85983276367188
296;1673376506.8203754;47.1290195;7.2383922;55.415000915527344;1673376506.9116874;-25.043415069580078;-9.172038078308105;-136.74929809570312
297;1673376507.0127552;47.1290099;7.2383786;55.798004150390625;1673376507.1178553;-25.644332885742188;-10.086837768554688;-136.7317657470703
298;1673376507.2141962;47.1290003;7.238365099999999;56.18600082397461;1673376507.3202636;-26.43178939819336;-8.840290069580078;-137.1060028076172
299;1673376507.4190643;47.128990599999995;7.2383517;56.579002380371094;1673376507.512131;-26.799715042114258;-7.374279975891113;-137.5236053466797
300;1673376507.623588;47.128980899999995;7.2383383;56.97500228881836;1673376507.7227373;-27.18227195739746;-6.1676106452941895;-137.65892028808594
301;1673376507.8103898;47.128971;7.2383248;57.36900329589844;1673376507.9097753;-27.074689865112305;-5.8282084465026855;-137.78953552246094
302;1673376508.0150447;47.1289611;7.2383112999999994;57.763004302978516;1673376508.1236968;-27.116819381713867;-6.9349164962768555;-137.37484741210938
303;1673376508.2204103;47.128951199999996;7.2382976999999995;58.15800094604492;1673376508.3138375;-26.847543716430664;-8.11882495880127;-137.073486328125
304;1673376508.4077673;47.1289413;7.2382840999999996;58.551002502441406;1673376508.5107298;-26.80304527282715;-8.990984916687012;-136.8538360595703
305;1673376508.6119397;47.1289314;7.238270399999999;58.945003509521484;1673376508.722895;-26.58244514465332;-9.938974380493164;-136.76547241210938
306;1673376508.817528;47.1289215;7.2382567;59.340003967285156;1673376508.9064126;-26.368518829345703;-10.1841459274292;-136.82188415527344
307;1673376508.9987674;47.128911599999995;7.2382428999999995;59.737003326416016;1673376509.1242986;-26.20701789855957;-10.088481903076172;-136.78602600097656
308;1673376509.2255661;47.1289016;7.2382291;60.13600158691406;1673376509.3160756;-26.20318603515625;-9.355925559997559;-136.90725708007812
309;1673376509.4016879;47.1288917;7.2382154;60.53200149536133;1673376509.5132997;-26.25843620300293;-8.775856971740723;-136.9873809814453
310;1673376509.6225667;47.1288817;7.238201699999999;60.92500305175781;1673376509.7186346;-26.433727264404297;-7.870039939880371;-137.3057861328125
311;1673376509.8140056;47.1288718;7.238188;61.31900405883789;1673376509.919552;-26.426912307739258;-7.332257270812988;-137.3784637451172
312;1673376510.0237556;47.128861799999996;7.238174399999999;61.71400451660156;1673376510.1591191;-26.686372756958008;-6.8226399421691895;-137.28915405273438
313;1673376510.2487478;47.1288519;7.238160799999999;62.10900115966797;1673376510.3425865;-26.854503631591797;-6.4008469581604;-137.49740600585938
314;1673376510.4369283;47.1288419;7.238147199999999;62.50400161743164;1673376510.5341182;-26.785560607910156;-6.4551568031311035;-137.34091186523438
315;1673376510.6293492;47.128831899999994;7.238133599999999;62.90300369262695;1673376510.728472;-27.014434814453125;-6.536602020263672;-137.24440002441406
316;1673376510.8237553;47.1288219;7.238119999999999;63.301002502441406;1673376510.9258962;-26.782407760620117;-7.452692031860352;-137.15072631835938
317;1673376511.0329597;47.128811999999996;7.2381063;63.691001892089844;1673376511.1313374;-26.859027862548828;-7.747316837310791;-136.94107055664062
318;1673376511.2237005;47.128802099999994;7.238092699999999;64.08300018310547;1673376511.3259287;-26.681184768676758;-8.917823791503906;-136.85877990722656
319;1673376511.4348328;47.1287921;7.2380789;64.47900390625;1673376511.5385873;-26.57951545715332;-9.354357719421387;-136.70907592773438
320;1673376511.6413324;47.128782199999996;7.238065199999999;64.8759994506836;1673376511.737683;-26.88532829284668;-10.046677589416504;-136.68861389160156
321;1673376511.8344803;47.1287723;7.2380515;65.26900482177734;1673376511.9326305;-26.923582077026367;-10.222994804382324;-136.70645141601562
322;1673376512.023947;47.1287624;7.2380378;65.66200256347656;1673376512.1464422;-26.89273452758789;-9.98697280883789;-136.82110595703125
323;1673376512.2602148;47.128752399999996;7.2380241;66.05400085449219;1673376512.365142;-27.230770111083984;-9.65300464630127;-136.82427978515625
324;1673376512.4593785;47.1287424;7.2380105;66.44499969482422;1673376512.556495;-27.18455696105957;-8.879241943359375;-137.03146362304688
325;1673376512.644347;47.128732299999996;7.237997;66.83700561523438;1673376512.7478452;-27.269014358520508;-8.243375778198242;-137.06497192382812
326;1673376512.8812788;47.1287222;7.2379834;67.23200225830078;1673376512.9599004;-27.33009910583496;-7.739172458648682;-137.1285400390625
327;1673376513.0503335;47.1287121;7.237969799999999;67.6259994506836;1673376513.1455564;-27.05317497253418;-7.672223091125488;-137.12924194335938
328;1673376513.23019;47.1287021;7.2379561;68.02000427246094;1673376513.3263836;-27.374755859375;-7.36444616317749;-137.16175842285156
329;1673376513.4245677;47.128692;7.2379425;68.41500091552734;1673376513.5303798;-27.22161102294922;-7.45604944229126;-137.08872985839844
330;1673376513.6218147;47.1286819;7.237928699999999;68.80900573730469;1673376513.7229993;-27.30225944519043;-7.345986843109131;-137.08338928222656
331;1673376513.8261485;47.1286719;7.237915;69.2040023803711;1673376513.9299254;-27.255308151245117;-7.380439758300781;-137.12155151367188
332;1673376514.0294936;47.128661799999996;7.2379012;69.60200500488281;1673376514.1227632;-27.14398765563965;-7.166864395141602;-137.14222717285156
333;1673376514.2152753;47.1286518;7.2378873;70.00300598144531;1673376514.318203;-25.301513671875;-7.341825485229492;-137.26559448242188
334;1673376514.4174957;47.1286418;7.2378735999999995;70.39600372314453;1673376514.5196588;-8.358867645263672;-8.635011672973633;-137.407958984375
335;1673376514.6277564;47.1286324;7.237860599999999;70.7550048828125;1673376514.7259147;-4.555591106414795;-8.621382713317871;-137.09048461914062
336;1673376514.8144205;47.1286238;7.2378488;71.07100677490234;1673376514.924927;1.4800593852996826;-8.425942420959473;-137.21376037597656
337;1673376515.0124736;47.128616199999996;7.2378383;71.34700012207031;1673376515.116758;5.540122985839844;-7.607093811035156;-137.40078735351562
338;1673376515.2294333;47.1286097;7.237829199999999;71.58700561523438;1673376515.3179417;7.2938690185546875;-6.8402628898620605;-137.81375122070312
339;1673376515.415353;47.1286043;7.2378214;71.79400634765625;1673376515.518187;6.967139720916748;-7.595741271972656;-137.62704467773438
340;1673376515.614955;47.1285999;7.237814999999999;71.97600555419922;1673376515.7160106;5.894105434417725;-8.309361457824707;-136.7173309326172
341;1673376515.814181;47.1285964;7.237809899999999;72.13600158691406;1673376515.9223459;4.569987773895264;-9.261434555053711;-136.62814331054688
342;1673376516.0167494;47.1285935;7.2378059;72.27100372314453;1673376516.1179757;2.912858724594116;-1.1261852979660034;-136.4717559814453
343;1673376516.2173026;47.1285914;7.237802599999999;72.37800598144531;1673376516.3261788;7.576478481292725;21.549345016479492;-126.8207015991211
344;1673376516.422543;47.1285904;7.2377989;72.46300506591797;1673376516.5165527;0.3717919886112213;18.264442443847656;-116.75326538085938
345;1673376516.6170413;47.128591;7.2377946;72.52100372314453;1673376516.7229908;-1.1359719038009644;9.128944396972656;-106.4228286743164
346;1673376516.8271227;47.128592499999996;7.2377896999999995;72.57100677490234;1673376516.927274;-4.813902854919434;4.027061939239502;-98.9584732055664
347;1673376517.020795;47.1285947;7.2377844;72.61800384521484;1673376517.1180162;-5.305490970611572;0.45387008786201477;-90.34720611572266
348;1673376517.215412;47.128597299999996;7.2377788999999995;72.66000366210938;1673376517.330233;-4.9840497970581055;-2.560001850128174;-80.7354965209961
349;1673376517.427158;47.1286;7.2377731;72.69700622558594;1673376517.5235553;-2.929270029067993;-3.23992919921875;-71.30083465576172
350;1673376517.6187835;47.1286026;7.237767099999999;72.73100280761719;1673376517.7164319;0.1387379765510559;-1.8122303485870361;-62.256629943847656
351;1673376517.8088408;47.128605099999994;7.2377612;72.76200103759766;1673376517.9145482;4.008712291717529;-1.348315715789795;-53.289756774902344
352;1673376518.0159059;47.1286075;7.2377553;72.79199981689453;1673376518.1198494;5.185958385467529;-2.216815233230591;-44.42194366455078
353;1673376518.2142365;47.1286099;7.2377496;72.81999969482422;1673376518.318539;3.9044156074523926;-3.135817050933838;-40.79084396362305
354;1673376518.4350643;47.1286121;7.237743999999999;72.84200286865234;1673376518.5239925;-17.721784591674805;-2.9493627548217773;-42.39229202270508
355;1673376518.6232972;47.1286146;7.237737999999999;72.87000274658203;1673376518.719602;-43.24821090698242;-2.0445432662963867;-44.47201919555664
356;1673376518.8227987;47.128618499999995;7.237730099999999;72.9070053100586;1673376518.9376326;-57.17812728881836;-0.5469484925270081;-45.88985061645508
357;1673376519.0360467;47.128624699999996;7.237718999999999;72.92500305175781;1673376519.1382394;-56.35852813720703;-1.7881418466567993;-45.406776428222656
358;1673376519.2214441;47.1286334;7.237704399999999;72.93800354003906;1673376519.318417;-59.87458801269531;-0.9725497364997864;-45.94792175292969
359;1673376519.4156177;47.1286446;7.2376862;72.96700286865234;1673376519.5145402;-60.96358871459961;-0.8358935117721558;-45.63051223754883
360;1673376519.638628;47.128657999999994;7.237664499999999;72.99200439453125;1673376519.7359579;-58.27427673339844;-0.12462082505226135;-45.40565490722656
361;1673376519.8298118;47.1286734;7.237640099999999;73.00100708007812;1673376519.9228992;-57.34886932373047;-0.2627118229866028;-45.66455078125
362;1673376520.0172884;47.128690299999995;7.2376135999999995;72.99500274658203;1673376520.1174743;-56.74185562133789;-0.5357807874679565;-45.80558776855469
363;1673376520.2119145;47.1287084;7.2375852;72.97900390625;1673376520.3161314;-55.16838836669922;-0.5429214835166931;-45.98966598510742
364;1673376520.4242766;47.1287276;7.2375554;72.94800567626953;1673376520.5206869;-52.94559860229492;-0.6975415945053101;-46.021080017089844
365;1673376520.6150756;47.128747499999996;7.237524499999999;72.91400146484375;1673376520.7162652;-50.569549560546875;-1.2981876134872437;-46.15807342529297
366;1673376520.8185403;47.1287678;7.2374928;72.88300323486328;1673376520.9238179;-48.757293701171875;-0.19708378612995148;-46.54617691040039
367;1673376521.0284379;47.1287883;7.2374607;72.85600280761719;1673376521.1333492;-49.534725189208984;-0.2174816131591797;-46.53810501098633
368;1673376521.227635;47.128809;7.2374282;72.83900451660156;1673376521.3238356;-49.624595642089844;-0.18884743750095367;-46.559635162353516
369;1673376521.415177;47.1288299;7.2373954;72.8280029296875;1673376521.5231209;-49.174598693847656;0.018805695697665215;-46.69074630737305
370;1673376521.6163766;47.128850799999995;7.237362399999999;72.81999969482422;1673376521.7242815;-49.16783142089844;0.324838787317276;-46.79487991333008
371;1673376521.811147;47.1288718;7.2373292;72.81600189208984;1673376521.908309;-48.934974670410156;0.15695887804031372;-46.73149108886719
372;1673376522.0167549;47.1288931;7.2372958;72.81500244140625;1673376522.1270452;-48.93425369262695;0.1238829642534256;-46.74234390258789
373;1673376522.2263546;47.1289143;7.2372624;72.81000518798828;1673376522.3302643;-38.53849411010742;0.1545131951570511;-46.706295013427734
374;1673376522.423243;47.128935399999996;7.2372292;72.56500244140625;1673376522.5231936;-4.132292747497559;-0.26461127400398254;-46.572509765625
375;1673376522.6102514;47.1289562;7.237196399999999;71.9530029296875;1673376522.7081242;53.6656608581543;-1.3301503658294678;-46.972877502441406
376;1673376522.8108912;47.128976699999996;7.2371639;70.9280014038086;1673376522.9052565;64.7538833618164;-178.2408447265625;136.47267150878906
377;1673376523.0031142;47.128997399999996;7.237131199999999;69.53400421142578;1673376523.106426;25.10513687133789;179.35699462890625;132.82763671875
378;1673376523.207735;47.129017999999995;7.2370988999999994;67.79199981689453;1673376523.3172455;14.409998893737793;179.3014373779297;129.74758911132812
379;1673376523.4172494;47.1290382;7.237067;65.6760025024414;1673376523.527169;32.905757904052734;178.58091735839844;128.9637908935547
380;1673376523.631224;47.129058099999995;7.2370357;63.189002990722656;1673376523.7362564;82.85945892333984;-175.48028564453125;136.69757080078125
381;1673376523.834376;47.1290778;7.2370046;60.362003326416016;1673376523.9501247;23.680967330932617;-0.8823164105415344;-49.31174850463867
382;1673376524.0510607;47.1290975;7.2369733;57.1410026550293;1673376524.1667542;-40.329185485839844;0.8132615685462952;-47.75873565673828
383;1673376524.2554815;47.129117;7.2369426;53.5150032043457;1673376524.3502953;-67.15381622314453;-1.6416151523590088;-43.87019348144531
384;1673376524.4442596;47.1291361;7.2369122;49.56500244140625;1673376524.540502;-51.70368576049805;-0.19737184047698975;-43.333866119384766
385;1673376524.638425;47.1291551;7.2368824;45.302001953125;1673376524.7331762;6.270336627960205;1.2519099712371826;-41.79446029663086
386;1673376524.8348188;47.129173699999996;7.236853;40.66600036621094;1673376524.9762902;76.94615936279297;18.137189865112305;-23.742290496826172
387;1673376525.0655684;47.1291924;7.236823599999999;35.64200210571289;1673376525.1773436;66.57950592041016;164.45957946777344;122.67931365966797
388;1673376525.278994;47.129211;7.236794199999999;30.312002182006836;1673376525.3892438;80.9683609008789;117.67616271972656;77.07896423339844
389;1673376525.487274;47.1292294;7.2367650999999995;24.684001922607422;1673376525.5962253;28.64743423461914;6.052305698394775;-32.50941467285156
390;1673376525.6812203;47.1292482;7.2367358;18.713001251220703;1673376525.7754095;-40.53104782104492;-0.7898129224777222;-34.78145217895508
391;1673376525.8641038;47.1292666;7.236706799999999;12.351000785827637;1673376525.95759;-60.762725830078125;-4.8708720207214355;-31.566410064697266
392;1673376526.0453982;47.1292846;7.2366785;5.695000171661377;1673376526.1417568;-20.98002052307129;2.215667963027954;-33.730220794677734
393;1673376526.2331762;47.1293009;7.236656399999999;0.22200001776218414;1673376526.331277;-33.87017059326172;5.4080305099487305;-43.73481369018555
394;1673376526.4273686;47.129311;7.2366572;0.5540000200271606;1673376526.523335;-44.324249267578125;5.407728672027588;-49.29434585571289
395;1673376526.6210566;47.1293199;7.236659599999999;0.6920000314712524;1673376526.7321825;-31.735462188720703;3.948681592941284;-47.491004943847656
396;1673376526.8283424;47.129328199999996;7.2366627999999995;0.7670000195503235;1673376526.9273264;-6.968203067779541;0.38390305638313293;-44.540130615234375
397;1673376527.022453;47.1293365;7.2366646;0.76500004529953;1673376527.1273522;-13.530023574829102;2.1908681392669678;-44.89302062988281
398;1673376527.2220674;47.1293441;7.2366652;0.7460000514984131;1673376527.3311083;-12.176575660705566;0.9010398983955383;-44.62713623046875
399;1673376527.4311347;47.1293508;7.2366645;0.7230000495910645;1673376527.5352151;-11.815156936645508;0.50258469581604;-44.247169494628906
400;1673376527.6342795;47.129356;7.2366624999999996;0.7000000476837158;1673376527.7263489;-11.567017555236816;0.2389867603778839;-43.80333709716797
401;1673376527.8321562;47.129361499999995;7.23666;0.6860000491142273;1673376527.9390144;-11.483345985412598;0.25983887910842896;-43.796234130859375
402;1673376528.0521336;47.1293698;7.2366578;0.6770000457763672;1673376528.1450305;-11.351648330688477;0.3363705277442932;-43.85078048706055
403;1673376528.2318633;47.129379799999995;7.2366557;0.6580000519752502;1673376528.3361716;-11.265681266784668;0.42425408959388733;-43.894779205322266
404;1673376528.4275208;47.1293909;7.2366534;0.6310000419616699;1673376528.5188036;-11.140484809875488;0.5233240723609924;-43.927528381347656
405;1673376528.613247;47.129402999999996;7.2366509;0.6010000109672546;1673376528.7161152;-11.039205551147461;0.6170430779457092;-43.947200775146484
406;1673376528.8182921;47.1294158;7.2366481;0.5680000185966492;1673376528.9220703;-10.912333488464355;0.7158843874931335;-43.98796081542969
407;1673376529.0133903;47.1294292;7.2366448;0.5350000262260437;1673376529.1184506;-10.854215621948242;0.7930319309234619;-44.00429916381836
408;1673376529.2111688;47.1294432;7.236641199999999;0.5010000467300415;1673376529.318335;-10.742738723754883;0.8831307291984558;-44.012420654296875
409;1673376529.4151845;47.129457599999995;7.236637;0.46700000762939453;1673376529.5191214;-10.648223876953125;1.0063464641571045;-44.04591751098633
410;1673376529.608206;47.1294726;7.2366325;0.4310000240802765;1673376529.708558;-10.620732307434082;1.1150165796279907;-44.055694580078125
411;1673376529.8010812;47.129487999999995;7.2366275;0.3920000195503235;1673376529.91024;-10.52585220336914;1.2457275390625;-44.08822250366211
412;1673376530.0123205;47.129503899999996;7.236622199999999;0.3540000021457672;1673376530.122139;-10.463452339172363;1.3759735822677612;-44.10604476928711
413;1673376530.2283063;47.129520199999995;7.2366164;0.31300002336502075;1673376530.361166;-10.396468162536621;1.5147770643234253;-44.140846252441406
414;1673376530.4500618;47.129537;7.236610199999999;0.2680000066757202;1673376530.55441;-10.273172378540039;1.6087844371795654;-44.16532516479492
415;1673376530.6614435;47.1295542;7.2366037;0.2200000137090683;1673376530.75219;-10.159868240356445;1.7761482000350952;-44.19936752319336
416;1673376530.8464344;47.1295718;7.2365967;0.17500001192092896;1673376530.9541714;-10.111411094665527;1.8929853439331055;-44.22412872314453
417;1673376531.051523;47.1295898;7.2365894;0.13300000131130219;1673376531.1694348;-10.021758079528809;2.054483652114868;-44.25288772583008
418;1673376531.2701774;47.1296082;7.2365816;0.0950000062584877;1673376531.3764167;-9.983441352844238;2.1766998767852783;-44.24222183227539
419;1673376531.4662693;47.1296269;7.2365734999999995;0.0560000017285347;1673376531.5672803;-9.866265296936035;2.2309179306030273;-44.263206481933594
