;pos_time;latitude;longitude;altitude;alt_time;pitch;roll;yaw
0;1673375826.1232784;47.1306425;7.240619799999999;-0.010000000707805157;1673375826.2254982;-0.08995483815670013;0.1009984165430069;90.34162902832031
1;1673375826.3174431;47.1306425;7.24062;-0.007000000216066837;1673375826.418398;0.0863245502114296;-0.05350496247410774;90.37855529785156
2;1673375826.5204587;47.1306425;7.2406201;-0.005000000353902578;1673375826.6234887;0.2602553367614746;0.27237749099731445;90.25140380859375
3;1673375826.7089796;47.1306425;7.2406201;-0.003000000026077032;1673375826.8052166;-0.14859287440776825;-0.0920044407248497;90.31301879882812
4;1673375826.898505;47.1306424;7.2406201;-0.0010000000474974513;1673375827.0093327;-0.18201549351215363;-0.5838008522987366;90.37664031982422
5;1673375827.1183028;47.1306424;7.2406201;-0.0010000000474974513;1673375827.220492;-0.05407699942588806;-0.3778907358646393;90.47077941894531
6;1673375827.3099768;47.1306424;7.2406201;-0.004000000189989805;1673375827.416209;-0.22386890649795532;-0.4175141751766205;90.23250579833984
7;1673375827.5104904;47.1306424;7.2406201;-0.005000000353902578;1673375827.6255605;-0.005449023097753525;-0.40493929386138916;90.24552154541016
8;1673375827.718424;47.1306424;7.2406201;-0.006000000052154064;1673375827.8255658;0.15205055475234985;-0.41459059715270996;90.23358154296875
9;1673375827.9165301;47.1306424;7.2406201;-0.004000000189989805;1673375828.0186265;-0.21268966794013977;-0.36590576171875;90.21003723144531
10;1673375828.1167877;47.1306424;7.2406201;0.0;1673375828.2224581;-0.09934503585100174;-1.3632417917251587;90.20921325683594
11;1673375828.3191135;47.1306423;7.2406201;-0.0020000000949949026;1673375828.4232545;-0.22196248173713684;-0.8207604885101318;90.35205078125
12;1673375828.5244255;47.1306423;7.2406201;-0.004000000189989805;1673375828.6273592;-0.3857077956199646;-0.9781851768493652;90.33978271484375
13;1673375828.7274532;47.1306423;7.2406201;-0.004000000189989805;1673375828.8409617;-0.059078771620988846;-0.8649407625198364;90.30992889404297
14;1673375828.929577;47.1306423;7.2406201;-0.004000000189989805;1673375829.0406454;-0.16881489753723145;-0.7815718054771423;90.16353607177734
15;1673375829.1235023;47.1306423;7.2406201;-0.006000000052154064;1673375829.2176082;-0.45639845728874207;-1.2984369993209839;90.16151428222656
16;1673375829.3115244;47.1306423;7.24062;-0.00800000037997961;1673375829.423404;-0.2883683741092682;-0.6230920553207397;90.31128692626953
17;1673375829.5245798;47.1306424;7.24062;0.0;1673375829.6357274;-0.40370866656303406;-1.1205588579177856;90.27281188964844
18;1673375829.759048;47.1306424;7.2406198999999996;-0.003000000026077032;1673375829.8598385;-0.34606415033340454;-0.8445324897766113;90.48381042480469
19;1673375829.9459283;47.1306424;7.24062;-0.003000000026077032;1673375830.0436041;-0.42185965180397034;-1.0332062244415283;90.55221557617188
20;1673375830.129486;47.1306424;7.24062;-0.0010000000474974513;1673375830.2215364;-0.5849602818489075;-0.39003023505210876;90.72404479980469
21;1673375830.3094985;47.1306424;7.24062;0.0;1673375830.41361;-0.541314959526062;-0.48241275548934937;90.61752319335938
22;1673375830.5067036;47.1306424;7.24062;0.003000000026077032;1673375830.6125174;-0.5821959376335144;-0.5512267351150513;90.62909698486328
23;1673375830.7114258;47.1306424;7.24062;0.010000000707805157;1673375830.8186018;-0.6526222229003906;-0.699114978313446;90.79228210449219
24;1673375830.9077058;47.1306425;7.24062;0.015000000596046448;1673375831.009614;-0.49448078870773315;-0.5448357462882996;91.33250427246094
25;1673375831.107726;47.130642599999995;7.24062;0.017000000923871994;1673375831.2557862;-0.625454843044281;-0.4588656425476074;92.84577941894531
26;1673375831.3447216;47.130642699999996;7.2406201;0.01900000125169754;1673375831.454884;0.3346293270587921;0.5995822548866272;99.19410705566406
27;1673375831.5518272;47.130643;7.2406204999999995;0.02200000174343586;1673375831.658713;1.1535502672195435;2.6569857597351074;97.29198455810547
28;1673375831.7515252;47.1306434;7.2406212;0.030000001192092896;1673375831.8516655;4.851566791534424;5.422770977020264;93.12349700927734
29;1673375831.93574;47.130643899999995;7.2406220999999995;0.046000003814697266;1673375832.0449271;10.186152458190918;9.945209503173828;92.10159301757812
30;1673375832.1257577;47.130644499999995;7.240623299999999;0.06700000166893005;1673375832.2215881;12.448943138122559;12.342397689819336;92.2149887084961
31;1673375832.3159063;47.1306452;7.240624599999999;0.09800000488758087;1673375832.4256542;13.366317749023438;13.198369026184082;92.29957580566406
32;1673375832.5175338;47.130645799999996;7.2406258999999995;0.1469999998807907;1673375832.6295915;14.2406587600708;14.813803672790527;92.47655487060547
33;1673375832.7225838;47.130646399999996;7.240627;0.20800000429153442;1673375832.8285923;15.417801856994629;15.318281173706055;92.47669219970703
34;1673375832.927348;47.1306468;7.240628;0.289000004529953;1673375833.0186608;17.592174530029297;14.515549659729004;92.24610137939453
35;1673375833.0973425;47.130646999999996;7.2406285;0.39100003242492676;1673375833.1974807;19.40325355529785;15.944293975830078;92.14439392089844
36;1673375833.2917893;47.130646999999996;7.2406286;0.5180000066757202;1673375833.4077673;19.6596622467041;18.735536575317383;91.89283752441406
37;1673375833.508127;47.1306468;7.2406280999999995;0.6500000357627869;1673375833.6296954;19.580366134643555;15.601194381713867;90.98600006103516
38;1673375833.7239344;47.130646299999995;7.240627099999999;0.7970000505447388;1673375833.8367321;18.551610946655273;13.947820663452148;90.14904022216797
39;1673375833.9339578;47.1306456;7.2406258;0.9530000686645508;1673375834.0350225;16.741085052490234;15.831607818603516;89.68331909179688
40;1673375834.1175475;47.1306448;7.2406242999999995;1.124000072479248;1673375834.2205672;14.85805606842041;11.167022705078125;88.37609100341797
41;1673375834.3105462;47.130644;7.2406228;1.3100000619888306;1673375834.4160697;13.341742515563965;8.753469467163086;87.0226058959961
42;1673375834.501548;47.130643299999996;7.2406215;1.499000072479248;1673375834.6195085;12.646193504333496;11.797913551330566;86.33089447021484
43;1673375834.7254744;47.1306429;7.2406204999999995;1.689000129699707;1673375834.8354473;11.551460266113281;9.631610870361328;90.6690902709961
44;1673375834.927857;47.130642599999995;7.2406198999999996;1.8780001401901245;1673375835.0290864;13.027911186218262;6.976312160491943;88.23516082763672
45;1673375835.1353285;47.1306424;7.2406196;2.070000171661377;1673375835.2461383;13.154060363769531;11.46324348449707;87.01129150390625
46;1673375835.3322916;47.1306423;7.240619499999999;2.265000104904175;1673375835.4271686;14.357095718383789;10.111790657043457;85.8438720703125
47;1673375835.528481;47.1306424;7.2406196;2.4630000591278076;1673375835.6311603;14.922176361083984;7.787273406982422;84.46639251708984
48;1673375835.736149;47.1306425;7.2406197;2.6620001792907715;1673375835.841382;15.763936042785645;11.35599422454834;83.64813995361328
49;1673375835.9307222;47.130642699999996;7.2406198999999996;2.864000082015991;1673375836.0319848;16.22372055053711;12.525552749633789;83.60697937011719
50;1673375836.1284885;47.1306428;7.24062;3.062000036239624;1673375836.2429795;16.388364791870117;9.00298023223877;83.52855682373047
51;1673375836.3342152;47.1306429;7.2406201;3.25600004196167;1673375836.445234;16.1956787109375;10.386073112487793;83.57818603515625
52;1673375836.5473545;47.1306428;7.2406201999999995;3.451000213623047;1673375836.6474385;16.242137908935547;12.91054916381836;83.99971771240234
53;1673375836.7422059;47.130642699999996;7.2406203;3.6550002098083496;1673375836.8508673;16.271451950073242;8.99898624420166;83.66252136230469
54;1673375836.947204;47.130642699999996;7.2406203;3.8570001125335693;1673375837.0482695;16.058805465698242;9.679036140441895;83.67636108398438
55;1673375837.1405654;47.130642699999996;7.2406203;4.058000087738037;1673375837.2431934;16.062288284301758;12.66821002960205;84.03251647949219
56;1673375837.327454;47.130642699999996;7.2406203;4.261000156402588;1673375837.4348652;16.179973602294922;9.913575172424316;83.7050552368164
57;1673375837.5296714;47.130642699999996;7.2406204;4.460000038146973;1673375837.6290896;15.812912940979004;8.87255573272705;83.65231323242188
58;1673375837.724309;47.130642699999996;7.2406203;4.6579999923706055;1673375837.8285298;15.698785781860352;12.868038177490234;84.09159088134766
59;1673375837.9195774;47.130642599999995;7.2406203;4.855000019073486;1673375838.0266716;15.928305625915527;10.366844177246094;83.7864761352539
60;1673375838.1239786;47.1306425;7.2406203;5.052000045776367;1673375838.2309268;15.837973594665527;8.620572090148926;83.62300109863281
61;1673375838.3335238;47.1306425;7.2406203;5.260000228881836;1673375838.43739;15.614982604980469;12.152957916259766;83.98493194580078
62;1673375838.540421;47.130642599999995;7.2406201999999995;5.453000068664551;1673375838.6507325;15.853117942810059;11.72185230255127;83.86690521240234
63;1673375838.738656;47.130642599999995;7.2406201999999995;5.654000282287598;1673375838.846403;15.762226104736328;8.712152481079102;83.58086395263672
64;1673375838.9357753;47.1306425;7.2406201999999995;5.850000381469727;1673375839.0399954;15.676512718200684;11.245935440063477;83.8031997680664
65;1673375839.132498;47.1306424;7.2406201999999995;6.044000148773193;1673375839.2433543;15.818373680114746;12.518936157226562;84.15884399414062
66;1673375839.3389003;47.1306424;7.2406201999999995;6.243000507354736;1673375839.4513068;15.821287155151367;8.724458694458008;83.6671142578125
67;1673375839.541269;47.1306424;7.2406201999999995;6.446000099182129;1673375839.6508367;15.550619125366211;10.428923606872559;83.83140563964844
68;1673375839.734771;47.1306425;7.2406201999999995;6.652000427246094;1673375839.8331125;15.771978378295898;12.901058197021484;84.02511596679688
69;1673375839.924452;47.1306425;7.2406201999999995;6.865000247955322;1673375840.034423;15.817450523376465;9.62357234954834;83.78125762939453
70;1673375840.136708;47.1306425;7.2406201999999995;7.055000305175781;1673375840.2397993;15.71753978729248;9.373846054077148;83.68113708496094
71;1673375840.3322957;47.1306425;7.2406201999999995;7.25100040435791;1673375840.4364846;15.766133308410645;13.216126441955566;84.11009216308594
72;1673375840.5295937;47.1306424;7.2406201999999995;7.446000576019287;1673375840.637556;15.781394958496094;10.403298377990723;83.83607482910156
73;1673375840.7386346;47.1306425;7.2406201999999995;7.64300012588501;1673375840.846716;15.690641403198242;9.046366691589355;83.57172393798828
74;1673375840.9362965;47.1306425;7.2406201999999995;7.841000556945801;1673375841.0510664;15.463388442993164;12.816083908081055;84.0584487915039
75;1673375841.1494718;47.130642599999995;7.2406201999999995;8.039000511169434;1673375841.2663426;15.835982322692871;11.633072853088379;84.18942260742188
76;1673375841.3551805;47.130642599999995;7.2406203;8.232000350952148;1673375841.4498904;16.03539276123047;8.48332405090332;83.71007537841797
77;1673375841.5405262;47.1306425;7.2406203;8.42300033569336;1673375841.65596;15.693624496459961;11.758050918579102;83.77632904052734
78;1673375841.7439106;47.1306425;7.2406204;8.616000175476074;1673375841.8461206;15.965860366821289;11.793641090393066;84.0644760131836
79;1673375841.9346485;47.1306425;7.2406204;8.814000129699707;1673375842.0378437;15.914752960205078;8.67254638671875;83.63858795166016
80;1673375842.132589;47.130642599999995;7.2406204;9.019000053405762;1673375842.2500548;15.761048316955566;11.500462532043457;83.83767700195312
81;1673375842.3506906;47.130642699999996;7.2406204;9.225000381469727;1673375842.4584703;15.822436332702637;13.166824340820312;83.9777603149414
82;1673375842.5375278;47.1306428;7.2406204;9.427000045776367;1673375842.6803205;15.970256805419922;9.58137321472168;83.80280303955078
83;1673375842.769869;47.1306428;7.2406204;9.623000144958496;1673375842.884651;15.778908729553223;10.290324211120605;83.76057434082031
84;1673375842.9690692;47.130642699999996;7.2406204;9.813000679016113;1673375843.0740907;15.706125259399414;13.239702224731445;84.14404296875
85;1673375843.1781533;47.130642699999996;7.2406204;10.008000373840332;1673375843.2905006;15.801029205322266;9.758511543273926;83.70108795166016
86;1673375843.3775609;47.130642699999996;7.2406204;10.234000205993652;1673375843.4777284;15.497321128845215;10.58554744720459;84.2031478881836
87;1673375843.5698733;47.130642599999995;7.2406201999999995;10.545000076293945;1673375843.6807528;15.831986427307129;14.65664291381836;84.9875717163086
88;1673375843.7643616;47.1306424;7.24062;10.928000450134277;1673375843.862632;15.96868896484375;12.267793655395508;84.42129516601562
89;1673375843.9567976;47.130642099999996;7.2406197;11.315000534057617;1673375844.0739977;15.198650360107422;9.244341850280762;84.2718276977539
90;1673375844.1652722;47.1306417;7.2406194;11.703001022338867;1673375844.2753603;14.406630516052246;10.704809188842773;84.40664672851562
91;1673375844.3708093;47.1306413;7.2406193;12.096000671386719;1673375844.4829607;14.350240707397461;10.479715347290039;84.41897583007812
92;1673375844.574523;47.130641;7.240619199999999;12.493000984191895;1673375844.674293;14.41684341430664;6.960373878479004;83.69933319091797
93;1673375844.7734118;47.130641;7.2406191;12.896000862121582;1673375844.863745;14.111557006835938;9.234798431396484;83.80059051513672
94;1673375844.9390552;47.1306411;7.2406191;13.300000190734863;1673375845.0430543;14.490751266479492;11.27135944366455;84.08122253417969
95;1673375845.1344569;47.1306413;7.240619199999999;13.697000503540039;1673375845.2454917;14.949352264404297;8.059720993041992;83.87157440185547
96;1673375845.3752997;47.130641399999995;7.2406193;14.089000701904297;1673375845.4745226;14.872814178466797;9.805390357971191;84.05742645263672
97;1673375845.558782;47.1306416;7.2406194;14.49100112915039;1673375845.6772294;15.05616283416748;12.930185317993164;84.50702667236328
98;1673375845.770287;47.1306418;7.240619499999999;14.863000869750977;1673375845.8703842;15.211517333984375;9.78758430480957;84.06543731689453
99;1673375845.9554818;47.130641999999995;7.2406196;15.255001068115234;1673375846.0629957;15.414915084838867;10.12292766571045;83.87409210205078
100;1673375846.1539853;47.1306422;7.2406196;15.664000511169434;1673375846.2634957;15.35775089263916;13.335550308227539;84.08834838867188
101;1673375846.349556;47.1306424;7.2406197;16.041000366210938;1673375846.448776;15.43295669555664;11.312026977539062;84.08676147460938
102;1673375846.5430126;47.1306424;7.2406197;16.4320011138916;1673375846.6588905;15.353033065795898;9.827433586120605;84.15682220458984
103;1673375846.7602117;47.1306423;7.2406197;16.82000160217285;1673375846.8707137;15.168691635131836;12.726329803466797;84.44843292236328
104;1673375846.961522;47.1306422;7.2406197;17.211999893188477;1673375847.0799427;15.172690391540527;11.288351058959961;84.18561553955078
105;1673375847.1709466;47.130642099999996;7.2406197;17.611000061035156;1673375847.2610483;15.159517288208008;8.42801284790039;83.71322631835938
106;1673375847.3440516;47.130641999999995;7.2406197;18.01300048828125;1673375847.4500504;14.959981918334961;11.715351104736328;84.02904510498047
107;1673375847.5523138;47.130642099999996;7.2406197;18.413000106811523;1673375847.6614375;14.994917869567871;11.849245071411133;84.19893646240234
108;1673375847.7577507;47.130642099999996;7.2406197;18.808000564575195;1673375847.8491173;15.146194458007812;8.63278865814209;83.9853515625
109;1673375847.9404407;47.130641999999995;7.2406197;19.200000762939453;1673375848.0387676;14.928211212158203;10.311125755310059;84.00009155273438
110;1673375848.1242683;47.130641999999995;7.2406197;19.59000015258789;1673375848.2371142;15.05798625946045;12.40361499786377;84.37458038330078
111;1673375848.3460793;47.130641999999995;7.2406197;19.986000061035156;1673375848.482197;15.327305793762207;9.095623016357422;83.91275787353516
112;1673375848.6030962;47.130642099999996;7.2406197;20.384000778198242;1673375848.7352052;15.261798858642578;10.307158470153809;84.14303588867188
113;1673375848.8089879;47.1306422;7.2406197;20.783000946044922;1673375848.904348;14.964277267456055;12.98136043548584;84.32390594482422
114;1673375848.9996192;47.1306423;7.2406197;21.1820011138916;1673375849.0969343;15.219926834106445;10.169976234436035;84.12290954589844
115;1673375849.1863372;47.1306423;7.2406197;21.58100128173828;1673375849.2915971;15.195597648620605;9.468794822692871;83.83533477783203
116;1673375849.3826857;47.1306423;7.2406197;21.975000381469727;1673375849.484822;15.115047454833984;12.66466236114502;84.11994934082031
117;1673375849.5956466;47.1306423;7.2406197;22.367000579833984;1673375849.6914003;15.197284698486328;10.972970962524414;84.12793731689453
118;1673375849.7818465;47.1306423;7.2406197;22.766000747680664;1673375849.8977191;15.333674430847168;9.348973274230957;84.03028106689453
119;1673375849.9949112;47.1306424;7.2406197;23.167001724243164;1673375850.0939429;15.077753067016602;12.333525657653809;84.43092346191406
120;1673375850.1806195;47.1306424;7.2406197;23.58300018310547;1673375850.2848473;15.113836288452148;12.127180099487305;84.315673828125
121;1673375850.3782322;47.1306424;7.2406197;23.96900177001953;1673375850.487166;15.273946762084961;8.992995262145996;83.85917663574219
122;1673375850.5902262;47.1306424;7.2406196;24.36600112915039;1673375850.6874475;15.009681701660156;10.899300575256348;83.91490936279297
123;1673375850.7721412;47.1306423;7.2406196;24.762001037597656;1673375850.8683434;15.069693565368652;12.280766487121582;84.1168212890625
124;1673375850.9513822;47.1306423;7.2406196;25.16400146484375;1673375851.0534246;15.005197525024414;8.969079971313477;83.81864166259766
125;1673375851.1449487;47.1306423;7.240619499999999;25.586000442504883;1673375851.2490675;14.932727813720703;10.393608093261719;83.99793243408203
126;1673375851.3467894;47.1306424;7.240619499999999;25.974000930786133;1673375851.4512756;14.879965782165527;13.00412368774414;84.29591369628906
127;1673375851.555956;47.1306425;7.240619499999999;26.37700080871582;1673375851.6585944;15.176493644714355;10.245078086853027;84.06476593017578
128;1673375851.750893;47.1306425;7.240619499999999;26.777000427246094;1673375851.860806;15.038247108459473;9.728155136108398;83.87590026855469
129;1673375851.9611053;47.1306425;7.2406196;27.173002243041992;1673375852.0774765;15.049015045166016;12.951159477233887;84.16438293457031
130;1673375852.1765857;47.1306424;7.2406196;27.575000762939453;1673375852.2849464;15.167202949523926;11.12151050567627;84.01470947265625
131;1673375852.3817701;47.1306424;7.2406196;27.983001708984375;1673375852.4945552;15.175724983215332;9.094365119934082;83.9316635131836
132;1673375852.5706947;47.1306425;7.2406196;28.406002044677734;1673375852.6744153;14.976092338562012;12.303315162658691;84.37647247314453
133;1673375852.7667487;47.130642599999995;7.2406196;28.797000885009766;1673375852.8693025;15.164175033569336;12.307278633117676;84.23690032958984
134;1673375852.9548419;47.130642599999995;7.2406196;29.20100212097168;1673375853.0569897;15.314809799194336;9.326611518859863;83.8363037109375
135;1673375853.1366663;47.130642599999995;7.2406197;29.59800148010254;1673375853.239893;15.128229141235352;11.248089790344238;83.91336059570312
136;1673375853.3406749;47.1306425;7.2406197;29.9950008392334;1673375853.4550755;14.876969337463379;12.595782279968262;84.34893035888672
137;1673375853.5459483;47.1306424;7.2406197;30.3960018157959;1673375853.6532311;15.248617172241211;9.612873077392578;83.99353790283203
138;1673375853.752098;47.1306424;7.2406197;30.799001693725586;1673375853.8585835;15.224236488342285;10.192596435546875;84.0849838256836
139;1673375853.9538355;47.1306425;7.2406197;31.20100212097168;1673375854.063851;14.990809440612793;13.123125076293945;84.20921325683594
140;1673375854.1582034;47.1306425;7.2406196;31.60300064086914;1673375854.2642734;15.236165046691895;10.31297779083252;83.99836730957031
141;1673375854.3657935;47.1306425;7.2406196;32.00200271606445;1673375854.4837584;14.969914436340332;9.523882865905762;83.805419921875
142;1673375854.5800147;47.1306424;7.2406196;32.39500045776367;1673375854.6860695;14.953217506408691;12.505533218383789;84.2168197631836
143;1673375854.7774432;47.1306424;7.2406197;32.79300308227539;1673375854.8826478;14.958470344543457;10.738144874572754;84.09805297851562
144;1673375854.96965;47.1306424;7.2406197;33.19700241088867;1673375855.0758946;15.104031562805176;9.123608589172363;83.9139175415039
145;1673375855.1683428;47.1306425;7.2406197;33.60100173950195;1673375855.2635992;14.946102142333984;12.747013092041016;84.18414306640625
146;1673375855.4061015;47.130642599999995;7.2406197;34.00699996948242;1673375855.5091302;15.209739685058594;12.1800537109375;84.11662292480469
147;1673375855.592656;47.130642599999995;7.240619799999999;34.41100311279297;1673375855.6861532;15.359683990478516;9.264799118041992;83.85604095458984
148;1673375855.7723095;47.130642599999995;7.240619799999999;34.80500030517578;1673375855.8720167;15.122157096862793;11.777708053588867;84.15216064453125
149;1673375855.9555318;47.130642599999995;7.2406198999999996;35.2030029296875;1673375856.0576863;15.108878135681152;12.278962135314941;84.2691650390625
150;1673375856.1480064;47.1306425;7.2406198999999996;35.605003356933594;1673375856.245396;15.236564636230469;9.12316608428955;83.87004089355469
151;1673375856.3289325;47.130642599999995;7.2406198999999996;36.00800323486328;1673375856.4300122;15.23065185546875;11.291966438293457;84.04780578613281
152;1673375856.5360155;47.130642699999996;7.2406198999999996;36.41400146484375;1673375856.6440113;15.110042572021484;12.935681343078613;84.17052459716797
153;1673375856.747063;47.130642699999996;7.2406198999999996;36.819000244140625;1673375856.8660588;15.27867603302002;9.769786834716797;84.06884765625
154;1673375856.9657571;47.130642699999996;7.2406198999999996;37.22500228881836;1673375857.074367;15.1278657913208;10.123153686523438;83.91000366210938
155;1673375857.1718056;47.130642599999995;7.2406198999999996;37.62200164794922;1673375857.2813957;14.890703201293945;13.060198783874512;84.36527252197266
156;1673375857.3744545;47.130642599999995;7.2406198999999996;38.020999908447266;1673375857.4864304;15.078372955322266;9.602648735046387;83.97986602783203
157;1673375857.5792499;47.130642599999995;7.2406198999999996;38.42400360107422;1673375857.7038155;15.103504180908203;9.856656074523926;83.78282928466797
158;1673375857.7986932;47.130642699999996;7.2406198999999996;38.8280029296875;1673375857.914524;15.089458465576172;13.233311653137207;84.12071990966797
159;1673375858.0230432;47.1306428;7.24062;39.23200225830078;1673375858.1111913;15.239312171936035;10.97020149230957;84.07173919677734
160;1673375858.1868873;47.1306428;7.24062;39.63600158691406;1673375858.2862763;15.232606887817383;9.656872749328613;83.94744110107422
161;1673375858.376238;47.1306428;7.24062;40.034000396728516;1673375858.4841835;15.026753425598145;12.51953411102295;84.40652465820312
162;1673375858.579849;47.130642699999996;7.24062;40.428001403808594;1673375858.6833887;15.098099708557129;11.995789527893066;84.36914825439453
163;1673375858.775171;47.130642699999996;7.24062;40.845001220703125;1673375858.874398;15.304923057556152;9.275766372680664;83.90911865234375
164;1673375858.9600067;47.1306428;7.2406201;41.23500061035156;1673375859.0642092;15.179068565368652;12.243833541870117;84.00227355957031
165;1673375859.1552846;47.1306428;7.2406201;41.6400032043457;1673375859.2671998;15.279701232910156;12.550429344177246;84.08450317382812
166;1673375859.3635175;47.1306428;7.2406201;42.04300308227539;1673375859.47809;15.367555618286133;9.386247634887695;83.95841217041016
167;1673375859.5730927;47.130642699999996;7.2406201;42.44600296020508;1673375859.7108054;15.245251655578613;11.211882591247559;84.15851593017578
168;1673375859.8041542;47.130642699999996;7.2406201;42.842002868652344;1673375859.9032786;15.106657981872559;13.046439170837402;84.41934204101562
169;1673375859.9997246;47.130642599999995;7.24062;43.23800277709961;1673375860.0980082;15.119983673095703;9.728287696838379;83.8464584350586
170;1673375860.1905053;47.130642699999996;7.2406198999999996;43.63600158691406;1673375860.286814;15.116715431213379;10.489818572998047;84.01998901367188
171;1673375860.3918;47.130642699999996;7.2406198999999996;44.035003662109375;1673375860.4948678;14.973511695861816;13.288806915283203;84.33941650390625
172;1673375860.5827677;47.130642699999996;7.2406198999999996;44.4370002746582;1673375860.6848104;15.07051944732666;10.749236106872559;84.18374633789062
173;1673375860.8109207;47.130642699999996;7.240619799999999;44.842002868652344;1673375860.9436252;14.976816177368164;9.412210464477539;83.92484283447266
174;1673375861.0248046;47.130642599999995;7.240619799999999;45.2400016784668;1673375861.1060748;14.996929168701172;12.800371170043945;84.25691986083984
175;1673375861.196555;47.130642599999995;7.240619799999999;45.63900375366211;1673375861.2968462;15.08962345123291;10.915425300598145;83.9758529663086
176;1673375861.3850007;47.130642599999995;7.240619799999999;46.044002532958984;1673375861.5252302;15.254053115844727;8.99903392791748;83.81322479248047
177;1673375861.618272;47.130642599999995;7.240619799999999;46.44900131225586;1673375861.7214656;14.842763900756836;12.450409889221191;84.13868713378906
178;1673375861.794365;47.130642699999996;7.240619799999999;46.85300064086914;1673375861.8871715;14.949616432189941;11.872097969055176;84.22185516357422
179;1673375861.9730394;47.130642699999996;7.240619799999999;47.255001068115234;1673375862.0766373;15.079313278198242;9.126118659973145;83.82709503173828
180;1673375862.169951;47.130642699999996;7.2406197;47.65800094604492;1673375862.2701476;14.966572761535645;12.159256935119629;84.04769134521484
181;1673375862.3637753;47.1306428;7.2406197;48.05500411987305;1673375862.4749513;15.09247875213623;12.937516212463379;84.03182983398438
182;1673375862.5743215;47.1306428;7.240619799999999;48.419002532958984;1673375862.685699;15.104501724243164;10.310115814208984;83.88027954101562
183;1673375862.812793;47.130643;7.2406198999999996;48.733001708984375;1673375862.9227352;15.097976684570312;12.144234657287598;84.36577606201172
184;1673375863.043498;47.1306431;7.24062;48.99700164794922;1673375863.1417186;15.424856185913086;13.513961791992188;84.4017105102539
185;1673375863.2342768;47.130643199999994;7.2406203;49.21600341796875;1673375863.330709;16.1118221282959;9.714927673339844;83.60757446289062
186;1673375863.4366388;47.130643299999996;7.2406204999999995;49.4010009765625;1673375863.5505605;30.162372589111328;22.623149871826172;89.82465362548828
187;1673375863.6312149;47.130643;7.24062;49.56300354003906;1673375863.726637;37.77902603149414;40.17790222167969;102.45433807373047
188;1673375863.8042903;47.1306417;7.240617599999999;49.70500183105469;1673375863.911302;37.901039123535156;50.53778076171875;111.49574279785156
189;1673375864.0094817;47.1306386;7.2406123;49.82400131225586;1673375864.1156201;29.275148391723633;57.67978286743164;120.49409484863281
190;1673375864.2257178;47.130633599999996;7.2406038;49.90500259399414;1673375864.3083353;9.365852355957031;54.76832962036133;130.61302185058594
191;1673375864.389507;47.1306273;7.2405933;49.94400405883789;1673375864.4892178;-5.930652618408203;50.487937927246094;141.90341186523438
192;1673375864.5807395;47.130620099999994;7.2405813;49.954002380371094;1673375864.6859474;-18.342283248901367;46.55718231201172;152.4377899169922
193;1673375864.7792842;47.130612199999995;7.2405684;49.9530029296875;1673375864.8776596;-28.905803680419922;42.323158264160156;161.80809020996094
194;1673375864.9702377;47.1306036;7.240554899999999;49.94300079345703;1673375865.0732534;-40.876930236816406;40.25528335571289;171.43931579589844
195;1673375865.156858;47.1305942;7.2405405;49.92900085449219;1673375865.286446;-47.85676193237305;35.032962799072266;-174.71348571777344
196;1673375865.3790164;47.130584;7.2405249;49.90900421142578;1673375865.4904568;-46.0380859375;24.859935760498047;-164.0126953125
197;1673375865.5878427;47.130573399999996;7.2405083999999995;49.87300109863281;1673375865.6912477;-43.62569046020508;19.341371536254883;-159.55014038085938
198;1673375865.7834692;47.1305627;7.2404915;49.83700180053711;1673375865.928748;-46.81459426879883;15.041643142700195;-153.10345458984375
199;1673375866.00949;47.1305518;7.2404744;49.81300354003906;1673375866.1092658;-48.655941009521484;9.774622917175293;-144.87301635742188
200;1673375866.190582;47.1305407;7.2404569;49.7920036315918;1673375866.2933047;-48.081214904785156;5.32997989654541;-138.0806884765625
201;1673375866.3828602;47.1305294;7.2404391;49.78300094604492;1673375866.5060737;-47.171875;-0.8797536492347717;-131.9101104736328
202;1673375866.5940158;47.1305182;7.2404211;49.78400421142578;1673375866.6905365;-48.16730499267578;-6.804652690887451;-131.4547576904297
203;1673375866.7765224;47.1305068;7.240403199999999;49.78000259399414;1673375866.8864493;-46.95026779174805;-5.471199989318848;-135.3597412109375
204;1673375866.982661;47.130494899999995;7.2403857;49.77100372314453;1673375867.1022437;-47.11770248413086;-4.434516906738281;-136.74053955078125
205;1673375867.1959803;47.130482699999995;7.2403688;49.76700210571289;1673375867.3094642;-47.92334747314453;-3.126194715499878;-137.4482421875
206;1673375867.3974366;47.1304701;7.2403523;49.775001525878906;1673375867.5069175;-48.187198638916016;-1.3414955139160156;-138.26585388183594
207;1673375867.5943296;47.130457299999996;7.2403360999999995;49.78300094604492;1673375867.700316;-48.85858154296875;-0.15328548848628998;-138.6016387939453
208;1673375867.785437;47.1304442;7.2403201;49.797000885009766;1673375867.8982792;-49.121116638183594;0.6793419718742371;-138.83175659179688
209;1673375867.9970155;47.130430499999996;7.240303399999999;49.81800079345703;1673375868.0946665;-49.539878845214844;0.8430669903755188;-138.68446350097656
210;1673375868.1959186;47.1304178;7.2402878;49.8380012512207;1673375868.3026674;-49.52938461303711;0.9175572395324707;-138.52713012695312
211;1673375868.3946316;47.130403799999996;7.2402709;49.858001708984375;1673375868.4987907;-49.01158905029297;0.8965046405792236;-138.2740936279297
212;1673375868.598138;47.130390899999995;7.2402551;49.87200164794922;1673375868.702689;-48.72043991088867;0.9309056401252747;-138.1308135986328
213;1673375868.7866583;47.1303774;7.2402386;49.87200164794922;1673375868.8949254;-48.092498779296875;0.8494868278503418;-137.8882598876953
214;1673375868.9780202;47.1303638;7.2402219;49.867000579833984;1673375869.0791051;-47.550540924072266;0.8050463795661926;-137.75331115722656
215;1673375869.1772373;47.130350299999996;7.240205199999999;49.8640022277832;1673375869.29552;-47.508453369140625;0.7377477884292603;-137.60952758789062
216;1673375869.3865347;47.130336899999996;7.2401884;49.8640022277832;1673375869.5002356;-47.85383605957031;0.6698712706565857;-137.47174072265625
217;1673375869.586714;47.130323499999996;7.2401716;49.86900329589844;1673375869.6831572;-48.346153259277344;0.6895163059234619;-137.39022827148438
218;1673375869.775282;47.130310099999996;7.2401547;49.87700271606445;1673375869.8939946;-48.70741653442383;0.7037429213523865;-137.30979919433594
219;1673375869.9833567;47.130296699999995;7.2401377;49.88600158691406;1673375870.1066895;-48.569461822509766;0.6960556507110596;-137.23631286621094
220;1673375870.2036579;47.130283399999996;7.240120699999999;49.88500213623047;1673375870.3097465;-48.117286682128906;0.6909026503562927;-137.1171112060547
221;1673375870.3997023;47.130269999999996;7.240103599999999;49.88200378417969;1673375870.5141616;-47.73746871948242;0.6400737762451172;-137.0253448486328
222;1673375870.6023388;47.1302567;7.2400864;49.88500213623047;1673375870.7134275;-48.1677360534668;0.7050294280052185;-137.00405883789062
223;1673375870.8387446;47.1302434;7.2400693;49.89200210571289;1673375870.9284394;-48.7621955871582;0.7002123594284058;-136.9358367919922
224;1673375871.0120256;47.1302301;7.2400519999999995;49.89800262451172;1673375871.10925;-48.76652908325195;0.7121749520301819;-136.8744354248047
225;1673375871.199255;47.1302168;7.2400347;49.89800262451172;1673375871.2953546;-48.29865264892578;0.6851139664649963;-136.822998046875
226;1673375871.4078388;47.1302035;7.2400173;49.8910026550293;1673375871.5166142;-47.909732818603516;0.6696619987487793;-136.76809692382812
227;1673375871.6238031;47.1301902;7.2399999;49.88200378417969;1673375871.7106228;-47.71870803833008;0.7156838774681091;-136.75128173828125
228;1673375871.7995405;47.130176999999996;7.2399824;49.87900161743164;1673375871.8968506;-48.0825080871582;0.7145401835441589;-136.7362060546875
229;1673375871.9863808;47.1301639;7.2399648999999995;49.880001068115234;1673375872.0874932;-48.51375198364258;0.6840633749961853;-136.68670654296875
230;1673375872.189587;47.130150699999994;7.239947399999999;49.88100051879883;1673375872.2965915;-48.722286224365234;0.7344282865524292;-136.6880645751953
231;1673375872.393047;47.1301376;7.2399298;49.87700271606445;1673375872.4952447;-48.47532653808594;0.6876484155654907;-136.65560913085938
232;1673375872.5965264;47.1301244;7.2399122;49.87700271606445;1673375872.7187421;-48.34635543823242;0.7489027976989746;-136.66140747070312
233;1673375872.8228884;47.130111299999996;7.2398945999999995;49.875003814697266;1673375872.9181905;-48.281089782714844;0.6987863183021545;-136.61573791503906
234;1673375873.0041459;47.1300982;7.2398769;49.86900329589844;1673375873.1032572;-48.22385787963867;0.7136967778205872;-136.6201171875
235;1673375873.2077897;47.130085099999995;7.2398592;49.86600112915039;1673375873.3240063;-48.28140640258789;0.6926860809326172;-136.60113525390625
236;1673375873.407306;47.130072;7.2398415;49.867000579833984;1673375873.518865;-48.49905014038086;0.676368236541748;-136.57904052734375
237;1673375873.615127;47.130058899999995;7.2398238;49.868003845214844;1673375873.7152278;-48.566986083984375;0.6838180422782898;-136.58602905273438
238;1673375873.8032274;47.1300458;7.239806;49.868003845214844;1673375873.9076285;-48.435367584228516;0.7030782103538513;-136.59475708007812
239;1673375874.0025153;47.1300327;7.2397882;49.8640022277832;1673375874.109696;-48.2274169921875;0.7086786031723022;-136.587890625
240;1673375874.1943276;47.1300196;7.2397705;49.85600280761719;1673375874.3015203;-47.92720413208008;0.7276266813278198;-136.57345581054688
241;1673375874.3973567;47.1300065;7.2397526999999995;49.849002838134766;1673375874.4904468;-47.82072830200195;0.7621408104896545;-136.59597778320312
242;1673375874.5771034;47.1299934;7.239734899999999;49.84400177001953;1673375874.679184;-47.90644454956055;0.7355836629867554;-136.54319763183594
243;1673375874.7686079;47.1299804;7.2397171;49.842002868652344;1673375874.872692;-48.082515716552734;0.7642838954925537;-136.56716918945312
244;1673375874.9735396;47.1299673;7.239699399999999;49.84400177001953;1673375875.0884304;-48.35395050048828;0.8039567470550537;-136.56211853027344
245;1673375875.1828852;47.1299543;7.2396816;49.845001220703125;1673375875.2910001;-48.43741989135742;0.752535343170166;-136.52842712402344
246;1673375875.3883188;47.1299412;7.2396638;49.84400177001953;1673375875.499343;-48.20790100097656;0.7547604441642761;-136.54425048828125
247;1673375875.5927112;47.129928199999995;7.239646;49.84400177001953;1673375875.7026613;-48.208133697509766;0.7905951142311096;-136.5324249267578
248;1673375875.802988;47.1299151;7.239628199999999;49.84600067138672;1673375875.9032311;-48.307621002197266;0.7522624135017395;-136.51112365722656
249;1673375875.9940505;47.129902;7.2396104;49.84600067138672;1673375876.0966406;-48.30493927001953;0.8588141798973083;-136.55755615234375
250;1673375876.1842113;47.1298885;7.2395919;49.84700393676758;1673375876.2931786;-48.313106536865234;0.8130781054496765;-136.5111541748047
251;1673375876.385462;47.129875999999996;7.2395748;49.849002838134766;1673375876.4923968;-48.34355926513672;0.8171687126159668;-136.53195190429688
252;1673375876.596543;47.1298629;7.239556899999999;49.85200119018555;1673375876.7025425;-48.20930862426758;0.7823644280433655;-136.4969940185547
253;1673375876.8220923;47.129849899999996;7.239539;49.85300064086914;1673375876.917582;-48.19642639160156;0.7517426609992981;-136.48851013183594
254;1673375876.993721;47.1298368;7.2395211999999995;49.85100173950195;1673375877.1117043;-48.02549743652344;0.7598860263824463;-136.49026489257812
255;1673375877.2120433;47.129823699999996;7.2395033;49.84700393676758;1673375877.3133192;-47.87248611450195;0.8490918278694153;-136.5130615234375
256;1673375877.4074311;47.1298106;7.2394853999999995;49.845001220703125;1673375877.509483;-47.81929397583008;0.8597269058227539;-136.5039825439453
257;1673375877.600055;47.129797599999996;7.2394675;49.84600067138672;1673375877.7072732;-48.021949768066406;0.8542113900184631;-136.4965057373047
258;1673375877.8335958;47.1297845;7.2394497;49.85100173950195;1673375877.9583616;-48.301944732666016;0.8111701011657715;-136.47328186035156
259;1673375878.0419714;47.1297715;7.239431799999999;49.85600280761719;1673375878.1461298;-48.41289138793945;0.817808985710144;-136.4642791748047
260;1673375878.2326367;47.1297585;7.2394139;49.86000061035156;1673375878.3425665;-48.11469650268555;0.7581452131271362;-136.45399475097656
261;1673375878.4307349;47.1297454;7.239395999999999;49.862003326416016;1673375878.5315676;-47.93855667114258;0.7787271738052368;-136.43641662597656
262;1673375878.630834;47.1297323;7.2393781;49.86600112915039;1673375878.7504475;-48.10505676269531;0.8455821871757507;-136.47227478027344
263;1673375878.8766615;47.1297192;7.239360199999999;49.871002197265625;1673375879.0421698;-48.29924774169922;0.91690993309021;-136.47970581054688
264;1673375879.104669;47.1297061;7.2393423;49.87900161743164;1673375879.1904116;-48.3704948425293;0.9274571537971497;-136.48081970214844
265;1673375879.2654405;47.1296931;7.2393244;49.88500213623047;1673375879.3544705;-48.23814392089844;0.8457181453704834;-136.4327392578125
266;1673375879.4389546;47.1296794;7.2393057;49.8900032043457;1673375879.5471802;-48.118202209472656;0.8725070357322693;-136.43653869628906
267;1673375879.633644;47.1296669;7.2392885;49.89200210571289;1673375879.7387881;-48.13166809082031;0.8988782167434692;-136.42332458496094
268;1673375879.8279488;47.1296532;7.2392699;49.89400100708008;1673375879.930374;-48.12042236328125;0.8886457681655884;-136.415771484375
269;1673375880.016488;47.129640699999996;7.2392527;49.89500427246094;1673375880.1193364;-48.07488250732422;0.8661312460899353;-136.39712524414062
270;1673375880.2178364;47.1296277;7.239234799999999;49.89900207519531;1673375880.3205392;-48.034690856933594;0.8079548478126526;-136.37716674804688
271;1673375880.4435606;47.1296146;7.2392167999999995;49.90200424194336;1673375880.5438254;-48.106544494628906;0.7724282145500183;-136.35018920898438
272;1673375880.657505;47.1296016;7.2391989;49.90500259399414;1673375880.7440915;-48.32389450073242;0.8299315571784973;-136.4094696044922
273;1673375880.8228517;47.1295886;7.2391809;49.90700149536133;1673375880.9276705;-48.21467971801758;0.8496258854866028;-136.41268920898438
274;1673375881.0201726;47.1295755;7.239163;49.90900421142578;1673375881.1146257;-48.17533874511719;0.8566359877586365;-136.40890502929688
275;1673375881.2085;47.1295624;7.2391451;49.91200256347656;1673375881.3036726;-48.164615631103516;0.864916205406189;-136.39540100097656
276;1673375881.3964996;47.1295493;7.239127099999999;49.915000915527344;1673375881.5083292;-48.03632354736328;0.7958822250366211;-136.3553924560547
277;1673375881.599057;47.1295363;7.239109099999999;49.91400146484375;1673375881.6998093;-47.97001266479492;0.7933090925216675;-136.3830108642578
278;1673375881.78249;47.1295232;7.2390911;49.9160041809082;1673375881.8954713;-47.95188522338867;0.7709397077560425;-136.37289428710938
279;1673375881.9918199;47.1295102;7.2390731;49.91800308227539;1673375882.1106312;-48.04978942871094;0.6847037076950073;-136.33412170410156
280;1673375882.2163274;47.129497199999996;7.239055199999999;49.922000885009766;1673375882.3296578;-48.129390716552734;0.7308939099311829;-136.34664916992188
281;1673375882.41587;47.1294841;7.239037199999999;49.93000411987305;1673375882.5193994;-48.406715393066406;0.7552730441093445;-136.35305786132812
282;1673375882.6107006;47.129470999999995;7.2390193;49.93800354003906;1673375882.707984;-48.422611236572266;0.800443708896637;-136.3548583984375
283;1673375882.7994702;47.1294579;7.2390013;49.941001892089844;1673375882.9095182;-48.00810623168945;0.7126051187515259;-136.29832458496094
284;1673375883.009717;47.129444799999995;7.2389833999999995;49.94200134277344;1673375883.1108315;-47.85283660888672;0.7195436358451843;-136.28610229492188
285;1673375883.1993806;47.1294317;7.2389654;49.94400405883789;1673375883.3133438;-47.90396499633789;0.7916977405548096;-136.3248291015625
286;1673375883.4087565;47.129418699999995;7.2389475;49.948001861572266;1673375883.5176938;-48.28312301635742;1.576494574546814;-136.46533203125
287;1673375883.6046362;47.1294057;7.2389296;49.952003479003906;1673375883.7115555;-48.13711166381836;0.6461077332496643;-136.03257751464844
288;1673375883.806807;47.129392599999996;7.2389117;49.954002380371094;1673375883.92281;-47.85950469970703;0.44133460521698;-136.07315063476562
289;1673375884.023147;47.1293796;7.238893699999999;49.958003997802734;1673375884.125332;-48.177520751953125;0.8433884978294373;-136.23788452148438
290;1673375884.216072;47.129366499999996;7.2388756999999995;49.961002349853516;1673375884.331067;-48.25501251220703;0.829433262348175;-136.16770935058594
291;1673375884.4227607;47.1293535;7.2388578;49.9640007019043;1673375884.5259862;-48.0091667175293;0.6688616871833801;-136.0872039794922
292;1673375884.619309;47.12934;7.238839;49.970001220703125;1673375884.7214243;-48.15808868408203;0.7404979467391968;-136.1077880859375
293;1673375884.809246;47.129327499999995;7.238821799999999;49.97500228881836;1673375884.9110053;-48.26229476928711;1.0606677532196045;-136.14990234375
294;1673375885.0112214;47.1293144;7.2388037999999995;49.97800064086914;1673375885.1144657;-48.060935974121094;1.0041534900665283;-136.05604553222656
295;1673375885.209928;47.129301299999995;7.238785699999999;49.98100280761719;1673375885.314963;-47.99386215209961;1.0277546644210815;-135.9796905517578
296;1673375885.4084215;47.1292883;7.2387676999999995;49.98400115966797;1673375885.5124838;-48.0788688659668;0.9328976273536682;-135.87213134765625
297;1673375885.6145833;47.129275299999996;7.238749599999999;49.98800277709961;1673375885.7255251;-48.190162658691406;0.969404935836792;-135.84031677246094
298;1673375885.815851;47.129262399999995;7.2387315;49.992000579833984;1673375885.923171;-48.250728607177734;0.8419486880302429;-135.78224182128906
299;1673375886.0182974;47.1292495;7.2387134;49.99500274658203;1673375886.1226482;-48.19120788574219;0.8790521025657654;-135.76158142089844
300;1673375886.2272284;47.1292366;7.2386953;49.99800109863281;1673375886.3474295;-44.39107131958008;1.219645619392395;-135.64529418945312
301;1673375886.4467301;47.1292237;7.2386772;50.01700210571289;1673375886.5489502;-36.06915283203125;0.5831906199455261;-135.2677001953125
302;1673375886.6384406;47.1292112;7.2386596999999995;50.05000305175781;1673375886.7319279;-23.805171966552734;1.708126425743103;-135.5237274169922
303;1673375886.8095727;47.1291995;7.238643199999999;50.07100296020508;1673375886.9235642;-12.901217460632324;1.2748961448669434;-135.16018676757812
304;1673375887.015686;47.1291893;7.2386287;50.077003479003906;1673375887.126587;-8.124014854431152;2.168334484100342;-135.508544921875
305;1673375887.2388234;47.1291805;7.2386162999999994;50.07600402832031;1673375887.3359687;-3.992347002029419;1.8081187009811401;-135.4322967529297
306;1673375887.4309838;47.1291733;7.238606099999999;50.06900405883789;1673375887.5582633;-3.3125510215759277;2.5820319652557373;-135.72413635253906
307;1673375887.6627884;47.129167699999996;7.2385981;50.06100082397461;1673375887.8034806;-5.243206024169922;5.466421604156494;-137.2506561279297
308;1673375887.8792453;47.129163399999996;7.238591899999999;50.064002990722656;1673375887.9789379;-8.478528022766113;4.060216903686523;-139.39808654785156
309;1673375888.0563517;47.129160299999995;7.238587099999999;50.06900405883789;1673375888.1549222;-13.726974487304688;2.2799270153045654;-139.7694549560547
310;1673375888.287467;47.1291581;7.2385834;50.07600402832031;1673375888.392185;-17.60441780090332;0.5265830755233765;-137.83721923828125
311;1673375888.4757543;47.1291563;7.2385804;50.08500289916992;1673375888.5612242;-25.90957260131836;-0.5202635526657104;-136.98773193359375
312;1673375888.6420102;47.129154799999995;7.2385778;50.11600112915039;1673375888.7413075;-42.35826873779297;0.15786968171596527;-137.80368041992188
313;1673375888.8475153;47.1291525;7.2385744999999995;50.21000289916992;1673375888.9554167;-27.235855102539062;-1.3243074417114258;-135.58538818359375
314;1673375889.0497293;47.1291496;7.2385701;50.375003814697266;1673375889.159619;-21.31081771850586;0.9010836482048035;-135.36746215820312
315;1673375889.2480338;47.1291465;7.238565899999999;50.643001556396484;1673375889.3395147;-42.275840759277344;2.377641201019287;-136.81741333007812
316;1673375889.422745;47.129143;7.2385608999999995;51.01900100708008;1673375889.5293493;-57.535400390625;0.22987347841262817;-137.53482055664062
317;1673375889.6110163;47.129137799999995;7.2385537;51.38500213623047;1673375889.7219315;-51.47172546386719;-0.17448565363883972;-136.8407440185547
318;1673375889.826053;47.129131;7.2385445;51.72500228881836;1673375889.9222233;-51.393951416015625;0.31817471981048584;-136.6378631591797
319;1673375890.0086498;47.129123199999995;7.238534;52.047000885009766;1673375890.112687;-48.20627975463867;0.696986198425293;-136.76927185058594
320;1673375890.2012653;47.1291144;7.2385223;52.35400390625;1673375890.308797;-46.03972625732422;0.9666903614997864;-136.90261840820312
321;1673375890.4086628;47.1291051;7.2385098999999995;52.65900421142578;1673375890.5274386;-44.12781524658203;1.1513370275497437;-136.8271026611328
322;1673375890.6285462;47.1290954;7.2384968999999995;52.9630012512207;1673375890.728691;-41.982295989990234;1.4380710124969482;-136.8143310546875
323;1673375890.8210292;47.129085499999995;7.2384835999999995;53.27100372314453;1673375890.9281666;-40.89784240722656;1.5398054122924805;-136.8046417236328
324;1673375891.03165;47.1290756;7.2384701;53.5880012512207;1673375891.1305623;-40.05961990356445;1.4296833276748657;-136.81964111328125
325;1673375891.2249324;47.1290656;7.238456599999999;53.913002014160156;1673375891.3344681;-39.51953887939453;1.6618255376815796;-136.87759399414062
326;1673375891.435218;47.129055699999995;7.2384431;54.24900436401367;1673375891.5538719;-39.41233444213867;1.4287028312683105;-136.85281372070312
327;1673375891.6518772;47.1290459;7.2384295;54.59700393676758;1673375891.7969093;-39.39091110229492;1.2694835662841797;-136.85891723632812
328;1673375891.8795588;47.1290361;7.238416;54.952003479003906;1673375891.9931045;-39.524044036865234;1.3708292245864868;-136.92247009277344
329;1673375892.0748022;47.1290263;7.2384026;55.314002990722656;1673375892.1663127;-39.60183334350586;1.1924248933792114;-136.89974975585938
330;1673375892.276212;47.1290167;7.2383893;55.682003021240234;1673375892.3607945;-39.80906295776367;1.1225755214691162;-136.86611938476562
331;1673375892.443082;47.129007099999995;7.238376;56.057003021240234;1673375892.5452113;-39.96562576293945;1.173478126525879;-136.9363555908203
332;1673375892.6283698;47.128997399999996;7.2383627;56.43400192260742;1673375892.7314672;-40.051753997802734;1.23129403591156;-136.91143798828125
333;1673375892.8201125;47.128987699999996;7.2383495;56.81500244140625;1673375892.9267335;-40.13404083251953;1.314098596572876;-136.9105682373047
334;1673375893.023269;47.1289781;7.2383362;57.19900131225586;1673375893.1383955;-40.162025451660156;1.269705891609192;-136.8952178955078
335;1673375893.2447643;47.1289684;7.238322999999999;57.583003997802734;1673375893.358324;-40.137264251708984;1.2400907278060913;-136.89520263671875
336;1673375893.4544775;47.1289588;7.238309699999999;57.965003967285156;1673375893.5550933;-40.14581298828125;1.2120037078857422;-136.9047088623047
337;1673375893.642994;47.1289491;7.238296399999999;58.345001220703125;1673375893.7383566;-40.27372741699219;1.2384721040725708;-136.91456604003906
338;1673375893.8190918;47.1289395;7.238283099999999;58.730003356933594;1673375893.9304602;-40.275997161865234;1.1173131465911865;-136.8692626953125
339;1673375894.0318556;47.128929799999995;7.238269799999999;59.118003845214844;1673375894.1397898;-40.21979522705078;1.064815878868103;-136.87728881835938
340;1673375894.226827;47.128920199999996;7.238256499999999;59.50300216674805;1673375894.3313844;-40.240989685058594;1.1789674758911133;-136.9419403076172
341;1673375894.4285595;47.128910499999996;7.2382431;59.88600158691406;1673375894.540525;-40.22998809814453;1.0941420793533325;-136.9053497314453
342;1673375894.6340427;47.1289009;7.2382298;60.268001556396484;1673375894.7461975;-40.36886978149414;1.1859430074691772;-136.9495391845703
343;1673375894.8384879;47.128890899999995;7.2382161;60.663002014160156;1673375894.9349267;-40.407371520996094;1.232972502708435;-136.94342041015625
344;1673375895.0253193;47.1288816;7.2382032999999995;61.026004791259766;1673375895.1394656;-40.333187103271484;1.3355180025100708;-136.94090270996094
345;1673375895.2536142;47.1288719;7.2381901;61.40500259399414;1673375895.3537345;-40.35944747924805;1.225895881652832;-136.90443420410156
346;1673375895.4380581;47.1288622;7.2381766999999995;61.78600311279297;1673375895.5377326;-40.32124328613281;1.2528305053710938;-136.9114532470703
347;1673375895.6350324;47.1288524;7.2381633999999995;62.1660041809082;1673375895.7479482;-40.238677978515625;1.284920573234558;-136.9034423828125
348;1673375895.8418727;47.1288427;7.23815;62.54700469970703;1673375895.9456813;-40.24977493286133;1.2083954811096191;-136.87644958496094
349;1673375896.0414262;47.1288329;7.2381366;62.928001403808594;1673375896.1388788;-40.28330612182617;1.2604533433914185;-136.9456329345703
350;1673375896.235855;47.1288233;7.2381233;63.30900192260742;1673375896.3632398;-40.37136459350586;1.2299402952194214;-136.9060821533203
351;1673375896.4519284;47.1288136;7.2381098999999995;63.691001892089844;1673375896.5458095;-40.38968276977539;1.1665608882904053;-136.92665100097656
352;1673375896.64693;47.1288039;7.2380965999999995;64.07400512695312;1673375896.74903;-40.50021743774414;1.2413462400436401;-136.95529174804688
353;1673375896.8445966;47.128794199999994;7.2380832999999996;64.46300506591797;1673375896.9453032;-40.44392395019531;1.329779028892517;-136.9309539794922
354;1673375897.0308022;47.1287844;7.238069899999999;64.85700225830078;1673375897.142906;-40.44662094116211;1.241515874862671;-136.90235900878906
355;1673375897.2433496;47.1287747;7.2380565;65.24700164794922;1673375897.3418417;-40.32893371582031;1.2330570220947266;-136.93284606933594
356;1673375897.4534917;47.128765;7.2380431;65.6300048828125;1673375897.5434542;-40.4496955871582;1.3541934490203857;-136.920166015625
357;1673375897.6337917;47.128755299999995;7.2380298;66.01300048828125;1673375897.755082;-40.457279205322266;1.2847391366958618;-136.94985961914062
358;1673375897.8432481;47.128745599999995;7.238016399999999;66.39700317382812;1673375897.950057;-40.47091293334961;1.1640905141830444;-136.8984375
359;1673375898.0509458;47.1287358;7.238003;66.7800064086914;1673375898.1599095;-40.42937469482422;1.2510788440704346;-136.95236206054688
360;1673375898.2371514;47.128726099999994;7.237989499999999;67.16500091552734;1673375898.346808;-40.416954040527344;1.182806134223938;-136.9435577392578
361;1673375898.4440565;47.1287163;7.2379761;67.54900360107422;1673375898.5481217;-40.36471176147461;1.2486292123794556;-136.9338836669922
362;1673375898.6425035;47.1287066;7.2379625999999995;67.93600463867188;1673375898.7407565;-40.50384521484375;1.1404664516448975;-136.95399475097656
363;1673375898.8394153;47.1286968;7.2379492;68.32200622558594;1673375898.9461358;-40.51454544067383;1.2780110836029053;-137.00836181640625
364;1673375899.0383742;47.1286871;7.2379358;68.70600128173828;1673375899.1375396;-40.48756790161133;1.1848033666610718;-136.954345703125
365;1673375899.2318208;47.1286774;7.2379223999999995;69.09000396728516;1673375899.3335137;-40.575191497802734;1.2207763195037842;-137.03143310546875
366;1673375899.4272437;47.1286676;7.237908999999999;69.47400665283203;1673375899.54035;-40.59300231933594;1.23392653465271;-136.9976806640625
367;1673375899.634161;47.1286579;7.2378956;69.85900115966797;1673375899.7425075;-40.5411262512207;1.2666635513305664;-137.0453338623047
368;1673375899.8216298;47.1286481;7.237882099999999;70.24300384521484;1673375899.930788;-31.929035186767578;1.9407706260681152;-137.10609436035156
369;1673375900.0250635;47.1286382;7.237868499999999;70.61100006103516;1673375900.125279;-23.318878173828125;1.4127089977264404;-136.99441528320312
370;1673375900.2284367;47.1286296;7.237856799999999;70.92000579833984;1673375900.3389184;-20.855758666992188;1.5106297731399536;-137.01417541503906
371;1673375900.4386787;47.1286215;7.237845699999999;71.20000457763672;1673375900.5427432;-16.320449829101562;1.8910574913024902;-137.1436309814453
372;1673375900.6327064;47.1286144;7.237835899999999;71.43800354003906;1673375900.7392898;-14.116029739379883;2.007312774658203;-136.9215545654297
373;1673375900.8336568;47.128608199999995;7.2378275;71.63800048828125;1673375900.9342215;-12.8548002243042;1.3642640113830566;-137.00601196289062
374;1673375901.026069;47.1286031;7.2378203999999995;71.81200408935547;1673375901.1360397;-13.061278343200684;1.541931390762329;-137.1739501953125
375;1673375901.2332897;47.1285988;7.2378145;71.96800231933594;1673375901.340288;-13.799590110778809;1.3851687908172607;-137.18063354492188
376;1673375901.429687;47.128595399999995;7.237809899999999;72.10700225830078;1673375901.53187;-14.602436065673828;1.6769530773162842;-137.4521484375
377;1673375901.6402397;47.1285926;7.2378059;72.23500061035156;1673375901.756441;-19.300752639770508;4.258450031280518;-137.4803009033203
378;1673375901.8508728;47.128590599999995;7.2378028;72.35600280761719;1673375901.9499853;-24.845035552978516;25.93120765686035;-129.78102111816406
379;1673375902.0878615;47.128589299999994;7.2377987;72.48800659179688;1673375902.2299707;-35.14601516723633;34.74619674682617;-116.77651977539062
380;1673375902.3267896;47.128589899999994;7.237792799999999;72.60100555419922;1673375902.4163322;-40.61534118652344;23.184171676635742;-104.76309967041016
381;1673375902.493545;47.1285923;7.2377848;72.68800354003906;1673375902.5967517;-36.65547180175781;12.6163330078125;-95.70333862304688
382;1673375902.6923091;47.1285962;7.2377749;72.75900268554688;1673375902.7821405;-31.57440185546875;3.4701895713806152;-87.49378967285156
383;1673375902.8687258;47.1286006;7.2377651;72.80500030517578;1673375902.9649756;-32.69258499145508;-3.7850239276885986;-78.8625259399414
384;1673375903.0542371;47.1286056;7.237754499999999;72.84200286865234;1673375903.1539886;-38.17641067504883;-0.5246365666389465;-70.18892669677734
385;1673375903.251538;47.1286111;7.237743399999999;72.87700653076172;1673375903.3488393;-50.99290084838867;2.1732449531555176;-60.47406768798828
386;1673375903.4397588;47.1286181;7.2377310999999995;72.91800689697266;1673375903.5467892;-60.4027214050293;-0.24859915673732758;-51.12778091430664
387;1673375903.6506734;47.1286273;7.2377169;72.94700622558594;1673375903.754774;-58.34351348876953;-6.032269477844238;-43.336612701416016
388;1673375903.842307;47.1286391;7.2377008;72.94600677490234;1673375903.946427;-54.80192565917969;-8.158265113830566;-43.073848724365234
389;1673375904.0383475;47.1286529;7.2376831;72.93900299072266;1673375904.1418586;-53.658016204833984;-9.000308990478516;-46.479679107666016
390;1673375904.2360878;47.1286681;7.237664199999999;72.93400573730469;1673375904.3377726;-54.273460388183594;-11.634757995605469;-47.9732666015625
391;1673375904.4209454;47.1286841;7.2376439999999995;72.92400360107422;1673375904.5241008;-54.51212692260742;-12.83110237121582;-48.20195007324219
392;1673375904.6373322;47.1287008;7.237622399999999;72.9020004272461;1673375904.7409396;-51.4830322265625;-11.636517524719238;-48.97057342529297
393;1673375904.8327308;47.1287178;7.2375997;72.875;1673375904.9401405;-49.31617736816406;-11.60052490234375;-49.07183074951172
394;1673375905.0346525;47.128735;7.2375761999999995;72.85200500488281;1673375905.1444108;-48.606712341308594;-12.427151679992676;-49.10969543457031
395;1673375905.2667067;47.1287522;7.2375523;72.83800506591797;1673375905.381669;-48.6183967590332;-11.985061645507812;-49.70112228393555
396;1673375905.4682343;47.1287695;7.2375278;72.82500457763672;1673375905.5592535;-48.564815521240234;-11.451802253723145;-49.69802474975586
397;1673375905.6409726;47.128786899999994;7.2375029;72.81200408935547;1673375905.7430458;-47.549617767333984;-11.210126876831055;-49.60387420654297
398;1673375905.8383958;47.1288043;7.2374778;72.8030014038086;1673375905.942478;-47.07208251953125;-11.255563735961914;-49.54344177246094
399;1673375906.0318482;47.128821599999995;7.237452599999999;72.79600524902344;1673375906.1399405;-46.99005889892578;-11.419478416442871;-49.535736083984375
400;1673375906.2638352;47.1288389;7.237427299999999;72.79300689697266;1673375906.3813813;-47.01477813720703;-11.629632949829102;-49.5775146484375
401;1673375906.4764698;47.1288561;7.2374019;72.79400634765625;1673375906.6068628;-47.32362747192383;-15.921142578125;-52.1639518737793
402;1673375906.6961462;47.1288731;7.237376299999999;72.79199981689453;1673375906.7982435;-44.791969299316406;-10.041618347167969;-64.29528045654297
403;1673375906.8797946;47.1288895;7.2373503999999995;72.78400421142578;1673375906.9759524;-43.78875732421875;-4.3224196434021;-74.0167236328125
404;1673375907.0770435;47.1289058;7.237323399999999;72.7750015258789;1673375907.1762164;-40.468849182128906;-0.41138124465942383;-82.960205078125
405;1673375907.280009;47.128920199999996;7.237298699999999;72.69900512695312;1673375907.3971214;-15.095937728881836;-6.75410795211792;-91.59459686279297
406;1673375907.494867;47.1289349;7.2372736;72.29300689697266;1673375907.6000373;27.54387855529785;-28.99264144897461;-109.4462890625
407;1673375907.6868188;47.1289495;7.237248999999999;71.5;1673375907.777857;51.23881530761719;-103.72028350830078;-178.58929443359375
408;1673375907.8542154;47.1289641;7.237224299999999;70.302001953125;1673375907.964179;22.638851165771484;-148.5726776123047;140.89682006835938
409;1673375908.0570436;47.128978599999996;7.2371998;68.7490005493164;1673375908.178162;5.872035980224609;-155.8398895263672;136.35183715820312
410;1673375908.266982;47.1289929;7.237175799999999;66.83800506591797;1673375908.3871312;11.865153312683105;-144.12278747558594;138.23135375976562
411;1673375908.4738789;47.1290078;7.2371516;64.46000671386719;1673375908.5680385;24.807924270629883;-101.2165298461914;165.0972137451172
412;1673375908.666846;47.1290213;7.2371297;61.93000411987305;1673375908.780079;8.099472999572754;-31.926057815551758;-156.7785186767578
413;1673375908.8639147;47.1290353;7.237106499999999;58.92400360107422;1673375908.973079;-27.387710571289062;19.694522857666016;-143.76303100585938
414;1673375909.1000147;47.1290493;7.2370838;55.51100158691406;1673375909.2780585;-49.22797775268555;41.723575592041016;-142.2282257080078
415;1673375909.3409526;47.1290632;7.2370619;51.750003814697266;1673375909.4207714;-43.471004486083984;17.664901733398438;-119.72102355957031
416;1673375909.4995353;47.1290769;7.237040599999999;47.66400146484375;1673375909.6004877;2.1427719593048096;-18.259611129760742;-108.29179382324219
417;1673375909.6829555;47.1290906;7.2370201;43.20600128173828;1673375909.7868068;53.494808197021484;-65.59078979492188;-139.1886749267578
418;1673375909.8849444;47.1291045;7.236999399999999;38.3640022277832;1673375909.9855123;65.49385070800781;-123.7513427734375;163.3650360107422
