;pos_time;latitude;longitude;altitude;alt_time;pitch;roll;yaw
0;1673377690.463402;47.1306424;7.2406193;-0.003000000026077032;1673377690.5767272;0.34166964888572693;-0.18092221021652222;90.11652374267578
1;1673377690.6561513;47.1306424;7.2406193;-0.0020000000949949026;1673377690.7858036;0.2383437603712082;-0.4038810729980469;90.27244567871094
2;1673377690.8711808;47.1306424;7.2406194;0.0;1673377690.9909093;-0.009109584614634514;-0.18490947782993317;90.14078521728516
3;1673377691.0754023;47.1306424;7.240619499999999;0.0;1673377691.1989222;0.13885949552059174;-0.21261854469776154;90.0072250366211
4;1673377691.2913957;47.1306424;7.240619499999999;0.0;1673377691.4034238;0.012933876365423203;-0.10503049194812775;90.0618896484375
5;1673377691.4859478;47.1306424;7.2406194;-0.0010000000474974513;1673377691.6048517;0.14155681431293488;-0.3094812333583832;90.28064727783203
6;1673377691.7000816;47.1306424;7.2406194;-0.006000000052154064;1673377691.821014;0.21617157757282257;-0.14271268248558044;90.09188842773438
7;1673377691.89335;47.1306424;7.2406194;-0.009000000543892384;1673377691.99757;0.3754396438598633;-0.4099733531475067;90.251708984375
8;1673377692.0724561;47.1306423;7.240619499999999;-0.013000000268220901;1673377692.1868947;0.11852551996707916;-0.31969618797302246;90.11951446533203
9;1673377692.265042;47.1306424;7.2406196;-0.015000000596046448;1673377692.3821611;0.14975225925445557;-0.3346172273159027;90.22235870361328
10;1673377692.4785326;47.1306424;7.2406197;-0.01600000075995922;1673377692.603896;0.1920027881860733;-0.28183993697166443;90.19811248779297
11;1673377692.6914413;47.1306424;7.2406197;-0.015000000596046448;1673377692.8226874;0.2944013774394989;-0.40154704451560974;90.14250946044922
12;1673377692.903318;47.1306424;7.2406197;-0.014000000432133675;1673377693.0376341;0.3631625473499298;-0.3211768567562103;90.25370025634766
13;1673377693.155612;47.1306424;7.2406197;-0.013000000268220901;1673377693.2612755;-0.06168925017118454;-0.2785888612270355;90.07794189453125
14;1673377693.340546;47.1306424;7.2406197;-0.012000000104308128;1673377693.4387047;0.007574225775897503;-0.2408699095249176;90.08079528808594
15;1673377693.5163717;47.1306424;7.240619799999999;0.0;1673377693.621397;-0.10166064649820328;-0.3305918574333191;90.011962890625
16;1673377693.710517;47.1306424;7.240619799999999;0.0010000000474974513;1673377693.8205974;-0.09300344437360764;-0.265387624502182;90.0337142944336
17;1673377693.900327;47.1306425;7.240619799999999;0.007000000216066837;1673377694.0207272;0.29544124007225037;-0.24640358984470367;90.20254516601562
18;1673377694.1021876;47.1306425;7.240619799999999;0.00800000037997961;1673377694.2166617;0.09284571558237076;-0.2373528778553009;90.20775604248047
19;1673377694.298994;47.1306425;7.2406198999999996;0.007000000216066837;1673377694.4152212;-0.06810218840837479;-0.40821805596351624;90.12886810302734
20;1673377694.5441163;47.1306425;7.2406198999999996;0.004000000189989805;1673377694.6721354;0.18543417751789093;-0.09664865583181381;90.16280364990234
21;1673377694.7442043;47.1306425;7.24062;0.0010000000474974513;1673377694.839396;0.2512933313846588;-0.1299968957901001;90.13340759277344
22;1673377694.9231944;47.1306425;7.24062;-0.0010000000474974513;1673377695.031333;0.15396668016910553;-0.03047507256269455;90.022216796875
23;1673377695.1184723;47.1306425;7.2406201;0.0;1673377695.2309144;0.13614684343338013;-0.07777607440948486;90.0195083618164
24;1673377695.3031828;47.1306425;7.2406201;0.0010000000474974513;1673377695.4201841;0.34731727838516235;-0.3534301519393921;89.98601531982422
25;1673377695.5003324;47.1306425;7.2406201999999995;0.004000000189989805;1673377695.618272;0.01560972910374403;-0.35577091574668884;90.2310791015625
26;1673377695.6970222;47.1306424;7.2406201999999995;0.007000000216066837;1673377695.8054285;0.07051042467355728;-0.21105025708675385;90.20061492919922
27;1673377695.8913202;47.1306424;7.2406201999999995;0.00800000037997961;1673377696.0192993;0.3596127927303314;-0.42931726574897766;90.4162368774414
28;1673377696.1001976;47.1306424;7.2406201;0.010000000707805157;1673377696.272367;0.3486401438713074;-0.2660737633705139;90.3468017578125
29;1673377696.346102;47.1306425;7.24062;0.00800000037997961;1673377696.4451246;0.5274479389190674;-0.28895455598831177;90.4156494140625
30;1673377696.524145;47.1306425;7.2406198999999996;-0.003000000026077032;1673377696.6312785;0.9923728704452515;-0.0011712327832356095;90.49378967285156
31;1673377696.7069945;47.1306424;7.240619799999999;-0.007000000216066837;1673377696.8192244;1.8996778726577759;-0.1648619920015335;90.60535430908203
32;1673377696.893224;47.1306424;7.240619799999999;-0.005000000353902578;1673377697.0093079;1.8559396266937256;-0.045144978910684586;90.36190795898438
33;1673377697.0870767;47.1306424;7.2406196;-0.009000000543892384;1673377697.2025466;-3.3604557514190674;-0.4082622528076172;89.02422332763672
34;1673377697.279161;47.1306424;7.2406191;0.003000000026077032;1673377697.4004438;-9.821731567382812;-3.123154878616333;88.52003479003906
35;1673377697.4751582;47.1306424;7.2406185;0.032999999821186066;1673377697.595387;-11.096885681152344;1.3230304718017578;88.1668472290039
36;1673377697.6822395;47.1306424;7.2406179999999996;0.08400000631809235;1673377697.7968712;-11.389469146728516;1.7072241306304932;88.50198364257812
37;1673377697.8741834;47.1306425;7.2406178;0.1510000079870224;1673377697.9946349;-11.293067932128906;-2.818030595779419;89.37031555175781
38;1673377698.0883665;47.1306425;7.2406178;0.23000000417232513;1673377698.2233746;-10.998604774475098;-0.4157451093196869;89.16748046875
39;1673377698.3044646;47.1306425;7.2406179999999996;0.32500001788139343;1673377698.4260466;-10.262726783752441;2.4440643787384033;88.81661987304688
40;1673377698.5179193;47.1306425;7.2406182999999995;0.43400001525878906;1673377698.652497;-9.690348625183105;-2.5746355056762695;89.8375015258789
41;1673377698.7316694;47.1306424;7.2406185999999995;0.5600000023841858;1673377698.8464246;-9.188329696655273;-1.9406111240386963;89.82650756835938
42;1673377698.9309745;47.1306423;7.240619;0.6970000267028809;1673377699.0457642;-8.661128997802734;2.0368549823760986;89.17036437988281
43;1673377699.127556;47.1306423;7.2406193;0.8490000367164612;1673377699.240323;-8.658050537109375;-1.926912546157837;89.88267517089844
44;1673377699.317985;47.1306424;7.240619499999999;1.0150001049041748;1673377699.432786;-8.484597206115723;-2.3818233013153076;90.0106430053711
45;1673377699.517008;47.1306425;7.2406196;1.1950000524520874;1673377699.6354709;-8.569741249084473;2.4756946563720703;89.33755493164062
46;1673377699.7220097;47.1306425;7.2406197;1.3850001096725464;1673377699.8243763;-8.57103157043457;-0.9251817464828491;89.49880981445312
47;1673377699.9045835;47.1306424;7.2406197;1.5790001153945923;1673377700.0174115;-8.81155776977539;-3.36336612701416;90.11665344238281
48;1673377700.0858488;47.1306424;7.2406197;1.7780001163482666;1673377700.1991138;-8.809528350830078;0.6069655418395996;89.49506378173828
49;1673377700.2824793;47.1306424;7.2406197;1.9790000915527344;1673377700.40081;-9.067956924438477;1.0944164991378784;89.68802642822266
50;1673377700.483414;47.130642599999995;7.2406197;2.180999994277954;1673377700.6115267;-9.086738586425781;-2.6871516704559326;90.61009216308594
51;1673377700.6865013;47.130642699999996;7.2406197;2.384000062942505;1673377700.7929702;-9.317423820495605;0.764066219329834;90.18537902832031
52;1673377700.869409;47.130642599999995;7.2406196;2.5880000591278076;1673377701.004134;-9.483840942382812;1.444691777229309;89.82845306396484
53;1673377701.0862951;47.130642599999995;7.240619499999999;2.7880001068115234;1673377701.2046304;-9.705442428588867;-3.4949543476104736;90.45867156982422
54;1673377701.2988544;47.1306425;7.240619499999999;2.9900002479553223;1673377701.411872;-9.568426132202148;-0.8175396919250488;90.0418701171875
55;1673377701.500715;47.1306424;7.2406196;3.194000244140625;1673377701.6209378;-9.435664176940918;1.9956259727478027;89.59386444091797
56;1673377701.699979;47.1306425;7.2406196;3.3970000743865967;1673377701.8190157;-9.454560279846191;-2.092033863067627;90.25316619873047
57;1673377701.8992746;47.130642699999996;7.2406197;3.5970001220703125;1673377702.0147789;-9.365294456481934;-1.609567403793335;90.2853012084961
58;1673377702.0948513;47.130642699999996;7.240619799999999;3.7970001697540283;1673377702.2141402;-9.302824974060059;2.5636048316955566;89.59578704833984
59;1673377702.2951832;47.130642599999995;7.2406198999999996;3.996000289916992;1673377702.4096243;-9.148003578186035;-0.5348082780838013;89.77151489257812
60;1673377702.5025837;47.1306425;7.2406198999999996;4.195000171661377;1673377702.6516209;-9.120267868041992;-3.2544314861297607;90.47748565673828
61;1673377702.727901;47.1306424;7.24062;4.396000385284424;1673377702.8371208;-9.162089347839355;0.35861703753471375;89.64466857910156
62;1673377702.9216883;47.1306424;7.2406201;4.6010003089904785;1673377703.0474336;-8.941134452819824;1.004906177520752;89.52758026123047
63;1673377703.1270325;47.130642599999995;7.2406201999999995;4.810000419616699;1673377703.2375484;-9.023370742797852;-2.768078565597534;90.39950561523438
64;1673377703.3098872;47.130642699999996;7.2406201999999995;5.020000457763672;1673377703.4189672;-9.056635856628418;0.2988116443157196;89.99447631835938
65;1673377703.501208;47.130642599999995;7.2406201999999995;5.2270002365112305;1673377703.613905;-9.03221321105957;2.0560107231140137;89.66284942626953
66;1673377703.694023;47.130642599999995;7.2406201999999995;5.431000232696533;1673377703.8113024;-9.255301475524902;-2.641566514968872;90.33067321777344
67;1673377703.897737;47.130642599999995;7.2406201999999995;5.636000156402588;1673377704.017319;-9.32905387878418;-1.0553604364395142;90.1346664428711
68;1673377704.094569;47.1306425;7.2406201999999995;5.842000484466553;1673377704.209589;-9.2320556640625;2.481889486312866;89.52192687988281
69;1673377704.2940927;47.1306425;7.2406201;6.0460004806518555;1673377704.4185178;-9.299592018127441;-2.0312652587890625;90.17658996582031
70;1673377704.5005047;47.130642599999995;7.2406201;6.248000144958496;1673377704.621658;-9.393559455871582;-2.037407398223877;90.27262115478516
71;1673377704.713962;47.130642599999995;7.2406201;6.453000068664551;1673377704.840618;-9.410173416137695;2.357374668121338;89.55543518066406
72;1673377704.92299;47.1306425;7.2406201;6.653000354766846;1673377705.0414271;-9.351889610290527;-0.8091533184051514;90.16934204101562
73;1673377705.1250992;47.1306425;7.2406201;6.8520002365112305;1673377705.2445102;-9.441117286682129;-3.322727918624878;90.56908416748047
74;1673377705.3134034;47.1306424;7.24062;7.054000377655029;1673377705.4144838;-9.456341743469238;1.3149042129516602;89.80635833740234
75;1673377705.483779;47.1306425;7.24062;7.252000331878662;1673377705.604821;-9.479220390319824;0.5662974119186401;89.93692779541016
76;1673377705.6913147;47.130642599999995;7.24062;7.449000358581543;1673377705.8227432;-9.481938362121582;-2.8160970211029053;90.49078369140625
77;1673377705.9060276;47.130642699999996;7.24062;7.65000057220459;1673377706.0343482;-9.465185165405273;0.7411738038063049;90.08666229248047
78;1673377706.140478;47.130642599999995;7.24062;7.849000453948975;1673377706.2569332;-9.355355262756348;1.685809850692749;89.5722427368164
79;1673377706.3331203;47.130642599999995;7.2406201;8.04699993133545;1673377706.4464517;-9.47821044921875;-3.2786266803741455;90.42849731445312
80;1673377706.520409;47.1306425;7.2406201;8.243000030517578;1673377706.6429706;-9.337506294250488;-0.5059857964515686;89.98038482666016
81;1673377706.717818;47.1306425;7.2406201;8.440000534057617;1673377706.8467548;-9.416646003723145;2.1059153079986572;89.5228500366211
82;1673377706.9225245;47.130642599999995;7.2406201;8.640000343322754;1673377707.0452993;-9.587272644042969;-1.8476213216781616;90.3709487915039
83;1673377707.119686;47.130642699999996;7.2406201;8.84000015258789;1673377707.241449;-9.464280128479004;-1.5774388313293457;90.1808090209961
84;1673377707.319135;47.130642599999995;7.2406201;9.039999961853027;1673377707.4425719;-9.496492385864258;2.532646894454956;89.5376205444336
85;1673377707.5290062;47.130642599999995;7.2406201;9.24000072479248;1673377707.641834;-9.597702026367188;-1.4284017086029053;89.92503356933594
86;1673377707.7196026;47.1306425;7.2406201;9.437000274658203;1673377707.8343995;-9.521883964538574;-2.5330350399017334;90.2981185913086
87;1673377707.926978;47.1306424;7.2406201;9.635000228881836;1673377708.0366638;-9.509214401245117;2.1817626953125;89.45449829101562
88;1673377708.1110148;47.1306425;7.2406201999999995;9.836000442504883;1673377708.218651;-9.357698440551758;0.11061767488718033;89.88219451904297
89;1673377708.2977705;47.130642699999996;7.2406201999999995;10.03700065612793;1673377708.406765;-9.429544448852539;-2.5068881511688232;90.48003387451172
90;1673377708.4835446;47.130642699999996;7.2406201999999995;10.253000259399414;1673377708.5962083;-9.602583885192871;0.8970233201980591;89.8371353149414
91;1673377708.6713934;47.130642699999996;7.2406204;10.554000854492188;1673377708.7890766;-10.800692558288574;1.6789309978485107;89.63534545898438
92;1673377708.8697264;47.130642599999995;7.2406207;10.922000885009766;1673377708.9979239;-9.60243034362793;-2.86787486076355;90.34033966064453
93;1673377709.076083;47.1306425;7.240621099999999;11.308000564575195;1673377709.1908185;-8.81195068359375;-1.3982490301132202;90.22276306152344
94;1673377709.2725728;47.1306425;7.240621399999999;11.702000617980957;1673377709.3904471;-8.063429832458496;2.289350986480713;89.6373291015625
95;1673377709.4713812;47.130642599999995;7.240621699999999;12.098000526428223;1673377709.5878975;-7.65592622756958;-1.0746757984161377;90.20931243896484
96;1673377709.6715925;47.130642699999996;7.2406217999999996;12.498000144958496;1673377709.7932444;-7.658210754394531;-1.9688642024993896;90.46881866455078
97;1673377709.8831434;47.130642699999996;7.2406219;12.902000427246094;1673377710.0012126;-7.770594596862793;2.4759128093719482;89.52833557128906
98;1673377710.0844142;47.130642699999996;7.2406217999999996;13.304000854492188;1673377710.2052917;-8.306893348693848;-0.1604306399822235;89.94528198242188
99;1673377710.300042;47.130642599999995;7.2406215;13.702000617980957;1673377710.4183187;-8.528451919555664;-3.1855361461639404;90.35466766357422
100;1673377710.4965477;47.1306424;7.2406213;14.098000526428223;1673377710.6215801;-8.984917640686035;1.1517009735107422;89.78418731689453
101;1673377710.7077458;47.1306424;7.240621099999999;14.492000579833984;1673377710.841091;-9.338166236877441;0.40853554010391235;89.71795654296875
102;1673377710.9226582;47.1306425;7.2406209;14.884000778198242;1673377711.0394921;-9.372026443481445;-2.943593978881836;90.4764404296875
103;1673377711.114063;47.130642599999995;7.2406207;15.2760009765625;1673377711.2301931;-9.422992706298828;0.7516112923622131;89.87644958496094
104;1673377711.304553;47.130642599999995;7.2406206;15.66300106048584;1673377711.420761;-9.46957778930664;1.762364387512207;89.68788146972656
105;1673377711.509719;47.130642599999995;7.2406206;16.046001434326172;1673377711.61784;-9.540993690490723;-2.812734603881836;90.36043548583984
106;1673377711.7006;47.1306425;7.2406206;16.435001373291016;1673377711.847009;-9.42763614654541;-1.265837550163269;90.15531921386719
107;1673377711.9294355;47.1306425;7.2406206;16.826000213623047;1673377712.054631;-9.38238525390625;2.185352087020874;89.44538879394531
108;1673377712.1626256;47.130642599999995;7.2406204999999995;17.21500015258789;1673377712.3024876;-9.211833953857422;-1.4111149311065674;90.13145446777344
109;1673377712.3826792;47.130642699999996;7.2406204999999995;17.60700035095215;1673377712.50794;-9.353686332702637;-1.6969504356384277;90.37359619140625
110;1673377712.5758033;47.130642699999996;7.2406204999999995;17.99700164794922;1673377712.6751177;-9.123885154724121;2.3255999088287354;89.7259521484375
111;1673377712.737857;47.130642699999996;7.2406204999999995;18.385000228881836;1673377712.836349;-9.130912780761719;0.145610511302948;89.88935852050781
112;1673377712.9076393;47.130642599999995;7.2406204999999995;18.770000457763672;1673377713.0187998;-8.97580623626709;-3.3797409534454346;90.46638488769531
113;1673377713.1023707;47.1306425;7.2406204999999995;19.157001495361328;1673377713.2295346;-9.11557388305664;0.7660167813301086;89.83349609375
114;1673377713.3155158;47.1306425;7.2406204999999995;19.549001693725586;1673377713.4366634;-9.049930572509766;1.1124606132507324;89.75393676757812
115;1673377713.510829;47.130642599999995;7.2406204999999995;19.942001342773438;1673377713.614881;-9.09746265411377;-2.743319272994995;90.45799255371094
116;1673377713.689754;47.130642699999996;7.2406204999999995;20.339000701904297;1673377713.8104434;-9.07390308380127;-0.8464637398719788;90.08906555175781
117;1673377713.895343;47.130642699999996;7.2406204999999995;20.731000900268555;1673377714.0189066;-9.111270904541016;2.4866902828216553;89.63552856445312
118;1673377714.0986423;47.130642699999996;7.2406204;21.119001388549805;1673377714.2160554;-8.967459678649902;-1.6799631118774414;90.1006088256836
119;1673377714.3184206;47.130642599999995;7.2406204;21.512001037597656;1673377714.4535246;-9.30012035369873;-1.5445395708084106;90.24711608886719
120;1673377714.5233846;47.130642599999995;7.2406204;21.907001495361328;1673377714.6469407;-9.141988754272461;1.9884284734725952;89.60144805908203
121;1673377714.73149;47.130642599999995;7.2406204;22.301000595092773;1673377714.839333;-9.198054313659668;-0.4851122498512268;90.02816009521484
122;1673377714.9156752;47.130642699999996;7.2406203;22.69300079345703;1673377715.0331814;-9.253301620483398;-2.3300769329071045;90.33211517333984
123;1673377715.1173053;47.1306428;7.2406203;23.08500099182129;1673377715.2286801;-9.249470710754395;2.2711408138275146;89.84506225585938
124;1673377715.3028576;47.130642699999996;7.2406203;23.472002029418945;1673377715.4168873;-9.2810697555542;0.805011510848999;89.92361450195312
125;1673377715.491826;47.130642699999996;7.2406201999999995;23.85500144958496;1673377715.6066675;-9.382357597351074;-3.2932357788085938;90.52690887451172
126;1673377715.6954083;47.130642599999995;7.2406201999999995;24.244001388549805;1673377715.8147063;-9.252354621887207;0.4972994923591614;89.93675231933594
127;1673377715.898451;47.1306425;7.2406201;24.639001846313477;1673377716.0101023;-9.214533805847168;1.5999666452407837;89.68382263183594
128;1673377716.0943458;47.130642699999996;7.2406201;25.036001205444336;1673377716.2232974;-9.270773887634277;-2.515778064727783;90.36221313476562
129;1673377716.303971;47.1306428;7.2406201;25.433000564575195;1673377716.4242995;-9.305656433105469;-0.14430439472198486;90.06452178955078
130;1673377716.5005517;47.1306428;7.2406201;25.828001022338867;1673377716.6192367;-9.208161354064941;2.4293930530548096;89.55667114257812
131;1673377716.7058718;47.1306428;7.2406201;26.21900177001953;1673377716.8276374;-9.114202499389648;-1.610213279724121;90.18158721923828
132;1673377716.9153538;47.1306428;7.2406201;26.61100196838379;1673377717.0250616;-9.207125663757324;-1.1395628452301025;90.31307983398438
133;1673377717.1108162;47.1306428;7.2406201;27.00400161743164;1673377717.2149172;-9.108057975769043;2.4505913257598877;89.67839050292969
134;1673377717.3013434;47.1306428;7.2406201;27.397001266479492;1673377717.417209;-9.365799903869629;-0.13812977075576782;89.9419174194336
135;1673377717.493835;47.1306429;7.24062;27.790000915527344;1673377717.6076615;-9.207315444946289;-1.86635422706604;90.34442138671875
136;1673377717.6904876;47.1306429;7.24062;28.190000534057617;1673377717.8038967;-9.476485252380371;2.4685678482055664;89.6458969116211
137;1673377717.8963313;47.1306428;7.24062;28.5830020904541;1673377718.0185661;-9.05948543548584;0.6367687582969666;89.6831283569336
138;1673377718.1023;47.130642699999996;7.24062;28.970001220703125;1673377718.2251742;-9.20219612121582;-3.212505340576172;90.31600189208984
139;1673377718.3064704;47.130642599999995;7.24062;29.358001708984375;1673377718.4339488;-9.397329330444336;0.6293781399726868;89.76805877685547
140;1673377718.5322385;47.1306425;7.2406198999999996;29.748001098632812;1673377718.6460092;-9.418595314025879;1.4938594102859497;89.80304718017578
141;1673377718.7164476;47.130642599999995;7.2406198999999996;30.141000747680664;1673377718.832986;-9.49101448059082;-2.6011252403259277;90.50183868408203
142;1673377718.9159763;47.130642599999995;7.2406198999999996;30.535001754760742;1673377719.0275214;-9.344478607177734;-0.031355999410152435;90.14028930664062
143;1673377719.1047645;47.130642599999995;7.2406198999999996;30.928001403808594;1673377719.225206;-9.378270149230957;2.3580267429351807;89.50203704833984
144;1673377719.3074222;47.130642599999995;7.2406198999999996;31.31800079345703;1673377719.4337404;-9.280415534973145;-2.0940914154052734;90.07624816894531
145;1673377719.5005357;47.1306425;7.24062;31.713001251220703;1673377719.6091588;-9.411142349243164;-1.3091003894805908;90.13208770751953
146;1673377719.6878064;47.1306425;7.24062;32.11000061035156;1673377719.803625;-9.142745971679688;2.6459059715270996;89.47697448730469
147;1673377719.885439;47.1306425;7.2406201;32.50800323486328;1673377720.0035782;-9.169422149658203;-1.2613433599472046;90.17333984375
148;1673377720.1051342;47.130642599999995;7.2406201;32.906002044677734;1673377720.2361698;-9.08549976348877;-2.1065683364868164;90.34844970703125
149;1673377720.318164;47.130642599999995;7.2406201;33.305999755859375;1673377720.459687;-9.274148941040039;2.6799302101135254;89.7712173461914
150;1673377720.537548;47.130642599999995;7.2406201;33.704002380371094;1673377720.6423414;-9.1124906539917;0.2868034839630127;89.96371459960938
151;1673377720.7580175;47.1306425;7.2406201;34.099002838134766;1673377720.8728478;-9.213316917419434;-3.1988818645477295;90.45897674560547
152;1673377720.9409227;47.1306424;7.2406201;34.499000549316406;1673377721.0471573;-9.28392505645752;0.9171704649925232;89.76991271972656
153;1673377721.1197054;47.1306424;7.2406201;34.89900207519531;1673377721.225312;-9.241329193115234;1.1640955209732056;89.71429443359375
154;1673377721.3010244;47.130642599999995;7.2406201;35.29899978637695;1673377721.413891;-9.214442253112793;-2.6604421138763428;90.3621597290039
155;1673377721.494715;47.130642699999996;7.2406201;35.69700241088867;1673377721.6080854;-9.426996231079102;0.1943557858467102;90.0801010131836
156;1673377721.7030694;47.1306428;7.24062;36.09400177001953;1673377721.8302448;-9.433549880981445;2.4043469429016113;89.67230987548828
157;1673377721.9093213;47.1306428;7.24062;36.487003326416016;1673377722.0307586;-9.474074363708496;-1.6086446046829224;90.26490783691406
158;1673377722.1162207;47.1306428;7.24062;36.87900161743164;1673377722.2272918;-9.558562278747559;-1.3674331903457642;90.34097290039062
159;1673377722.3080401;47.1306428;7.24062;37.270999908447266;1673377722.4209142;-9.230384826660156;2.7130091190338135;89.521240234375
160;1673377722.5015795;47.1306429;7.24062;37.6670036315918;1673377722.6187236;-9.367499351501465;-0.11106599867343903;90.0481948852539
161;1673377722.705993;47.130643;7.2406201;38.06100082397461;1673377722.8218985;-9.274723052978516;-1.974304437637329;90.36949920654297
162;1673377722.912798;47.130643;7.2406201;38.4530029296875;1673377723.0624034;-9.280858039855957;2.5225272178649902;89.72232818603516
163;1673377723.138864;47.1306429;7.2406201;38.845001220703125;1673377723.244838;-9.15743350982666;0.8072117567062378;89.75447845458984
164;1673377723.3210435;47.1306428;7.2406201;39.230003356933594;1673377723.4310732;-9.332775115966797;-3.1013898849487305;90.3063735961914
165;1673377723.5109248;47.130642699999996;7.2406201;39.61800003051758;1673377723.6324944;-9.08491039276123;0.11124897748231888;89.92798614501953
166;1673377723.7150464;47.130642699999996;7.2406201;40.00800323486328;1673377723.8398666;-9.366926193237305;1.9259223937988281;89.64069366455078
167;1673377723.9146123;47.1306428;7.2406201;40.39900207519531;1673377724.0245929;-9.185115814208984;-2.102386236190796;90.36604309082031
168;1673377724.103713;47.1306429;7.24062;40.790000915527344;1673377724.2283597;-9.502786636352539;-0.46312394738197327;90.32035064697266
169;1673377724.3196642;47.1306429;7.24062;41.182003021240234;1673377724.4366608;-9.417922019958496;2.7957818508148193;89.73168182373047
170;1673377724.5070717;47.1306429;7.24062;41.57100296020508;1673377724.618891;-9.382723808288574;-0.5036207437515259;90.06266021728516
171;1673377724.6974049;47.1306428;7.2406198999999996;41.9640007019043;1673377724.8176446;-9.341910362243652;-2.4017438888549805;90.37666320800781
172;1673377724.9046946;47.1306428;7.2406198999999996;42.36000061035156;1673377725.0245965;-9.295936584472656;2.164611339569092;89.57271575927734
173;1673377725.1115024;47.130642699999996;7.24062;42.75400161743164;1673377725.2328815;-9.23550796508789;0.5774046182632446;89.79450225830078
174;1673377725.314086;47.1306428;7.24062;43.14600372314453;1673377725.4328725;-9.169553756713867;-2.4999685287475586;90.33441162109375
175;1673377725.5176148;47.1306429;7.24062;43.53700256347656;1673377725.6427963;-9.39431381225586;1.213301658630371;89.71307373046875
176;1673377725.7431703;47.1306428;7.2406198999999996;43.928001403808594;1673377725.8717353;-9.326826095581055;1.740896463394165;89.72419738769531
177;1673377725.956081;47.1306428;7.2406198999999996;44.31700134277344;1673377726.0672054;-9.419951438903809;-2.8395159244537354;90.38154602050781
178;1673377726.1437824;47.130642699999996;7.2406198999999996;44.71000289916992;1673377726.2543514;-9.440463066101074;-0.22782927751541138;90.10896301269531
179;1673377726.3356934;47.130642599999995;7.2406198999999996;45.10200119018555;1673377726.446275;-9.382896423339844;2.3150694370269775;89.652099609375
180;1673377726.5303702;47.130642699999996;7.240619799999999;45.49400329589844;1673377726.6454036;-9.280325889587402;-1.6903475522994995;90.24523162841797
181;1673377726.727406;47.1306428;7.240619799999999;45.887001037597656;1673377726.8483973;-9.493902206420898;-1.1807072162628174;90.26554870605469
182;1673377726.934429;47.1306428;7.240619799999999;46.281002044677734;1673377727.0544362;-9.32161808013916;2.938023328781128;89.51663970947266
183;1673377727.133601;47.1306428;7.240619799999999;46.67100143432617;1673377727.2520168;-9.362544059753418;-0.14028742909431458;89.98995208740234
184;1673377727.3350513;47.1306428;7.240619799999999;47.06300354003906;1673377727.4493978;-9.437163352966309;-2.511427879333496;90.33927917480469
185;1673377727.531675;47.1306428;7.2406197;47.454002380371094;1673377727.6418796;-9.530309677124023;1.9605207443237305;89.71484375
186;1673377727.7302876;47.130642699999996;7.2406197;47.84600067138672;1673377727.8372116;-9.509581565856934;-0.3863352835178375;90.0133056640625
187;1673377727.9209664;47.130642699999996;7.2406196;48.21800231933594;1673377728.032979;-9.85274887084961;-0.9419907331466675;90.28646850585938
188;1673377728.1206417;47.1306428;7.2406196;48.544002532958984;1673377728.233176;-9.72885513305664;1.3158785104751587;90.01093292236328
189;1673377728.312013;47.130642699999996;7.240619499999999;48.82100296020508;1673377728.4304128;-9.580336570739746;1.1812957525253296;89.65692901611328
190;1673377728.5111403;47.130642599999995;7.2406194;49.048004150390625;1673377728.6310992;-9.917177200317383;-2.8598930835723877;90.35946655273438
191;1673377728.705358;47.1306425;7.240619199999999;49.24100112915039;1673377728.8261192;-6.468418121337891;3.586050510406494;90.10315704345703
192;1673377728.9057388;47.1306424;7.240619;49.39800262451172;1673377729.027563;11.874157905578613;26.817020416259766;100.12954711914062
193;1673377729.1073022;47.1306418;7.240617599999999;49.5410041809082;1673377729.2271492;18.854246139526367;45.616451263427734;112.00994110107422
194;1673377729.3126025;47.130639599999995;7.2406136;49.663002014160156;1673377729.4371881;17.071455001831055;56.92439270019531;120.23728942871094
195;1673377729.5238311;47.1306349;7.2406055;49.74400329589844;1673377729.63804;-0.17796427011489868;56.505615234375;129.3740692138672
196;1673377729.7270224;47.130627499999996;7.2405935999999995;49.78700256347656;1673377729.8431196;-16.3238468170166;53.397850036621094;140.92568969726562
197;1673377729.9389417;47.130617799999996;7.2405786999999995;49.81500244140625;1673377730.0679598;-29.91026496887207;50.08845520019531;151.5177764892578
198;1673377730.1461425;47.1306058;7.240561;49.832000732421875;1673377730.259215;-42.023597717285156;46.81591796875;162.00198364257812
199;1673377730.326564;47.1305918;7.2405406;49.84100341796875;1673377730.4394934;-49.69510269165039;40.52562713623047;175.00315856933594
200;1673377730.518272;47.130576;7.240517499999999;49.82600402832031;1673377730.6410306;-48.311668395996094;27.345491409301758;-173.8956298828125
201;1673377730.7392094;47.1305589;7.2404923;49.77700424194336;1673377730.8801105;-47.98125457763672;21.633508682250977;-168.6017303466797
202;1673377730.9559276;47.130541099999995;7.2404658;49.72600173950195;1673377731.0668035;-49.525245666503906;15.417057991027832;-160.81497192382812
203;1673377731.1465206;47.1305226;7.2404383;49.67500305175781;1673377731.2545068;-48.57062911987305;9.557666778564453;-152.9686279296875
204;1673377731.328575;47.1305036;7.240409799999999;49.6140022277832;1673377731.446407;-46.47359848022461;4.384920597076416;-146.4516143798828
205;1673377731.5300088;47.1304842;7.2403808;49.56800079345703;1673377731.6521287;-45.511653900146484;1.6483272314071655;-139.9009552001953
206;1673377731.72339;47.1304647;7.2403514;49.53400421142578;1673377731.8362515;-45.07002639770508;-5.7997517585754395;-132.76785278320312
207;1673377731.9130287;47.130445099999996;7.2403216;49.518001556396484;1673377732.039361;-45.95517349243164;-11.564690589904785;-132.4274444580078
208;1673377732.1274183;47.1304254;7.2402921;49.51700210571289;1673377732.2534442;-46.436397552490234;-9.41573715209961;-136.6086883544922
209;1673377732.368067;47.1304054;7.240263;49.53000259399414;1673377732.4732246;-48.1181526184082;-8.868536949157715;-138.05496215820312
210;1673377732.5548537;47.130385;7.2402342;49.552001953125;1673377732.6628146;-48.45505142211914;-7.633115768432617;-138.9455108642578
211;1673377732.7428572;47.1303643;7.2402055;49.583003997802734;1673377732.8603039;-49.13071060180664;-5.866525173187256;-139.68040466308594
212;1673377732.9430287;47.1303431;7.2401770999999995;49.6140022277832;1673377733.0621424;-49.504539489746094;-4.564144134521484;-140.00830078125
213;1673377733.1522202;47.130321699999996;7.2401487;49.64500045776367;1673377733.2613266;-48.9954719543457;-3.8290674686431885;-140.04885864257812
214;1673377733.3430061;47.1303001;7.2401202;49.672000885009766;1673377733.4536796;-48.51446533203125;-3.5777268409729004;-139.83309936523438
215;1673377733.537678;47.1302783;7.2400917;49.691001892089844;1673377733.6468759;-47.650482177734375;-3.451228618621826;-139.54110717773438
216;1673377733.7168303;47.130256499999994;7.2400632;49.704002380371094;1673377733.8319857;-47.185970306396484;-3.6062796115875244;-139.2557373046875
217;1673377733.9279406;47.1302348;7.240034499999999;49.717002868652344;1673377734.042395;-47.45646286010742;-3.8646810054779053;-139.019775390625
218;1673377734.1110432;47.130213;7.240005699999999;49.73100280761719;1673377734.2176914;-47.8615837097168;-4.009087085723877;-138.86720275878906
219;1673377734.3003;47.1301912;7.2399767;49.74500274658203;1673377734.4240816;-47.940834045410156;-4.104519367218018;-138.7518768310547
220;1673377734.5117338;47.1301695;7.2399477;49.75700378417969;1673377734.6349924;-47.79352951049805;-4.1390604972839355;-138.66014099121094
221;1673377734.7276156;47.130147699999995;7.239918599999999;49.76300048828125;1673377734.834908;-47.45119094848633;-4.194112777709961;-138.52871704101562
222;1673377734.9123983;47.130126;7.2398896;49.76700210571289;1673377735.030576;-47.332313537597656;-4.1842780113220215;-138.4622344970703
223;1673377735.1237319;47.1301043;7.2398605;49.772003173828125;1673377735.2452316;-47.499969482421875;-4.288913249969482;-138.37832641601562
224;1673377735.3386307;47.130082599999994;7.2398314;49.78000259399414;1673377735.4668171;-47.81257247924805;-4.259599208831787;-138.35052490234375
225;1673377735.59241;47.1300609;7.2398022;49.79300308227539;1673377735.7122927;-48.10898971557617;-4.293419361114502;-138.30967712402344
226;1673377735.7899904;47.1300393;7.2397731;49.810001373291016;1673377735.887789;-48.53131866455078;-4.3399152755737305;-138.27633666992188
227;1673377735.9585097;47.130017599999995;7.239743799999999;49.82400131225586;1673377736.068156;-48.427371978759766;-4.270017623901367;-138.29127502441406
228;1673377736.1503534;47.1299959;7.2397145;49.83000183105469;1673377736.2546473;-47.891727447509766;-4.182664394378662;-138.27545166015625
229;1673377736.3309996;47.1299742;7.239685199999999;49.829002380371094;1673377736.4436376;-47.403770446777344;-4.132405757904053;-138.22996520996094
230;1673377736.5240178;47.129952499999995;7.2396557999999995;49.82500076293945;1673377736.6419215;-47.37174987792969;-4.150286674499512;-138.173095703125
231;1673377736.7264147;47.1299308;7.2396264;49.820003509521484;1673377736.8461828;-47.460350036621094;-4.243315696716309;-138.15829467773438
232;1673377736.9326236;47.1299091;7.2395969;49.81900405883789;1673377737.0477376;-47.73406982421875;-4.288740158081055;-138.16209411621094
233;1673377737.1294525;47.129887499999995;7.239567399999999;49.82400131225586;1673377737.246067;-47.96371841430664;-4.4418182373046875;-138.11109924316406
234;1673377737.324063;47.1298658;7.239537899999999;49.83000183105469;1673377737.438533;-48.22773361206055;-4.372071743011475;-138.140869140625
235;1673377737.5211616;47.1298442;7.2395084;49.833003997802734;1673377737.635099;-48.08590316772461;-4.282955169677734;-138.17698669433594
236;1673377737.722587;47.129822499999996;7.2394789;49.83500289916992;1673377737.8473868;-47.78225326538086;-4.272858619689941;-138.1920166015625
237;1673377737.9400005;47.1298009;7.2394494;49.836002349853516;1673377738.0734174;-47.63663101196289;-4.292588233947754;-138.17457580566406
238;1673377738.1469688;47.129779299999996;7.2394199;49.836002349853516;1673377738.2525465;-47.71291732788086;-4.27766227722168;-138.18649291992188
239;1673377738.3362343;47.1297577;7.2393904;49.84100341796875;1673377738.44618;-47.892765045166016;-4.306093215942383;-138.1760711669922
240;1673377738.5200608;47.129736099999995;7.2393608;49.84700393676758;1673377738.6328397;-48.02522659301758;-4.253561019897461;-138.2189178466797
241;1673377738.7095046;47.1297145;7.2393313;49.85100173950195;1673377738.8310912;-47.878746032714844;-4.2426981925964355;-138.24752807617188
242;1673377738.9326346;47.129692899999995;7.2393018;49.85400390625;1673377739.054234;-47.628902435302734;-4.236931800842285;-138.22274780273438
243;1673377739.151093;47.1296712;7.239272199999999;49.85900115966797;1673377739.2635167;-47.67281723022461;-4.232703685760498;-138.26820373535156
244;1673377739.3357718;47.1296496;7.2392426;49.867000579833984;1673377739.4497902;-47.904720306396484;-4.27345085144043;-138.25628662109375
245;1673377739.5324643;47.129628;7.2392129999999995;49.87300109863281;1673377739.6522968;-48.04341125488281;-4.278891086578369;-138.27011108398438
246;1673377739.7329004;47.1296064;7.2391834;49.87300109863281;1673377739.8426452;-47.76462936401367;-4.1037163734436035;-138.37228393554688
247;1673377739.918338;47.129584799999996;7.2391537999999995;49.87300109863281;1673377740.0381067;-47.547401428222656;-4.094399929046631;-138.36436462402344
248;1673377740.1357954;47.1295632;7.2391242;49.875003814697266;1673377740.2464287;-47.60264587402344;-4.2195234298706055;-138.33509826660156
249;1673377740.3152895;47.129541599999996;7.2390946;49.87900161743164;1673377740.442865;-47.82908248901367;-4.101404190063477;-138.43020629882812
250;1673377740.5255547;47.12952;7.239065;49.88500213623047;1673377740.6373932;-47.96448516845703;-4.188685417175293;-138.4053955078125
251;1673377740.7161403;47.129498399999996;7.2390354;49.88800048828125;1673377740.8295557;-47.890289306640625;-4.0856523513793945;-138.52261352539062
252;1673377740.9063773;47.1294768;7.239005799999999;49.8910026550293;1673377741.0238228;-47.624332427978516;-3.9715702533721924;-138.5531463623047
253;1673377741.1134636;47.129455199999995;7.2389763;49.89600372314453;1673377741.236468;-47.70418930053711;-4.083478927612305;-138.54685974121094
254;1673377741.320451;47.1294336;7.2389467;49.900001525878906;1673377741.4500837;-47.42899703979492;-5.228853225708008;-138.36888122558594
255;1673377741.5319395;47.129411999999995;7.2389171;49.90700149536133;1673377741.64261;-47.833641052246094;-5.152270317077637;-138.6259002685547
256;1673377741.7193346;47.1293903;7.2388876;49.913002014160156;1673377741.8377109;-47.39945602416992;-6.8816633224487305;-138.544921875
257;1673377741.9245014;47.1293685;7.2388582999999995;49.919002532958984;1673377742.0625706;-47.623443603515625;-6.549311637878418;-139.05393981933594
258;1673377742.1392498;47.1293465;7.2388292;49.92500305175781;1673377742.2525;-47.61021041870117;-7.793924331665039;-138.944091796875
259;1673377742.3385801;47.129324499999996;7.238800299999999;49.932003021240234;1673377742.4548752;-43.522369384765625;-7.154940128326416;-139.79244995117188
260;1673377742.536118;47.1293024;7.2387719;49.954002380371094;1673377742.6490493;-30.289257049560547;-7.986657619476318;-138.74398803710938
261;1673377742.736069;47.129280699999995;7.238744199999999;49.9900016784668;1673377742.8539166;-10.97294807434082;-6.594271183013916;-138.41964721679688
262;1673377742.9430404;47.129260099999996;7.2387182999999995;50.01300048828125;1673377743.0664756;4.9677534103393555;-5.454164505004883;-136.74822998046875
263;1673377743.1520326;47.1292416;7.2386947;50.022003173828125;1673377743.2669945;17.839202880859375;-4.458993911743164;-136.65814208984375
264;1673377743.3418257;47.1292256;7.2386741;50.000003814697266;1673377743.4548335;23.942527770996094;-3.7649857997894287;-137.53321838378906
265;1673377743.5436618;47.1292122;7.2386566;49.92100143432617;1673377743.6593032;22.165122985839844;-6.11403751373291;-136.75360107421875
266;1673377743.7401795;47.129201699999996;7.2386424;49.88500213623047;1673377743.8487484;26.12002944946289;-7.192309379577637;-136.9465789794922
267;1673377743.9353285;47.1291933;7.238631;49.836002349853516;1673377744.0571294;21.848100662231445;-11.95386791229248;-135.66282653808594
268;1673377744.1349895;47.1291869;7.238622299999999;49.79900360107422;1673377744.2565074;15.640481948852539;-8.549101829528809;-136.16041564941406
269;1673377744.3393734;47.1291818;7.2386162;49.807003021240234;1673377744.4547143;7.998294353485107;-5.046720504760742;-136.82351684570312
270;1673377744.5411515;47.1291777;7.238611499999999;49.84300231933594;1673377744.6599965;0.3659411668777466;-7.51490592956543;-136.2885284423828
271;1673377744.7405748;47.1291741;7.2386072;49.89500427246094;1673377744.8527448;-4.887810707092285;-6.8374104499816895;-135.22042846679688
272;1673377744.925518;47.129170599999995;7.2386029;49.94000244140625;1673377745.0393887;-7.757107734680176;-7.5113525390625;-134.27059936523438
273;1673377745.1220114;47.1291672;7.2385983;49.97800064086914;1673377745.2348433;-7.755125999450684;-4.834496021270752;-133.72714233398438
274;1673377745.3160734;47.1291637;7.2385934;50.01100158691406;1673377745.4344513;-3.7858028411865234;-3.921769380569458;-133.9837188720703
275;1673377745.524218;47.129160299999995;7.2385885;50.03700256347656;1673377745.646848;0.5385550260543823;-1.6870344877243042;-134.43331909179688
276;1673377745.732051;47.1291571;7.238583599999999;50.057003021240234;1673377745.8399768;5.996006011962891;-3.788560628890991;-134.84500122070312
277;1673377745.926424;47.129154199999995;7.238579;50.07500076293945;1673377746.045902;-5.0056304931640625;-7.105198383331299;-135.58627319335938
278;1673377746.1353369;47.1291513;7.2385744;50.105003356933594;1673377746.2753646;-22.872581481933594;-5.39908504486084;-137.55581665039062
279;1673377746.3544204;47.1291479;7.238569;50.18400192260742;1673377746.4855802;-17.963403701782227;-4.91994571685791;-139.3371124267578
280;1673377746.5639956;47.1291436;7.2385622;50.35300064086914;1673377746.6770868;-22.2616024017334;-0.35806986689567566;-139.47523498535156
281;1673377746.757439;47.1291387;7.2385543;50.624000549316406;1673377746.8670738;-22.600475311279297;-1.30433988571167;-138.07778930664062
282;1673377746.950229;47.1291333;7.238545299999999;50.967002868652344;1673377747.0944045;-39.89616012573242;-9.162437438964844;-137.7049560546875
283;1673377747.1687446;47.1291266;7.238534899999999;51.34300231933594;1673377747.28579;-39.78336715698242;-7.941819190979004;-138.96548461914062
284;1673377747.3668766;47.129118;7.2385227;51.73200225830078;1673377747.4810464;-34.7711181640625;-9.012101173400879;-138.24168395996094
285;1673377747.5721464;47.129108099999996;7.2385094;52.12000274658203;1673377747.6802914;-29.076568603515625;-9.449068069458008;-137.84693908691406
286;1673377747.7487648;47.1290974;7.2384955;52.50200271606445;1673377747.8557508;-23.608793258666992;-8.880980491638184;-137.31613159179688
287;1673377747.9236846;47.1290863;7.2384812;52.87800216674805;1673377748.0543015;-19.887680053710938;-7.393376350402832;-137.14199829101562
288;1673377748.1422386;47.129075099999994;7.2384669;53.25700378417969;1673377748.267245;-16.759370803833008;-5.063388347625732;-137.3046112060547
289;1673377748.3510172;47.129064199999995;7.2384527;53.637001037597656;1673377748.4625;-15.284524917602539;-3.07291579246521;-137.74734497070312
290;1673377748.5403736;47.1290536;7.2384387;54.01700210571289;1673377748.6556084;-14.878155708312988;-2.468937873840332;-137.72857666015625
291;1673377748.7363584;47.1290433;7.2384249;54.4010009765625;1673377748.855153;-15.818976402282715;-2.128838062286377;-137.7606201171875
292;1673377748.9467506;47.1290334;7.2384115;54.788002014160156;1673377749.0502872;-17.173215866088867;-3.494920253753662;-137.42433166503906
293;1673377749.1226206;47.1290237;7.2383982;55.176002502441406;1673377749.2362833;-18.66564178466797;-6.039767265319824;-136.99766540527344
294;1673377749.3268917;47.129014299999994;7.238385;55.566001892089844;1673377749.4515758;-19.908687591552734;-8.791841506958008;-136.76101684570312
295;1673377749.5329278;47.129005;7.2383717;55.958003997802734;1673377749.6513283;-21.139379501342773;-9.214005470275879;-136.86178588867188
296;1673377749.7270243;47.128995599999996;7.2383583;56.35200119018555;1673377749.8480737;-21.592618942260742;-8.37976360321045;-137.064697265625
297;1673377749.9274824;47.1289861;7.238344799999999;56.74500274658203;1673377750.037657;-22.057844161987305;-6.835020065307617;-137.31451416015625
298;1673377750.1143339;47.1289763;7.2383314;57.1400032043457;1673377750.2294014;-22.101207733154297;-5.435978889465332;-137.3743438720703
299;1673377750.311539;47.128966399999996;7.238318;57.53400421142578;1673377750.4331236;-21.86174774169922;-4.558953762054443;-137.39512634277344
300;1673377750.521703;47.1289564;7.2383044;57.92900085449219;1673377750.6531208;-21.759292602539062;-4.0518059730529785;-137.2078857421875
301;1673377750.7347658;47.128946299999996;7.2382908;58.32400131225586;1673377750.861572;-21.358922958374023;-3.715005874633789;-137.34637451171875
302;1673377750.947188;47.1289361;7.2382772;58.720001220703125;1673377751.0573153;-20.854835510253906;-5.4774065017700195;-137.08587646484375
303;1673377751.1328247;47.128926;7.2382634999999995;59.1150016784668;1673377751.2592492;-20.734140396118164;-6.88217306137085;-136.7960205078125
304;1673377751.3335357;47.128915799999994;7.238249799999999;59.51000213623047;1673377751.445647;-20.378347396850586;-7.846836566925049;-136.48883056640625
305;1673377751.5239942;47.1289058;7.238236;59.90900421142578;1673377751.6526742;-20.42840576171875;-8.022430419921875;-136.4807586669922
306;1673377751.7357647;47.128895799999995;7.2382222;60.307003021240234;1673377751.8586326;-20.238889694213867;-8.033074378967285;-136.68084716796875
307;1673377751.9602618;47.1288858;7.2382085;60.70600128173828;1673377752.0654824;-20.26346778869629;-8.170866012573242;-136.68182373046875
308;1673377752.141266;47.128875799999996;7.2381948;61.108001708984375;1673377752.2523465;-20.514751434326172;-7.483467102050781;-136.6256561279297
309;1673377752.3290226;47.1288658;7.238181099999999;61.506004333496094;1673377752.445236;-20.341094970703125;-6.866705894470215;-136.8546600341797
310;1673377752.525928;47.1288558;7.2381674;61.90400314331055;1673377752.6515033;-20.536327362060547;-6.543108940124512;-136.78578186035156
311;1673377752.7340515;47.128845899999995;7.2381535999999995;62.29900360107422;1673377752.855708;-20.665889739990234;-5.668605327606201;-137.04852294921875
312;1673377752.9382863;47.1288359;7.2381398;62.6930046081543;1673377753.0619183;-20.863908767700195;-4.97727632522583;-137.2995147705078
313;1673377753.1440046;47.128826;7.2381261;63.08900451660156;1673377753.2660923;-20.946651458740234;-4.424016952514648;-137.1984405517578
314;1673377753.3438349;47.128816;7.2381123999999994;63.4890022277832;1673377753.4631937;-20.96092987060547;-4.05768346786499;-137.332275390625
315;1673377753.5488052;47.128805899999996;7.2380987;63.88700485229492;1673377753.6631525;-20.889549255371094;-3.9033501148223877;-137.46832275390625
316;1673377753.7442162;47.1287958;7.238085;64.28700256347656;1673377753.868165;-20.90459442138672;-4.021809101104736;-137.18453979492188
317;1673377753.95608;47.128785799999996;7.2380713;64.68600463867188;1673377754.0644822;-20.86269187927246;-4.3429646492004395;-137.07118225097656
318;1673377754.138745;47.1287757;7.2380577;65.08600616455078;1673377754.2470372;-20.776132583618164;-5.286484718322754;-137.00607299804688
319;1673377754.3254507;47.128765699999995;7.2380439999999995;65.48200225830078;1673377754.4417217;-20.84556770324707;-5.7352824211120605;-136.85748291015625
320;1673377754.524444;47.1287558;7.2380302;65.87800598144531;1673377754.645768;-20.939043045043945;-6.719150543212891;-136.62649536132812
321;1673377754.734727;47.1287459;7.238016399999999;66.2760009765625;1673377754.852797;-21.16194725036621;-7.236232280731201;-136.77435302734375
322;1673377754.9372604;47.128735999999996;7.2380024999999995;66.67500305175781;1673377755.052039;-21.12837028503418;-7.572445869445801;-136.74354553222656
323;1673377755.1397572;47.128726099999994;7.2379885999999996;67.07300567626953;1673377755.2626083;-21.105667114257812;-7.701840400695801;-136.82403564453125
324;1673377755.3411558;47.1287162;7.2379748;67.47000122070312;1673377755.4615648;-21.005653381347656;-7.97420597076416;-136.87586975097656
325;1673377755.5377853;47.128706099999995;7.2379611;67.86900329589844;1673377755.6487963;-20.991735458374023;-7.885167121887207;-136.77235412597656
326;1673377755.7276404;47.1286961;7.2379473999999995;68.26600646972656;1673377755.8383;-21.035493850708008;-8.023338317871094;-136.7468719482422
327;1673377755.9149683;47.128685999999995;7.237933699999999;68.66200256347656;1673377756.0373538;-20.734375;-8.377099990844727;-136.51429748535156
328;1673377756.1387923;47.1286759;7.23792;69.06100463867188;1673377756.2575474;-21.072269439697266;-7.951514720916748;-136.44921875
329;1673377756.3403916;47.128665899999994;7.237906199999999;69.46300506591797;1673377756.459004;-20.985639572143555;-8.008622169494629;-136.7571563720703
330;1673377756.5349994;47.1286558;7.2378925;69.86400604248047;1673377756.6544945;-20.956968307495117;-7.953734397888184;-136.83340454101562
331;1673377756.741025;47.1286458;7.2378788;70.25800323486328;1673377756.8530288;-4.522263050079346;-8.365455627441406;-137.10557556152344
332;1673377756.9280338;47.1286361;7.2378655;70.62800598144531;1673377757.0333984;1.4015496969223022;-8.681487083435059;-136.50332641601562
333;1673377757.1113088;47.128627099999996;7.237853299999999;70.96000671386719;1673377757.2320569;6.445038795471191;-8.854074478149414;-136.6136016845703
334;1673377757.3087666;47.128619099999995;7.237842499999999;71.25800323486328;1673377757.4242613;11.36453628540039;-8.111601829528809;-136.29942321777344
335;1673377757.5039015;47.128612;7.2378329;71.51500701904297;1673377757.6382573;13.528817176818848;-7.570442199707031;-135.85806274414062
336;1673377757.7258534;47.128606;7.2378246;71.73500061035156;1673377757.8456235;15.183740615844727;-8.094183921813965;-135.90603637695312
337;1673377757.9378562;47.128600999999996;7.2378177;71.9280014038086;1673377758.0721421;15.222552299499512;-8.047849655151367;-136.36045837402344
338;1673377758.157212;47.1285971;7.237812099999999;72.09400177001953;1673377758.3101552;14.285200119018555;-8.34220027923584;-136.5894012451172
339;1673377758.375567;47.1285939;7.2378076;72.23300170898438;1673377758.481549;12.283384323120117;-4.2731099128723145;-136.4181671142578
340;1673377758.5582743;47.1285914;7.2378041;72.34800720214844;1673377758.6931515;13.18419075012207;20.64583969116211;-127.91068267822266
341;1673377758.788821;47.128589899999994;7.237800699999999;72.44100189208984;1673377758.9118924;5.015726566314697;25.315671920776367;-119.32947540283203
342;1673377758.9874299;47.1285898;7.2377967;72.50300598144531;1673377759.0954118;0.6214449405670166;16.183507919311523;-107.7220687866211
343;1673377759.1716406;47.1285909;7.2377921;72.55400085449219;1673377759.2847555;-2.946916103363037;12.083290100097656;-98.41049194335938
344;1673377759.3679461;47.1285927;7.237787099999999;72.60600280761719;1673377759.4868832;-2.07448148727417;11.70122241973877;-89.94634246826172
345;1673377759.5577595;47.128595;7.2377816;72.64900207519531;1673377759.67546;-0.17914462089538574;8.601190567016602;-80.17587280273438
346;1673377759.7522845;47.1285975;7.2377758;72.68400573730469;1673377759.8722034;0.9487108588218689;5.944455623626709;-70.38184356689453
347;1673377759.9552898;47.1286002;7.2377698;72.71600341796875;1673377760.064215;1.1357184648513794;4.061695098876953;-61.02292251586914
348;1673377760.1428516;47.1286029;7.2377638;72.74600219726562;1673377760.2665548;-0.26522839069366455;3.379760980606079;-52.064552307128906
349;1673377760.345455;47.1286055;7.2377579999999995;72.76900482177734;1673377760.4746573;-2.093353033065796;3.371995449066162;-42.866241455078125
350;1673377760.5523617;47.1286079;7.2377522999999995;72.79000091552734;1673377760.6908743;-4.38729190826416;4.073101043701172;-39.35578918457031
351;1673377760.763648;47.1286103;7.2377465999999995;72.8070068359375;1673377760.8726897;-6.908063888549805;5.330692768096924;-42.230491638183594
352;1673377760.962226;47.1286126;7.2377408999999995;72.82400512695312;1673377761.077793;-31.578489303588867;6.167835712432861;-45.53024673461914
353;1673377761.151738;47.128615499999995;7.2377343;72.86000061035156;1673377761.264662;-50.129974365234375;4.979503631591797;-45.15043258666992
354;1673377761.341468;47.1286202;7.2377253999999995;72.906005859375;1673377761.469899;-60.41227722167969;1.601899266242981;-43.50017547607422
355;1673377761.5621815;47.1286275;7.237712699999999;72.95000457763672;1673377761.6899858;-61.62413024902344;-0.6090182662010193;-42.96147537231445
356;1673377761.7721863;47.128637499999996;7.237695899999999;72.9800033569336;1673377761.8984509;-60.14643096923828;-1.09419846534729;-42.91236877441406
357;1673377761.9917755;47.128649599999996;7.237675299999999;72.99000549316406;1673377762.1043804;-57.792659759521484;0.9267621636390686;-44.110267639160156
358;1673377762.1753016;47.128663499999995;7.2376517;72.98500061035156;1673377762.2741709;-56.44538497924805;2.36920428276062;-44.61332321166992
359;1673377762.3547738;47.128678799999996;7.2376258;72.9780044555664;1673377762.4598587;-54.926212310791016;3.627570152282715;-45.23691940307617
360;1673377762.5401268;47.1286953;7.237598299999999;72.96200561523438;1673377762.653063;-55.4063606262207;4.111747741699219;-45.67714309692383
361;1673377762.7346287;47.128712799999995;7.237569499999999;72.93600463867188;1673377762.8590033;-53.99033737182617;4.661228656768799;-45.80930709838867
362;1673377762.939597;47.1287312;7.2375396;72.9050064086914;1673377763.0621727;-50.28150939941406;3.796405076980591;-45.34341049194336
363;1673377763.1486773;47.12875;7.2375091;72.87100219726562;1673377763.2693253;-48.78440856933594;4.096032619476318;-45.61796188354492
364;1673377763.3551545;47.1287692;7.237478299999999;72.84100341796875;1673377763.471366;-48.62178039550781;4.235715389251709;-45.56618118286133
365;1673377763.545169;47.1287884;7.2374472;72.81999969482422;1673377763.6550167;-48.80171203613281;4.173161029815674;-45.49677658081055
366;1673377763.7316842;47.128808;7.237415899999999;72.8010025024414;1673377763.8461888;-48.96640396118164;4.284838676452637;-45.525611877441406
367;1673377763.9239738;47.128827699999995;7.2373842999999995;72.78800201416016;1673377764.055552;-48.508644104003906;4.258321285247803;-45.519142150878906
368;1673377764.1345239;47.1288476;7.2373527;72.77900695800781;1673377764.2539017;-48.11558151245117;4.212146282196045;-45.506107330322266
369;1673377764.3355517;47.1288676;7.237321;72.77200317382812;1673377764.4641063;-48.10792541503906;4.261826515197754;-45.56858825683594
370;1673377764.547927;47.1288876;7.237289199999999;72.76700592041016;1673377764.6757932;-45.008514404296875;3.9872169494628906;-45.297889709472656
371;1673377764.7518337;47.1289076;7.237257499999999;72.68800354003906;1673377764.871898;-19.169963836669922;1.3772536516189575;-43.73175048828125
372;1673377764.9661183;47.1289272;7.2372261;72.27400207519531;1673377765.0741167;30.72358512878418;-2.708557367324829;-43.802650451660156
373;1673377765.1621494;47.1289466;7.2371951;71.47400665283203;1673377765.2869303;83.8824234008789;-143.87852478027344;177.70449829101562
374;1673377765.355932;47.128966;7.237164;70.27799987792969;1673377765.4608612;35.503936767578125;-179.20608520507812;143.46791076660156
375;1673377765.5388193;47.1289854;7.237133;68.73300170898438;1673377765.665262;13.377910614013672;178.697021484375;138.57861328125
376;1673377765.7428358;47.1290045;7.2371023999999995;66.82200622558594;1673377765.8788457;20.158918380737305;178.4505157470703;137.41014099121094
377;1673377765.9890044;47.1290231;7.2370722999999995;64.5300064086914;1673377766.1030254;57.81565475463867;177.5985565185547;137.5392303466797
378;1673377766.1760318;47.1290414;7.2370427;61.87300109863281;1673377766.2932296;56.79840087890625;0.09066816419363022;-40.73622131347656
379;1673377766.3720732;47.1290598;7.2370129;58.87000274658203;1673377766.4848442;-17.646860122680664;2.169282913208008;-41.51185989379883
380;1673377766.5599685;47.1290781;7.2369832;55.458003997802734;1673377766.659749;-61.43132019042969;2.242917776107788;-40.37847137451172
381;1673377766.7421045;47.129096;7.236954099999999;51.689002990722656;1673377766.8629541;-64.83697509765625;1.082268238067627;-37.7734489440918
382;1673377766.9500341;47.1291137;7.2369252;47.60100173950195;1673377767.0752387;-25.152027130126953;1.2044434547424316;-35.90428924560547
383;1673377767.1449134;47.1291309;7.2368967;43.18000030517578;1673377767.256535;46.98774337768555;3.920748233795166;-30.87479019165039
384;1673377767.3318002;47.1291479;7.2368685;38.34800338745117;1673377767.4468253;75.81778717041016;158.19351196289062;124.2899398803711
385;1673377767.5260508;47.129165099999994;7.2368402;33.17100143432617;1673377767.654409;69.05876159667969;160.250732421875;127.19091796875
386;1673377767.743848;47.1291821;7.236812199999999;27.707000732421875;1673377767.8564155;62.85673141479492;16.51024055480957;-14.935186386108398
387;1673377767.935116;47.129199199999995;7.2367842;21.94300079345703;1673377768.050069;-11.922338485717773;2.381132125854492;-27.707597732543945
388;1673377768.1342525;47.1292164;7.2367561;15.78800106048584;1673377768.27092;-59.75933074951172;-2.890212059020996;-26.15475082397461
389;1673377768.347492;47.1292331;7.236728599999999;9.288000106811523;1673377768.4741144;-48.335716247558594;0.30036890506744385;-27.39988899230957
390;1673377768.553699;47.1292492;7.2367016;2.498000144958496;1673377768.6850586;-5.88524055480957;-8.23556137084961;-29.055322647094727
391;1673377768.7619712;47.129253899999995;7.2366926;0.5060000419616699;1673377768.8749352;-21.07486915588379;-9.276196479797363;-25.72574806213379
392;1673377768.9530194;47.1292542;7.2366923;1.1770000457763672;1673377769.074207;-6.082408905029297;-9.023770332336426;-26.84488296508789
393;1673377769.168044;47.1292541;7.236692199999999;1.8030000925064087;1673377769.3138316;-1.950757384300232;-10.070648193359375;-27.11785316467285
394;1673377769.428916;47.129255;7.236690899999999;2.4120001792907715;1673377769.531018;-1.2889524698257446;-11.811779022216797;-27.030948638916016
395;1673377769.606879;47.129255199999996;7.236689999999999;2.9740002155303955;1673377769.7059572;-2.067610025405884;-12.53382682800293;-27.036691665649414
396;1673377769.801081;47.1292555;7.2366890999999995;3.491000175476074;1673377769.9093642;-2.0272130966186523;-12.248906135559082;-27.1444149017334
397;1673377769.9881794;47.1292556;7.236688099999999;3.9610002040863037;1673377770.1028945;-1.9635735750198364;-12.257369995117188;-27.19076919555664
398;1673377770.1760285;47.1292556;7.236686799999999;4.390000343322754;1673377770.2950668;-1.8790796995162964;-12.047099113464355;-27.301645278930664
399;1673377770.3669913;47.129255699999995;7.236686;4.76800012588501;1673377770.4810882;-1.768438458442688;-11.753185272216797;-27.402873992919922
400;1673377770.5841408;47.129255799999996;7.2366855999999995;5.100000381469727;1673377770.6959534;-1.7366116046905518;-11.46630573272705;-27.46670150756836
401;1673377770.7744737;47.129255799999996;7.2366852999999995;5.390000343322754;1673377770.8828478;-1.6130656003952026;-11.11673641204834;-27.522567749023438
402;1673377770.9561775;47.1292559;7.2366851;5.642000198364258;1673377771.080256;-1.5113072395324707;-10.724026679992676;-27.569313049316406
403;1673377771.1549234;47.1292559;7.2366844;5.861000061035156;1673377771.2749727;-1.457685947418213;-10.431751251220703;-27.59344482421875
404;1673377771.3607192;47.1292556;7.2366829;6.053000450134277;1673377771.486481;-1.3916629552841187;-10.017706871032715;-27.560026168823242
405;1673377771.5628064;47.1292554;7.2366813;6.214000225067139;1673377771.6834424;-1.3542989492416382;-9.749089241027832;-27.578393936157227
406;1673377771.7602413;47.1292549;7.2366781;6.3550004959106445;1673377771.8819768;-1.321311116218567;-9.530856132507324;-27.597108840942383
407;1673377771.967512;47.1292542;7.236673799999999;6.474000453948975;1673377772.095659;-1.3077853918075562;-9.323110580444336;-27.60585594177246
408;1673377772.1777241;47.129253399999996;7.236669;6.478000164031982;1673377772.2966712;-1.1973073482513428;-9.0481538772583;-27.65364646911621
409;1673377772.3762827;47.1292524;7.236663999999999;6.2900004386901855;1673377772.492002;-1.1586034297943115;-8.796730041503906;-27.68736457824707
410;1673377772.5745578;47.1292512;7.236658599999999;6.039000511169434;1673377772.6943142;-1.1373531818389893;-8.51595401763916;-27.69281005859375
411;1673377772.772823;47.1292499;7.2366527;5.838000297546387;1673377772.8905098;-1.0423158407211304;-8.25666332244873;-27.723602294921875
412;1673377772.9732578;47.1292487;7.236647499999999;5.576000213623047;1673377773.095947;-1.032712697982788;-7.955202102661133;-27.724090576171875
413;1673377773.1753616;47.1292477;7.236642799999999;5.300000190734863;1673377773.2785933;-1.0209002494812012;-7.635152816772461;-27.750202178955078
414;1673377773.3587546;47.129246699999996;7.2366386;5.026000022888184;1673377773.482606;-0.9388850331306458;-7.306503772735596;-27.72528648376465
415;1673377773.5570464;47.129245999999995;7.2366348;4.766000270843506;1673377773.6687655;-0.9040173292160034;-6.9833478927612305;-27.689664840698242
416;1673377773.7488182;47.1292451;7.2366307999999995;4.544000148773193;1673377773.8671944;-0.8500909209251404;-6.731039524078369;-27.699289321899414
417;1673377773.952233;47.129244199999995;7.236626299999999;4.371000289916992;1673377774.07173;-0.8035392761230469;-6.38898229598999;-27.625776290893555
418;1673377774.1509678;47.1292438;7.2366236;4.182000160217285;1673377774.2719893;-0.7510958313941956;-6.020251274108887;-27.537694931030273
