;pos_time;latitude;longitude;altitude;alt_time;pitch;roll;yaw
0;1673387676.836367;47.1306424;7.2406198999999996;-0.009000000543892384;1673387676.863251;-0.10136527568101883;-0.2516949772834778;90.2218017578125
1;1673387677.042516;47.1306424;7.24062;-0.009000000543892384;1673387677.0694103;-0.09568300098180771;-0.33987879753112793;90.11964416503906
2;1673387677.3145974;47.1306424;7.24062;-0.009000000543892384;1673387677.3354144;-0.14313507080078125;-0.2351084053516388;90.01513671875
3;1673387677.4962034;47.1306424;7.24062;-0.007000000216066837;1673387677.5166993;-0.011366794817149639;-0.4439910650253296;90.09318542480469
4;1673387677.6780922;47.1306424;7.2406198999999996;-0.007000000216066837;1673387677.6985922;0.011331576853990555;-0.24119912087917328;90.0114974975586
5;1673387677.8774168;47.1306424;7.2406198999999996;-0.005000000353902578;1673387677.899868;0.008536695502698421;-0.4376061260700226;90.16771697998047
6;1673387678.0564756;47.1306424;7.2406198999999996;-0.004000000189989805;1673387678.074994;-0.1761801391839981;-0.2542997896671295;90.15663146972656
7;1673387678.2706869;47.1306424;7.2406198999999996;-0.004000000189989805;1673387678.2931333;-0.21024277806282043;-0.24560369551181793;90.04971313476562
8;1673387678.4632394;47.1306424;7.240619799999999;-0.005000000353902578;1673387678.486984;-0.1727878451347351;-0.1971088945865631;89.99407958984375
9;1673387678.662423;47.1306425;7.2406197;-0.005000000353902578;1673387678.6855457;-0.07954853028059006;-0.3295722007751465;90.03248596191406
10;1673387678.861831;47.1306425;7.2406197;-0.0010000000474974513;1673387678.8842807;0.11072982102632523;-0.325101375579834;90.21609497070312
11;1673387679.056405;47.1306425;7.240619799999999;0.0020000000949949026;1673387679.080818;-0.05305717885494232;-0.27629759907722473;90.03326416015625
12;1673387679.2538493;47.1306425;7.240619799999999;0.007000000216066837;1673387679.2753239;-0.28425994515419006;-0.30755937099456787;89.97898864746094
13;1673387679.4457986;47.1306425;7.240619799999999;-0.0010000000474974513;1673387679.4678152;0.14912712574005127;-0.3761892020702362;90.23188018798828
14;1673387679.6373086;47.1306425;7.2406198999999996;-0.0010000000474974513;1673387679.66031;0.011629129759967327;-0.3549441397190094;90.13361358642578
15;1673387679.8453376;47.1306425;7.2406198999999996;0.0;1673387679.872281;-0.26957976818084717;-0.2787449359893799;90.12330627441406
16;1673387680.041601;47.130642599999995;7.2406198999999996;-0.0010000000474974513;1673387680.0637298;-0.014091333374381065;-0.1900949776172638;89.96583557128906
17;1673387680.2341466;47.130642599999995;7.240619799999999;-0.0010000000474974513;1673387680.2577267;-0.20015989243984222;-0.3913751542568207;90.29975891113281
18;1673387680.4408433;47.130642599999995;7.240619799999999;0.0;1673387680.4639082;-0.09527009725570679;-0.20353524386882782;90.3652572631836
19;1673387680.6479387;47.1306425;7.240619799999999;0.0;1673387680.6697364;0.13135628402233124;0.033394455909729004;90.41754913330078
20;1673387680.8388555;47.1306425;7.240619799999999;0.0;1673387680.8636806;0.14572866261005402;-0.07349647581577301;90.3775634765625
21;1673387681.049967;47.1306425;7.240619799999999;-0.0010000000474974513;1673387681.075072;0.1852726936340332;-0.049673788249492645;90.1813735961914
22;1673387681.2837567;47.130642599999995;7.240619799999999;-0.003000000026077032;1673387681.3039768;0.10788197815418243;0.16890712082386017;90.50526428222656
23;1673387681.4619517;47.130642599999995;7.240619799999999;-0.005000000353902578;1673387681.4829552;0.05112358182668686;-0.23258428275585175;90.44216918945312
24;1673387681.6468208;47.130642599999995;7.240619799999999;-0.004000000189989805;1673387681.6714742;1.140846610069275;-0.07646270841360092;90.3149642944336
25;1673387681.8528464;47.130642599999995;7.2406197;0.0;1673387681.8750434;2.0328152179718018;-0.049191996455192566;90.466552734375
26;1673387682.0612812;47.1306425;7.2406197;0.003000000026077032;1673387682.0827923;2.8549137115478516;-0.18930089473724365;90.6255874633789
27;1673387682.2758965;47.1306425;7.2406197;0.007000000216066837;1673387682.2997565;4.564486503601074;-0.2055036723613739;90.54008483886719
28;1673387682.4660864;47.1306425;7.2406196;0.012000000104308128;1673387682.4917755;6.869837284088135;-0.013512572273612022;89.8682861328125
29;1673387682.6818614;47.1306425;7.2406188;0.0010000000474974513;1673387682.6988297;-2.3545892238616943;-0.4314625561237335;86.62599182128906
30;1673387682.8632011;47.1306425;7.2406166999999995;0.005000000353902578;1673387682.886953;-4.790717601776123;0.29817095398902893;88.40744018554688
31;1673387683.0659714;47.1306424;7.2406137;0.01100000087171793;1673387683.0857298;-10.256646156311035;-1.326356291770935;86.77973175048828
32;1673387683.321848;47.1306423;7.240609699999999;0.020000001415610313;1673387683.3487968;-15.405657768249512;1.5527238845825195;87.17412567138672
33;1673387683.5129204;47.1306423;7.240604899999999;0.036000002175569534;1673387683.5308592;-15.583060264587402;1.7140449285507202;87.74360656738281
34;1673387683.691905;47.1306422;7.2405995;0.06100000441074371;1673387683.7139537;-16.408803939819336;-0.9937951564788818;89.10614776611328
35;1673387683.8917904;47.130642099999996;7.2405937;0.09200000762939453;1673387683.9117277;-17.866518020629883;-0.050396282225847244;89.30870056152344
36;1673387684.0831778;47.130641999999995;7.2405876;0.12700000405311584;1673387684.1063564;-19.603473663330078;1.0399993658065796;89.40738677978516
37;1673387684.2761464;47.1306419;7.2405813;0.16100001335144043;1673387684.2985942;-21.5330810546875;-0.7111066579818726;90.13243103027344
38;1673387684.478497;47.1306418;7.240575;0.19700001180171967;1673387684.501906;-23.504419326782227;-1.2243980169296265;90.52460479736328
39;1673387684.6826642;47.1306416;7.2405688999999995;0.23800000548362732;1673387684.7012086;-25.5837345123291;0.05076798424124718;90.37401580810547
40;1673387684.876385;47.130641399999995;7.2405631999999995;0.2840000092983246;1673387684.8997903;-27.67151641845703;-0.9813918471336365;90.67522430419922
41;1673387685.0744011;47.1306412;7.2405582;0.33000001311302185;1673387685.0950174;-29.7880859375;-2.046543598175049;91.07127380371094
42;1673387685.2661347;47.1306411;7.2405539;0.37700000405311584;1673387685.2866302;-31.96605110168457;-0.964446485042572;90.82530975341797
43;1673387685.463586;47.1306411;7.2405504;0.4270000159740448;1673387685.4861004;-34.109554290771484;-1.140737771987915;90.8479232788086
44;1673387685.6796875;47.1306411;7.240547899999999;0.484000027179718;1673387685.7022824;-36.30010986328125;-2.0771706104278564;91.15338897705078
45;1673387685.8775647;47.1306411;7.2405463999999995;0.5450000166893005;1673387685.9010043;-38.466915130615234;-1.32710599899292;90.94890594482422
46;1673387686.094441;47.1306412;7.2405463;0.6110000014305115;1673387686.1169696;-40.68353271484375;-1.359224557876587;90.87557983398438
47;1673387686.2861712;47.1306413;7.2405475;0.6850000619888306;1673387686.3056972;-42.89161682128906;-1.9159691333770752;91.06847381591797
48;1673387686.4670951;47.130641399999995;7.2405503;0.7580000162124634;1673387686.4897392;-45.04355239868164;-1.5742504596710205;90.95170593261719
49;1673387686.67164;47.130641499999996;7.240554599999999;0.8380000591278076;1673387686.6921375;-47.300376892089844;-1.2750520706176758;90.72059631347656
50;1673387686.859835;47.1306418;7.240560599999999;0.9190000295639038;1673387686.9072146;-47.33598327636719;-1.2975482940673828;90.7452621459961
51;1673387687.0807104;47.130641999999995;7.240568;0.9940000176429749;1673387687.108087;-42.554054260253906;-0.9889870882034302;90.68209075927734
52;1673387687.2767584;47.1306422;7.240576099999999;1.0670000314712524;1673387687.301154;-37.30867385864258;-0.5215960741043091;90.52645111083984
53;1673387687.4703844;47.1306424;7.2405843999999995;1.1370000839233398;1673387687.491862;-31.696693420410156;-0.27399003505706787;90.49813079833984
54;1673387687.672819;47.130642599999995;7.2405919999999995;1.1970000267028809;1673387687.6964037;-26.451629638671875;-0.09648685157299042;90.46656036376953
55;1673387687.8675144;47.130642599999995;7.240598899999999;1.25600004196167;1673387687.888995;-22.27373504638672;-0.48297300934791565;90.56339263916016
56;1673387688.0690093;47.130642699999996;7.2406045;1.319000005722046;1673387688.0953994;-19.801668167114258;-0.7121514678001404;90.6797866821289
57;1673387688.270396;47.130642699999996;7.2406087999999995;1.380000114440918;1673387688.2908902;-19.268142700195312;-0.28468233346939087;90.48722076416016
58;1673387688.4598124;47.130642599999995;7.2406117;1.443000078201294;1673387688.4803941;-20.075239181518555;-0.07307379692792892;90.40142822265625
59;1673387688.6461165;47.130642599999995;7.240613499999999;1.5090000629425049;1673387688.6691048;-21.610443115234375;-2.179302930831909;91.15830993652344
60;1673387688.8405874;47.130642599999995;7.240614399999999;1.5850000381469727;1673387688.8622372;-22.825674057006836;-0.7277668714523315;86.91276550292969
61;1673387689.0442078;47.1306425;7.2406147;1.6750000715255737;1673387689.065675;-25.551088333129883;1.4419121742248535;86.26319885253906
62;1673387689.2486122;47.1306424;7.2406146;1.7810001373291016;1673387689.271083;-27.010831832885742;-2.8318960666656494;87.64189910888672
63;1673387689.4573095;47.1306423;7.2406144999999995;1.8970000743865967;1673387689.4803574;-28.982471466064453;-1.6890801191329956;87.43531036376953
64;1673387689.6622593;47.1306422;7.2406144999999995;2.0210001468658447;1673387689.6872141;-29.73942756652832;0.6948900818824768;86.46730041503906
65;1673387689.884729;47.1306422;7.2406147;2.1610000133514404;1673387689.9072058;-30.048871994018555;-2.742043972015381;87.51093292236328
66;1673387690.085324;47.1306422;7.240615099999999;2.312000036239624;1673387690.1067843;-29.968338012695312;-0.9487079977989197;86.72309875488281
67;1673387690.2896652;47.1306423;7.2406158;2.4730000495910645;1673387690.3152838;-29.295503616333008;1.1023005247116089;85.76010131835938
68;1673387690.5009105;47.1306423;7.2406166;2.642000198364258;1673387690.521407;-28.648588180541992;-1.9240309000015259;86.86102294921875
69;1673387690.7000082;47.1306422;7.2406174;2.821000099182129;1673387690.7175767;-27.886335372924805;-1.8420605659484863;86.66075897216797
70;1673387690.8818822;47.1306422;7.2406182999999995;3.011000156402588;1673387690.9054208;-27.173891067504883;0.5528510808944702;85.7798080444336
71;1673387691.079478;47.1306423;7.2406191;3.203000068664551;1673387691.102888;-26.576215744018555;-1.4773961305618286;86.6226806640625
72;1673387691.2759047;47.1306424;7.2406196;3.3960001468658447;1673387691.298395;-26.00812530517578;-1.7424066066741943;86.90081787109375
73;1673387691.4657822;47.1306424;7.24062;3.5880000591278076;1673387691.490735;-25.98882484436035;1.4290637969970703;85.78357696533203
74;1673387691.6690426;47.1306424;7.2406201999999995;3.7810001373291016;1673387691.6901312;-25.89116859436035;-1.1852213144302368;86.54219818115234
75;1673387691.8805652;47.1306424;7.2406203;3.9690001010894775;1673387691.9020379;-26.240692138671875;-2.4264354705810547;87.05008697509766
76;1673387692.0770059;47.1306424;7.2406203;4.156000137329102;1673387692.0984805;-26.477924346923828;0.8435359597206116;85.87483978271484
77;1673387692.2780895;47.1306424;7.2406201999999995;4.3480000495910645;1673387692.3005385;-27.006084442138672;-0.8581156730651855;86.41545867919922
78;1673387692.47109;47.1306425;7.2406201;4.5410003662109375;1673387692.496035;-27.15340232849121;-2.2472498416900635;86.98152923583984
79;1673387692.6625729;47.130642599999995;7.2406198999999996;4.734000205993652;1673387692.6857111;-27.607574462890625;1.3393534421920776;85.86345672607422
80;1673387692.8611543;47.130642599999995;7.240619799999999;4.926000118255615;1673387692.886074;-27.56018829345703;-0.4019887149333954;86.3100814819336
81;1673387693.0664766;47.1306425;7.2406197;5.12000036239624;1673387693.092415;-27.985774993896484;-2.4189178943634033;86.9930419921875
82;1673387693.2494197;47.1306425;7.2406197;5.313000202178955;1673387693.2769594;-27.745100021362305;0.6634361147880554;86.00404357910156
83;1673387693.4447408;47.130642599999995;7.240619799999999;5.50700044631958;1673387693.4692721;-27.738014221191406;-0.043537311255931854;86.18716430664062
84;1673387693.650604;47.130642699999996;7.2406198999999996;5.703000068664551;1673387693.673066;-27.28806495666504;-2.4283804893493652;87.01375579833984
85;1673387693.842926;47.130642699999996;7.24062;5.902000427246094;1673387693.8665397;-27.566150665283203;0.5164585113525391;86.08265686035156
86;1673387694.062827;47.130642699999996;7.2406201;6.099000453948975;1673387694.0838928;-27.237855911254883;0.5616862773895264;85.96116638183594
87;1673387694.273657;47.130642699999996;7.2406201;6.294000148773193;1673387694.2971191;-27.30024528503418;-2.5908238887786865;87.09246063232422
88;1673387694.474784;47.130642699999996;7.2406201999999995;6.491000175476074;1673387694.4967902;-27.021589279174805;-0.354572594165802;86.33351135253906
89;1673387694.6673126;47.130642699999996;7.2406203;6.687000274658203;1673387694.6883354;-27.288555145263672;1.1095067262649536;85.8209457397461
90;1673387694.8801591;47.1306428;7.2406204;6.881000518798828;1673387694.906557;-27.020252227783203;-2.176297187805176;87.00882720947266
91;1673387695.099266;47.1306428;7.2406204999999995;7.076000213623047;1673387695.1247947;-27.201194763183594;-0.48028942942619324;86.46026611328125
92;1673387695.302082;47.1306428;7.2406204999999995;7.26900053024292;1673387695.3255072;-26.860637664794922;1.3776108026504517;85.66629028320312
93;1673387695.5046246;47.1306428;7.2406204999999995;7.462000370025635;1673387695.5189862;-27.174612045288086;-2.179161548614502;86.87548828125
94;1673387695.7409153;47.130642699999996;7.2406204999999995;7.654000282287598;1673387695.7555518;-27.149211883544922;-1.0205615758895874;86.57196807861328
95;1673387695.9151776;47.130642699999996;7.2406204999999995;7.847000598907471;1673387695.932809;-27.40274429321289;1.4557899236679077;85.7274169921875
96;1673387696.0920799;47.1306428;7.2406204999999995;8.039000511169434;1673387696.1136777;-27.214035034179688;-1.7594399452209473;86.8697280883789
97;1673387696.2917533;47.1306428;7.2406204999999995;8.232000350952148;1673387696.3259506;-27.3373966217041;-0.9422079920768738;86.69828033447266
98;1673387696.4822738;47.1306428;7.2406206;8.425000190734863;1673387696.5037818;-27.277860641479492;1.5046923160552979;85.72533416748047
99;1673387696.6704574;47.1306428;7.2406206;8.621000289916992;1673387696.6915112;-27.299074172973633;-1.483169436454773;86.67227935791016
100;1673387696.8621893;47.1306428;7.2406206;8.817000389099121;1673387696.8832345;-27.123676300048828;-1.6438173055648804;86.881591796875
101;1673387697.0693662;47.1306428;7.2406206;9.017000198364258;1673387697.0913851;-27.446331024169922;1.3648462295532227;85.77078247070312
102;1673387697.2634695;47.1306428;7.2406207;9.219000816345215;1673387697.289869;-27.03057861328125;-0.9755879640579224;86.48323059082031
103;1673387697.4623818;47.1306428;7.240620799999999;9.420000076293945;1673387697.48438;-27.204233169555664;-1.8670910596847534;86.90048217773438
104;1673387697.6797655;47.130642699999996;7.2406209;9.621000289916992;1673387697.7022445;-27.21068572998047;1.0846149921417236;85.89198303222656
105;1673387697.8842692;47.130642599999995;7.240621;9.82300090789795;1673387697.9067357;-27.055601119995117;-0.7700386047363281;86.33223724365234
106;1673387698.0684083;47.130642599999995;7.2406209;10.023000717163086;1673387698.0884774;-27.247314453125;-2.526073932647705;87.09039306640625
107;1673387698.2627347;47.1306425;7.240621;10.237000465393066;1673387698.2920601;-27.064529418945312;0.26441633701324463;86.13609313964844
108;1673387698.465921;47.130642599999995;7.2406213;10.532000541687012;1673387698.4952736;-32.09212875366211;-0.5983492732048035;86.37493133544922
109;1673387698.6766634;47.130642599999995;7.2406223999999995;10.907000541687012;1673387698.6991563;-30.904277801513672;-2.000734329223633;86.66836547851562
110;1673387698.8744152;47.130642699999996;7.2406238;11.304000854492188;1673387698.8993528;-27.009170532226562;0.48684149980545044;85.97244262695312
111;1673387699.0737395;47.130642699999996;7.2406253;11.710000991821289;1673387699.0947788;-24.345441818237305;-0.37124669551849365;86.39049530029297
112;1673387699.2775862;47.130642699999996;7.2406264;12.116000175476074;1673387699.2972226;-22.50322723388672;-2.3410918712615967;87.04740142822266
113;1673387699.4696448;47.1306428;7.2406269;12.519001007080078;1673387699.4916604;-21.743188858032227;0.1749613732099533;86.24308776855469
114;1673387699.666124;47.1306429;7.2406269;12.929000854492188;1673387699.6871755;-22.091835021972656;0.3100104033946991;86.10362243652344
115;1673387699.860443;47.1306429;7.2406266;13.343000411987305;1673387699.8824527;-22.618499755859375;-2.156895160675049;87.03726196289062
116;1673387700.0589585;47.1306429;7.2406258999999995;13.758000373840332;1673387700.0823848;-23.878154754638672;0.5400736927986145;86.16038513183594
117;1673387700.261867;47.1306429;7.2406251;14.17300033569336;1673387700.288285;-25.00053596496582;0.7377839684486389;86.06526947021484
118;1673387700.4733016;47.1306429;7.2406242;14.589000701904297;1673387700.4943607;-26.082874298095703;-2.1625640392303467;87.01819610595703
119;1673387700.6618164;47.1306429;7.240623299999999;15.00200080871582;1673387700.6863134;-26.953886032104492;0.4628945291042328;86.26478576660156
120;1673387700.8787248;47.1306429;7.2406226;15.416000366210938;1673387700.9018507;-27.600690841674805;1.0546977519989014;86.08824157714844
121;1673387701.0615265;47.1306429;7.2406220999999995;15.833001136779785;1673387701.0800898;-27.78091049194336;-1.7091442346572876;86.9101791381836
122;1673387701.2870772;47.1306429;7.2406217999999996;16.24700164794922;1673387701.306798;-27.910335540771484;-0.10140485316514969;86.33271789550781
123;1673387701.5088565;47.1306428;7.2406216;16.6560001373291;1673387701.533362;-27.51982879638672;0.995648980140686;85.91615295410156
124;1673387701.7090335;47.1306428;7.2406216;17.058000564575195;1673387701.7344098;-27.142175674438477;-1.544647455215454;86.7134780883789
125;1673387701.901598;47.130642699999996;7.240621699999999;17.45400047302246;1673387701.9259968;-26.77580451965332;-0.815642237663269;86.53742980957031
126;1673387702.1095748;47.130642699999996;7.240621699999999;17.845001220703125;1673387702.1349387;-26.688230514526367;1.1630222797393799;85.82533264160156
127;1673387702.3014529;47.130642699999996;7.2406217999999996;18.24100112915039;1673387702.329841;-26.377756118774414;-1.305654764175415;86.6708755493164
128;1673387702.50836;47.130642599999995;7.2406219;18.637001037597656;1673387702.5288556;-26.35372543334961;-1.3651131391525269;86.72588348388672
129;1673387702.7018747;47.1306425;7.240622;19.038000106811523;1673387702.7204323;-26.040424346923828;1.0679157972335815;85.86344146728516
130;1673387702.8950472;47.1306425;7.240622;19.44099998474121;1673387702.913633;-26.156606674194336;-1.0961278676986694;86.5527572631836
131;1673387703.0750651;47.1306425;7.240622;19.845001220703125;1673387703.0970826;-25.93577766418457;-1.4787534475326538;86.87088775634766
132;1673387703.277023;47.130642599999995;7.2406219;20.242000579833984;1673387703.298521;-26.320274353027344;1.3354748487472534;85.9412612915039
133;1673387703.468003;47.130642599999995;7.2406217999999996;20.644001007080078;1673387703.49296;-26.226028442382812;-0.433755099773407;86.49518585205078
134;1673387703.660393;47.130642599999995;7.240621699999999;21.053001403808594;1673387703.6808941;-26.630632400512695;-1.6522493362426758;86.99187469482422
135;1673387703.856847;47.1306425;7.2406216;21.457000732421875;1673387703.8783288;-26.404197692871094;1.1270828247070312;85.9088134765625
136;1673387704.0524092;47.1306425;7.2406215;21.85900115966797;1673387704.075879;-26.729578018188477;-0.10604743659496307;86.14759826660156
137;1673387704.2617846;47.1306425;7.240621399999999;22.261001586914062;1673387704.2832859;-26.318723678588867;-1.884934663772583;86.90093994140625
138;1673387704.4531488;47.1306424;7.2406213;22.66200065612793;1673387704.480734;-26.58370018005371;0.7669236660003662;86.08222961425781
139;1673387704.6844053;47.1306424;7.2406212;23.056001663208008;1673387704.7113104;-26.5187931060791;0.19704173505306244;86.20853424072266
140;1673387704.8940604;47.1306423;7.2406212;23.45400047302246;1673387704.9155364;-26.704641342163086;-2.186380624771118;87.03934478759766
141;1673387705.0929077;47.1306423;7.240621099999999;23.85300064086914;1673387705.11493;-26.896169662475586;0.13235579431056976;86.2007827758789
142;1673387705.2932293;47.1306422;7.2406212;24.251001358032227;1673387705.311341;-26.574806213378906;0.5395262241363525;85.98796844482422
143;1673387705.5249255;47.1306423;7.2406212;24.65300178527832;1673387705.5464702;-26.6635799407959;-1.8381075859069824;86.83642578125
144;1673387705.7391753;47.1306423;7.2406212;25.05500030517578;1673387705.7586923;-26.613235473632812;-0.6209768652915955;86.54995727539062
145;1673387705.916974;47.1306423;7.240621099999999;25.452001571655273;1673387705.9355142;-26.702476501464844;1.264987587928772;85.93521881103516
146;1673387706.0893304;47.1306424;7.240621099999999;25.854001998901367;1673387706.1074228;-26.524892807006836;-1.4094624519348145;86.75558471679688
147;1673387706.2829466;47.1306424;7.240621099999999;26.25400161743164;1673387706.307905;-26.56320571899414;-1.1625810861587524;86.71109771728516
148;1673387706.4882696;47.1306424;7.240621099999999;26.658000946044922;1673387706.5093753;-26.576919555664062;1.351346731185913;85.8624038696289
149;1673387706.679782;47.1306424;7.240621099999999;27.06800079345703;1673387706.6998909;-26.576129913330078;-1.2752315998077393;86.73262023925781
150;1673387706.8796797;47.1306425;7.240621099999999;27.474000930786133;1673387706.8997552;-26.5470027923584;-1.091866374015808;86.71553039550781
151;1673387707.1004372;47.1306425;7.240621099999999;27.87900161743164;1673387707.1219096;-26.557435989379883;1.3802179098129272;85.83556365966797
152;1673387707.294257;47.1306425;7.240621;28.2760009765625;1673387707.3152878;-26.526206970214844;-0.9163828492164612;86.57194519042969
153;1673387707.4741986;47.1306425;7.240621;28.67500114440918;1673387707.4948883;-26.709911346435547;-1.5891351699829102;86.87908935546875
154;1673387707.722653;47.1306425;7.240621;29.080001831054688;1673387707.741197;-26.61067771911621;1.0859590768814087;85.96043395996094
155;1673387707.9219882;47.130642599999995;7.240621;29.48200225830078;1673387707.9444363;-26.77714729309082;-0.11139753460884094;86.28722381591797
156;1673387708.1096716;47.130642699999996;7.2406209;29.88300132751465;1673387708.130208;-26.575597763061523;-1.5525261163711548;86.94949340820312
157;1673387708.3013136;47.1306428;7.2406209;30.28400230407715;1673387708.32277;-26.651973724365234;1.4790987968444824;85.94159698486328
158;1673387708.4995654;47.1306428;7.2406209;30.674001693725586;1673387708.5249634;-26.551904678344727;0.18727070093154907;86.31759643554688
159;1673387708.7197785;47.130642699999996;7.240620799999999;31.069002151489258;1673387708.7432013;-26.81223487854004;-1.689279317855835;86.91522979736328
160;1673387708.9121559;47.130642699999996;7.240620799999999;31.466001510620117;1673387708.9336278;-26.629194259643555;0.8690385818481445;86.07066345214844
161;1673387709.108454;47.1306428;7.2406207;31.85900115966797;1673387709.1309774;-26.985671997070312;0.8399659395217896;86.10240173339844
162;1673387709.297596;47.1306429;7.2406207;32.24800109863281;1673387709.316718;-26.565088272094727;-1.5101268291473389;86.96600341796875
163;1673387709.4735427;47.1306429;7.2406207;32.63600158691406;1673387709.4950938;-26.922365188598633;0.5906363725662231;86.26234436035156
164;1673387709.6774306;47.1306428;7.2406207;33.02400207519531;1673387709.6979363;-26.66628074645996;1.338372826576233;85.82987976074219
165;1673387709.8650744;47.1306428;7.2406206;33.40500259399414;1673387709.8875942;-26.759197235107422;-1.6966687440872192;86.8538818359375
166;1673387710.0657294;47.1306428;7.2406206;33.790000915527344;1673387710.0941775;-26.77341651916504;0.10062025487422943;86.32495880126953
167;1673387710.2879667;47.1306428;7.2406206;34.18000030517578;1673387710.3104692;-26.951080322265625;1.4047316312789917;85.91331481933594
168;1673387710.479217;47.1306429;7.2406206;34.57200241088867;1673387710.5016828;-26.80628204345703;-1.2767775058746338;86.83710479736328
169;1673387710.6892655;47.1306429;7.2406204999999995;34.9640007019043;1673387710.709312;-26.82710075378418;-0.2552720904350281;86.5760498046875
170;1673387710.8775394;47.1306429;7.2406204999999995;35.35600280761719;1673387710.903936;-26.854293823242188;1.6178741455078125;85.84188079833984
171;1673387711.0850549;47.1306428;7.2406204;35.73800277709961;1673387711.108061;-26.81709098815918;-0.7582460641860962;86.65884399414062
172;1673387711.2962272;47.1306428;7.2406204;36.12600326538086;1673387711.3193564;-26.90793800354004;-1.1158487796783447;86.8414535522461
173;1673387711.4966364;47.130642699999996;7.2406204;36.518001556396484;1673387711.5196302;-26.97696304321289;1.3004051446914673;85.97499084472656
174;1673387711.6911068;47.1306428;7.2406204;36.909000396728516;1673387711.7131236;-26.74371910095215;-0.13856711983680725;86.363525390625
175;1673387711.8823783;47.1306428;7.2406204;37.29900360107422;1673387711.9028795;-26.76536750793457;-1.3642444610595703;86.9029769897461
176;1673387712.080422;47.1306428;7.2406204;37.68800354003906;1673387712.1050258;-26.851253509521484;1.0479787588119507;86.13494110107422
177;1673387712.2967467;47.1306428;7.2406204;38.079002380371094;1673387712.316299;-26.764995574951172;0.378061443567276;86.2344970703125
178;1673387712.483951;47.130642699999996;7.2406203;38.461002349853516;1673387712.502528;-26.89065170288086;-1.717105507850647;86.94146728515625
179;1673387712.6677492;47.130642699999996;7.2406203;38.84700012207031;1673387712.6922078;-26.698213577270508;0.9993700385093689;86.10224914550781
180;1673387712.8684683;47.130642699999996;7.2406203;39.23800277709961;1673387712.8919032;-27.06428337097168;0.9005306363105774;86.13314056396484
181;1673387713.0675554;47.1306428;7.2406203;39.63200378417969;1673387713.0919578;-26.844484329223633;-1.3287780284881592;86.9115982055664
182;1673387713.2753234;47.1306428;7.2406201999999995;40.0260009765625;1673387713.2967854;-27.05367660522461;0.4881216883659363;86.39106750488281
183;1673387713.4643967;47.1306428;7.2406201999999995;40.419002532958984;1673387713.4868374;-26.90489959716797;1.4736735820770264;86.05949401855469
184;1673387713.6648517;47.130642699999996;7.2406201999999995;40.802001953125;1673387713.694142;-26.9641170501709;-1.3611809015274048;86.88456726074219
185;1673387713.8886006;47.130642699999996;7.2406203;41.18800354003906;1673387713.9116042;-26.834901809692383;-0.36505770683288574;86.6563949584961
186;1673387714.0722156;47.130642699999996;7.2406203;41.577003479003906;1673387714.0946732;-26.962865829467773;1.64141047000885;85.88258361816406
187;1673387714.2727263;47.130642699999996;7.2406203;41.96900177001953;1673387714.2951744;-26.78266143798828;-0.8877342343330383;86.73207092285156
188;1673387714.4837832;47.130642699999996;7.2406203;42.362003326416016;1673387714.5062907;-27.004568099975586;-0.5955793261528015;86.7469253540039
189;1673387714.683574;47.130642699999996;7.2406203;42.75400161743164;1673387714.7079856;-26.81414222717285;1.8345164060592651;85.86531829833984
190;1673387714.876311;47.130642699999996;7.2406203;43.14800262451172;1673387714.8997269;-26.756017684936523;-0.3555368185043335;86.49368286132812
191;1673387715.0824454;47.130642699999996;7.2406203;43.535003662109375;1673387715.1036682;-26.71645736694336;-1.1196449995040894;86.8364486694336
192;1673387715.2864287;47.130642699999996;7.2406201999999995;43.92300033569336;1673387715.3089638;-26.92001724243164;1.8252744674682617;85.93287658691406
193;1673387715.483527;47.130642699999996;7.2406201999999995;44.31500244140625;1673387715.5069513;-26.91196060180664;0.08950568735599518;86.39839172363281
194;1673387715.6891484;47.130642699999996;7.2406201999999995;44.70900344848633;1673387715.7135541;-26.876646041870117;-1.190446376800537;86.89656829833984
195;1673387715.934805;47.130642599999995;7.2406201999999995;45.10100173950195;1673387715.9582274;-27.018342971801758;1.5234378576278687;85.90705108642578
196;1673387716.1334925;47.130642599999995;7.2406201999999995;45.49500274658203;1673387716.1540015;-26.766355514526367;0.3421367108821869;86.21419525146484
197;1673387716.3078477;47.130642599999995;7.2406201;45.88200378417969;1673387716.325942;-27.01907730102539;-1.4505436420440674;86.9537582397461
198;1673387716.4994154;47.1306425;7.2406201;46.27300262451172;1673387716.5224833;-26.84974479675293;1.1962075233459473;86.13829803466797
199;1673387716.6979516;47.130642599999995;7.2406201;46.669002532958984;1673387716.718034;-26.956024169921875;1.3537180423736572;86.05524444580078
200;1673387716.889156;47.130642599999995;7.2406201;47.06900405883789;1673387716.908669;-26.828170776367188;-1.3557878732681274;86.92314910888672
201;1673387717.0823078;47.130642599999995;7.2406201;47.46600341796875;1673387717.1038673;-26.85209083557129;0.7221695184707642;86.3108901977539
202;1673387717.2946472;47.130642599999995;7.2406201;47.86300277709961;1673387717.3152635;-26.757238388061523;1.7221803665161133;85.90242767333984
203;1673387717.4782205;47.130642599999995;7.24062;48.242000579833984;1673387717.5016584;-27.668045043945312;-1.032128095626831;86.81224060058594
204;1673387717.6870282;47.130642599999995;7.240619799999999;48.56200408935547;1673387717.7094684;-27.287841796875;0.8901275396347046;86.36233520507812
205;1673387717.888293;47.130642599999995;7.2406194;48.83400344848633;1673387717.91074;-27.6094970703125;1.3300294876098633;86.1180419921875
206;1673387718.1028993;47.1306425;7.240619;49.06800079345703;1673387718.1276164;-28.032264709472656;-0.5205646753311157;86.74226379394531
207;1673387718.2939596;47.1306425;7.2406185999999995;49.268001556396484;1673387718.311725;-28.693605422973633;0.04016883671283722;86.57514953613281
208;1673387718.4849312;47.1306423;7.2406179999999996;49.42900085449219;1673387718.5083866;-16.984769821166992;14.395599365234375;87.53974151611328
209;1673387718.694178;47.130641499999996;7.2406163999999995;49.56200408935547;1673387718.7146857;1.6862943172454834;34.27387619018555;101.04830932617188
210;1673387718.8819602;47.1306389;7.2406118;49.67000198364258;1673387718.9055903;7.027193069458008;50.91315841674805;112.0389404296875
211;1673387719.089322;47.130633499999995;7.2406026;49.74500274658203;1673387719.1117766;-0.9869803190231323;57.87636947631836;118.63497161865234
212;1673387719.2765906;47.1306253;7.2405887;49.78400421142578;1673387719.3000143;-14.105425834655762;54.83415603637695;129.0876922607422
213;1673387719.4821033;47.130614699999995;7.2405707999999995;49.78700256347656;1673387719.5045614;-24.035079956054688;47.29341125488281;140.82467651367188
214;1673387719.6814704;47.1306022;7.240549499999999;49.759002685546875;1673387719.7039175;-30.696060180664062;41.56764602661133;149.54067993164062
215;1673387719.8865688;47.1305882;7.2405251999999996;49.73500061035156;1673387719.9090245;-40.9168701171875;40.882041931152344;157.40625
216;1673387720.0863097;47.1305725;7.240497899999999;49.71900177001953;1673387720.1136792;-48.82102966308594;31.43733787536621;170.45838928222656
217;1673387720.2975867;47.130555199999996;7.240468399999999;49.704002380371094;1673387720.3210716;-49.74604415893555;20.62946319580078;-178.86032104492188
218;1673387720.5016444;47.1305365;7.240437;49.69300079345703;1673387720.5285428;-52.92874526977539;12.248894691467285;-171.44015502929688
219;1673387720.7107146;47.1305165;7.2404044;49.676002502441406;1673387720.7358146;-52.91654968261719;1.9180032014846802;-163.15394592285156
220;1673387720.901056;47.1304953;7.240371199999999;49.64500045776367;1673387720.9270318;-53.21732711791992;-3.408094644546509;-156.73301696777344
221;1673387721.1083672;47.1304732;7.2403376999999995;49.61000061035156;1673387721.1313598;-49.45243453979492;-5.481956481933594;-150.53599548339844
222;1673387721.3083143;47.130450599999996;7.2403039;49.573001861572266;1673387721.3329036;-43.21153259277344;-9.825936317443848;-142.81008911132812
223;1673387721.5152657;47.130428099999996;7.2402703;49.540000915527344;1673387721.539257;-38.76494598388672;-15.162339210510254;-134.97837829589844
224;1673387721.7038121;47.1304054;7.2402368;49.53000259399414;1673387721.721425;-40.770774841308594;-25.480310440063477;-135.7514190673828
225;1673387721.879256;47.130382399999995;7.240203999999999;49.51900100708008;1673387721.9037123;-40.96958541870117;-23.72393226623535;-151.65521240234375
226;1673387722.0664034;47.1303591;7.2401729999999995;49.5150032043457;1673387722.0869305;-35.631065368652344;-23.140186309814453;-164.1495361328125
227;1673387722.2598684;47.130336;7.2401447;49.50200271606445;1673387722.2823205;-29.19779396057129;-31.053340911865234;-173.11651611328125
228;1673387722.482455;47.130313799999996;7.2401199;49.49800109863281;1673387722.5068555;-20.81747817993164;-32.49789810180664;-176.18890380859375
229;1673387722.7026322;47.1302929;7.2400987;49.505001068115234;1673387722.7304995;-4.1516547203063965;-30.081083297729492;-164.2936553955078
230;1673387722.9106202;47.1302739;7.2400809;49.55000305175781;1673387722.932664;8.0148286819458;-31.201231002807617;-147.55943298339844
231;1673387723.1150749;47.1302567;7.2400652999999995;49.643001556396484;1673387723.1385238;-10.603885650634766;-15.5304594039917;-135.35667419433594
232;1673387723.307321;47.1302405;7.24005;49.75300216674805;1673387723.3239155;-39.142311096191406;-1.139021873474121;-132.38507080078125
233;1673387723.5066407;47.1302246;7.2400321;49.8650016784668;1673387723.526723;-55.5191764831543;-4.732320785522461;-133.62217712402344
234;1673387723.7009368;47.1302081;7.2400106;49.95100402832031;1673387723.7268682;-60.058799743652344;-7.064596176147461;-135.7471160888672
235;1673387723.907113;47.130190299999995;7.239985399999999;50.00300216674805;1673387723.968223;-56.6694450378418;-3.6814794540405273;-139.28990173339844
236;1673387724.1384568;47.1301716;7.2399571;50.03000259399414;1673387724.1599512;-52.944766998291016;-3.7718329429626465;-139.26394653320312
237;1673387724.3338294;47.1301522;7.239926199999999;50.03600311279297;1673387724.3562777;-53.50461196899414;-9.377368927001953;-138.79153442382812
238;1673387724.516007;47.1301318;7.2398935;50.03900146484375;1673387724.557948;-54.2349853515625;-14.526529312133789;-138.98326110839844
239;1673387724.7317216;47.1301103;7.2398599;50.03400421142578;1673387724.7531986;-53.06155776977539;-15.73346996307373;-139.77584838867188
240;1673387724.9061995;47.130088;7.2398259;50.01100158691406;1673387724.9311614;-51.232120513916016;-14.457831382751465;-140.00076293945312
241;1673387725.094801;47.1300649;7.2397917;49.980003356933594;1673387725.1182282;-47.49010467529297;-14.173980712890625;-140.21827697753906
242;1673387725.2863548;47.130041399999996;7.2397575;49.952003479003906;1673387725.306849;-45.4482536315918;-14.100659370422363;-140.32717895507812
243;1673387725.4821393;47.1300179;7.239723499999999;49.935001373291016;1673387725.5046253;-46.22993850708008;-14.559430122375488;-140.2183074951172
244;1673387725.690322;47.129993999999996;7.239689599999999;49.927001953125;1673387725.7127717;-47.20661163330078;-14.962906837463379;-140.21974182128906
245;1673387725.8729322;47.1299699;7.239655699999999;49.919002532958984;1673387725.8953805;-46.73776626586914;-14.7661714553833;-140.43670654296875
246;1673387726.0673103;47.1299457;7.2396218999999995;49.90900421142578;1673387726.0888004;-45.86663818359375;-14.354138374328613;-140.48092651367188
247;1673387726.2705457;47.1299214;7.239588299999999;49.89900207519531;1673387726.2939706;-45.155029296875;-14.208888053894043;-140.27093505859375
248;1673387726.4941432;47.129897;7.2395548;49.887001037597656;1673387726.5157347;-45.11280059814453;-14.172710418701172;-140.18423461914062
249;1673387726.706321;47.1298727;7.2395214999999995;49.87900161743164;1673387726.7268274;-45.235782623291016;-14.108139991760254;-140.1888427734375
250;1673387726.9026966;47.1298483;7.239488199999999;49.86900329589844;1673387726.932523;-45.4455451965332;-14.10912036895752;-140.12399291992188
251;1673387727.1042583;47.129824;7.239454899999999;49.8650016784668;1673387727.1286674;-45.42837142944336;-14.124229431152344;-140.10462951660156
252;1673387727.3052032;47.1297997;7.239421699999999;49.86300277709961;1673387727.3306487;-45.34567642211914;-14.00853157043457;-140.1229705810547
253;1673387727.510591;47.1297753;7.2393885;49.86100387573242;1673387727.5347753;-45.52549362182617;-14.028955459594727;-140.09609985351562
254;1673387727.6946263;47.1297509;7.2393553;49.85900115966797;1673387727.7162473;-45.53318405151367;-14.053893089294434;-140.1146697998047
255;1673387727.8769507;47.1297265;7.239322199999999;49.858001708984375;1673387727.8984244;-45.41374969482422;-13.923018455505371;-140.1961212158203
256;1673387728.0824525;47.1297022;7.2392891;49.85900115966797;1673387728.1029577;-45.32644271850586;-13.813511848449707;-140.18865966796875
257;1673387728.2860394;47.129677799999996;7.2392560999999995;49.858001708984375;1673387728.3104403;-45.45276641845703;-13.81374740600586;-140.1777801513672
258;1673387728.5035894;47.129653399999995;7.239223;49.85700225830078;1673387728.5281386;-45.57371139526367;-13.784957885742188;-140.2086944580078
259;1673387728.7203753;47.129629;7.2391898999999995;49.85100173950195;1673387728.7453055;-45.417564392089844;-13.637662887573242;-140.27944946289062
260;1673387728.9102645;47.1296046;7.2391568;49.849002838134766;1673387728.9307632;-45.084999084472656;-13.525940895080566;-140.32618713378906
261;1673387729.1056302;47.1295803;7.2391236999999995;49.84800338745117;1673387729.1280825;-45.15729522705078;-13.504987716674805;-140.3371124267578
262;1673387729.2834578;47.1295559;7.239090699999999;49.85300064086914;1673387729.30493;-45.61265563964844;-13.55772876739502;-140.4252166748047
263;1673387729.4905536;47.1295316;7.2390577;49.85600280761719;1673387729.5103097;-45.955841064453125;-13.479218482971191;-140.5332794189453
264;1673387729.6897523;47.1295072;7.2390246;49.86300277709961;1673387729.7161367;-45.901493072509766;-13.381155967712402;-140.65943908691406
265;1673387729.8977802;47.1294827;7.2389915;49.871002197265625;1673387729.9192631;-45.933921813964844;-13.230133056640625;-140.77903747558594
266;1673387730.0901914;47.129458199999995;7.2389584;49.87800216674805;1673387730.1156304;-45.96936798095703;-13.074350357055664;-140.919189453125
267;1673387730.2897813;47.1294337;7.2389252;49.88600158691406;1673387730.3102772;-45.818328857421875;-14.966485977172852;-140.6129913330078
268;1673387730.4803023;47.1294092;7.2388921999999996;49.897003173828125;1673387730.502758;-46.52880859375;-18.459978103637695;-141.0188446044922
269;1673387730.6777015;47.1293843;7.2388597;49.91200256347656;1673387730.6991746;-45.61471939086914;-23.279386520385742;-141.89361572265625
270;1673387730.880262;47.129359199999996;7.2388281;49.92400360107422;1673387730.9021778;-44.89791488647461;-23.683753967285156;-143.1595458984375
271;1673387731.1138887;47.1293338;7.2387976;49.935001373291016;1673387731.1653051;-36.98906326293945;-24.242151260375977;-144.3856201171875
272;1673387731.3269713;47.129308599999995;7.238768599999999;49.95100402832031;1673387731.3489847;-18.15247917175293;-24.685169219970703;-143.86622619628906
273;1673387731.5316515;47.1292845;7.2387415;49.97700119018555;1673387731.561172;1.746347188949585;-21.491487503051758;-140.47222900390625
274;1673387731.7276514;47.129262399999995;7.2387166999999994;50.00400161743164;1673387731.7550948;18.277538299560547;-15.210906982421875;-136.21270751953125
275;1673387731.9385414;47.1292433;7.2386946;50.022003173828125;1673387731.9600654;27.981657028198242;-11.314111709594727;-134.9754638671875
276;1673387732.1238065;47.1292274;7.2386751;50.03000259399414;1673387732.1468072;31.276424407958984;-5.5384321212768555;-136.86326599121094
277;1673387732.3531654;47.1292146;7.2386577999999995;49.99400329589844;1673387732.3766031;33.55491256713867;-12.9521484375;-135.61505126953125
278;1673387732.5785718;47.1292044;7.2386431;49.94600296020508;1673387732.5981276;34.821250915527344;-14.204814910888672;-134.68292236328125
279;1673387732.7653751;47.1291964;7.2386313;49.935001373291016;1673387732.7848983;35.21547317504883;-20.792150497436523;-134.0137176513672
280;1673387732.961034;47.1291902;7.238622299999999;49.95500183105469;1673387732.9855657;28.58303451538086;-23.22214126586914;-133.9082794189453
281;1673387733.1400003;47.129185199999995;7.238615299999999;49.98100280761719;1673387733.1581044;19.097646713256836;-25.060827255249023;-134.18882751464844
282;1673387733.3287919;47.1291806;7.2386095;50.012001037597656;1673387733.3479013;13.051839828491211;-24.43720245361328;-135.276611328125
283;1673387733.530726;47.1291764;7.2386042999999995;50.03300094604492;1673387733.5547514;9.300658226013184;-21.259483337402344;-135.92266845703125
284;1673387733.7166448;47.129172399999995;7.2385993;50.04500198364258;1673387733.7411096;9.209540367126465;-19.448118209838867;-136.4985809326172
285;1673387733.9181242;47.1291684;7.238594099999999;50.05500411987305;1673387733.9698405;10.343491554260254;-17.608362197875977;-137.08660888671875
286;1673387734.146479;47.129164499999995;7.2385889;50.06500244140625;1673387734.166974;11.916593551635742;-16.992633819580078;-137.6507110595703
287;1673387734.318881;47.1291608;7.2385836999999995;50.077003479003906;1673387734.3423135;14.137824058532715;-17.741153717041016;-138.11302185058594
288;1673387734.5016937;47.1291574;7.238578599999999;50.092002868652344;1673387734.5244865;15.97364616394043;-19.60335350036621;-138.80780029296875
289;1673387734.7050166;47.1291544;7.238573799999999;50.12300109863281;1673387734.7260933;0.47622376680374146;-21.11579132080078;-135.46302795410156
290;1673387734.9012916;47.1291511;7.238568399999999;50.21800231933594;1673387734.9247363;-28.0289249420166;-22.876937866210938;-134.7191619873047
291;1673387735.1116736;47.1291462;7.2385611999999995;50.367000579833984;1673387735.1360989;-25.733665466308594;-14.324408531188965;-137.86819458007812
292;1673387735.3003314;47.12914;7.2385513999999995;50.58000183105469;1673387735.3198502;-16.96333885192871;-9.182989120483398;-138.01974487304688
293;1673387735.5016222;47.129132999999996;7.2385398;50.88100051879883;1673387735.5279744;-19.058534622192383;-15.94839859008789;-138.7297821044922
294;1673387735.7489595;47.129125099999996;7.2385271;51.22800064086914;1673387735.771407;-24.70185661315918;-33.24454879760742;-139.1455078125
295;1673387735.936868;47.1291152;7.2385144;51.62300109863281;1673387735.9560268;-21.94569206237793;-29.822647094726562;-139.58377075195312
296;1673387736.1010218;47.1291042;7.238501599999999;52.03300094604492;1673387736.1195602;-17.490379333496094;-28.28142738342285;-138.3728485107422
297;1673387736.308998;47.1290925;7.2384888;52.448001861572266;1673387736.3334067;-13.20517349243164;-23.68470573425293;-137.91090393066406
298;1673387736.5181603;47.1290805;7.2384758;52.86100387573242;1673387736.5437915;-8.490015029907227;-18.105974197387695;-137.4745635986328
299;1673387736.7610316;47.1290687;7.2384626;53.26700210571289;1673387736.7786038;-5.110848903656006;-13.816214561462402;-137.1237335205078
300;1673387736.9603407;47.1290574;7.2384493;53.67100143432617;1673387736.9818132;-2.9074041843414307;-11.624972343444824;-136.8318634033203
301;1673387737.1568112;47.1290468;7.2384357999999995;54.07100296020508;1673387737.176364;-2.8990588188171387;-11.875431060791016;-136.55636596679688
302;1673387737.3447373;47.129036799999994;7.2384222;54.47300338745117;1673387737.3697608;-4.349802017211914;-13.557756423950195;-136.32765197753906
303;1673387737.588713;47.129027199999996;7.238408499999999;54.87400436401367;1673387737.6043277;-6.373896598815918;-15.205842971801758;-136.1373291015625
304;1673387737.7407377;47.1290178;7.2383948;55.2760009765625;1673387737.761825;-7.695610523223877;-18.14286231994629;-135.9487762451172
305;1673387737.919601;47.1290086;7.2383809999999995;55.682003021240234;1673387737.939303;-8.236233711242676;-20.664358139038086;-135.9250946044922
306;1673387738.1055348;47.1289994;7.2383671;56.08700180053711;1673387738.1270053;-8.798874855041504;-22.39142608642578;-136.2818603515625
307;1673387738.309628;47.128989999999995;7.2383533;56.4890022277832;1673387738.3301253;-9.311774253845215;-22.71512222290039;-136.55821228027344
308;1673387738.5087276;47.1289805;7.2383394999999995;56.88600158691406;1673387738.5301967;-9.8062105178833;-21.849599838256836;-136.82919311523438
309;1673387738.7081752;47.1289708;7.238325799999999;57.281002044677734;1673387738.7268624;-10.176261901855469;-20.647443771362305;-137.08477783203125
310;1673387738.9093504;47.128960799999994;7.2383121;57.67400360107422;1673387738.9349778;-10.235002517700195;-19.019227981567383;-137.16311645507812
311;1673387739.12474;47.128950599999996;7.238298299999999;58.0680046081543;1673387739.145244;-9.84900951385498;-18.195049285888672;-137.1761474609375
312;1673387739.3046525;47.1289404;7.2382846;58.461002349853516;1673387739.3330028;-9.485342979431152;-18.34952163696289;-136.9921417236328
313;1673387739.5148542;47.1289302;7.2382709;58.85700225830078;1673387739.5382705;-8.971275329589844;-19.56636619567871;-136.73284912109375
314;1673387739.7250998;47.128920099999995;7.238257099999999;59.25400161743164;1673387739.7485313;-8.652966499328613;-20.875267028808594;-136.4555206298828
315;1673387739.9318788;47.12891;7.2382433;59.656002044677734;1673387739.95598;-8.284173965454102;-20.945829391479492;-136.63002014160156
316;1673387740.1384888;47.128899999999994;7.2382294;60.05400466918945;1673387740.161959;-7.7432379722595215;-20.337627410888672;-136.84454345703125
317;1673387740.3375578;47.1288901;7.238215599999999;60.4530029296875;1673387740.3615324;-7.691445827484131;-19.484264373779297;-136.9160919189453
318;1673387740.5378194;47.128880099999996;7.2382018;60.85400390625;1673387740.5605934;-7.635896682739258;-18.666547775268555;-136.92849731445312
319;1673387740.7315345;47.128870199999994;7.2381880999999995;61.255001068115234;1673387740.7510593;-8.222970962524414;-18.10283088684082;-136.90127563476562
320;1673387740.9608436;47.1288602;7.238174399999999;61.65700149536133;1673387740.9842868;-8.869325637817383;-17.636993408203125;-136.7821807861328
321;1673387741.144185;47.128850299999996;7.2381607;62.05800247192383;1673387741.1642559;-9.420557975769043;-17.99684715270996;-136.6871337890625
322;1673387741.326029;47.128840499999995;7.238147;62.46400451660156;1673387741.3494587;-9.608725547790527;-19.135934829711914;-136.67205810546875
323;1673387741.536368;47.1288306;7.2381332;62.86900329589844;1673387741.5593572;-9.5372314453125;-20.05480194091797;-136.6783905029297
324;1673387741.7328424;47.1288207;7.2381193999999995;63.272003173828125;1673387741.7587612;-9.353620529174805;-21.33387565612793;-136.6403350830078
325;1673387741.976831;47.1288108;7.2381056;63.67500305175781;1673387742.018947;-9.154897689819336;-21.940874099731445;-136.67999267578125
326;1673387742.1762645;47.128800899999995;7.2380919;64.0780029296875;1673387742.1968162;-8.8008451461792;-22.094594955444336;-136.7855987548828
327;1673387742.3505151;47.1287909;7.2380781;64.47400665283203;1673387742.3691454;-9.033792495727539;-21.71455955505371;-136.91322326660156
328;1673387742.539697;47.1287808;7.2380644;64.86600494384766;1673387742.5617204;-9.021795272827148;-20.824420928955078;-136.96661376953125
329;1673387742.7342093;47.1287708;7.2380508;65.2560043334961;1673387742.7601385;-8.953154563903809;-20.679723739624023;-136.886962890625
330;1673387742.9480422;47.1287607;7.2380371;65.6500015258789;1673387742.9715133;-9.025823593139648;-19.593807220458984;-137.02310180664062
331;1673387743.1404285;47.128750499999995;7.2380235;66.04800415039062;1673387743.1589756;-8.814109802246094;-19.030765533447266;-137.06201171875
332;1673387743.3181798;47.1287404;7.2380097999999995;66.45000457763672;1673387743.3406284;-8.574769020080566;-18.338754653930664;-137.02040100097656
333;1673387743.514857;47.1287303;7.237996;66.85000610351562;1673387743.5441382;-8.53968620300293;-18.091550827026367;-136.91412353515625
334;1673387743.7227461;47.1287203;7.237982199999999;67.25;1673387743.7442212;-8.810263633728027;-17.905786514282227;-136.8292694091797
335;1673387743.9435418;47.128710299999995;7.2379685;67.6510009765625;1673387743.9696357;-9.2279052734375;-17.516752243041992;-136.81976318359375
336;1673387744.1361623;47.1287003;7.2379546999999995;68.052001953125;1673387744.1595962;-9.225821495056152;-17.8005428314209;-136.8898468017578
337;1673387744.3326483;47.128690299999995;7.237940999999999;68.45600128173828;1673387744.3531733;-9.350968360900879;-18.079442977905273;-136.93612670898438
338;1673387744.5426621;47.1286803;7.2379273;68.85900115966797;1673387744.5685835;-9.089973449707031;-18.562580108642578;-136.9289093017578
339;1673387744.7519088;47.128670299999996;7.2379136;69.26000213623047;1673387744.7719927;-8.86252498626709;-19.27526092529297;-136.98402404785156
340;1673387744.9638493;47.1286603;7.2378998;69.656005859375;1673387744.9872816;-8.860272407531738;-19.86387062072754;-136.90663146972656
341;1673387745.1527052;47.1286504;7.237885899999999;70.05400085449219;1673387745.173745;-8.909151077270508;-20.577878952026367;-136.83021545410156
342;1673387745.34081;47.1286406;7.2378721;70.45000457763672;1673387745.362285;6.851640701293945;-21.569807052612305;-138.5467071533203
343;1673387745.5298734;47.128631299999995;7.2378589;70.81700134277344;1673387745.5646977;13.595930099487305;-21.724973678588867;-137.1310577392578
344;1673387745.734356;47.128622899999996;7.2378469;71.14400482177734;1673387745.7509491;18.08748435974121;-21.125736236572266;-136.6411590576172
345;1673387745.917249;47.1286154;7.237836199999999;71.4320068359375;1673387745.9406586;22.636064529418945;-20.726131439208984;-136.42295837402344
346;1673387746.1246731;47.128609;7.2378269;71.67500305175781;1673387746.1480997;25.002473831176758;-20.45026206970215;-136.5034942626953
347;1673387746.3429346;47.1286037;7.237819;71.8810043334961;1673387746.3668966;26.204862594604492;-21.09438133239746;-137.4656982421875
348;1673387746.5549521;47.1285992;7.2378123;72.05900573730469;1673387746.577954;26.4854793548584;-22.237102508544922;-138.6553955078125
349;1673387746.7368798;47.1285956;7.2378067999999995;72.20700073242188;1673387746.7573876;25.777467727661133;-23.30682945251465;-139.8381805419922
350;1673387746.9275653;47.1285928;7.237802299999999;72.3290023803711;1673387746.951965;24.89525604248047;-14.620343208312988;-138.15997314453125
351;1673387747.106383;47.1285909;7.237798199999999;72.42900085449219;1673387747.131821;29.810089111328125;8.784711837768555;-127.1444320678711
352;1673387747.3079515;47.1285905;7.2377937999999995;72.5;1673387747.331382;24.09235954284668;9.2652587890625;-117.29962921142578
353;1673387747.5227714;47.1285913;7.2377888;72.552001953125;1673387747.5461926;21.417644500732422;6.566659927368164;-106.9505844116211
354;1673387747.7540472;47.1285929;7.2377837;72.6030044555664;1673387747.7731156;17.897676467895508;10.370457649230957;-97.53157043457031
355;1673387747.942563;47.128594899999996;7.2377781;72.64900207519531;1673387747.9650211;17.93179702758789;11.042518615722656;-88.2909927368164
356;1673387748.1421123;47.1285974;7.2377721;72.69200134277344;1673387748.170082;16.29582405090332;10.869192123413086;-79.34044647216797
357;1673387748.3204067;47.1286;7.237765899999999;72.73300170898438;1673387748.354938;14.492427825927734;11.68856143951416;-71.14562225341797
358;1673387748.5261068;47.128602799999996;7.2377593;72.77300262451172;1673387748.5466743;13.324968338012695;13.422480583190918;-62.471195220947266
359;1673387748.7313852;47.1286055;7.237752599999999;72.80900573730469;1673387748.7577448;11.905254364013672;16.30402374267578;-52.667503356933594
360;1673387748.937651;47.1286081;7.2377461;72.84000396728516;1673387748.9610858;9.525205612182617;19.83292007446289;-42.75004577636719
361;1673387749.1428027;47.1286108;7.2377395;72.87200164794922;1673387749.163295;7.708767890930176;22.41069793701172;-40.89423751831055
362;1673387749.341978;47.128613699999995;7.2377328;72.90800476074219;1673387749.3585794;-15.911216735839844;21.395673751831055;-44.75520706176758
363;1673387749.5336394;47.1286177;7.2377248;72.94900512695312;1673387749.5572052;-41.45204162597656;16.321186065673828;-44.46296691894531
364;1673387749.7293813;47.1286236;7.237713599999999;72.98700714111328;1673387749.7528052;-56.75345230102539;11.417131423950195;-43.51838684082031
365;1673387749.9699926;47.1286322;7.237697799999999;73.00100708007812;1673387749.9875982;-55.63631057739258;8.623991966247559;-44.03956985473633
366;1673387750.182167;47.1286431;7.2376776;72.99400329589844;1673387750.2047942;-53.689117431640625;8.7755765914917;-44.25092315673828
367;1673387750.371179;47.1286559;7.2376537999999995;72.9800033569336;1673387750.3902943;-53.89238357543945;8.858797073364258;-43.67295455932617
368;1673387750.5577857;47.1286704;7.237626799999999;72.96900177001953;1673387750.5789657;-55.14904022216797;9.28543472290039;-42.50672149658203
369;1673387750.733843;47.128686699999996;7.2375972;72.9540023803711;1673387750.7562916;-55.56031799316406;10.224838256835938;-42.07664489746094
370;1673387750.9288564;47.1287044;7.2375655;72.93900299072266;1673387750.9503355;-54.42353820800781;12.339930534362793;-42.766937255859375
371;1673387751.1214178;47.1287234;7.2375323;72.92200469970703;1673387751.1448436;-51.626163482666016;14.293719291687012;-43.2177734375
372;1673387751.3253953;47.1287434;7.2374982;72.89900207519531;1673387751.3499076;-51.69479751586914;14.596818923950195;-43.34767532348633
373;1673387751.5347042;47.1287642;7.2374638;72.86900329589844;1673387751.557153;-48.98035430908203;14.289994239807129;-43.876548767089844
374;1673387751.756657;47.1287856;7.2374287;72.8280029296875;1673387751.7753742;-45.64456558227539;13.693382263183594;-43.749481201171875
375;1673387751.9402096;47.1288074;7.2373932;72.78600311279297;1673387751.9587553;-44.489566802978516;13.833292961120605;-44.01362228393555
376;1673387752.1329567;47.1288294;7.237357599999999;72.7560043334961;1673387752.1573572;-44.09249496459961;13.973892211914062;-44.10478210449219
377;1673387752.336337;47.128851499999996;7.2373218999999995;72.74200439453125;1673387752.360736;-44.33563232421875;14.449804306030273;-44.15863037109375
378;1673387752.5844343;47.1288738;7.2372862;72.73700714111328;1673387752.6039388;-45.65666198730469;15.006792068481445;-44.225826263427734
379;1673387752.7717109;47.1288961;7.2372508;72.73700714111328;1673387752.7995722;-45.29680633544922;14.739977836608887;-44.050437927246094
380;1673387752.9603457;47.1289185;7.2372152;72.59500122070312;1673387752.9801378;-30.78219985961914;7.234569072723389;-39.66181182861328
381;1673387753.1481845;47.1289406;7.2371799;72.1030044555664;1673387753.1673872;6.297605037689209;-4.515959739685059;-37.64931869506836
382;1673387753.3365538;47.1289624;7.2371447;71.22100067138672;1673387753.3573234;61.619422912597656;-34.3890266418457;-57.426490783691406
383;1673387753.51996;47.1289842;7.237109599999999;69.94700622558594;1673387753.5422518;54.2078971862793;-160.650390625;-177.85733032226562
384;1673387753.7184477;47.129006;7.2370746;68.32600402832031;1673387753.742305;23.438528060913086;-176.06712341308594;167.8456573486328
385;1673387753.9275122;47.1290273;7.2370399;66.33900451660156;1673387753.9553437;19.440401077270508;-177.05877685546875;164.309326171875
386;1673387754.1454315;47.1290482;7.2370057;63.96400451660156;1673387754.170297;43.722896575927734;-172.35052490234375;164.307861328125
387;1673387754.3573487;47.1290687;7.2369717;61.246002197265625;1673387754.3795316;78.6956558227539;-31.102476119995117;-59.785579681396484
388;1673387754.548381;47.1290894;7.2369373999999995;58.17400360107422;1673387754.5704706;7.666778564453125;2.052072048187256;-33.3981819152832
389;1673387754.7564685;47.129109899999996;7.2369031999999995;54.69700241088867;1673387754.7783487;-48.611900329589844;8.611352920532227;-34.03470993041992
390;1673387754.9557412;47.129129999999996;7.2368694;50.867000579833984;1673387754.9779544;-66.4920883178711;5.863224506378174;-30.001211166381836
391;1673387755.1564853;47.1291498;7.236835699999999;46.71900177001953;1673387755.1779459;-42.37344741821289;-1.5132840871810913;-22.810531616210938
392;1673387755.398323;47.129169;7.2368026;42.21600341796875;1673387755.4185665;21.399005889892578;-3.9946255683898926;-22.586143493652344
393;1673387755.5690506;47.1291881;7.236769499999999;37.3120002746582;1673387755.59469;87.14397430419922;-10.244892120361328;-29.32047462463379
394;1673387755.7593617;47.1292075;7.236736199999999;32.08300018310547;1673387755.7806902;68.51366424560547;173.84852600097656;153.1609344482422
395;1673387755.9502988;47.129226599999996;7.2367031;26.559001922607422;1673387755.9769773;81.34378051757812;32.8816032409668;10.87017822265625
396;1673387756.1584609;47.1292458;7.236669999999999;20.72300148010254;1673387756.177416;12.1612548828125;3.8778209686279297;-17.507070541381836
397;1673387756.341281;47.129265;7.236636799999999;14.49000072479248;1673387756.3612416;-50.91756057739258;-2.609661340713501;-16.074148178100586
398;1673387756.5357099;47.1292836;7.2366038999999995;7.926000595092773;1673387756.5568712;-58.14680480957031;-7.614371299743652;-12.41800594329834
399;1673387756.7772453;47.1293016;7.2365717;1.0630000829696655;1673387756.7973697;-6.079557418823242;-1.8630588054656982;-16.747852325439453
400;1673387757.0036047;47.129314;7.2365521;0.7750000357627869;1673387757.0243638;-35.01350402832031;-22.459266662597656;-10.606698989868164
401;1673387757.1943235;47.1293266;7.2365352;1.499000072479248;1673387757.2123895;-45.4081916809082;-23.69877815246582;-6.251762866973877
402;1673387757.3886116;47.1293386;7.2365189;2.1630001068115234;1673387757.4044921;-35.827972412109375;-23.267492294311523;-10.434062957763672
403;1673387757.5613759;47.1293495;7.236503399999999;2.741000175476074;1673387757.5808737;-7.806367874145508;-22.35630989074707;-19.237998962402344
404;1673387757.7544138;47.1293605;7.236487899999999;3.251000165939331;1673387757.775466;-18.014049530029297;-23.65693473815918;-16.228408813476562
405;1673387757.951639;47.1293718;7.236470799999999;3.700000286102295;1673387757.9732797;-14.502522468566895;-25.464624404907227;-17.621397018432617
406;1673387758.149411;47.129384599999995;7.2364505999999995;4.1060004234313965;1673387758.1713023;-13.650311470031738;-25.636333465576172;-17.56813621520996
407;1673387758.3421;47.129398099999996;7.2364289;4.446000099182129;1673387758.3646388;-13.447227478027344;-25.61526870727539;-17.848079681396484
408;1673387758.5243926;47.1294123;7.2364055;4.730000019073486;1673387758.5486133;-13.309891700744629;-25.344497680664062;-18.098567962646484
409;1673387758.7212656;47.1294269;7.2363819;4.963000297546387;1673387758.7443025;-13.229085922241211;-25.044485092163086;-18.337467193603516
410;1673387758.9473867;47.129441799999995;7.2363558;5.022000312805176;1673387758.9644754;-13.173051834106445;-24.622264862060547;-18.52713394165039
411;1673387759.1185036;47.129456999999995;7.236328299999999;4.939000129699707;1673387759.1402006;-13.05095386505127;-24.2066707611084;-18.721149444580078
412;1673387759.3111758;47.1294725;7.2362994;4.873000144958496;1673387759.3373573;-12.958494186401367;-23.736831665039062;-18.927156448364258
413;1673387759.5254104;47.1294884;7.2362689;4.746000289916992;1673387759.5513759;-12.908154487609863;-23.297622680664062;-19.09698486328125
414;1673387759.7587245;47.1295046;7.2362367;4.565000057220459;1673387759.7914171;-12.77874755859375;-22.8919734954834;-19.276931762695312
415;1673387760.003293;47.1295211;7.236202899999999;4.373000144958496;1673387760.023359;-12.724706649780273;-22.441129684448242;-19.422107696533203
416;1673387760.1934526;47.129538;7.2361676;4.176000118255615;1673387760.2354624;-12.639911651611328;-21.99351692199707;-19.59088897705078
