;pos_time;latitude;longitude;altitude;alt_time;pitch;roll;yaw
0;1673376185.075201;47.1306424;7.2406204;-0.012000000104308128;1673376185.1171818;0.1965728998184204;-0.13935551047325134;89.74170684814453
1;1673376185.266684;47.1306424;7.2406204;-0.01100000087171793;1673376185.306856;0.23916547000408173;-0.23185089230537415;89.7848892211914
2;1673376185.4509928;47.1306424;7.2406204;-0.009000000543892384;1673376185.4997904;0.24728021025657654;-0.2222939282655716;89.75237274169922
3;1673376185.6523402;47.1306424;7.2406204;-0.00800000037997961;1673376185.6952996;0.0007349122897721827;-0.3243368864059448;89.8917465209961
4;1673376185.8755414;47.1306424;7.2406203;-0.00800000037997961;1673376185.9107087;-0.00876412633806467;-0.06548284739255905;89.723388671875
5;1673376186.0735357;47.1306424;7.2406203;-0.009000000543892384;1673376186.1245625;0.04658777639269829;-0.23187527060508728;89.80641174316406
6;1673376186.2821753;47.1306424;7.2406201999999995;-0.013000000268220901;1673376186.3276317;-0.01966121233999729;-0.17609186470508575;89.82279968261719
7;1673376186.4729047;47.1306424;7.2406201;-0.014000000432133675;1673376186.516022;-0.09623029828071594;-0.23307885229587555;89.82259368896484
8;1673376186.6762166;47.1306424;7.2406201;-0.01600000075995922;1673376186.7191448;-0.07941055297851562;-0.10728662461042404;89.79631042480469
9;1673376186.8765528;47.1306424;7.2406201;-0.017000000923871994;1673376186.913661;-0.1770920753479004;-0.28050968050956726;89.73323822021484
10;1673376187.0672438;47.1306424;7.2406201;-0.017000000923871994;1673376187.1092129;-0.09207738935947418;-0.28892266750335693;89.76592254638672
11;1673376187.2729719;47.1306424;7.2406201;-0.017000000923871994;1673376187.3129876;0.09387756139039993;-0.20716652274131775;89.8034896850586
12;1673376187.4739835;47.1306424;7.2406201;-0.01600000075995922;1673376187.51612;-0.11613381654024124;-0.2031955122947693;89.71930694580078
13;1673376187.670724;47.1306424;7.2406201;-0.017000000923871994;1673376187.7068605;-0.09578672051429749;-0.22153636813163757;89.68809509277344
14;1673376187.8485932;47.1306424;7.2406201;0.0;1673376187.8993325;-0.22068586945533752;-1.4456510543823242;89.77339172363281
15;1673376188.055801;47.1306424;7.2406201999999995;0.0020000000949949026;1673376188.0949924;-0.333054780960083;-0.9943351745605469;89.71780395507812
16;1673376188.2490542;47.1306424;7.2406201999999995;0.006000000052154064;1673376188.2900934;-0.2202664017677307;-1.0555267333984375;89.64652252197266
17;1673376188.4477074;47.1306424;7.2406201999999995;0.010000000707805157;1673376188.4946609;-0.34022510051727295;-1.0258028507232666;89.63213348388672
18;1673376188.6509066;47.1306424;7.2406201999999995;0.010000000707805157;1673376188.695203;-0.0038405938539654016;-0.9389503002166748;89.58506774902344
19;1673376188.8453586;47.1306424;7.2406201999999995;0.006000000052154064;1673376188.8874855;-0.3451806604862213;-1.3245266675949097;89.80422973632812
20;1673376189.050016;47.1306425;7.2406201999999995;0.0;1673376189.0999506;-0.3789796829223633;-1.015277624130249;89.9444351196289
21;1673376189.2722332;47.1306424;7.2406201999999995;-0.003000000026077032;1673376189.3142169;-0.2430664300918579;-0.5851199626922607;89.71937561035156
22;1673376189.4842157;47.1306425;7.2406201;-0.0020000000949949026;1673376189.5192006;-0.3257147967815399;-0.5765612721443176;89.95689392089844
23;1673376189.6682725;47.1306425;7.2406201;-0.0020000000949949026;1673376189.7129352;-0.46000057458877563;-0.48931968212127686;89.86082458496094
24;1673376189.872015;47.1306425;7.2406201;0.0;1673376189.9084597;-0.5242900848388672;-0.8338601589202881;90.21916961669922
25;1673376190.066223;47.1306425;7.2406201;0.0010000000474974513;1673376190.1108422;-0.7484441995620728;-0.5423865914344788;90.4261245727539
26;1673376190.264035;47.130642599999995;7.2406201;0.0020000000949949026;1673376190.303066;-0.5485143661499023;-1.0085506439208984;91.25719451904297
27;1673376190.4639964;47.130642699999996;7.2406201999999995;-0.003000000026077032;1673376190.503936;-0.8674446940422058;-1.037277340888977;91.91155242919922
28;1673376190.6541567;47.1306429;7.2406201999999995;-0.005000000353902578;1673376190.6941001;-0.8255800008773804;-0.8601932525634766;94.70138549804688
29;1673376190.84533;47.130643199999994;7.2406204;-0.009000000543892384;1673376190.8862438;-0.5321085453033447;-0.7411097884178162;99.35774230957031
30;1673376191.040577;47.130644;7.240621099999999;-0.013000000268220901;1673376191.0831828;0.22264894843101501;1.2779330015182495;110.64083862304688
31;1673376191.237918;47.1306452;7.2406226;-0.017000000923871994;1673376191.2891328;1.5936611890792847;-2.228752374649048;113.55323791503906
32;1673376191.458017;47.1306471;7.240625199999999;-0.020000001415610313;1673376191.4969254;1.775995135307312;2.592200756072998;106.34455871582031
33;1673376191.651912;47.1306496;7.2406286;-0.00800000037997961;1673376191.6940982;4.048094749450684;8.601715087890625;102.09221649169922
34;1673376191.8452914;47.130652399999995;7.2406329;0.012000000104308128;1673376191.888997;7.364597320556641;12.450165748596191;101.03435516357422
35;1673376192.041714;47.130655499999996;7.2406377;0.036000002175569534;1673376192.0884788;9.031684875488281;13.570876121520996;100.33047485351562
36;1673376192.2501411;47.1306587;7.2406429;0.06100000441074371;1673376192.2901063;10.686408042907715;14.954249382019043;99.84486389160156
37;1673376192.4429967;47.1306619;7.240648299999999;0.09100000560283661;1673376192.4871218;12.087766647338867;16.819618225097656;99.53087615966797
38;1673376192.6551535;47.130665;7.240653699999999;0.1210000067949295;1673376192.696261;13.649965286254883;17.8565616607666;99.22210693359375
39;1673376192.8523018;47.130668;7.240659099999999;0.1469999998807907;1673376192.8962352;15.27653694152832;19.008750915527344;98.92003631591797
40;1673376193.0568085;47.1306708;7.240664199999999;0.17500001192092896;1673376193.0999243;16.943510055541992;20.556873321533203;98.61943817138672
41;1673376193.2622006;47.1306734;7.240668899999999;0.20600001513957977;1673376193.306119;18.634504318237305;21.857419967651367;98.36209869384766
42;1673376193.4642177;47.1306756;7.2406732;0.23900000751018524;1673376193.507308;20.487882614135742;22.99134063720703;98.05811309814453
43;1673376193.6528783;47.1306775;7.2406768999999995;0.27400001883506775;1673376193.6939802;22.30906867980957;24.4200439453125;97.73370361328125
44;1673376193.863668;47.130679099999995;7.2406799;0.3140000104904175;1673376193.8940866;24.19679069519043;25.443511962890625;97.37088775634766
45;1673376194.0504825;47.1306802;7.240682;0.35500001907348633;1673376194.0974052;26.107921600341797;26.872400283813477;96.99076843261719
46;1673376194.262326;47.1306808;7.2406833;0.4000000059604645;1673376194.303328;28.182720184326172;28.097932815551758;96.43387603759766
47;1673376194.4593642;47.1306808;7.2406836;0.4490000307559967;1673376194.5001116;30.344745635986328;29.055404663085938;95.85384368896484
48;1673376194.6632397;47.130680299999995;7.240683;0.49800002574920654;1673376194.7062063;32.6199951171875;30.094350814819336;95.12409210205078
49;1673376194.8635373;47.130679199999996;7.240681299999999;0.5490000247955322;1673376194.9035523;35.031402587890625;31.025182723999023;94.31742858886719
50;1673376195.0608401;47.130677299999995;7.240678399999999;0.6010000109672546;1673376195.0989714;37.640602111816406;31.613037109375;93.23355865478516
51;1673376195.2767737;47.1306747;7.2406742;0.6580000519752502;1673376195.3207;40.31432342529297;32.17390441894531;92.2125244140625
52;1673376195.4776523;47.1306714;7.240668599999999;0.7170000076293945;1673376195.5147147;38.501121520996094;29.613998413085938;90.15367126464844
53;1673376195.6602607;47.1306675;7.2406621;0.7670000195503235;1673376195.7041898;34.31997299194336;25.578479766845703;88.21052551269531
54;1673376195.8789847;47.130663299999995;7.2406552;0.815000057220459;1673376195.9220355;29.61474609375;21.66360855102539;86.91355895996094
55;1673376196.1041014;47.130659099999995;7.240648299999999;0.8570000529289246;1673376196.145382;24.049283981323242;17.96670150756836;86.22113037109375
56;1673376196.295566;47.1306553;7.240641999999999;0.8910000324249268;1673376196.3324802;19.35222625732422;14.997359275817871;86.07273864746094
57;1673376196.4939897;47.130652;7.2406365;0.9190000295639038;1673376196.5359702;15.951752662658691;13.101790428161621;86.19883728027344
58;1673376196.6826618;47.1306495;7.240632199999999;0.9450000524520874;1673376196.7236528;14.512750625610352;12.776861190795898;86.54557800292969
59;1673376196.8877919;47.130647599999996;7.240628999999999;0.9700000286102295;1673376196.9278493;14.455799102783203;13.064127922058105;86.79772186279297
60;1673376197.0725496;47.130646299999995;7.2406269;0.999000072479248;1673376197.1106136;15.533066749572754;13.655725479125977;87.22154235839844
61;1673376197.26285;47.1306454;7.2406257;1.034000039100647;1673376197.3038864;17.319625854492188;15.640280723571777;87.90699005126953
62;1673376197.461203;47.1306449;7.2406251;1.0850000381469727;1673376197.5012305;19.32110595703125;17.02261734008789;88.31742095947266
63;1673376197.6530187;47.1306446;7.240624899999999;1.152000069618225;1673376197.697915;20.856124877929688;15.915651321411133;87.9524917602539
64;1673376197.8699489;47.130644499999995;7.240624899999999;1.2310000658035278;1673376197.910017;22.225711822509766;18.324600219726562;88.27376556396484
65;1673376198.0564723;47.1306446;7.2406248;1.3230000734329224;1673376198.096496;23.034507751464844;19.81160545349121;88.45899200439453
66;1673376198.2469425;47.130644499999995;7.2406247;1.4260001182556152;1673376198.2870054;23.497608184814453;18.13099479675293;87.89044952392578
67;1673376198.4443483;47.1306444;7.2406244;1.537000060081482;1673376198.4916208;23.589521408081055;19.38763427734375;87.87779998779297
68;1673376198.6623068;47.1306442;7.2406239999999995;1.659000039100647;1673376198.7027946;23.697254180908203;19.816436767578125;86.4098892211914
69;1673376198.870571;47.130644;7.2406234;1.7930001020431519;1673376198.9135265;23.087053298950195;17.70708656311035;85.81780242919922
70;1673376199.0661514;47.1306438;7.2406228;1.936000108718872;1673376199.106199;22.641983032226562;18.635272979736328;85.80680084228516
71;1673376199.2528543;47.1306435;7.2406220999999995;2.0930001735687256;1673376199.2951002;21.92698860168457;19.459930419921875;85.99066162109375
72;1673376199.4666908;47.130643199999994;7.2406215;2.259000062942505;1673376199.5106747;21.196857452392578;16.98556900024414;85.49811553955078
73;1673376199.6710181;47.1306429;7.2406209;2.436000108718872;1673376199.7139657;20.892499923706055;17.479036331176758;85.61529541015625
74;1673376199.862459;47.130642699999996;7.2406206;2.617000102996826;1673376199.9024744;20.72970199584961;18.866622924804688;86.1659164428711
75;1673376200.0435736;47.130642599999995;7.2406203;2.8010001182556152;1673376200.0880284;20.532093048095703;16.378982543945312;85.7201156616211
76;1673376200.2601757;47.1306425;7.2406201;2.9840002059936523;1673376200.2983441;20.734447479248047;17.134614944458008;85.86945343017578
77;1673376200.4958024;47.1306425;7.2406201;3.1680002212524414;1673376200.5349371;20.935850143432617;18.971830368041992;86.25662994384766
78;1673376200.700494;47.1306424;7.2406201999999995;3.3550002574920654;1673376200.7405112;21.24592399597168;16.659503936767578;85.80284881591797
79;1673376200.8999207;47.1306424;7.2406203;3.5450000762939453;1673376200.940917;21.455663681030273;16.997140884399414;85.79330444335938
80;1673376201.0844922;47.1306425;7.2406204;3.739000082015991;1673376201.1313407;21.81594467163086;19.378969192504883;86.28469848632812
81;1673376201.3064353;47.130642599999995;7.2406204999999995;3.938000202178955;1673376201.349923;21.950775146484375;17.41067123413086;85.77234649658203
82;1673376201.5008707;47.130642699999996;7.2406204999999995;4.135000228881836;1673376201.53992;22.01165199279785;17.55693817138672;85.77580261230469
83;1673376201.707973;47.130642699999996;7.2406206;4.328000068664551;1673376201.7504973;22.08522605895996;19.561391830444336;86.23663330078125
84;1673376201.911482;47.130642699999996;7.2406204999999995;4.519999980926514;1673376201.9475882;21.942943572998047;17.304906845092773;85.83980560302734
85;1673376202.103999;47.130642699999996;7.2406204999999995;4.709000110626221;1673376202.1430573;21.76786231994629;17.43866729736328;85.81806945800781
86;1673376202.303442;47.130642699999996;7.2406204999999995;4.901000022888184;1673376202.3711307;21.787893295288086;19.448150634765625;86.34541320800781
87;1673376202.510403;47.1306428;7.2406204;5.095000267028809;1673376202.5902758;21.82740592956543;17.55089569091797;85.91387176513672
88;1673376202.744738;47.1306429;7.2406204;5.2910003662109375;1673376202.7804744;21.859046936035156;17.640661239624023;85.78388214111328
89;1673376202.9193792;47.1306429;7.2406204;5.4830002784729;1673376202.954131;21.813074111938477;19.722917556762695;86.25582122802734
90;1673376203.0991733;47.1306429;7.2406204;5.673000335693359;1673376203.138387;21.781389236450195;17.915861129760742;85.93009948730469
91;1673376203.275371;47.1306429;7.2406203;5.863000392913818;1673376203.3163652;21.739011764526367;17.186708450317383;85.74220275878906
92;1673376203.4847639;47.1306429;7.2406203;6.054000377655029;1673376203.5306356;21.74352264404297;19.584209442138672;86.23263549804688
93;1673376203.6880517;47.1306429;7.2406203;6.247000217437744;1673376203.734901;21.604169845581055;17.7298526763916;85.75138092041016
94;1673376203.8954773;47.1306428;7.2406201999999995;6.441000461578369;1673376203.9413748;21.670961380004883;17.277240753173828;85.71089935302734
95;1673376204.0917857;47.1306428;7.2406201999999995;6.631000518798828;1673376204.1366668;21.674697875976562;19.517059326171875;86.26615905761719
96;1673376204.2922208;47.1306428;7.2406201999999995;6.822000503540039;1673376204.3363028;21.714214324951172;18.075742721557617;85.96410369873047
97;1673376204.4953504;47.1306428;7.2406201999999995;7.014000415802002;1673376204.5324383;21.801477432250977;17.168424606323242;85.74967956542969
98;1673376204.6817513;47.1306428;7.2406201999999995;7.208000183105469;1673376204.7256896;21.58504867553711;19.67966079711914;86.26187896728516
99;1673376204.8887804;47.1306428;7.2406201999999995;7.403000354766846;1673376204.9278634;21.827960968017578;17.680599212646484;85.86865997314453
100;1673376205.0745957;47.130642699999996;7.2406201999999995;7.603000164031982;1673376205.119591;21.830217361450195;17.215354919433594;85.65865325927734
101;1673376205.2652814;47.130642699999996;7.2406201999999995;7.803000450134277;1673376205.306433;21.79987335205078;19.371978759765625;86.17950439453125
102;1673376205.4595008;47.130642599999995;7.2406201999999995;8.00100040435791;1673376205.512349;21.719663619995117;17.658369064331055;85.94788360595703
103;1673376205.6721559;47.130642599999995;7.2406201999999995;8.197999954223633;1673376205.719055;21.78985023498535;17.145605087280273;85.74402618408203
104;1673376205.8748362;47.130642699999996;7.2406201;8.393000602722168;1673376205.9207098;21.7620906829834;19.302995681762695;86.1786117553711
105;1673376206.0947545;47.130642699999996;7.2406201999999995;8.589000701904297;1673376206.133795;21.750125885009766;18.149295806884766;85.96471405029297
106;1673376206.2823157;47.130642699999996;7.2406201;8.789999961853027;1673376206.334172;21.687480926513672;17.35757827758789;85.74885559082031
107;1673376206.515685;47.130642699999996;7.2406201;8.991000175476074;1673376206.5572426;21.73460578918457;19.313173294067383;86.19489288330078
108;1673376206.7014008;47.130642599999995;7.2406201;9.192000389099121;1673376206.7365396;21.688522338867188;17.92423439025879;85.95259857177734
109;1673376206.8762517;47.130642699999996;7.24062;9.393000602722168;1673376206.9251134;21.64333724975586;17.008136749267578;85.73226165771484
110;1673376207.0805557;47.130642699999996;7.24062;9.592000007629395;1673376207.1216326;21.578575134277344;19.480735778808594;86.31039428710938
111;1673376207.279886;47.130642699999996;7.24062;9.795000076293945;1673376207.3229344;21.661231994628906;18.146303176879883;85.92485046386719
112;1673376207.4775305;47.130642699999996;7.2406201;9.997000694274902;1673376207.54303;21.803924560546875;17.216447830200195;85.71915435791016
113;1673376207.717806;47.130642699999996;7.2406201;10.212000846862793;1673376207.7622693;21.340425491333008;17.959779739379883;85.9278793334961
114;1673376207.9218965;47.130642599999995;7.240619799999999;10.53700065612793;1673376207.958556;21.387266159057617;18.063941955566406;86.11884307861328
115;1673376208.0996454;47.1306424;7.240619499999999;10.934000968933105;1673376208.1376994;21.972732543945312;18.299348831176758;85.71061706542969
116;1673376208.3096163;47.1306422;7.2406191;11.339000701904297;1673376208.358966;20.685115814208984;18.579282760620117;86.12425994873047
117;1673376208.5166569;47.1306419;7.2406187;11.745000839233398;1673376208.5557034;20.21154022216797;17.364748001098633;86.03661346435547
118;1673376208.7051325;47.1306416;7.2406185;12.154000282287598;1673376208.7480776;19.904611587524414;15.545079231262207;85.81201934814453
119;1673376208.9180467;47.130641499999996;7.2406182999999995;12.566000938415527;1673376208.9561074;19.734331130981445;17.150115966796875;86.13282775878906
120;1673376209.1547198;47.1306416;7.2406182999999995;12.97900104522705;1673376209.1909707;19.90597152709961;17.165180206298828;86.11292266845703
121;1673376209.3272235;47.1306417;7.2406184;13.392000198364258;1673376209.3658228;20.079376220703125;15.7358980178833;85.78968811035156
122;1673376209.5145092;47.1306418;7.2406185;13.803000450134277;1673376209.5574636;20.30093002319336;18.023944854736328;86.16061401367188
123;1673376209.7109697;47.1306419;7.2406187;14.208001136779785;1673376209.7500658;20.749784469604492;17.85390853881836;86.1081771850586
124;1673376209.914044;47.130641999999995;7.240618899999999;14.612000465393066;1673376209.9530861;20.817480087280273;16.594728469848633;85.76253509521484
125;1673376210.0947893;47.1306422;7.240619;15.019001007080078;1673376210.130917;21.184831619262695;18.451330184936523;86.03661346435547
126;1673376210.2777638;47.1306423;7.240619199999999;15.428000450134277;1673376210.319718;21.104686737060547;18.47425079345703;86.09516143798828
127;1673376210.4877987;47.1306424;7.2406193;15.837000846862793;1673376210.5395837;21.351104736328125;16.855648040771484;85.7354965209961
128;1673376210.70096;47.1306425;7.2406193;16.243000030517578;1673376210.7439523;21.127473831176758;18.525056838989258;85.9734115600586
129;1673376210.8984175;47.130642599999995;7.2406193;16.647001266479492;1673376210.9365487;21.053146362304688;18.660327911376953;86.1376724243164
130;1673376211.0884287;47.1306425;7.2406194;17.04400062561035;1673376211.134391;21.082616806030273;16.9853458404541;85.77474975585938
131;1673376211.3444862;47.1306425;7.2406194;17.446001052856445;1673376211.3826241;21.16082191467285;18.158855438232422;85.92903137207031
132;1673376211.5626256;47.1306425;7.2406193;17.84800148010254;1673376211.5988889;20.76792335510254;18.696426391601562;86.1474838256836
133;1673376211.7381487;47.130642599999995;7.2406193;18.25400161743164;1673376211.7748277;20.8394718170166;16.946552276611328;85.7156753540039
134;1673376211.9364123;47.130642599999995;7.2406193;18.660001754760742;1673376211.975037;20.868915557861328;18.19209098815918;85.88774871826172
135;1673376212.116199;47.130642599999995;7.2406193;19.06300163269043;1673376212.1474447;20.798404693603516;18.81444549560547;86.17623138427734
136;1673376212.2793145;47.130642599999995;7.2406194;19.455001831054688;1673376212.3183546;20.63187026977539;16.75296401977539;85.74327087402344
137;1673376212.4639416;47.1306425;7.240619499999999;19.84600067138672;1673376212.508884;21.020084381103516;17.707128524780273;85.95291137695312
138;1673376212.6811075;47.1306425;7.2406196;20.23900032043457;1673376212.7280326;20.99634552001953;18.719745635986328;86.15341186523438
139;1673376212.8968387;47.130642599999995;7.2406196;20.632001876831055;1673376212.9388285;20.946115493774414;16.888408660888672;85.7556381225586
140;1673376213.0843759;47.130642599999995;7.2406196;21.025001525878906;1673376213.126343;21.068115234375;17.76224708557129;85.89196014404297
141;1673376213.2866833;47.130642599999995;7.2406197;21.420000076293945;1673376213.330731;20.98392677307129;18.9360408782959;86.17874908447266
142;1673376213.5004656;47.130642599999995;7.2406197;21.814001083374023;1673376213.5431259;21.0933780670166;17.101369857788086;85.81173706054688
143;1673376213.7079382;47.130642599999995;7.2406197;22.203001022338867;1673376213.7499037;21.020681381225586;17.585126876831055;85.80076599121094
144;1673376213.8998375;47.130642599999995;7.2406197;22.59400177001953;1673376213.9420016;20.852766036987305;18.979021072387695;86.20710754394531
145;1673376214.1324446;47.130642599999995;7.2406197;22.992000579833984;1673376214.173724;20.81925392150879;17.084138870239258;85.76273345947266
146;1673376214.3239505;47.1306425;7.2406197;23.392000198364258;1673376214.3629992;20.95907211303711;17.685317993164062;85.89265441894531
147;1673376214.5392966;47.1306425;7.2406197;23.791000366210938;1673376214.5759451;20.853281021118164;18.78577423095703;86.0557632446289
148;1673376214.7190077;47.1306425;7.2406197;24.18800163269043;1673376214.76022;20.835634231567383;17.030433654785156;85.76509857177734
149;1673376214.9029825;47.1306425;7.240619799999999;24.580001831054688;1673376214.938118;20.829288482666016;17.331933975219727;85.84623718261719
150;1673376215.0925949;47.1306425;7.240619799999999;24.976001739501953;1673376215.131639;20.815303802490234;18.897178649902344;86.25653839111328
151;1673376215.2804446;47.1306425;7.240619799999999;25.37700080871582;1673376215.3243778;20.9427547454834;16.817625045776367;85.78102111816406
152;1673376215.4739628;47.1306425;7.2406198999999996;25.780000686645508;1673376215.5139797;20.912738800048828;17.656442642211914;85.8960189819336
153;1673376215.6719518;47.1306425;7.2406198999999996;26.179000854492188;1673376215.715448;21.016273498535156;18.605937957763672;86.15302276611328
154;1673376215.871459;47.1306425;7.2406198999999996;26.578001022338867;1673376215.9144385;20.8557186126709;17.08098030090332;85.89602661132812
155;1673376216.0728812;47.1306425;7.24062;26.977001190185547;1673376216.1187744;20.939664840698242;17.342575073242188;85.75888061523438
156;1673376216.2759824;47.1306425;7.24062;27.369001388549805;1673376216.3180213;20.91576385498047;19.025556564331055;86.18115234375
157;1673376216.4786386;47.130642599999995;7.24062;27.764001846313477;1673376216.5235384;20.86461639404297;17.199865341186523;85.8265609741211
158;1673376216.6828434;47.130642599999995;7.24062;28.16200065612793;1673376216.7257998;20.910200119018555;17.636802673339844;85.83854675292969
159;1673376216.887092;47.130642599999995;7.24062;28.56300163269043;1673376216.935056;20.94318962097168;18.911693572998047;86.06774139404297
160;1673376217.0887625;47.130642599999995;7.24062;28.963001251220703;1673376217.1278656;20.833066940307617;17.35956382751465;85.8423843383789
161;1673376217.282377;47.130642599999995;7.24062;29.363000869750977;1673376217.3263483;20.89626693725586;17.302629470825195;85.84589385986328
162;1673376217.4867127;47.130642599999995;7.24062;29.755001068115234;1673376217.529669;20.8338623046875;19.115917205810547;86.21573638916016
163;1673376217.6920254;47.130642599999995;7.2406201;30.1460018157959;1673376217.7320418;20.89239501953125;17.275888442993164;85.84120178222656
164;1673376217.8836167;47.130642599999995;7.2406201;30.540000915527344;1673376217.9228683;20.95374298095703;17.46073341369629;85.85435485839844
165;1673376218.0886855;47.1306425;7.2406201;30.935001373291016;1673376218.1317189;21.025123596191406;18.800573348999023;86.20503234863281
166;1673376218.2880993;47.130642599999995;7.2406201999999995;31.334001541137695;1673376218.32788;21.034194946289062;17.524215698242188;85.99651336669922
167;1673376218.4860759;47.130642599999995;7.2406201999999995;31.733001708984375;1673376218.529019;21.09716796875;17.109935760498047;85.78739929199219
168;1673376218.7717924;47.130642599999995;7.2406201999999995;32.134002685546875;1673376218.8069732;20.88797950744629;19.261919021606445;86.2317886352539
169;1673376218.9402637;47.130642599999995;7.2406201;32.52799987792969;1673376218.9759574;20.829343795776367;17.422151565551758;85.90965270996094
170;1673376219.120129;47.1306425;7.2406201;32.92300033569336;1673376219.1536784;20.870656967163086;17.025062561035156;85.72404479980469
171;1673376219.294859;47.1306425;7.24062;33.32200241088867;1673376219.3358643;20.90730094909668;18.79294776916504;86.09129333496094
172;1673376219.4832106;47.1306425;7.24062;33.72200012207031;1673376219.5225952;20.749160766601562;17.73638916015625;85.92762756347656
173;1673376219.6783128;47.1306425;7.24062;34.12300109863281;1673376219.7281208;20.796419143676758;16.825960159301758;85.81783294677734
174;1673376219.892563;47.1306425;7.2406198999999996;34.52400207519531;1673376219.9364839;20.846271514892578;18.996278762817383;86.1854248046875
175;1673376220.0900533;47.1306425;7.2406198999999996;34.91600036621094;1673376220.1339755;20.779273986816406;17.59296989440918;85.89602661132812
176;1673376220.2941391;47.1306425;7.2406198999999996;35.307003021240234;1673376220.3385375;20.84676742553711;16.99148941040039;85.73619842529297
177;1673376220.5040073;47.1306424;7.2406198999999996;35.702003479003906;1673376220.5453384;20.728435516357422;18.49251365661621;86.13977813720703
178;1673376220.707856;47.1306425;7.2406198999999996;36.10100173950195;1673376220.7360637;20.807477951049805;18.088314056396484;86.1033935546875
179;1673376220.9423234;47.1306425;7.2406198999999996;36.5;1673376220.9790332;20.810375213623047;16.855878829956055;85.7414779663086
180;1673376221.1193166;47.1306425;7.2406198999999996;36.89800262451172;1673376221.1681921;21.001113891601562;18.78049659729004;86.07788848876953
181;1673376221.3502562;47.1306425;7.2406198999999996;37.297000885009766;1673376221.4094188;20.755598068237305;18.22296905517578;86.0068130493164
182;1673376221.5538654;47.1306425;7.2406198999999996;37.689002990722656;1673376221.5896022;20.93753433227539;16.863739013671875;85.72996520996094
183;1673376221.7386622;47.1306425;7.2406198999999996;38.08400344848633;1673376221.7767308;20.847122192382812;18.318645477294922;85.98361206054688
184;1673376221.9272945;47.1306425;7.2406198999999996;38.483001708984375;1673376221.9702637;20.765840530395508;18.52437400817871;86.08121490478516
185;1673376222.118914;47.1306425;7.2406198999999996;38.88100051879883;1673376222.1600354;20.78258514404297;16.620519638061523;85.6506576538086
186;1673376222.306034;47.130642599999995;7.240619799999999;39.277000427246094;1673376222.3414674;20.71833038330078;18.61000633239746;86.01205444335938
187;1673376222.493406;47.130642599999995;7.240619799999999;39.67500305175781;1673376222.5319986;20.62734603881836;18.346132278442383;86.07566833496094
188;1673376222.691808;47.130642599999995;7.240619799999999;40.066001892089844;1673376222.7513437;20.621238708496094;17.007902145385742;85.80957794189453
189;1673376222.9076662;47.1306425;7.240619799999999;40.457000732421875;1673376222.9496791;20.830808639526367;17.8121337890625;85.88111114501953
190;1673376223.0913258;47.130642599999995;7.240619799999999;40.85300064086914;1673376223.134295;20.633617401123047;18.943988800048828;86.26664733886719
191;1673376223.2935207;47.130642599999995;7.240619799999999;41.25100326538086;1673376223.3355386;20.770164489746094;16.697893142700195;85.70230102539062
192;1673376223.5261664;47.130642599999995;7.240619799999999;41.64800262451172;1673376223.5624223;20.666852951049805;18.394651412963867;85.95826721191406
193;1673376223.703605;47.130642599999995;7.240619799999999;42.044002532958984;1673376223.7426426;20.819786071777344;18.728071212768555;86.13825988769531
194;1673376223.8930614;47.130642699999996;7.240619799999999;42.439002990722656;1673376223.934054;20.767000198364258;16.7662353515625;85.7109146118164
195;1673376224.0806708;47.130642699999996;7.240619799999999;42.827003479003906;1673376224.1206942;20.757400512695312;17.883373260498047;85.80937957763672
196;1673376224.2957313;47.130642699999996;7.240619799999999;43.21600341796875;1673376224.3380015;20.718164443969727;19.075223922729492;86.16818237304688
197;1673376224.494396;47.130642699999996;7.2406198999999996;43.61000061035156;1673376224.5558834;20.683639526367188;17.167999267578125;85.74756622314453
198;1673376224.7095711;47.130642699999996;7.2406198999999996;44.00400161743164;1673376224.7534742;20.986083984375;17.929779052734375;85.91592407226562
199;1673376224.9753773;47.130642699999996;7.240619799999999;44.4010009765625;1673376225.0102367;20.7299747467041;18.9621524810791;86.05072021484375
200;1673376225.1466656;47.130642699999996;7.240619799999999;44.80000305175781;1673376225.1921697;20.63969612121582;17.2315731048584;85.83543395996094
201;1673376225.3394272;47.130642699999996;7.240619799999999;45.191001892089844;1673376225.3800952;20.821643829345703;17.77307891845703;85.89558410644531
202;1673376225.5200286;47.130642699999996;7.2406198999999996;45.58000183105469;1673376225.5629742;20.727664947509766;19.272764205932617;86.27115631103516
203;1673376225.7234118;47.130642699999996;7.2406198999999996;45.96800231933594;1673376225.7722502;20.73102569580078;17.393306732177734;85.79851531982422
204;1673376225.931593;47.130642699999996;7.2406198999999996;46.36000061035156;1673376225.975523;20.784547805786133;17.76592254638672;85.71644592285156
205;1673376226.1357877;47.130642599999995;7.2406198999999996;46.75300216674805;1673376226.1769114;20.794023513793945;18.833606719970703;86.12857818603516
206;1673376226.3300142;47.1306425;7.2406198999999996;47.147003173828125;1673376226.3681946;20.717761993408203;17.083402633666992;85.8228988647461
207;1673376226.5275164;47.1306425;7.2406198999999996;47.54100036621094;1673376226.5626674;20.714004516601562;17.747468948364258;85.92028045654297
208;1673376226.726836;47.1306425;7.2406198999999996;47.93000411987305;1673376226.7659922;20.77639389038086;19.23247718811035;86.29448699951172
209;1673376226.9195569;47.1306425;7.24062;48.297000885009766;1673376227.0103528;20.938884735107422;17.180553436279297;85.84649658203125
210;1673376227.153097;47.1306425;7.2406201;48.6140022277832;1673376227.2114036;20.966182708740234;18.283884048461914;86.18022918701172
211;1673376227.3594375;47.130642599999995;7.2406203;48.88300323486328;1673376227.3980575;21.13164710998535;19.06041145324707;86.2220687866211
212;1673376227.5520532;47.130642699999996;7.2406206;49.10900115966797;1673376227.5862381;21.539995193481445;17.325450897216797;85.81449890136719
213;1673376227.7593997;47.1306429;7.2406209;49.298004150390625;1673376227.795033;23.82184410095215;20.0218563079834;86.81948852539062
214;1673376227.9985967;47.1306429;7.240621;49.46000289916992;1673376228.0513644;35.288848876953125;34.11112976074219;97.01559448242188
215;1673376228.1837494;47.1306423;7.240619799999999;49.60700225830078;1673376228.2174919;39.11948776245117;48.39897918701172;108.80311584472656
216;1673376228.3420043;47.130640299999996;7.2406158;49.733001708984375;1673376228.373229;36.12751007080078;56.583683013916016;117.1592788696289
217;1673376228.5110977;47.1306368;7.2406090999999995;49.80800247192383;1673376228.554072;18.167966842651367;53.268470764160156;124.59642791748047
218;1673376228.699632;47.130632399999996;7.2406006;49.829002380371094;1673376228.7445898;1.7301841974258423;46.392242431640625;136.76148986816406
219;1673376228.899421;47.1306278;7.240591299999999;49.83000183105469;1673376228.9502513;-9.282879829406738;42.74898147583008;147.5118408203125
220;1673376229.0975132;47.1306229;7.240581499999999;49.827003479003906;1673376229.1346054;-20.9449520111084;40.89849853515625;156.864501953125
221;1673376229.286955;47.130617699999995;7.2405716;49.82500076293945;1673376229.328985;-33.015995025634766;40.52663040161133;166.1589813232422
222;1673376229.4867904;47.1306119;7.240561199999999;49.83100128173828;1673376229.535691;-43.1430549621582;35.70553970336914;179.06703186035156
223;1673376229.6891031;47.130605499999994;7.2405497;49.83100128173828;1673376229.7359989;-51.26511764526367;29.704334259033203;-168.08241271972656
224;1673376229.905849;47.1305985;7.2405371999999995;49.803001403808594;1673376229.9439855;-47.30540084838867;21.847084045410156;-160.32106018066406
225;1673376230.1097994;47.1305912;7.2405238999999995;49.75600051879883;1673376230.1499765;-45.29928970336914;15.728707313537598;-154.9480438232422
226;1673376230.322862;47.1305839;7.2405104;49.7130012512207;1673376230.3706853;-45.44993591308594;10.340187072753906;-148.44154357910156
227;1673376230.527487;47.130576399999995;7.2404969999999995;49.682003021240234;1673376230.5627193;-46.62008285522461;5.80767822265625;-141.3076171875
228;1673376230.7035737;47.1305688;7.2404835;49.66800308227539;1673376230.7438006;-47.453330993652344;1.744519829750061;-134.798828125
229;1673376230.8995736;47.1305611;7.2404699;49.6670036315918;1673376230.9435265;-48.748294830322266;-5.716386795043945;-130.77792358398438
230;1673376231.1042209;47.1305532;7.240456399999999;49.665000915527344;1673376231.1442711;-47.74188995361328;-6.665299415588379;-133.85821533203125
231;1673376231.3028252;47.1305449;7.2404433;49.66400146484375;1673376231.3506913;-47.1275634765625;-5.472300052642822;-136.44871520996094
232;1673376231.521901;47.130536199999995;7.2404307;49.672000885009766;1673376231.5638685;-47.60194778442383;-4.493278980255127;-137.47494506835938
233;1673376231.7180398;47.130527199999996;7.2404186;49.689002990722656;1673376231.7572646;-48.31013107299805;-3.227940082550049;-138.1572265625
234;1673376231.9079556;47.1305177;7.2404068;49.7030029296875;1673376231.9548595;-48.681793212890625;-1.9822516441345215;-138.76683044433594
235;1673376232.113361;47.1305079;7.240395299999999;49.72500228881836;1673376232.1554358;-48.86878204345703;-1.3728896379470825;-139.11354064941406
236;1673376232.3183773;47.130497999999996;7.240383899999999;49.75200271606445;1673376232.3702068;-49.54149627685547;0.8127170205116272;-139.63983154296875
237;1673376232.524804;47.1304878;7.240372499999999;49.7760009765625;1673376232.5648828;-49.701480865478516;1.0997439622879028;-139.37353515625
238;1673376232.7278256;47.1304776;7.2403607999999995;49.79500198364258;1673376232.7709043;-48.85734558105469;0.5072077512741089;-138.87710571289062
239;1673376232.9632466;47.1304673;7.240348999999999;49.81200408935547;1673376233.0028462;-48.398719787597656;0.20654399693012238;-138.55569458007812
240;1673376233.20304;47.1304569;7.2403372;49.81500244140625;1673376233.2583647;-48.21686553955078;0.13464206457138062;-138.36700439453125
241;1673376233.4071097;47.1304466;7.240325299999999;49.81900405883789;1673376233.4393826;-47.84848403930664;0.11768356710672379;-138.2233123779297
242;1673376233.5554125;47.1304362;7.2403132999999995;49.82500076293945;1673376233.5915892;-47.856773376464844;0.06160402670502663;-138.02450561523438
243;1673376233.7358344;47.1304258;7.2403013;49.83000183105469;1673376233.7770185;-48.023136138916016;0.11242040991783142;-137.9390411376953
244;1673376233.9335122;47.1304155;7.240289199999999;49.8380012512207;1673376233.9755182;-48.21952438354492;0.11206676065921783;-137.78366088867188
245;1673376234.143335;47.1304053;7.240277;49.845001220703125;1673376234.1873002;-48.3725471496582;0.05769502371549606;-137.63243103027344
246;1673376234.3649528;47.130395;7.240264799999999;49.84800338745117;1673376234.4075947;-48.33353805541992;0.13388264179229736;-137.56173706054688
247;1673376234.546062;47.1303847;7.2402526;49.84100341796875;1673376234.5860875;-47.98959732055664;0.1765579730272293;-137.44139099121094
248;1673376234.7305164;47.130374499999995;7.2402402;49.83500289916992;1673376234.7748964;-47.4849739074707;0.08509774506092072;-137.3055419921875
249;1673376234.9287908;47.1303643;7.2402277999999995;49.83500289916992;1673376234.9707494;-47.71553421020508;0.1884007751941681;-137.28366088867188
250;1673376235.1250343;47.1303542;7.2402155;49.83500289916992;1673376235.1650515;-48.22697830200195;0.11761961132287979;-137.13095092773438
251;1673376235.3174436;47.130344199999996;7.240202999999999;49.83500289916992;1673376235.3584378;-48.35200500488281;0.14976683259010315;-137.0854034423828
252;1673376235.5148401;47.1303341;7.2401906;49.83500289916992;1673376235.5587447;-48.09272003173828;0.21093112230300903;-137.0138397216797
253;1673376235.7218697;47.130323999999995;7.240177999999999;49.82600402832031;1673376235.7667491;-47.819374084472656;0.23616383969783783;-136.97784423828125
254;1673376235.9191365;47.130314;7.240165299999999;49.81900405883789;1673376235.9610984;-47.50883102416992;0.19264264404773712;-136.9085235595703
255;1673376236.112507;47.130303999999995;7.240152699999999;49.81500244140625;1673376236.1544745;-47.67062759399414;0.24822960793972015;-136.8629608154297
256;1673376236.3098161;47.1302941;7.240139999999999;49.814002990722656;1673376236.349823;-47.931819915771484;0.28184986114501953;-136.81077575683594
257;1673376236.5121057;47.1302842;7.240127299999999;49.81700134277344;1673376236.5550497;-48.18178939819336;0.30722808837890625;-136.7895965576172
258;1673376236.7181284;47.130274299999996;7.2401145;49.81800079345703;1673376236.7591217;-48.230098724365234;0.2683470845222473;-136.76097106933594
259;1673376236.9420013;47.130264399999994;7.2401016;49.81900405883789;1673376236.9810836;-48.0893669128418;0.30175456404685974;-136.71490478515625
260;1673376237.1946695;47.1302546;7.240088699999999;49.814002990722656;1673376237.232763;-47.77953338623047;0.29433098435401917;-136.69635009765625
261;1673376237.367598;47.1302447;7.240075699999999;49.81100082397461;1673376237.4025264;-47.632598876953125;0.3119925856590271;-136.66888427734375
262;1673376237.5526109;47.1302349;7.2400628;49.81200408935547;1673376237.5888376;-47.90835952758789;0.35609373450279236;-136.66897583007812
263;1673376237.7312279;47.1302251;7.2400499;49.81200408935547;1673376237.7800596;-48.09772872924805;0.4048931896686554;-136.66517639160156
264;1673376237.928542;47.1302154;7.2400369;49.81300354003906;1673376237.9695446;-48.084171295166016;0.45047998428344727;-136.68016052246094
265;1673376238.1190448;47.1302056;7.2400237999999995;49.81700134277344;1673376238.1610138;-48.033504486083984;0.43904852867126465;-136.65570068359375
266;1673376238.324933;47.130195799999996;7.2400107;49.81800079345703;1673376238.3671036;-48.07112503051758;0.49401363730430603;-136.6695098876953
267;1673376238.5432813;47.130185999999995;7.2399976;49.82100296020508;1673376238.5863729;-48.086082458496094;0.4523218274116516;-136.619873046875
268;1673376238.731572;47.1301762;7.2399844;49.82400131225586;1673376238.7735515;-48.180885314941406;0.4836767315864563;-136.6268768310547
269;1673376238.9465065;47.1301664;7.239971199999999;49.8280029296875;1673376238.9904745;-48.21768569946289;0.5140888094902039;-136.6377410888672
270;1673376239.1476398;47.1301566;7.239958;49.8280029296875;1673376239.189693;-48.066707611083984;0.49094584584236145;-136.60833740234375
271;1673376239.35281;47.1301469;7.2399447;49.827003479003906;1673376239.3947895;-47.84529113769531;0.46679702401161194;-136.58250427246094
272;1673376239.5443125;47.1301371;7.2399315;49.8280029296875;1673376239.586451;-48.1389045715332;0.532194197177887;-136.6311492919922
273;1673376239.742786;47.1301273;7.2399182;49.82500076293945;1673376239.7867038;-48.11656951904297;0.5741945505142212;-136.6444549560547
274;1673376239.937106;47.1301176;7.2399049;49.823001861572266;1673376239.975172;-47.96599197387695;0.5609450936317444;-136.63331604003906
275;1673376240.118682;47.1301078;7.2398915;49.820003509521484;1673376240.1675975;-47.905372619628906;0.5458979606628418;-136.63253784179688
276;1673376240.361193;47.1300981;7.2398782;49.81500244140625;1673376240.393829;-47.69425964355469;0.4505615234375;-136.5829620361328
277;1673376240.5343628;47.1300883;7.2398649;49.81300354003906;1673376240.5754316;-47.76750564575195;0.5286445021629333;-136.6432342529297
278;1673376240.7314105;47.1300786;7.239851499999999;49.816001892089844;1673376240.778529;-48.060367584228516;0.5933968424797058;-136.6609649658203
279;1673376240.936697;47.1300689;7.2398381999999994;49.81800079345703;1673376240.9767458;-48.21064376831055;0.4995375871658325;-136.62249755859375
280;1673376241.1270933;47.1300592;7.2398248;49.820003509521484;1673376241.1711652;-48.05611038208008;0.5123609304428101;-136.62680053710938
281;1673376241.3385158;47.1300495;7.2398115;49.82400131225586;1673376241.3825014;-48.093055725097656;0.5333480834960938;-136.6475372314453
282;1673376241.5811048;47.1300397;7.2397981;49.827003479003906;1673376241.6241028;-48.126625061035156;0.5390434265136719;-136.6388397216797
283;1673376241.7809355;47.1300299;7.2397846999999995;49.8280029296875;1673376241.8224602;-48.022308349609375;0.49441635608673096;-136.62747192382812
284;1673376241.9694743;47.130020099999996;7.2397712;49.827003479003906;1673376242.0110884;-47.93330001831055;0.5284869074821472;-136.64935302734375
285;1673376242.140605;47.130010299999995;7.2397578;49.823001861572266;1673376242.176768;-47.731868743896484;0.5545367002487183;-136.68263244628906
286;1673376242.3331554;47.130000599999995;7.2397443;49.81900405883789;1673376242.3815064;-47.64842987060547;0.47166574001312256;-136.6342315673828
287;1673376242.5455203;47.129990899999996;7.239731;49.81900405883789;1673376242.5915651;-47.87635040283203;0.5107133984565735;-136.65493774414062
288;1673376242.7535808;47.129981099999995;7.2397176;49.82200241088867;1673376242.7946284;-48.111148834228516;0.5514640808105469;-136.6678924560547
289;1673376242.957486;47.129971399999995;7.239704199999999;49.82400131225586;1673376242.9945755;-48.15288162231445;0.5642523765563965;-136.69297790527344
290;1673376243.1362634;47.129961599999994;7.239690899999999;49.82500076293945;1673376243.1763608;-47.96731185913086;0.5206736326217651;-136.6631622314453
291;1673376243.3327396;47.1299518;7.2396775;49.8280029296875;1673376243.3769183;-47.858036041259766;0.5679608583450317;-136.69752502441406
292;1673376243.5460155;47.1299421;7.2396641;49.83000183105469;1673376243.5821211;-47.989173889160156;0.5227082371711731;-136.67713928222656
293;1673376243.7483687;47.1299324;7.239650699999999;49.832000732421875;1673376243.7885194;-47.94430160522461;0.4990333318710327;-136.6513214111328
294;1673376243.939105;47.1299226;7.2396373;49.83400344848633;1673376243.984125;-47.8416633605957;0.5015560984611511;-136.66761779785156
295;1673376244.1436133;47.1299128;7.2396239;49.833003997802734;1673376244.1836295;-47.89738845825195;0.5646458864212036;-136.68089294433594
296;1673376244.3294063;47.129903;7.2396104999999995;49.833003997802734;1673376244.3706434;-47.85136032104492;0.5575588941574097;-136.67909240722656
297;1673376244.5181177;47.1298932;7.2395971999999995;49.836002349853516;1673376244.5669868;-47.924400329589844;0.6010245084762573;-136.69163513183594
298;1673376244.72584;47.1298835;7.239583799999999;49.8390007019043;1673376244.7707348;-48.07585906982422;0.5497362613677979;-136.65786743164062
299;1673376244.9290123;47.1298737;7.2395704;49.840003967285156;1673376244.9711368;-48.0541877746582;0.5238124132156372;-136.66444396972656
300;1673376245.1550062;47.1298639;7.239557;49.845001220703125;1673376245.2028987;-48.104164123535156;0.503411591053009;-136.63433837890625
301;1673376245.3513591;47.129854099999996;7.2395437;49.85000228881836;1673376245.3894367;-48.117244720458984;0.5681911706924438;-136.6608428955078
302;1673376245.544096;47.129844299999995;7.239530299999999;49.85700225830078;1673376245.5860777;-48.17858123779297;0.5909250974655151;-136.64707946777344
303;1673376245.7472029;47.1298345;7.2395169;49.862003326416016;1673376245.7872183;-48.156288146972656;0.6257399916648865;-136.642333984375
304;1673376245.937646;47.1298247;7.2395036;49.8640022277832;1673376245.9825413;-48.04838562011719;0.6414021849632263;-136.6276092529297
305;1673376246.1600955;47.1298149;7.2394902;49.86600112915039;1673376246.203122;-47.939292907714844;0.6532950401306152;-136.63429260253906
306;1673376246.3757405;47.1298051;7.239476799999999;49.867000579833984;1673376246.4125705;-47.88868713378906;0.5535857081413269;-136.5836181640625
307;1673376246.5611582;47.1297953;7.239463499999999;49.86900329589844;1673376246.5992537;-48.00733947753906;0.6429564952850342;-136.6048583984375
308;1673376246.751637;47.1297855;7.2394501;49.871002197265625;1673376246.7945795;-48.184051513671875;0.7336912751197815;-136.6112823486328
309;1673376246.959712;47.129775699999996;7.2394367;49.871002197265625;1673376246.989973;-48.029911041259766;0.6770878434181213;-136.5741729736328
310;1673376247.2136211;47.129765899999995;7.2394232999999995;49.87300109863281;1673376247.2483342;-47.85786056518555;0.6377028822898865;-136.57107543945312
311;1673376247.394455;47.129756099999994;7.2394098;49.87700271606445;1673376247.4341753;-47.92115020751953;0.5297666788101196;-136.50453186035156
312;1673376247.6019878;47.129746399999995;7.2393963999999995;49.87900161743164;1673376247.651608;-48.10162353515625;0.5548062324523926;-136.53465270996094
313;1673376247.8068745;47.1297366;7.239382999999999;49.88200378417969;1673376247.8459826;-48.26342010498047;0.6167437434196472;-136.5707244873047
314;1673376247.977156;47.129726899999994;7.2393695;49.884002685546875;1673376248.0114446;-48.195518493652344;0.5562193393707275;-136.5428466796875
315;1673376248.154739;47.1297171;7.239356;49.88800048828125;1673376248.1947923;-48.07807159423828;0.5315621495246887;-136.55274963378906
316;1673376248.3444881;47.1297074;7.239342499999999;49.89200210571289;1673376248.391383;-48.105224609375;0.5498201847076416;-136.56329345703125
317;1673376248.5428987;47.1296976;7.239329;49.897003173828125;1673376248.5859983;-48.250553131103516;0.6186837553977966;-136.59678649902344
318;1673376248.7445111;47.1296878;7.2393155;49.9010009765625;1673376248.7854965;-48.183387756347656;0.5393251180648804;-136.5509033203125
319;1673376248.935842;47.129678;7.2393019999999995;49.906002044677734;1673376248.97782;-48.195579528808594;0.5559586882591248;-136.5720977783203
320;1673376249.134413;47.1296683;7.2392885;49.913002014160156;1673376249.1783702;-48.20661163330078;0.5285313129425049;-136.5822296142578
321;1673376249.3474355;47.1296585;7.239274999999999;49.9170036315918;1673376249.386606;-48.27330017089844;0.5103610157966614;-136.58358764648438
322;1673376249.548212;47.1296487;7.2392615;49.92000198364258;1673376249.5970469;-48.22286605834961;0.5690294504165649;-136.61399841308594
323;1673376249.7526064;47.129638899999996;7.239248;49.92100143432617;1673376249.7916317;-48.07078552246094;0.5609877109527588;-136.59559631347656
324;1673376249.9428418;47.129629099999995;7.2392346;49.922000885009766;1673376249.9869087;-48.100502014160156;0.5677018761634827;-136.6006317138672
325;1673376250.159172;47.129619299999995;7.2392211;49.923004150390625;1673376250.2030861;-48.057804107666016;0.5753860473632812;-136.59654235839844
326;1673376250.3596015;47.1296095;7.239207599999999;49.92500305175781;1673376250.403223;-48.07124710083008;0.5835352540016174;-136.60391235351562
327;1673376250.567759;47.1295997;7.2391942;49.926002502441406;1673376250.6097677;-48.09836196899414;0.5067912340164185;-136.5786895751953
328;1673376250.7644663;47.1295899;7.2391806999999995;49.92900085449219;1673376250.8025641;-48.16767501831055;0.5628993511199951;-136.615966796875
329;1673376250.970791;47.1295801;7.2391673;49.93400192260742;1673376251.0137408;-48.274696350097656;0.556100606918335;-136.59478759765625
330;1673376251.174214;47.1295704;7.2391539;49.94000244140625;1673376251.2134223;-48.41867446899414;0.6187100410461426;-136.60385131835938
331;1673376251.3763995;47.1295606;7.2391404999999995;49.94400405883789;1673376251.4189982;-48.217376708984375;0.5503007769584656;-136.57931518554688
332;1673376251.5631266;47.1295508;7.239127;49.94700241088867;1673376251.60321;-48.02948760986328;0.5479186773300171;-136.5691375732422
333;1673376251.756506;47.129540999999996;7.239113499999999;49.94900131225586;1673376251.7945552;-48.05990219116211;0.5701743364334106;-136.5720672607422
334;1673376251.940343;47.1295311;7.2391;49.94900131225586;1673376251.979378;-48.05598831176758;0.4838307797908783;-136.52590942382812
335;1673376252.1431217;47.1295213;7.2390865;49.95000076293945;1673376252.191921;-48.07705307006836;0.49571147561073303;-136.5449676513672
336;1673376252.3444183;47.1295114;7.2390729;49.95100402832031;1673376252.3844802;-48.0255241394043;0.51373690366745;-136.54676818847656
337;1673376252.574396;47.1295016;7.2390595;49.95500183105469;1673376252.6666434;-48.07758331298828;0.49420854449272156;-136.5385284423828
338;1673376252.7989972;47.1294919;7.239046;49.958003997802734;1673376252.8346605;-48.26164245605469;0.5104933977127075;-136.5361785888672
339;1673376253.0079594;47.1294821;7.2390326;49.96000289916992;1673376253.0466228;-48.15887451171875;0.46200987696647644;-136.5215301513672
340;1673376253.2220106;47.129472299999996;7.239019099999999;49.96200180053711;1673376253.2596211;-48.16603088378906;0.5006570219993591;-136.5421142578125
341;1673376253.4026802;47.129462499999995;7.2390056;49.96200180053711;1673376253.4414515;-48.13301467895508;0.48096129298210144;-136.5260772705078
342;1673376253.5835295;47.129452699999995;7.2389921;49.9640007019043;1673376253.6159017;-48.10041809082031;0.4478812515735626;-136.50318908691406
343;1673376253.7645326;47.1294429;7.2389787;49.96900177001953;1673376253.8074844;-48.17435836791992;0.4278036057949066;-136.50704956054688
344;1673376253.9550524;47.1294331;7.238965299999999;49.97300338745117;1673376253.995069;-48.24982452392578;0.4825129210948944;-136.5223846435547
345;1673376254.1485262;47.1294233;7.2389519;49.97800064086914;1673376254.1906826;-48.34476089477539;1.0765953063964844;-136.68875122070312
346;1673376254.3470025;47.1294135;7.2389385;49.98200225830078;1673376254.3873067;-48.326560974121094;1.0918772220611572;-136.541259765625
347;1673376254.540773;47.1294038;7.2389249;49.98400115966797;1673376254.5815434;-47.88862609863281;0.03691256418824196;-136.20042419433594
348;1673376254.7467306;47.129394;7.2389114;49.987003326416016;1673376254.7908149;-48.03464889526367;0.21891598403453827;-136.36471557617188
349;1673376254.990225;47.1293842;7.2388978999999996;49.98800277709961;1673376255.0353668;-48.409217834472656;0.4847591519355774;-136.4535675048828
350;1673376255.2137153;47.129374399999996;7.238884499999999;49.9900016784668;1673376255.260135;-48.36906814575195;0.574008047580719;-136.43687438964844
351;1673376255.4005306;47.129364599999995;7.238871;49.99100112915039;1673376255.4417357;-48.11531448364258;0.5511763095855713;-136.4236297607422
352;1673376255.6095378;47.129354799999994;7.238857599999999;49.992000579833984;1673376255.650571;-48.08559036254883;0.5171511173248291;-136.4027862548828
353;1673376255.815422;47.129345;7.2388441;49.99500274658203;1673376255.859581;-48.1383056640625;0.5579661726951599;-136.39300537109375
354;1673376256.0061982;47.1293353;7.2388306;50.00100326538086;1673376256.0426254;-48.54488754272461;0.6467446684837341;-136.39431762695312
355;1673376256.1997762;47.1293255;7.2388170999999994;50.00600051879883;1673376256.2374084;-48.71596908569336;0.5956742167472839;-136.3562774658203
356;1673376256.3702476;47.1293157;7.2388036;50.00800323486328;1673376256.4093072;-48.461029052734375;0.5835349559783936;-136.31082153320312
357;1673376256.556888;47.1293059;7.23879;50.009002685546875;1673376256.5979621;-48.17844009399414;0.5160870552062988;-136.27821350097656
358;1673376256.7746735;47.1292961;7.238776499999999;50.00800323486328;1673376256.812691;-48.08757019042969;0.5213044285774231;-136.23818969726562
359;1673376256.9644115;47.1292864;7.238762899999999;50.009002685546875;1673376257.005467;-48.0545768737793;0.6073912382125854;-136.25546264648438
360;1673376257.1547525;47.1292766;7.2387494;50.01100158691406;1673376257.194333;-48.343055725097656;0.6116693615913391;-136.2320556640625
361;1673376257.3689802;47.1292669;7.2387358;50.0150032043457;1673376257.4139044;-48.3478889465332;0.6225932836532593;-136.21942138671875
362;1673376257.561162;47.1292571;7.2387222;50.01900100708008;1673376257.598248;-48.46828079223633;0.4541139602661133;-136.14703369140625
363;1673376257.760573;47.1292474;7.2387084999999995;50.02300262451172;1673376257.8007457;-48.69993209838867;0.5130969882011414;-136.17733764648438
364;1673376257.9665823;47.1292377;7.2386949;50.02400207519531;1673376258.0068088;-48.51214599609375;0.6451150178909302;-136.22756958007812
365;1673376258.1563754;47.1292279;7.238681199999999;50.02300262451172;1673376258.1993396;-48.32548904418945;0.6793385744094849;-136.2130126953125
366;1673376258.3627377;47.1292182;7.2386675;50.018001556396484;1673376258.4067476;-47.9350700378418;0.4736119508743286;-136.11460876464844
367;1673376258.5718582;47.1292085;7.2386538;50.0160026550293;1673376258.6099236;-46.67064666748047;0.6114343404769897;-136.1422119140625
368;1673376258.7557662;47.1291989;7.2386402;50.02700424194336;1673376258.7987502;-39.935157775878906;0.724315345287323;-136.14259338378906
369;1673376258.9649422;47.1291896;7.2386270999999995;50.053001403808594;1673376259.0059357;-32.17076873779297;0.29766547679901123;-135.92803955078125
370;1673376259.1553676;47.129180999999996;7.2386151;50.06800079345703;1673376259.1993587;-22.681196212768555;1.4930474758148193;-136.5970001220703
371;1673376259.3631816;47.1291734;7.2386045;50.07400131225586;1673376259.4061346;-17.146839141845703;1.1907894611358643;-136.0331268310547
372;1673376259.5741587;47.129166999999995;7.2385956;50.07400131225586;1673376259.6161263;-14.319014549255371;1.3186485767364502;-136.35894775390625
373;1673376259.776518;47.1291619;7.2385885;50.073001861572266;1673376259.8234437;-14.343669891357422;1.3497352600097656;-136.28590393066406
374;1673376259.995452;47.1291581;7.2385832;50.07100296020508;1673376260.0406556;-16.41794204711914;1.1993005275726318;-136.19766235351562
375;1673376260.180816;47.1291552;7.2385793;50.07500076293945;1673376260.2267046;-23.62680435180664;0.920496940612793;-136.60394287109375
376;1673376260.3783216;47.129152999999995;7.2385762;50.134002685546875;1673376260.42336;-46.33291244506836;1.7497048377990723;-137.51181030273438
377;1673376260.5786002;47.1291502;7.2385721;50.281002044677734;1673376260.6236014;-43.183624267578125;-0.7965914607048035;-136.78341674804688
378;1673376260.7708664;47.1291465;7.2385671;50.50200271606445;1673376260.8149407;-28.54238510131836;-0.5783022046089172;-136.76243591308594
379;1673376260.9661078;47.129142699999996;7.2385623;50.82600402832031;1673376261.007214;-29.029794692993164;1.5522993803024292;-136.78733825683594
380;1673376261.1813526;47.129138999999995;7.2385575;51.21800231933594;1673376261.2224083;-57.17253494262695;4.107380390167236;-139.4302520751953
381;1673376261.3649662;47.1291343;7.2385511;51.58700180053711;1673376261.4040117;-58.140281677246094;-0.6258256435394287;-137.31390380859375
382;1673376261.5604866;47.129128099999996;7.2385429;51.900001525878906;1673376261.6053698;-54.408382415771484;3.0588629245758057;-137.3448028564453
383;1673376261.7619467;47.129121;7.238533299999999;52.182003021240234;1673376261.8088305;-52.577632904052734;1.382475733757019;-136.29957580566406
384;1673376261.974714;47.1291133;7.238522499999999;52.44600296020508;1673376262.014724;-49.70829772949219;0.9441375136375427;-136.6425323486328
385;1673376262.1612842;47.1291053;7.238511099999999;52.69900131225586;1673376262.2052085;-45.8721923828125;0.7579854726791382;-136.5685577392578
386;1673376262.3682287;47.129096999999994;7.238499399999999;52.94900131225586;1673376262.412136;-43.31340789794922;0.40405696630477905;-136.5326385498047
387;1673376262.5656023;47.1290887;7.2384876;53.21200180053711;1673376262.627305;-43.12410354614258;0.4362872242927551;-136.5849151611328
388;1673376262.772227;47.1290804;7.2384759;53.49100112915039;1673376262.819233;-42.00831985473633;0.4884192645549774;-136.70529174804688
389;1673376262.981379;47.129072099999995;7.2384642999999995;53.788002014160156;1673376263.0204136;-43.49952697753906;0.5312815308570862;-136.84445190429688
390;1673376263.1759243;47.1290638;7.238452799999999;54.09700393676758;1673376263.217995;-45.021751403808594;0.4683292806148529;-136.9091796875
391;1673376263.3782806;47.1290554;7.2384413;54.40900421142578;1673376263.419505;-44.712005615234375;0.7278940677642822;-136.92538452148438
392;1673376263.6041539;47.1290468;7.2384296;54.72300338745117;1673376263.6474364;-44.65852737426758;0.5735578536987305;-136.69041442871094
393;1673376263.7895367;47.1290382;7.2384179;55.04500198364258;1673376263.8267727;-43.85200500488281;0.9518961906433105;-136.89749145507812
394;1673376263.9927924;47.129029499999994;7.2384062;55.36700439453125;1673376264.0349376;-43.51751708984375;1.1678745746612549;-137.07028198242188
395;1673376264.1839757;47.1290208;7.2383945;55.691001892089844;1673376264.2191215;-44.42784118652344;1.1408494710922241;-137.13095092773438
396;1673376264.3930805;47.1290122;7.2383827;56.0160026550293;1673376264.4415114;-42.92416000366211;1.0114266872406006;-137.00430297851562
397;1673376264.6432326;47.129003499999996;7.238371;56.34400177001953;1673376264.6774547;-43.712974548339844;1.0950849056243896;-137.00718688964844
398;1673376264.8291278;47.128994899999995;7.238359399999999;56.682003021240234;1673376264.870823;-44.294708251953125;1.1915303468704224;-136.9440155029297
399;1673376265.0112975;47.1289863;7.238347699999999;57.022003173828125;1673376265.0509107;-43.528900146484375;0.7407928109169006;-136.5702362060547
400;1673376265.25924;47.1289776;7.2383359;57.36300277709961;1673376265.299289;-44.78438186645508;1.1454728841781616;-136.81954956054688
401;1673376265.440001;47.1289689;7.2383242;57.70700454711914;1673376265.4771247;-44.24059295654297;1.201542854309082;-136.92654418945312
402;1673376265.611487;47.128960299999996;7.2383123;58.052001953125;1673376265.650879;-44.0423583984375;0.8488244414329529;-136.62966918945312
403;1673376265.7952468;47.1289516;7.2383004;58.39600372314453;1673376265.8343885;-44.93172073364258;0.8126262426376343;-136.6379852294922
404;1673376265.9932065;47.1289429;7.2382884999999995;58.7400016784668;1673376266.0401883;-43.582794189453125;1.0366474390029907;-136.80990600585938
405;1673376266.1903136;47.128934199999996;7.2382765;59.07600402832031;1673376266.2295105;-43.966392517089844;0.9227334260940552;-136.750244140625
406;1673376266.3949714;47.1289255;7.2382646;59.41800308227539;1673376266.436587;-43.8344841003418;0.824151337146759;-136.73699951171875
407;1673376266.602117;47.1289168;7.238252699999999;59.76100158691406;1673376266.6382222;-43.22746276855469;1.0229053497314453;-136.79676818847656
408;1673376266.7788982;47.1289081;7.2382409;60.10400390625;1673376266.821961;-44.59868621826172;0.9213339686393738;-136.8295135498047
409;1673376266.9803634;47.128899499999996;7.238229;60.445003509521484;1673376267.0205085;-43.241058349609375;0.8221931457519531;-136.77088928222656
410;1673376267.1989343;47.128890899999995;7.2382171;60.78400421142578;1673376267.2379932;-43.74159622192383;0.7374454736709595;-136.70596313476562
411;1673376267.3881433;47.1288822;7.2382051999999995;61.12800216674805;1673376267.4302602;-44.434837341308594;0.7931287288665771;-136.66136169433594
412;1673376267.5896509;47.1288735;7.2381933;61.47200393676758;1673376267.6326048;-43.38795852661133;0.7609782218933105;-136.6262664794922
413;1673376267.7878327;47.128864899999996;7.238181399999999;61.81200408935547;1673376267.8269308;-44.36434555053711;0.6807927489280701;-136.63938903808594
414;1673376267.9774597;47.1288562;7.2381696;62.156002044677734;1673376268.0195487;-43.41232681274414;0.9164367318153381;-136.76251220703125
415;1673376268.1785755;47.1288475;7.2381576999999995;62.50700378417969;1673376268.221519;-43.909358978271484;0.8903324604034424;-136.73020935058594
416;1673376268.3752973;47.1288389;7.2381458;62.86100387573242;1673376268.4144607;-45.24738311767578;0.6823599934577942;-136.56027221679688
417;1673376268.5718172;47.128830099999995;7.238133899999999;63.2130012512207;1673376268.613771;-44.292198181152344;1.0356042385101318;-136.88905334472656
