;pos_time;latitude;longitude;altitude;alt_time;pitch;roll;yaw
0;1673377477.639577;47.1306424;7.2406204999999995;-0.01600000075995922;1673377477.8270957;-0.003101866226643324;-0.19735506176948547;90.32522583007812
1;1673377477.8446586;47.1306424;7.2406204999999995;-0.01600000075995922;1673377478.0324798;-0.22714649140834808;-0.370705783367157;90.50426483154297
2;1673377478.04908;47.1306424;7.2406206;-0.014000000432133675;1673377478.222689;-0.24453972280025482;-0.2797829210758209;90.58385467529297
3;1673377478.240256;47.1306424;7.2406206;-0.012000000104308128;1673377478.43009;-0.06024593859910965;-0.2430780977010727;90.59234619140625
4;1673377478.446683;47.1306424;7.2406204999999995;-0.014000000432133675;1673377478.6456401;0.03148094564676285;-0.24577639997005463;90.61092376708984
5;1673377478.6620133;47.1306424;7.2406204;-0.015000000596046448;1673377478.8413572;-0.06800500303506851;-0.40602004528045654;90.61563873291016
6;1673377478.8599057;47.1306424;7.2406204;-0.014000000432133675;1673377479.0437906;-0.04813075810670853;-0.2840674817562103;90.6122817993164
7;1673377479.0603838;47.1306424;7.2406203;-0.015000000596046448;1673377479.2378454;0.017583254724740982;-0.25939568877220154;90.32217407226562
8;1673377479.2515128;47.1306424;7.2406203;-0.018000001087784767;1673377479.4596846;0.038926877081394196;-0.3621678054332733;90.49945831298828
9;1673377479.474867;47.1306424;7.2406201999999995;-0.021000001579523087;1673377479.657349;0.030388109385967255;-0.22878341376781464;90.36575317382812
10;1673377479.672027;47.1306424;7.2406201999999995;-0.023000001907348633;1673377479.8445888;-0.03423606976866722;-0.30797311663627625;90.29985809326172
11;1673377479.8602083;47.1306425;7.2406201999999995;-0.023000001907348633;1673377480.0385725;-0.1208634302020073;-0.2733329236507416;90.35584259033203
12;1673377480.0551562;47.1306425;7.2406201999999995;-0.02200000174343586;1673377480.2341843;-0.25897571444511414;-0.2901746332645416;90.2613525390625
13;1673377480.2497845;47.1306425;7.2406201999999995;-0.021000001579523087;1673377480.4347618;-0.19324134290218353;-0.39637303352355957;90.33638763427734
14;1673377480.4505217;47.1306425;7.2406201999999995;-0.021000001579523087;1673377480.6220076;0.01669958420097828;-0.25182873010635376;90.48504638671875
15;1673377480.6366458;47.1306425;7.2406201999999995;0.0;1673377480.8119428;0.24104584753513336;-0.20108559727668762;90.26710510253906
16;1673377480.828535;47.1306425;7.2406201;0.0;1673377481.0288396;0.08764094859361649;-0.3510558009147644;90.41471099853516
17;1673377481.0445347;47.1306425;7.2406201;0.007000000216066837;1673377481.223809;0.06659895181655884;-0.19292327761650085;90.36360931396484
18;1673377481.2395668;47.1306425;7.2406201999999995;0.010000000707805157;1673377481.4351544;-0.08275756984949112;-0.3114210069179535;90.43562316894531
19;1673377481.4507742;47.1306425;7.2406203;0.01600000075995922;1673377481.6393154;-0.28578853607177734;-0.23520854115486145;90.42893981933594
20;1673377481.655883;47.1306425;7.2406203;0.01600000075995922;1673377481.836724;0.09715007245540619;0.048860546201467514;90.24470520019531
21;1673377481.855722;47.1306425;7.2406203;0.010000000707805157;1673377482.0415196;-0.11195521056652069;-0.11190848052501678;90.38375091552734
22;1673377482.063531;47.1306425;7.2406203;0.004000000189989805;1673377482.2407022;-0.08913543075323105;0.2294241189956665;90.35862731933594
23;1673377482.2642913;47.1306425;7.2406203;-0.0010000000474974513;1673377482.4344678;0.18487778306007385;0.3426206409931183;90.20987701416016
24;1673377482.450267;47.1306425;7.2406203;-0.0020000000949949026;1673377482.6396177;-0.09809664636850357;-0.3024759292602539;90.41841125488281
25;1673377482.6546474;47.1306425;7.2406204;-0.0010000000474974513;1673377482.8274941;0.22747498750686646;-0.19896917045116425;90.35868835449219
26;1673377482.841435;47.1306424;7.2406204;0.0010000000474974513;1673377483.007721;0.07943818718194962;-0.29006457328796387;90.40879821777344
27;1673377483.0245576;47.1306424;7.2406204;0.0;1673377483.215873;-0.005713052581995726;-0.12027005851268768;90.5096206665039
28;1673377483.2326736;47.1306424;7.2406204;-0.003000000026077032;1673377483.447506;0.14894361793994904;0.018845349550247192;90.2601089477539
29;1673377483.4646122;47.1306424;7.2406203;-0.0020000000949949026;1673377483.6467328;0.15464664995670319;0.0018406958552077413;90.48099517822266
30;1673377483.6635711;47.1306424;7.2406201999999995;-0.007000000216066837;1673377483.8525097;0.30260610580444336;0.12853993475437164;90.54658508300781
31;1673377483.8683333;47.1306424;7.2406201;-0.007000000216066837;1673377484.0575702;-0.02641412615776062;-0.0059889815747737885;92.96698760986328
32;1673377484.0745952;47.1306423;7.24062;-0.003000000026077032;1673377484.2704365;-1.7428072690963745;-1.1248775720596313;94.97637939453125
33;1673377484.284846;47.1306423;7.2406197;0.005000000353902578;1673377484.462477;-6.952807903289795;-1.3111953735351562;98.30491638183594
34;1673377484.4800007;47.1306424;7.240619199999999;0.021000001579523087;1673377484.635783;-11.059103012084961;-3.487454652786255;98.01326751708984
35;1673377484.6536422;47.1306424;7.2406188;0.04400000348687172;1673377484.8287778;-13.429497718811035;-1.7547457218170166;96.43043518066406
36;1673377484.8435614;47.130642599999995;7.2406185999999995;0.0820000022649765;1673377485.0266793;-11.69053840637207;-1.2352019548416138;95.40853881835938
37;1673377485.044466;47.1306428;7.2406185999999995;0.13199999928474426;1673377485.2346196;-10.850266456604004;-4.25555419921875;95.84151458740234
38;1673377485.2525108;47.130643;7.2406188;0.20100000500679016;1673377485.437518;-10.061440467834473;1.4867894649505615;94.46546173095703
39;1673377485.4566727;47.130643;7.240619;0.2880000174045563;1673377485.645253;-10.245857238769531;1.3569027185440063;93.5902328491211
40;1673377485.6610072;47.130643;7.2406193;0.3850000202655792;1673377485.8448882;-9.620020866394043;-3.6240553855895996;93.72432708740234
41;1673377485.8614917;47.1306429;7.2406196;0.4970000088214874;1673377486.0364182;-8.587024688720703;-0.7518686652183533;92.85992431640625
42;1673377486.0510583;47.130643;7.24062;0.6230000257492065;1673377486.2220585;-8.280573844909668;2.3243634700775146;91.90277862548828
43;1673377486.239609;47.1306431;7.2406203;0.7600000500679016;1673377486.430291;-8.761316299438477;-1.6644841432571411;92.29029846191406
44;1673377486.4480188;47.130643199999994;7.2406204;0.9140000343322754;1673377486.628617;-8.62541389465332;-1.9857726097106934;92.07093811035156
45;1673377486.6452165;47.130643199999994;7.2406204;1.0740000009536743;1673377486.8164916;-8.673365592956543;2.0413601398468018;91.32755279541016
46;1673377486.8340907;47.1306431;7.2406204;1.2480000257492065;1673377487.0343704;-9.054189682006836;-1.1676729917526245;91.49415588378906
47;1673377487.0499835;47.130643;7.2406204;1.436000108718872;1673377487.2339342;-9.260261535644531;-3.646482467651367;93.29955291748047
48;1673377487.2583704;47.1306429;7.2406203;1.6260000467300415;1673377487.4451869;-9.064661026000977;1.7633250951766968;92.29354095458984
49;1673377487.4627564;47.130643;7.2406203;1.8200000524520874;1673377487.6426706;-9.204170227050781;0.7972795367240906;92.44300079345703
50;1673377487.658286;47.130643199999994;7.2406203;2.0190000534057617;1673377487.8526998;-9.131702423095703;-3.344773292541504;93.04658508300781
51;1673377487.8688455;47.130643199999994;7.2406204;2.2240002155303955;1673377488.0628922;-9.304778099060059;0.9664509892463684;92.2532730102539
52;1673377488.0800242;47.1306431;7.2406203;2.432000160217285;1673377488.2663634;-9.488268852233887;0.9844552874565125;92.19347381591797
53;1673377488.282527;47.1306429;7.2406201999999995;2.632000207901001;1673377488.4649162;-9.64260196685791;-4.056905269622803;92.87562561035156
54;1673377488.4879057;47.1306428;7.2406201999999995;2.8310000896453857;1673377488.664473;-9.632346153259277;0.02460559271275997;92.26512145996094
55;1673377488.6786509;47.1306428;7.2406201999999995;3.0330002307891846;1673377488.8704386;-9.440073013305664;1.9770442247390747;91.98300170898438
56;1673377488.8880541;47.1306429;7.2406201999999995;3.2350001335144043;1673377489.0549037;-9.641277313232422;-2.8579518795013428;92.76142120361328
57;1673377489.069547;47.130643;7.2406201999999995;3.43500018119812;1673377489.2442532;-9.612141609191895;-1.2309021949768066;92.56183624267578
58;1673377489.2609873;47.1306428;7.2406201999999995;3.635000228881836;1673377489.4384012;-9.561300277709961;1.5688914060592651;91.97260284423828
59;1673377489.4540539;47.130642699999996;7.2406203;3.8310000896453857;1673377489.6513069;-9.36905574798584;-3.713684320449829;92.8201904296875
60;1673377489.6670105;47.1306425;7.2406203;4.031000137329102;1673377489.8517785;-9.314974784851074;-2.5264923572540283;92.66863250732422
61;1673377489.865682;47.1306424;7.2406204;4.2270002365112305;1673377490.044171;-9.167210578918457;2.1026721000671387;91.99049377441406
62;1673377490.06089;47.1306425;7.2406204999999995;4.425000190734863;1673377490.2451499;-9.154717445373535;-1.5139755010604858;92.77066040039062
63;1673377490.266641;47.130642599999995;7.2406206;4.633000373840332;1673377490.4359744;-9.165483474731445;-2.5484981536865234;92.69628143310547
64;1673377490.4535294;47.1306425;7.2406206;4.839000225067139;1673377490.6402829;-9.08221435546875;1.7237029075622559;92.20378112792969
65;1673377490.6569524;47.1306425;7.2406206;5.047000408172607;1673377490.8475618;-9.327118873596191;-1.0652577877044678;92.3695068359375
66;1673377490.8631809;47.1306424;7.2406206;5.250000476837158;1673377491.038376;-9.554823875427246;-3.8967058658599854;92.859375
67;1673377491.0588634;47.1306424;7.2406204999999995;5.458000183105469;1673377491.2505298;-9.634076118469238;1.8511992692947388;91.95722198486328
68;1673377491.269077;47.1306425;7.2406204;5.664000034332275;1673377491.4596336;-9.617321014404297;0.8503361940383911;92.2634506225586
69;1673377491.4752493;47.130642599999995;7.2406204;5.868000507354736;1673377491.6549716;-9.722654342651367;-3.775167942047119;92.88874053955078
70;1673377491.6725473;47.130642599999995;7.2406203;6.072000503540039;1673377491.8549001;-9.59549617767334;0.3975731134414673;92.1630859375
71;1673377491.8695416;47.1306424;7.2406203;6.27400016784668;1673377492.041056;-9.795833587646484;1.1267997026443481;92.05514526367188
72;1673377492.0625265;47.1306423;7.2406203;6.4720001220703125;1673377492.2473054;-9.680471420288086;-4.073962211608887;92.74176788330078
73;1673377492.267843;47.1306422;7.2406203;6.6670002937316895;1673377492.4343343;-9.615948677062988;-0.8449460864067078;92.33917999267578
74;1673377492.4528723;47.1306422;7.2406203;6.862000465393066;1673377492.640466;-9.697344779968262;1.5994592905044556;92.06712341308594
75;1673377492.6580904;47.1306422;7.2406203;7.058000564575195;1673377492.8646638;-9.631773948669434;-3.5258901119232178;92.84427642822266
76;1673377492.8799448;47.1306422;7.2406203;7.260000228881836;1673377493.0723867;-9.483219146728516;-1.5698450803756714;92.5315170288086
77;1673377493.088555;47.130642099999996;7.2406203;7.457000255584717;1673377493.2650506;-9.632957458496094;1.6062648296356201;91.9274673461914
78;1673377493.2826042;47.1306422;7.2406204;7.658000469207764;1673377493.4754083;-9.60464859008789;-2.75601863861084;92.61116790771484
79;1673377493.490598;47.1306423;7.2406204;7.8580002784729;1673377493.6657078;-9.522566795349121;-2.35914945602417;92.76161193847656
80;1673377493.6862402;47.1306423;7.2406204;8.062000274658203;1673377493.8705893;-9.480841636657715;2.3864803314208984;91.99759674072266
81;1673377493.8868399;47.1306425;7.2406204999999995;8.268000602722168;1673377494.0543509;-9.449665069580078;-0.3781547248363495;92.43537902832031
82;1673377494.0700083;47.1306425;7.2406204999999995;8.47700023651123;1673377494.241886;-9.728721618652344;-3.6029603481292725;92.84699249267578
83;1673377494.2594538;47.1306424;7.2406204999999995;8.680000305175781;1673377494.4663546;-9.639631271362305;1.2762993574142456;92.0176010131836
84;1673377494.4800217;47.1306423;7.2406204999999995;8.881999969482422;1673377494.6627114;-9.707176208496094;-0.6009031534194946;92.40589904785156
85;1673377494.6783237;47.1306422;7.2406204;9.080000877380371;1673377494.8519037;-9.595009803771973;-4.274277687072754;92.77195739746094
86;1673377494.8696458;47.130642099999996;7.2406204999999995;9.278000831604004;1673377495.0452664;-9.58574390411377;0.3470361828804016;92.29508972167969
87;1673377495.062834;47.130642099999996;7.2406204999999995;9.475000381469727;1673377495.227087;-9.799301147460938;0.838123619556427;91.98756408691406
88;1673377495.2436764;47.1306422;7.2406204999999995;9.67400074005127;1673377495.4458566;-9.624066352844238;-4.002470016479492;92.84870910644531
89;1673377495.4634244;47.1306422;7.2406204999999995;9.879000663757324;1673377495.6505682;-9.55634593963623;-0.04288163408637047;92.24020385742188
90;1673377495.667193;47.1306422;7.2406206;10.07800006866455;1673377495.8530314;-9.595918655395508;1.9508545398712158;92.01757049560547
91;1673377495.8727028;47.1306424;7.2406206;10.305000305175781;1673377496.0480196;-10.872551918029785;-2.4673268795013428;92.68312072753906
92;1673377496.0646207;47.1306424;7.240620799999999;10.62600040435791;1673377496.2598166;-10.498466491699219;-2.5628936290740967;92.78778839111328
93;1673377496.2764125;47.1306425;7.240621099999999;10.99000072479248;1673377496.4551766;-9.352604866027832;2.597410202026367;92.04305267333984
94;1673377496.470833;47.130642599999995;7.2406215;11.375000953674316;1673377496.656746;-8.608698844909668;0.17856819927692413;92.42632293701172
95;1673377496.674314;47.130642699999996;7.2406219;11.768000602722168;1673377496.86513;-7.875346660614014;-3.3176441192626953;92.74117279052734
96;1673377496.882758;47.130642599999995;7.2406222;12.163000106811523;1673377497.054079;-7.818403720855713;0.8731667995452881;92.05550384521484
97;1673377497.0697496;47.1306424;7.2406223;12.564000129699707;1673377497.247537;-7.825470447540283;0.5311214923858643;92.13277435302734
98;1673377497.2631516;47.1306423;7.2406223;12.964000701904297;1673377497.441283;-8.247841835021973;-4.036074638366699;92.81272888183594
99;1673377497.458995;47.1306422;7.2406220999999995;13.36500072479248;1673377497.6499205;-8.462170600891113;-0.9800029397010803;92.4249267578125
100;1673377497.6714082;47.130642099999996;7.2406219;13.76300048828125;1673377497.8495529;-9.068990707397461;1.1460593938827515;92.13890075683594
101;1673377497.8651614;47.1306422;7.240621699999999;14.164000511169434;1673377498.0623186;-9.438891410827637;-2.986207962036133;92.8467025756836
102;1673377498.083999;47.1306423;7.2406215;14.562000274658203;1673377498.2683945;-9.585707664489746;-2.47035551071167;92.79570770263672
103;1673377498.2975347;47.1306422;7.2406213;14.952000617980957;1673377498.4710429;-9.574756622314453;1.6452271938323975;92.08822631835938
104;1673377498.4866607;47.1306422;7.2406212;15.3410005569458;1673377498.668339;-9.838693618774414;-2.184330701828003;92.5298080444336
105;1673377498.683959;47.1306423;7.240621099999999;15.723000526428223;1673377498.867783;-9.868680953979492;-2.596189022064209;92.61074829101562
106;1673377498.884406;47.1306424;7.240621;16.108001708984375;1673377499.0699785;-9.694286346435547;2.78330659866333;92.0031967163086
107;1673377499.0865734;47.1306425;7.240621099999999;16.49700164794922;1673377499.2648597;-9.4642972946167;-0.7090052366256714;92.49788665771484
108;1673377499.3168037;47.130642599999995;7.2406212;16.886001586914062;1673377499.501655;-9.313304901123047;-3.1594417095184326;92.93106079101562
109;1673377499.52028;47.130642599999995;7.2406212;17.273000717163086;1673377499.718667;-9.151286125183105;1.080329418182373;92.11896514892578
110;1673377499.731353;47.1306425;7.2406212;17.66200065612793;1673377499.894579;-9.165383338928223;0.15971726179122925;92.28564453125
111;1673377499.9141302;47.1306425;7.2406212;18.04800033569336;1673377500.0640686;-9.143336296081543;-3.7257039546966553;92.705322265625
112;1673377500.079702;47.1306424;7.2406212;18.439001083374023;1673377500.256465;-9.310218811035156;0.200089693069458;92.30378723144531
113;1673377500.2730522;47.1306424;7.240621099999999;18.82400131225586;1673377500.4537632;-9.349739074707031;0.9532312750816345;92.15408325195312
114;1673377500.4693782;47.1306424;7.240621099999999;19.213001251220703;1673377500.6464732;-9.095169067382812;-3.638108968734741;92.81110382080078
115;1673377500.6651664;47.1306425;7.240621099999999;19.60500144958496;1673377500.8360872;-9.213825225830078;-1.416329264640808;92.51016235351562
116;1673377500.8526604;47.1306424;7.240621099999999;20.00400161743164;1673377501.0354357;-9.256755828857422;2.1238365173339844;92.15339660644531
117;1673377501.0510519;47.1306425;7.240621099999999;20.4010009765625;1673377501.2534173;-9.39664363861084;-2.5740737915039062;92.84004211425781
118;1673377501.2700093;47.130642599999995;7.240621;20.78900146484375;1673377501.4607332;-9.184160232543945;-1.6145375967025757;92.65668487548828
119;1673377501.4763868;47.130642699999996;7.240621;21.181001663208008;1673377501.6708882;-9.347290992736816;2.787094831466675;91.8694076538086
120;1673377501.6855412;47.1306429;7.2406209;21.575000762939453;1673377501.8497257;-9.296248435974121;-0.9488034248352051;92.36878967285156
121;1673377501.864392;47.130643;7.2406209;21.968000411987305;1673377502.038276;-9.57174301147461;-2.7113242149353027;92.6180648803711
122;1673377502.052927;47.1306429;7.240620799999999;22.36100196838379;1673377502.2494023;-9.504538536071777;1.634198784828186;92.11557006835938
123;1673377502.2674167;47.1306428;7.2406207;22.756000518798828;1673377502.4605684;-9.533241271972656;-0.645250141620636;92.41748046875
124;1673377502.4790835;47.130642699999996;7.2406207;23.14000129699707;1673377502.6483412;-9.546542167663574;-3.662465810775757;92.98052978515625
125;1673377502.6639557;47.130642599999995;7.2406206;23.5260009765625;1673377502.862205;-9.438511848449707;0.7891726493835449;92.21304321289062
126;1673377502.87786;47.1306425;7.2406204999999995;23.909000396728516;1673377503.0509598;-9.374567985534668;1.1131346225738525;92.17794799804688
127;1673377503.064636;47.1306425;7.2406204999999995;24.30000114440918;1673377503.242406;-9.595356941223145;-3.959587335586548;92.78498077392578
128;1673377503.2592814;47.1306425;7.2406204999999995;24.696001052856445;1673377503.4664998;-9.579551696777344;-0.6681541204452515;92.2115478515625
129;1673377503.482116;47.1306424;7.2406204999999995;25.093000411987305;1673377503.6716251;-9.496574401855469;1.5379688739776611;92.0195541381836
130;1673377503.688273;47.1306425;7.2406204999999995;25.49100112915039;1673377503.8821993;-9.312140464782715;-2.2863969802856445;92.6060562133789
131;1673377503.8983815;47.130642599999995;7.2406204999999995;25.88300132751465;1673377504.073032;-9.282772064208984;-1.3376435041427612;92.8160400390625
132;1673377504.1175013;47.1306428;7.2406204999999995;26.281002044677734;1673377504.2704477;-9.383919715881348;3.014835834503174;92.14927673339844
133;1673377504.2939305;47.130643;7.2406204999999995;26.679000854492188;1673377504.475006;-9.621414184570312;-1.0184234380722046;92.5699691772461
134;1673377504.4925826;47.130643;7.2406204;27.07900047302246;1673377504.6735392;-9.568582534790039;-1.891880989074707;92.66303253173828
135;1673377504.6891704;47.1306429;7.2406204;27.476001739501953;1673377504.8671708;-9.416487693786621;1.944663643836975;92.02131652832031
136;1673377504.8828247;47.1306428;7.2406204;27.873001098632812;1673377505.0700111;-9.550188064575195;-0.7186443209648132;92.3626480102539
137;1673377505.0875797;47.130642699999996;7.2406204;28.25800132751465;1673377505.272442;-9.292409896850586;-3.2353837490081787;92.7405776977539
138;1673377505.2919614;47.130642599999995;7.2406204;28.645000457763672;1673377505.463133;-9.476395606994629;0.38939282298088074;92.16516876220703
139;1673377505.4797237;47.1306425;7.2406204;29.02800178527832;1673377505.665336;-9.612332344055176;0.5500583052635193;92.15109252929688
140;1673377505.6829035;47.1306425;7.2406204;29.41600227355957;1673377505.87284;-9.52634048461914;-3.3769867420196533;92.93568420410156
141;1673377505.8881037;47.1306425;7.2406204;29.805002212524414;1673377506.063151;-9.49630355834961;-0.33602452278137207;92.59395599365234
142;1673377506.0777886;47.1306424;7.2406204;30.200000762939453;1673377506.2637913;-9.328154563903809;1.8536758422851562;92.03863525390625
143;1673377506.282334;47.1306425;7.2406204;30.597002029418945;1673377506.4596922;-9.683592796325684;-2.6069164276123047;92.80427551269531
144;1673377506.4744396;47.1306425;7.2406204;30.990001678466797;1673377506.666226;-9.415258407592773;-1.3752259016036987;92.44112396240234
145;1673377506.6780875;47.130642599999995;7.2406204999999995;31.389001846313477;1673377506.858309;-9.528582572937012;2.5489792823791504;91.97775268554688
146;1673377506.8739758;47.130642699999996;7.2406204999999995;31.793001174926758;1673377507.0621426;-9.306438446044922;-1.4394150972366333;92.40189361572266
147;1673377507.0816617;47.1306428;7.2406204999999995;32.19700241088867;1673377507.25643;-9.399081230163574;-2.019766092300415;92.70511627197266
148;1673377507.2720268;47.130642699999996;7.2406204999999995;32.59800338745117;1673377507.4574814;-9.266250610351562;2.0620245933532715;92.04891967773438
149;1673377507.471147;47.130642699999996;7.2406206;32.99800109863281;1673377507.6491585;-9.490738868713379;-0.5563656091690063;92.454345703125
150;1673377507.6676605;47.130642599999995;7.2406206;33.388999938964844;1673377507.8376064;-9.295037269592285;-3.470254898071289;92.77180480957031
151;1673377507.853215;47.130642599999995;7.2406206;33.78200149536133;1673377508.0425012;-9.336267471313477;0.8780736923217773;92.15777587890625
152;1673377508.0600688;47.1306425;7.2406206;34.172000885009766;1673377508.2545073;-9.35207748413086;0.6099032759666443;92.18516540527344
153;1673377508.2722135;47.130642599999995;7.2406206;34.57100296020508;1673377508.4499214;-9.361448287963867;-3.6294755935668945;92.86412048339844
154;1673377508.4674869;47.130642599999995;7.2406206;34.96800231933594;1673377508.6504965;-9.52785587310791;0.22200779616832733;92.37266540527344
155;1673377508.669229;47.130642599999995;7.2406206;35.367000579833984;1673377508.857227;-9.478818893432617;1.5251266956329346;92.09062194824219
156;1673377508.8738408;47.130642699999996;7.2406206;35.76900100708008;1673377509.0606403;-9.531469345092773;-3.0757815837860107;92.78009033203125
157;1673377509.0831282;47.130642699999996;7.2406206;36.16100311279297;1673377509.269053;-9.479342460632324;0.2413255125284195;92.40025329589844
158;1673377509.286656;47.1306429;7.2406204999999995;36.55600357055664;1673377509.4653065;-9.501190185546875;2.6060922145843506;92.0816650390625
159;1673377509.479952;47.130643;7.2406204999999995;36.94700241088867;1673377509.6551995;-9.518385887145996;-1.809635043144226;92.75994110107422
160;1673377509.6717918;47.1306431;7.2406204999999995;37.345001220703125;1673377509.8585808;-9.463175773620605;-1.6646323204040527;92.66307830810547
161;1673377509.8751903;47.130643;7.2406204999999995;37.74100112915039;1673377510.0666506;-9.447930335998535;2.1941518783569336;91.99335479736328
162;1673377510.0842218;47.1306429;7.2406204999999995;38.13600158691406;1673377510.2544084;-9.52043342590332;-0.9910886883735657;92.40853881835938
163;1673377510.2710004;47.1306429;7.2406204999999995;38.51900100708008;1673377510.4551396;-9.526998519897461;-3.015578508377075;92.8008041381836
164;1673377510.47081;47.1306428;7.2406204;38.90800094604492;1673377510.6612425;-9.735671043395996;1.6739203929901123;92.06376647949219
165;1673377510.682874;47.130642699999996;7.2406204;39.28900146484375;1673377510.86375;-9.547718048095703;-0.3065096139907837;92.2796401977539
166;1673377510.88089;47.130642699999996;7.2406204;39.676002502441406;1673377511.066075;-9.462496757507324;-3.491029977798462;92.885009765625
167;1673377511.0867364;47.130642599999995;7.2406204999999995;40.07100296020508;1673377511.257939;-9.284865379333496;0.2990094721317291;92.18982696533203
168;1673377511.2735543;47.130642599999995;7.2406204999999995;40.46800231933594;1673377511.4801636;-9.407197952270508;1.1164668798446655;92.2109603881836
169;1673377511.494801;47.130642599999995;7.2406204999999995;40.8640022277832;1673377511.668718;-9.427779197692871;-3.089836359024048;92.83547973632812
170;1673377511.6843216;47.130642699999996;7.2406204999999995;41.25300216674805;1673377511.8639238;-9.459342956542969;0.4023963510990143;92.37272644042969
171;1673377511.8820066;47.1306428;7.2406204999999995;41.6510009765625;1673377512.063236;-9.499656677246094;2.1497738361358643;92.09432983398438
172;1673377512.0809915;47.1306429;7.2406204999999995;42.04900360107422;1673377512.2669673;-9.449064254760742;-2.741366386413574;92.82432556152344
173;1673377512.2855103;47.1306429;7.2406204999999995;42.44700241088867;1673377512.4656813;-9.447650909423828;-0.6924622058868408;92.51764678955078
174;1673377512.4833403;47.1306428;7.2406204999999995;42.84300231933594;1673377512.660736;-9.343411445617676;2.356476306915283;91.96061706542969
175;1673377512.682208;47.1306428;7.2406204;43.2400016784668;1673377512.8718734;-9.4761323928833;-2.0225021839141846;92.61078643798828
176;1673377512.890964;47.1306428;7.2406204;43.625003814697266;1673377513.0852542;-9.33816909790039;-2.2260143756866455;92.72537231445312
177;1673377513.099897;47.130642699999996;7.2406204;44.009002685546875;1673377513.3156466;-9.624127388000488;1.979682445526123;92.0576171875
178;1673377513.3450954;47.130642599999995;7.2406204;44.3910026550293;1673377513.5578876;-9.633784294128418;-0.6283137202262878;92.56021118164062
179;1673377513.5697546;47.130642599999995;7.2406203;44.78700256347656;1673377513.7511506;-9.64735221862793;-3.2655041217803955;92.84404754638672
180;1673377513.7706723;47.1306425;7.2406203;45.185001373291016;1673377513.9196618;-9.486207962036133;1.238385558128357;92.04051971435547
181;1673377513.938739;47.1306425;7.2406203;45.58000183105469;1673377514.1103373;-9.688729286193848;0.33947157859802246;92.1767807006836
182;1673377514.1279585;47.130642599999995;7.2406203;45.97800064086914;1673377514.2967763;-9.512660026550293;-2.9055335521698;92.77073669433594
183;1673377514.3143287;47.1306428;7.2406203;46.37000274658203;1673377514.4824677;-9.546106338500977;1.0574514865875244;92.34496307373047
184;1673377514.499095;47.1306428;7.2406203;46.76700210571289;1673377514.6788306;-9.560648918151855;2.050344944000244;92.13622283935547
185;1673377514.693472;47.1306429;7.2406203;47.16600036621094;1673377514.8632157;-9.629556655883789;-2.8072779178619385;92.72234344482422
186;1673377514.8788638;47.1306428;7.2406201999999995;47.56100082397461;1673377515.0703473;-9.520977973937988;-0.732422947883606;92.4941177368164
187;1673377515.0898676;47.130642699999996;7.2406201999999995;47.9530029296875;1673377515.285189;-9.808557510375977;2.1998331546783447;91.9673080444336
188;1673377515.3027573;47.130642699999996;7.2406201999999995;48.31900405883789;1673377515.4932456;-9.809225082397461;-2.5261638164520264;92.89837646484375
189;1673377515.50983;47.130642699999996;7.2406201;48.62200164794922;1673377515.675889;-9.921290397644043;-1.1818163394927979;92.37699127197266
190;1673377515.6885607;47.130642599999995;7.24062;48.880001068115234;1673377515.8507063;-9.99453067779541;2.309708833694458;91.89340209960938
191;1673377515.8673146;47.1306425;7.240619799999999;49.090003967285156;1673377516.0649006;-10.099190711975098;-3.184657335281372;92.79783630371094
192;1673377516.082478;47.1306425;7.2406197;49.272003173828125;1673377516.2613628;2.7735471725463867;11.114871978759766;96.16442108154297
193;1673377516.2799218;47.1306422;7.2406193;49.426002502441406;1673377516.4635499;15.994548797607422;34.45329666137695;108.9548110961914
194;1673377516.479258;47.1306413;7.240617599999999;49.56900405883789;1673377516.6658566;17.752147674560547;50.756309509277344;118.3499984741211
195;1673377516.684512;47.130638499999996;7.2406127;49.69000244140625;1673377516.8662655;6.089004993438721;53.07319259643555;126.13566589355469
196;1673377516.8814583;47.1306333;7.2406038;49.746002197265625;1673377517.0677435;-10.724637985229492;54.63935470581055;136.3812255859375
197;1673377517.0843456;47.130625699999996;7.240591599999999;49.785003662109375;1673377517.2756383;-24.575727462768555;51.87870788574219;147.5590362548828
198;1673377517.2914188;47.130615899999995;7.2405766;49.810001373291016;1673377517.490552;-36.74551010131836;45.3887825012207;159.70362854003906
199;1673377517.5061686;47.130604;7.240558699999999;49.82400131225586;1673377517.6977262;-48.04802703857422;42.32279586791992;170.5769805908203
200;1673377517.7143219;47.1305901;7.2405382;49.83100128173828;1673377517.8888586;-51.91279220581055;32.97337341308594;-177.470458984375
201;1673377517.9074028;47.1305744;7.2405149;49.814002990722656;1673377518.073053;-48.78014373779297;23.0344181060791;-169.75302124023438
202;1673377518.085741;47.130557599999996;7.2404896;49.77800369262695;1673377518.255654;-49.32075119018555;16.683448791503906;-162.4903564453125
203;1673377518.273243;47.1305397;7.2404629;49.724002838134766;1673377518.456892;-50.21709060668945;11.13796615600586;-155.1568603515625
204;1673377518.4764118;47.1305213;7.2404354;49.678001403808594;1673377518.6564033;-47.034610748291016;5.687660217285156;-148.00875854492188
205;1673377518.6739764;47.1305021;7.2404069;49.61900329589844;1673377518.841794;-45.790260314941406;0.6634213924407959;-141.73204040527344
206;1673377518.8574793;47.1304825;7.2403778;49.56500244140625;1673377519.0696764;-45.32267379760742;-2.639796733856201;-134.57894897460938
207;1673377519.0883281;47.1304629;7.240348399999999;49.53000259399414;1673377519.2776437;-44.73972702026367;-10.32463550567627;-131.61767578125
208;1673377519.2913067;47.130443199999995;7.2403188;49.5150032043457;1673377519.461299;-47.05455780029297;-10.329248428344727;-135.04537963867188
209;1673377519.4768977;47.1304234;7.2402897;49.51900100708008;1673377519.6665916;-47.274105072021484;-8.38504409790039;-137.98036193847656
210;1673377519.68416;47.130403099999995;7.2402606;49.52800369262695;1673377519.8658926;-47.71286392211914;-7.43477725982666;-138.888916015625
211;1673377519.885955;47.130382499999996;7.2402318;49.547000885009766;1673377520.0732226;-48.75218200683594;-6.272230625152588;-139.4044189453125
212;1673377520.0967195;47.1303615;7.2402031;49.579002380371094;1673377520.2804208;-49.497100830078125;-4.903697490692139;-139.81002807617188
213;1673377520.2960496;47.1303402;7.2401746;49.61600112915039;1673377520.4819646;-49.81135940551758;-3.956310987472534;-140.0033416748047
214;1673377520.4946525;47.1303187;7.2401461;49.64900207519531;1673377520.6933894;-48.851505279541016;-3.5059902667999268;-139.8170928955078
215;1673377520.707053;47.1302971;7.2401177;49.67000198364258;1673377520.8885498;-47.4290771484375;-3.3063926696777344;-139.6160430908203
216;1673377520.9043932;47.1302753;7.240088999999999;49.685001373291016;1673377521.0908756;-47.008480072021484;-3.601494073867798;-139.20973205566406
217;1673377521.107467;47.130253599999996;7.2400604;49.69600296020508;1673377521.2948103;-47.152523040771484;-3.7738804817199707;-139.02015686035156
218;1673377521.3104215;47.130232;7.2400316;49.708003997802734;1673377521.482318;-47.71769714355469;-4.040884494781494;-138.84896850585938
219;1673377521.4989161;47.130210299999995;7.2400027;49.72700119018555;1673377521.6620114;-48.28807067871094;-4.14828634262085;-138.78929138183594
220;1673377521.6776361;47.1301886;7.2399736;49.74700164794922;1673377521.880036;-48.21611022949219;-4.253452777862549;-138.6621551513672
221;1673377521.918372;47.1301669;7.2399445;49.76400375366211;1673377522.0778034;-48.0039176940918;-4.145480632781982;-138.6096649169922
222;1673377522.0924447;47.1301451;7.2399154999999995;49.775001525878906;1673377522.2755406;-47.80406188964844;-4.141942977905273;-138.53663635253906
223;1673377522.2921317;47.130123399999995;7.239886299999999;49.78700256347656;1673377522.4587634;-47.818626403808594;-4.200866222381592;-138.4862823486328
224;1673377522.476331;47.1301017;7.2398571;49.79600143432617;1673377522.6688442;-47.8629150390625;-4.249946117401123;-138.42958068847656
225;1673377522.6864119;47.13008;7.2398278;49.80400085449219;1673377522.890111;-48.00229263305664;-4.329437255859375;-138.36105346679688
226;1673377522.9047897;47.1300582;7.2397985;49.82100296020508;1673377523.086429;-48.52659225463867;-4.384126663208008;-138.34193420410156
227;1673377523.103168;47.130036499999996;7.2397692;49.83700180053711;1673377523.2924898;-48.50127029418945;-4.237870216369629;-138.35491943359375
228;1673377523.3159134;47.1300148;7.2397399;49.842002868652344;1673377523.4826734;-47.795188903808594;-4.127876281738281;-138.34486389160156
229;1673377523.4992664;47.129993;7.239710499999999;49.8380012512207;1673377523.7267885;-47.24348831176758;-4.083820819854736;-138.2794189453125
230;1673377523.7400258;47.1299713;7.2396812;49.832000732421875;1673377523.8906817;-47.426639556884766;-4.1615800857543945;-138.20730590820312
231;1673377523.9093814;47.129949599999996;7.2396518;49.833003997802734;1673377524.0945892;-47.96931076049805;-4.286006450653076;-138.174560546875
232;1673377524.1093366;47.129928;7.239622499999999;49.8380012512207;1673377524.2951257;-48.37548828125;-4.305102348327637;-138.20925903320312
233;1673377524.3107405;47.129906299999995;7.239592999999999;49.842002868652344;1673377524.4897048;-48.11634063720703;-4.394234657287598;-138.18870544433594
234;1673377524.504345;47.1298847;7.2395635;49.84100341796875;1673377524.687999;-47.8314208984375;-4.252957820892334;-138.23939514160156
235;1673377524.7036183;47.129863099999994;7.239534;49.840003967285156;1673377524.873083;-47.818504333496094;-4.316069602966309;-138.19265747070312
236;1673377524.8907397;47.1298414;7.2395045;49.842002868652344;1673377525.0624247;-47.92809295654297;-4.410983085632324;-138.16249084472656
237;1673377525.0772462;47.1298198;7.239475;49.84400177001953;1673377525.2550259;-47.94489288330078;-4.362758636474609;-138.18359375
238;1673377525.2716196;47.129798099999995;7.239445399999999;49.84400177001953;1673377525.46789;-47.9104118347168;-4.2216925621032715;-138.26564025878906
239;1673377525.4827123;47.1297765;7.2394159;49.842002868652344;1673377525.671946;-47.75168991088867;-4.2543721199035645;-138.22845458984375
240;1673377525.6886024;47.1297548;7.2393863;49.84400177001953;1673377525.8919337;-47.80070495605469;-4.274423599243164;-138.2227325439453
241;1673377525.9104795;47.1297332;7.2393567;49.84700393676758;1673377526.0851517;-47.80944061279297;-4.317389011383057;-138.2103729248047
242;1673377526.10271;47.1297116;7.2393272;49.84700393676758;1673377526.2828324;-47.71207046508789;-4.2317352294921875;-138.25424194335938
243;1673377526.2994385;47.12969;7.2392977;49.85100173950195;1673377526.4810107;-47.91865539550781;-4.26596736907959;-138.26766967773438
244;1673377526.4946866;47.1296684;7.2392682;49.85900115966797;1673377526.6738818;-47.95510482788086;-4.244656562805176;-138.26715087890625
245;1673377526.689483;47.129646799999996;7.239238599999999;49.85900115966797;1673377526.8703804;-47.87488555908203;-4.260474681854248;-138.27224731445312
246;1673377526.8943703;47.1296252;7.239209;49.862003326416016;1673377527.0668478;-47.81036376953125;-4.1870436668396;-138.34738159179688
247;1673377527.0844257;47.129603599999996;7.239179399999999;49.86300277709961;1673377527.278205;-47.84257888793945;-4.2206268310546875;-138.3363800048828
248;1673377527.2947943;47.129582;7.2391498;49.86900329589844;1673377527.4823236;-47.93096160888672;-4.293649673461914;-138.33236694335938
249;1673377527.498888;47.1295603;7.2391201999999994;49.874000549316406;1673377527.678775;-48.03025817871094;-4.117995738983154;-138.44744873046875
250;1673377527.6982958;47.1295387;7.2390905;49.880001068115234;1673377527.8871226;-48.06922149658203;-4.156522750854492;-138.44515991210938
251;1673377527.9017625;47.1295171;7.239060899999999;49.88500213623047;1673377528.0900798;-47.9017448425293;-4.06538724899292;-138.52249145507812
252;1673377528.1056921;47.1294955;7.2390314;49.884002685546875;1673377528.28895;-47.64618682861328;-3.995936155319214;-138.52284240722656
253;1673377528.3046446;47.1294738;7.2390018;49.88900375366211;1673377528.4891088;-47.81145477294922;-4.039732456207275;-138.53892517089844
254;1673377528.5056982;47.129452199999996;7.2389721;49.89600372314453;1673377528.684494;-47.916202545166016;-4.55368709564209;-138.44346618652344
255;1673377528.7030878;47.1294305;7.238942499999999;49.90300369262695;1673377528.883017;-47.83382034301758;-5.1058454513549805;-138.58323669433594
256;1673377528.900167;47.1294089;7.2389129;49.913002014160156;1673377529.0844707;-47.94855880737305;-5.910870552062988;-138.45481872558594
257;1673377529.1010633;47.129387099999995;7.2388834;49.92100143432617;1673377529.2957196;-47.4531135559082;-7.366410732269287;-138.6308135986328
258;1673377529.3103476;47.129365299999996;7.238854099999999;49.926002502441406;1673377529.489329;-47.73626708984375;-7.244801044464111;-139.0292510986328
259;1673377529.5088506;47.129343299999995;7.2388251;49.932003021240234;1673377529.6731024;-47.250186920166016;-7.467895984649658;-139.25692749023438
260;1673377529.6867738;47.1293212;7.2387963;49.941001892089844;1673377529.86963;-38.16019058227539;-7.013308048248291;-139.83226013183594
261;1673377529.8877325;47.1292991;7.2387679;49.967002868652344;1673377530.0799587;-20.574979782104492;-7.4485650062561035;-138.4959716796875
262;1673377530.0994778;47.1292775;7.2387405;49.993003845214844;1673377530.2998545;-2.516859769821167;-5.7414937019348145;-137.56175231933594
263;1673377530.3164413;47.1292572;7.2387147999999994;50.00300216674805;1673377530.4980588;11.734891891479492;-5.158236026763916;-136.35508728027344
264;1673377530.5157366;47.129239;7.2386916;50.00400161743164;1673377530.6906476;19.65615463256836;-4.670307636260986;-136.72116088867188
265;1673377530.7052872;47.1292234;7.2386716;49.98200225830078;1673377530.8891897;21.880733489990234;-4.384044647216797;-136.95913696289062
266;1673377530.9028668;47.1292105;7.238654599999999;49.91800308227539;1673377531.0775638;22.705951690673828;-6.016594886779785;-136.5067596435547
267;1673377531.0951486;47.129200499999996;7.2386409;49.88900375366211;1673377531.2760718;22.62645149230957;-10.577240943908691;-135.43038940429688
268;1673377531.2916803;47.1291927;7.2386301;49.88500213623047;1673377531.4706728;16.04827308654785;-7.317851543426514;-135.66632080078125
269;1673377531.4931543;47.129186499999996;7.2386216;49.871002197265625;1673377531.676955;11.446460723876953;-8.54317569732666;-135.85427856445312
270;1673377531.6886563;47.1291814;7.238614999999999;49.85000228881836;1673377531.871106;5.182605743408203;-6.785442352294922;-136.47056579589844
271;1673377531.8877933;47.1291771;7.2386097;49.85400390625;1673377532.0745835;-0.9900379776954651;-10.007906913757324;-136.2187957763672
272;1673377532.0970345;47.129173099999996;7.238605;49.8910026550293;1673377532.2818573;-5.0696120262146;-9.244032859802246;-135.5016632080078
273;1673377532.3013775;47.129169399999995;7.2386004999999995;49.932003021240234;1673377532.4824784;-6.014871597290039;-6.6900835037231445;-135.1516571044922
274;1673377532.500046;47.1291656;7.2385959;49.97200393676758;1673377532.6768882;-4.038041114807129;-3.915949583053589;-134.95068359375
275;1673377532.6934824;47.129162;7.2385912999999995;50.00200271606445;1673377532.8860893;-0.038431715220212936;-1.590369701385498;-134.5465850830078
276;1673377532.9037924;47.129158499999996;7.2385866;50.02400207519531;1673377533.0976808;5.748880386352539;-1.3366975784301758;-134.18881225585938
277;1673377533.1142614;47.1291553;7.2385819;50.0420036315918;1673377533.3079107;-3.3494324684143066;-5.4917144775390625;-134.5835723876953
278;1673377533.3225725;47.1291525;7.2385774;50.06300354003906;1673377533.4978821;-21.502925872802734;-6.2876877784729;-137.2058563232422
279;1673377533.515451;47.1291496;7.2385722999999995;50.1150016784668;1673377533.6923194;-16.99370765686035;-5.807462692260742;-139.0074462890625
280;1673377533.7089112;47.129145699999995;7.238565899999999;50.243003845214844;1673377533.891494;-21.936023712158203;-2.3292102813720703;-139.08375549316406
281;1673377533.9101317;47.1291412;7.2385587;50.474002838134766;1673377534.08144;-26.022077560424805;-0.8061408400535583;-138.4923095703125
282;1673377534.0980988;47.129135999999995;7.2385502;50.80400085449219;1673377534.2912178;-39.820709228515625;-8.643959045410156;-138.02903747558594
283;1673377534.3058465;47.129129899999995;7.2385402999999995;51.17100143432617;1673377534.4900854;-41.03127670288086;-7.123825550079346;-139.27923583984375
284;1673377534.507682;47.1291219;7.2385288999999995;51.55900192260742;1673377534.6935058;-35.84116744995117;-7.934964179992676;-138.33572387695312
285;1673377534.7100835;47.1291125;7.238516;51.94700241088867;1673377534.8888488;-29.91556167602539;-8.367799758911133;-138.10220336914062
286;1673377534.9054806;47.129101999999996;7.2385021;52.332000732421875;1673377535.0871732;-24.188222885131836;-8.559901237487793;-137.41644287109375
287;1673377535.1066914;47.1290909;7.2384879;52.70900344848633;1673377535.2846625;-19.914953231811523;-7.285006999969482;-137.11679077148438
288;1673377535.3022454;47.1290796;7.2384735;53.08400344848633;1673377535.487771;-16.801969528198242;-5.454602241516113;-137.2912139892578
289;1673377535.5033867;47.1290684;7.238459199999999;53.46000289916992;1673377535.689021;-14.703763961791992;-3.565845489501953;-137.36685180664062
290;1673377535.7036908;47.129057499999995;7.2384451;53.8380012512207;1673377535.8950114;-14.559810638427734;-1.8308581113815308;-137.69789123535156
291;1673377535.909692;47.1290471;7.2384311;54.220001220703125;1673377536.098674;-15.19868278503418;-1.6854687929153442;-137.7000274658203
292;1673377536.1173887;47.1290371;7.2384173999999994;54.605003356933594;1673377536.2984095;-16.72567367553711;-3.381502389907837;-137.48928833007812
293;1673377536.3308454;47.1290275;7.2384039;54.99100112915039;1673377536.499302;-18.467042922973633;-7.548120975494385;-136.954345703125
294;1673377536.5159104;47.1290182;7.2383904999999995;55.38200378417969;1673377536.6891477;-19.909645080566406;-9.377814292907715;-136.97076416015625
295;1673377536.7058413;47.129008899999995;7.2383771999999995;55.77400207519531;1673377536.9304605;-21.063365936279297;-9.479331970214844;-136.79359436035156
296;1673377536.9470541;47.1289995;7.2383638999999995;56.165000915527344;1673377537.1946647;-21.928647994995117;-9.057136535644531;-136.8070068359375
297;1673377537.2064033;47.128989999999995;7.2383508;56.557003021240234;1673377537.3899589;-22.267839431762695;-6.358008861541748;-137.24514770507812
298;1673377537.4055765;47.1289802;7.2383375;56.952003479003906;1673377537.5583854;-22.2028751373291;-5.032435417175293;-137.32574462890625
299;1673377537.5745459;47.1289703;7.2383241;57.34800338745117;1673377537.755925;-22.116636276245117;-3.7908413410186768;-137.49105834960938
300;1673377537.7730815;47.128960299999996;7.2383105;57.74500274658203;1673377537.9743621;-21.652616500854492;-4.677928447723389;-137.26959228515625
301;1673377537.9860885;47.1289503;7.238296699999999;58.147003173828125;1673377538.1837492;-21.178760528564453;-5.799246311187744;-137.01234436035156
302;1673377538.235539;47.1289403;7.2382829;58.551002502441406;1673377538.3986545;-20.7684326171875;-7.055306434631348;-136.95652770996094
303;1673377538.411342;47.1289303;7.2382689;58.954002380371094;1673377538.6068068;-20.39305877685547;-8.001484870910645;-136.75570678710938
304;1673377538.6185098;47.1289203;7.238255;59.35400390625;1673377538.7872097;-20.204261779785156;-9.2294921875;-136.6303253173828
305;1673377538.801025;47.1289103;7.2382412;59.75200271606445;1673377538.9564657;-20.30864715576172;-8.202003479003906;-136.6915283203125
306;1673377538.9701772;47.1289003;7.2382275;60.14900207519531;1673377539.1377547;-20.177978515625;-6.816962718963623;-136.8744354248047
307;1673377539.1526597;47.1288901;7.2382139;60.544002532958984;1673377539.3261027;-20.618276596069336;-5.096174716949463;-137.27581787109375
308;1673377539.3426971;47.128880099999996;7.238200399999999;60.93800354003906;1673377539.5137389;-20.725736618041992;-4.027009963989258;-137.4466552734375
309;1673377539.5293536;47.1288701;7.238186799999999;61.33400344848633;1673377539.7310598;-20.840930938720703;-3.890897750854492;-137.2747344970703
310;1673377539.7498708;47.128859999999996;7.2381731;61.73400115966797;1673377539.9510784;-20.947954177856445;-3.5654687881469727;-137.29696655273438
311;1673377539.9716067;47.12885;7.2381595;62.13700485229492;1673377540.137863;-20.74259376525879;-4.2836012840271;-137.24598693847656
312;1673377540.1526353;47.12884;7.238145899999999;62.53900146484375;1673377540.3261545;-20.99188995361328;-4.639744281768799;-137.20538330078125
313;1673377540.3408182;47.12883;7.2381322;62.936004638671875;1673377540.5146427;-20.934818267822266;-6.001180171966553;-136.9063262939453
314;1673377540.533187;47.12882;7.2381183;63.33500289916992;1673377540.7061603;-20.870708465576172;-7.158542633056641;-136.67855834960938
315;1673377540.7237277;47.128810099999995;7.2381044999999995;63.737003326416016;1673377540.905257;-20.65323829650879;-8.095523834228516;-136.70672607421875
316;1673377540.9247768;47.1288001;7.2380906;64.13500213623047;1673377541.1107156;-20.72903823852539;-8.66738224029541;-136.70086669921875
317;1673377541.1273055;47.128790099999996;7.2380767;64.53400421142578;1673377541.31028;-20.76666831970215;-8.724896430969238;-136.50523376464844
318;1673377541.3278546;47.1287802;7.2380629;64.93400573730469;1673377541.5154388;-20.757423400878906;-8.79056167602539;-136.58770751953125
319;1673377541.5302417;47.1287702;7.2380492;65.3280029296875;1673377541.7223847;-20.811325073242188;-8.010847091674805;-136.72911071777344
320;1673377541.7379825;47.1287601;7.2380355;65.7229995727539;1673377541.9203176;-21.033021926879883;-7.960983753204346;-136.74012756347656
321;1673377541.93791;47.1287501;7.2380219;66.11600494384766;1673377542.123664;-20.945932388305664;-7.324922561645508;-136.93295288085938
322;1673377542.14416;47.12874;7.2380083;66.51100158691406;1673377542.3429508;-20.855382919311523;-6.833309650421143;-136.815185546875
323;1673377542.3585782;47.12873;7.2379948;66.90900421142578;1673377542.5367873;-20.948118209838867;-6.88223934173584;-136.69378662109375
324;1673377542.5514426;47.1287199;7.2379811;67.30900573730469;1673377542.7289715;-20.926286697387695;-6.59940242767334;-136.80137634277344
325;1673377542.7445862;47.128709799999996;7.2379675;67.71000671386719;1673377542.9334536;-20.777191162109375;-6.677247524261475;-136.66220092773438
326;1673377542.952173;47.1286998;7.237953699999999;68.10800170898438;1673377543.1403558;-21.108623504638672;-6.616184711456299;-136.747802734375
327;1673377543.1551538;47.1286898;7.2379399;68.50800323486328;1673377543.3508184;-20.968116760253906;-6.412732124328613;-136.90196228027344
328;1673377543.3695586;47.128679899999995;7.237926099999999;68.9070053100586;1673377543.568513;-21.32160186767578;-6.110318183898926;-137.0203094482422
329;1673377543.5895538;47.1286699;7.237912199999999;69.30599975585938;1673377543.7723203;-21.329917907714844;-5.624692440032959;-137.2228546142578
330;1673377543.7938068;47.128659899999995;7.2378984;69.70899963378906;1673377543.9978278;-21.294214248657227;-5.5232439041137695;-137.2610626220703
331;1673377544.0212517;47.1286499;7.2378846;70.11100006103516;1673377544.2011218;-6.3563618659973145;-5.723637104034424;-137.6591796875
332;1673377544.2196586;47.12864;7.237870999999999;70.49200439453125;1673377544.3916361;1.0264692306518555;-5.844232559204102;-137.3928680419922
333;1673377544.4101791;47.128630799999996;7.2378583;70.84500122070312;1673377544.6085188;5.77581787109375;-5.887495994567871;-136.93067932128906
334;1673377544.6232374;47.1286225;7.2378466999999995;71.156005859375;1673377544.7885711;10.539498329162598;-5.135012626647949;-137.05941772460938
335;1673377544.8100424;47.1286151;7.237836499999999;71.4280014038086;1673377544.996257;12.641637802124023;-4.662193298339844;-137.24249267578125
336;1673377545.01387;47.1286087;7.2378275;71.65800476074219;1673377545.1985228;14.444604873657227;-4.988584041595459;-137.353271484375
337;1673377545.2269304;47.128603399999996;7.237819999999999;71.85800170898438;1673377545.4008093;14.148292541503906;-5.291358470916748;-137.3520050048828
338;1673377545.4164262;47.128599;7.2378139;72.03400421142578;1673377545.6121771;12.566842079162598;-5.742433071136475;-137.3499298095703
339;1673377545.624865;47.128595499999996;7.2378091;72.1830062866211;1673377545.7924387;10.668798446655273;-4.237483501434326;-137.2033233642578
340;1673377545.8149347;47.1285927;7.237805;72.30900573730469;1673377546.0126872;12.081148147583008;19.637052536010742;-130.10870361328125
341;1673377546.0331652;47.1285907;7.2378013999999995;72.41600036621094;1673377546.2016728;6.825558662414551;25.114986419677734;-120.40544891357422
342;1673377546.2182634;47.1285901;7.2377972999999995;72.49400329589844;1673377546.3969848;3.006826877593994;18.223588943481445;-109.02783203125
343;1673377546.4204063;47.1285907;7.2377927;72.54300689697266;1673377546.5837772;-0.012256774120032787;15.151691436767578;-99.25103759765625
344;1673377546.5964644;47.1285923;7.237787699999999;72.59400177001953;1673377546.7927122;0.7727085947990417;10.841181755065918;-90.11863708496094
345;1673377546.8112912;47.1285944;7.2377822;72.63899993896484;1673377546.995894;0.7011905908584595;6.5798420906066895;-81.66282653808594
346;1673377547.0087278;47.1285969;7.2377766999999995;72.6780014038086;1673377547.2059968;-0.2819381058216095;4.250782489776611;-72.66815185546875
347;1673377547.2303965;47.1285994;7.237770899999999;72.71100616455078;1673377547.395618;-2.38571834564209;3.8180525302886963;-63.22141647338867
348;1673377547.408358;47.1286019;7.237765199999999;72.74200439453125;1673377547.5635693;-3.561969041824341;4.390329360961914;-53.8916130065918
349;1673377547.5792918;47.128604499999994;7.237759499999999;72.77200317382812;1673377547.7736385;-3.206892251968384;5.453483581542969;-44.717708587646484
350;1673377547.7912366;47.128606999999995;7.2377538999999995;72.79700469970703;1673377547.981612;-3.003997325897217;4.610611915588379;-39.73978042602539
351;1673377547.9983401;47.128609499999996;7.237748099999999;72.81500244140625;1673377548.1887314;-7.504068851470947;5.519125461578369;-41.89078140258789
352;1673377548.2063136;47.128611799999995;7.237742399999999;72.8280029296875;1673377548.4154382;-32.44131088256836;5.307185649871826;-44.82893371582031
353;1673377548.4320302;47.1286147;7.2377362;72.86000061035156;1673377548.607681;-51.07284927368164;3.546572685241699;-44.45703887939453
354;1673377548.6193943;47.128619;7.237727899999999;72.90900421142578;1673377548.8102238;-60.228797912597656;0.6553941965103149;-43.01359939575195
355;1673377548.8219347;47.128625799999995;7.2377161;72.96100616455078;1673377549.003501;-62.16903305053711;-1.2971950769424438;-42.75560760498047
356;1673377549.0314605;47.1286354;7.237699999999999;73.0;1673377549.2190332;-60.80801773071289;-0.9519780278205872;-43.15312194824219
357;1673377549.234642;47.1286474;7.2376800999999995;73.01600646972656;1673377549.405856;-58.119354248046875;1.3211885690689087;-44.43152618408203
358;1673377549.4289515;47.128661099999995;7.2376567;73.00900268554688;1673377549.610497;-55.021968841552734;2.6105575561523438;-44.800167083740234
359;1673377549.6231925;47.128676299999995;7.237631299999999;72.99600219726562;1673377549.814101;-55.12289810180664;3.4623072147369385;-45.405242919921875
360;1673377549.8278034;47.1286926;7.237603999999999;72.98300170898438;1673377550.0211968;-56.25030517578125;3.8893823623657227;-45.613914489746094
361;1673377550.0309966;47.12871;7.237575499999999;72.9590072631836;1673377550.205469;-52.82899475097656;4.1493988037109375;-45.565711975097656
362;1673377550.2178662;47.1287283;7.2375459;72.92500305175781;1673377550.3907268;-50.22933578491211;3.031911849975586;-45.170475006103516
363;1673377550.4026148;47.1287472;7.2375155;72.88200378417969;1673377550.5668547;-48.49968338012695;3.722405433654785;-45.701698303222656
364;1673377550.5830185;47.1287665;7.237484599999999;72.84000396728516;1673377550.7570927;-47.549842834472656;3.9691977500915527;-45.658531188964844
365;1673377550.7737274;47.128785699999995;7.2374535;72.81300354003906;1673377550.9702377;-48.816829681396484;4.010094165802002;-45.617645263671875
366;1673377551.0008326;47.128805199999995;7.237422199999999;72.79199981689453;1673377551.213315;-49.035160064697266;4.088578701019287;-45.58180618286133
367;1673377551.2367492;47.1288248;7.2373907;72.77799987792969;1673377551.4108253;-48.529056549072266;4.0627217292785645;-45.551658630371094
368;1673377551.423521;47.1288446;7.2373591;72.76600646972656;1673377551.6258307;-48.272560119628906;4.11650276184082;-45.59978485107422
369;1673377551.6356246;47.1288645;7.2373274;72.7550048828125;1673377551.8174207;-48.018062591552734;4.267362594604492;-45.68228530883789
370;1673377551.8301334;47.1288844;7.2372955999999995;72.75100708007812;1673377552.0017595;-45.17793273925781;3.9596469402313232;-45.34599685668945
371;1673377552.0617306;47.1289042;7.237263899999999;72.72600555419922;1673377552.2195253;-20.289838790893555;1.3843082189559937;-43.729705810546875
372;1673377552.2626662;47.128923799999995;7.237232499999999;72.40400695800781;1673377552.4165561;28.81014633178711;-2.122772693634033;-43.48747253417969
373;1673377552.4435785;47.128943;7.237201499999999;71.7040023803711;1673377552.6426954;85.89228820800781;-127.95682525634766;-166.41299438476562
374;1673377552.6527414;47.1289624;7.2371706;70.60900115966797;1673377552.8308535;37.565704345703125;-179.6910858154297;143.02392578125
375;1673377552.8468199;47.1289818;7.2371395;69.16200256347656;1673377553.0185924;15.229684829711914;178.22325134277344;139.1192169189453
376;1673377553.047224;47.129000999999995;7.237108699999999;67.35900115966797;1673377553.2207258;21.834430694580078;177.6039581298828;137.73992919921875
377;1673377553.2746346;47.129019799999995;7.2370785;65.177001953125;1673377553.3994892;58.5503044128418;175.2322540283203;136.00787353515625
378;1673377553.4116979;47.129038099999995;7.2370487;62.61700439453125;1673377553.5574763;54.992069244384766;3.1714446544647217;-37.018104553222656
379;1673377553.5708277;47.129056399999996;7.237019;59.72500228881836;1673377553.7256632;-17.6600341796875;2.444958209991455;-40.13774490356445
380;1673377553.7406583;47.1290748;7.2369892;56.43400192260742;1673377553.9387612;-61.137332916259766;2.4127209186553955;-40.11289978027344
381;1673377553.9586349;47.1290927;7.236959799999999;52.7650032043457;1673377554.2295523;-63.25947189331055;1.5421749353408813;-38.824058532714844
382;1673377554.2409043;47.129110399999995;7.2369309;48.77300262451172;1673377554.4274921;-22.193073272705078;0.901891827583313;-37.42576599121094
383;1673377554.447038;47.1291278;7.2369024;44.458003997802734;1673377554.6695967;49.79289245605469;1.338446855545044;-34.427181243896484
384;1673377554.6787555;47.1291446;7.236874299999999;39.7400016784668;1673377554.862442;75.20835876464844;168.10374450683594;132.50160217285156
385;1673377554.8728113;47.1291618;7.236846;34.656002044677734;1673377555.039747;71.3280029296875;166.84832763671875;131.03355407714844
386;1673377555.0507016;47.1291787;7.2368178;29.266000747680664;1673377555.251609;60.14239501953125;9.10090446472168;-26.893169403076172
387;1673377555.2638562;47.1291957;7.2367897999999995;23.582000732421875;1673377555.4485135;-14.983901023864746;2.3780405521392822;-34.24578094482422
388;1673377555.4626305;47.129213;7.2367615999999995;17.538000106811523;1673377555.6658409;-59.808013916015625;-0.6018335223197937;-33.16860580444336
389;1673377555.6766818;47.129229699999996;7.2367339;11.120000839233398;1673377555.8506916;-44.703487396240234;0.36784428358078003;-33.12963104248047
390;1673377555.8618307;47.129246099999996;7.2367067;4.409000396728516;1673377556.0506318;-1.7811330556869507;-8.336172103881836;-28.29823112487793
391;1673377556.0619261;47.129256999999996;7.2366892;0.3410000205039978;1673377556.266661;-1.385375738143921;-0.20390458405017853;-34.705265045166016
392;1673377556.2815793;47.1292621;7.2366848;0.7220000624656677;1673377556.4616919;2.1435892581939697;0.8361368775367737;-32.9077262878418
393;1673377556.4795945;47.1292678;7.2366809;0.9360000491142273;1673377556.6418962;2.5704987049102783;-0.8373532891273499;-32.7490348815918
394;1673377556.6516888;47.1292731;7.236677299999999;1.0950000286102295;1673377556.846737;2.806659698486328;-1.6235181093215942;-32.64588165283203
395;1673377556.857686;47.1292773;7.2366744;1.2000000476837158;1673377557.0685532;2.9945435523986816;-2.4579622745513916;-32.5939826965332
396;1673377557.0837405;47.1292804;7.2366722;1.2680000066757202;1673377557.245621;3.0386266708374023;-2.941638946533203;-32.58052062988281
397;1673377557.2585588;47.1292834;7.236669699999999;1.3950001001358032;1673377557.4087994;3.2790868282318115;-3.4377548694610596;-32.49345779418945
398;1673377557.4276748;47.1292848;7.236668099999999;1.474000096321106;1673377557.6278977;3.3227903842926025;-3.813281536102295;-32.47489547729492
399;1673377557.6407235;47.129286;7.2366664;1.590000033378601;1673377557.8230352;4.409725666046143;-4.114184379577637;-32.193973541259766
400;1673377557.844796;47.1292798;7.236670999999999;1.5730000734329224;1673377558.0296087;4.833639144897461;-4.291650295257568;-32.16663360595703
401;1673377558.0399957;47.129273999999995;7.2366759;1.5290000438690186;1673377558.2175133;4.944910049438477;-4.453702926635742;-32.176055908203125
402;1673377558.228637;47.129269799999996;7.2366797;1.4850000143051147;1673377558.426786;5.057615756988525;-4.5626068115234375;-32.18869400024414
403;1673377558.4444938;47.1292669;7.236682399999999;1.4530000686645508;1673377558.6056845;5.123073577880859;-4.659875392913818;-32.164737701416016
404;1673377558.617513;47.129265;7.2366836999999995;1.4730000495910645;1673377558.8557155;5.0858025550842285;-4.666004180908203;-32.15586471557617
405;1673377558.8684146;47.1292638;7.236684599999999;1.4810000658035278;1673377559.0376177;5.132571697235107;-4.632382392883301;-32.15685272216797
406;1673377559.054209;47.129262999999995;7.236685199999999;1.4840000867843628;1673377559.22915;5.048160552978516;-4.613874435424805;-32.12371826171875
407;1673377559.2516296;47.1292626;7.2366855999999995;1.4860000610351562;1673377559.440703;5.036736488342285;-4.540563583374023;-32.08761978149414
408;1673377559.453558;47.1292622;7.2366857;1.4860000610351562;1673377559.63973;4.950170040130615;-4.471766948699951;-32.053035736083984
409;1673377559.654448;47.129261899999996;7.2366857;1.4870001077651978;1673377559.8422906;4.927870750427246;-4.4069600105285645;-32.00956344604492
410;1673377559.8677206;47.1292609;7.2366858;1.5120000839233398;1673377560.053685;4.866230010986328;-4.270493030548096;-31.956605911254883
411;1673377560.071231;47.1292603;7.2366858;1.527000069618225;1673377560.2662706;4.878828048706055;-4.20210075378418;-31.91240119934082
412;1673377560.2789578;47.129258899999996;7.2366858999999994;1.5550000667572021;1673377560.4539955;4.735253810882568;-4.016777038574219;-31.804288864135742
413;1673377560.4696102;47.1292585;7.2366858999999994;1.565000057220459;1673377560.66287;4.54746675491333;-3.8241732120513916;-31.695463180541992
414;1673377560.685493;47.1292584;7.2366858;1.565000057220459;1673377560.8743088;4.413389205932617;-3.6616744995117188;-31.562969207763672
415;1673377560.8940368;47.1292586;7.2366857;1.5560001134872437;1673377561.0813706;4.304804801940918;-3.448368549346924;-31.446271896362305
416;1673377561.0941284;47.129258899999996;7.2366855999999995;1.5450000762939453;1673377561.2742102;4.302306175231934;-3.3483307361602783;-31.418367385864258
417;1673377561.2949123;47.1292581;7.2366858;1.5440000295639038;1673377561.4715579;4.141610145568848;-3.0889148712158203;-31.3019962310791
418;1673377561.4960914;47.1292579;7.2366858;1.534000039100647;1673377561.684938;3.960109233856201;-2.893418312072754;-31.144643783569336
