;pos_time;latitude;longitude;altitude;alt_time;pitch;roll;yaw
0;1673388454.2701483;47.1306425;7.240619799999999;-0.01900000125169754;1673388454.4255333;0.1061491146683693;-0.40146759152412415;89.99140167236328
1;1673388454.4789352;47.1306425;7.240619799999999;-0.020000001415610313;1673388454.6181953;0.09983493387699127;-0.010983357205986977;90.07029724121094
2;1673388454.674033;47.1306425;7.240619799999999;-0.018000001087784767;1673388454.8172526;0.13583001494407654;0.011964617297053337;90.2488021850586
3;1673388454.8749123;47.1306425;7.2406197;-0.018000001087784767;1673388455.0078602;-0.06592224538326263;-0.0035369563847780228;90.06564331054688
4;1673388455.067567;47.1306425;7.2406197;-0.01900000125169754;1673388455.199764;0.16288025677204132;-0.018017511814832687;90.05810546875
5;1673388455.2615678;47.1306424;7.2406197;-0.020000001415610313;1673388455.4007993;0.09380671381950378;0.08340222388505936;90.05731964111328
6;1673388455.4604583;47.1306424;7.2406197;-0.023000001907348633;1673388455.6088543;0.2875368595123291;-0.1409038007259369;90.2624740600586
7;1673388455.6705654;47.1306424;7.2406196;-0.027000000700354576;1673388455.8126483;-0.03700714185833931;-0.043768301606178284;90.12278747558594
8;1673388455.8702688;47.1306424;7.240619499999999;-0.03100000135600567;1673388456.0119011;-0.021205877885222435;-0.07924232631921768;90.1766128540039
9;1673388456.073589;47.1306424;7.240619499999999;-0.03500000014901161;1673388456.2677581;-0.1057034581899643;0.008366805501282215;90.09379577636719
10;1673388456.340675;47.1306424;7.240619499999999;-0.03800000250339508;1673388456.46335;0.13485755026340485;-0.11642782390117645;90.08125305175781
11;1673388456.5195715;47.1306424;7.240619499999999;-0.039000000804662704;1673388456.638685;-0.06812337040901184;-0.1375962346792221;89.96943664550781
12;1673388456.698806;47.1306424;7.240619499999999;-0.039000000804662704;1673388456.8325968;-0.23314273357391357;-0.1642494648694992;90.07661437988281
13;1673388456.891307;47.1306424;7.240619499999999;-0.03800000250339508;1673388457.0279605;-0.22441044449806213;-0.017690736800432205;89.97589874267578
14;1673388457.0919962;47.1306424;7.2406196;-0.039000000804662704;1673388457.2165067;-0.03214870020747185;-0.21401338279247284;90.06194305419922
15;1673388457.2770069;47.1306424;7.2406197;0.0;1673388457.4359572;-0.13965144753456116;-0.21200239658355713;90.25154113769531
16;1673388457.494367;47.1306424;7.2406197;-0.0010000000474974513;1673388457.6333601;-0.2909010350704193;-0.02927643433213234;89.97380065917969
17;1673388457.6907117;47.1306424;7.240619799999999;0.0010000000474974513;1673388457.8254619;-0.11747793853282928;-0.3010949492454529;89.94589233398438
18;1673388457.8808641;47.1306425;7.240619799999999;0.003000000026077032;1673388458.0105543;-0.12865425646305084;-0.03428376093506813;90.1249771118164
19;1673388458.0768821;47.1306425;7.2406198999999996;0.003000000026077032;1673388458.210298;-0.27522721886634827;-0.2722353935241699;90.18305969238281
20;1673388458.2682173;47.1306425;7.2406198999999996;0.0;1673388458.4172792;-0.344048410654068;-0.2964264452457428;90.19928741455078
21;1673388458.4911232;47.1306424;7.2406198999999996;-0.0020000000949949026;1673388458.6183324;-0.42878565192222595;-0.2716027796268463;90.25463104248047
22;1673388458.6830873;47.1306424;7.240619799999999;-0.006000000052154064;1673388458.8183477;-0.4522601366043091;-0.23038199543952942;90.35716247558594
23;1673388458.8800745;47.1306424;7.2406198999999996;0.0;1673388459.0182729;-0.5659242272377014;-0.2562292516231537;90.4001235961914
24;1673388459.0743358;47.1306424;7.240619799999999;-0.0010000000474974513;1673388459.2081375;-0.6771981120109558;0.09133065491914749;90.44593811035156
25;1673388459.2710261;47.1306424;7.240619799999999;0.0010000000474974513;1673388459.4099624;-0.6904267072677612;-0.39714905619621277;90.76016235351562
26;1673388459.4762053;47.1306423;7.240619799999999;0.004000000189989805;1673388459.6230323;-0.7928223013877869;-0.19109608232975006;90.49185943603516
27;1673388459.6840222;47.1306423;7.240619799999999;0.003000000026077032;1673388459.8100846;-0.9824875593185425;-0.11077859252691269;90.35040283203125
28;1673388459.873091;47.1306423;7.2406198999999996;0.004000000189989805;1673388460.0081873;-1.3745412826538086;-0.17859633266925812;90.65816497802734
29;1673388460.0702462;47.1306423;7.2406198999999996;0.0010000000474974513;1673388460.2059824;-2.2681736946105957;-0.21447308361530304;90.05087280273438
30;1673388460.2680762;47.1306423;7.2406201;0.0020000000949949026;1673388460.4070525;-0.25484681129455566;0.0683128833770752;84.6644287109375
31;1673388460.4670477;47.1306423;7.240620799999999;0.0;1673388460.6209567;2.953723669052124;-0.13522487878799438;85.26611328125
32;1673388460.6919754;47.1306423;7.2406226;0.010000000707805157;1673388460.8111186;7.506801605224609;-1.051727533340454;86.46922302246094
33;1673388460.8671138;47.1306423;7.240625199999999;0.023000001907348633;1673388460.9961698;14.593038558959961;-1.2138477563858032;85.89029693603516
34;1673388461.0572398;47.1306424;7.2406289;0.03200000151991844;1673388461.20199;15.983664512634277;-0.27374067902565;86.5765609741211
35;1673388461.2589264;47.1306425;7.2406333;0.05000000074505806;1673388461.396124;16.37285804748535;-0.7965184450149536;87.18118286132812
36;1673388461.4580538;47.130642599999995;7.2406383;0.07800000160932541;1673388461.6050136;17.584529876708984;-2.104794979095459;87.4198989868164
37;1673388461.6635468;47.1306428;7.2406437;0.11400000751018524;1673388461.801262;19.27567481994629;-0.24549947679042816;88.22467041015625
38;1673388461.879168;47.1306429;7.2406495;0.1510000079870224;1673388462.0137892;21.192880630493164;0.6014150977134705;88.75483703613281
39;1673388462.069357;47.1306431;7.2406554;0.19100001454353333;1673388462.2114177;23.091936111450195;-1.0183049440383911;88.66255950927734
40;1673388462.2695932;47.130643299999996;7.240661299999999;0.23000000417232513;1673388462.4090593;25.19270133972168;-0.6443047523498535;88.9375991821289
41;1673388462.4961524;47.1306435;7.2406669;0.27400001883506775;1673388462.6265984;27.24185562133789;1.249489188194275;89.44702911376953
42;1673388462.7030725;47.1306437;7.2406722;0.3100000023841858;1673388462.8324406;29.332136154174805;0.16109980642795563;89.38557434082031
43;1673388462.8915462;47.130643899999995;7.240677;0.3400000035762787;1673388463.0201132;31.46685028076172;-0.3321312367916107;89.34500885009766
44;1673388463.0773957;47.130644;7.2406811;0.3680000305175781;1673388463.2163026;33.64176559448242;1.1053173542022705;89.80377197265625
45;1673388463.2812514;47.130644;7.2406843;0.3930000066757202;1673388463.4120817;35.8714714050293;1.0201821327209473;89.83374786376953
46;1673388463.4722333;47.130644;7.2406866999999995;0.4140000343322754;1673388463.617579;38.010494232177734;-0.04324685037136078;89.5269546508789
47;1673388463.6766877;47.130644;7.240687899999999;0.43300002813339233;1673388463.799606;40.2255859375;0.8392669558525085;89.74754333496094
48;1673388463.8592753;47.130644;7.240688;0.4520000219345093;1673388463.9974148;42.4078483581543;1.152891755104065;89.93816375732422
49;1673388464.0574663;47.130644;7.2406868;0.4660000205039978;1673388464.1909637;44.59587860107422;0.40071818232536316;89.75967407226562
50;1673388464.253511;47.1306438;7.2406842;0.48000001907348633;1673388464.391156;46.79923629760742;0.7431426048278809;89.84370422363281
51;1673388464.4678214;47.1306437;7.2406801;0.492000013589859;1673388464.6077824;47.82183837890625;0.694255530834198;89.99525451660156
52;1673388464.6688771;47.1306435;7.2406744;0.503000020980835;1673388464.8035624;43.94181442260742;0.37880563735961914;89.91503143310547
53;1673388464.8613968;47.130643299999996;7.2406673999999995;0.5090000033378601;1673388465.0209079;39.087989807128906;0.2733305096626282;89.92121887207031
54;1673388465.0801542;47.1306431;7.2406597999999995;0.5139999985694885;1673388465.215712;32.482364654541016;0.15906569361686707;89.90409851074219
55;1673388465.2729418;47.1306429;7.240652099999999;0.5410000085830688;1673388465.4182348;29.482158660888672;-0.2311389297246933;90.05223846435547
56;1673388465.4754763;47.130642699999996;7.2406448;0.5890000462532043;1673388465.6040525;23.907180786132812;-0.14221897721290588;90.06196594238281
57;1673388465.661723;47.130642599999995;7.2406384;0.6380000114440918;1673388465.7946799;21.00416374206543;-0.16011984646320343;90.14264678955078
58;1673388465.851271;47.1306425;7.2406331999999995;0.6830000281333923;1673388465.9862924;20.01932716369629;0.021211283281445503;90.2261962890625
59;1673388466.047175;47.1306425;7.240629299999999;0.7280000448226929;1673388466.188569;20.23710060119629;-0.6343830823898315;89.87651824951172
60;1673388466.2579188;47.1306425;7.2406269;0.7800000309944153;1673388466.4050639;21.916685104370117;0.20890052616596222;89.97151184082031
61;1673388466.501327;47.1306425;7.2406254;0.843000054359436;1673388466.6452298;23.442073822021484;2.1519744396209717;90.53581237792969
62;1673388466.7755136;47.130642599999995;7.240624599999999;0.9170000553131104;1673388466.8884923;25.332857131958008;-1.1088238954544067;89.58660125732422
63;1673388466.9362936;47.130642599999995;7.2406245;1.00600004196167;1673388467.046323;27.209508895874023;-0.012595299631357193;89.80394744873047
64;1673388467.1034746;47.130642599999995;7.2406245;1.1080000400543213;1673388467.2242508;28.345844268798828;2.2601563930511475;90.53003692626953
65;1673388467.2775228;47.130642599999995;7.2406245;1.2230000495910645;1673388467.4156861;29.183757781982422;-0.5549094676971436;89.7210693359375
66;1673388467.4835875;47.130642599999995;7.2406245;1.350000023841858;1673388467.6178794;29.43035888671875;-0.36264321208000183;89.52854919433594
67;1673388467.6779993;47.130642599999995;7.2406244;1.4870001077651978;1673388467.809703;29.394882202148438;2.222348213195801;87.528076171875
68;1673388467.8701985;47.130642599999995;7.2406241;1.6320000886917114;1673388468.0138721;29.12762451171875;-0.8460736870765686;86.9826889038086
69;1673388468.0714552;47.130642599999995;7.2406236999999996;1.790000081062317;1673388468.2174945;28.632457733154297;-1.4090052843093872;86.65160369873047
70;1673388468.2782085;47.130642599999995;7.2406231;1.9550000429153442;1673388468.4303315;28.085220336914062;1.3171817064285278;87.41130065917969
71;1673388468.4933505;47.130642599999995;7.2406226;2.134000062942505;1673388468.641395;27.723730087280273;0.3858170807361603;87.1233139038086
72;1673388468.6988091;47.130642599999995;7.240622;2.318000078201294;1673388468.829906;27.136186599731445;-1.194196343421936;86.43911743164062
73;1673388468.8937552;47.130642599999995;7.2406216;2.502000093460083;1673388469.0274222;27.13827133178711;1.7254823446273804;87.0170669555664
74;1673388469.088597;47.130642699999996;7.2406212;2.69100022315979;1673388469.2315438;27.218759536743164;1.0892223119735718;86.70995330810547
75;1673388469.2935805;47.130642699999996;7.2406209;2.880000114440918;1673388469.4318209;27.183210372924805;-1.9157450199127197;85.99181365966797
76;1673388469.5260565;47.130642599999995;7.2406207;3.065000057220459;1673388469.6553876;27.37217140197754;0.3417118787765503;86.66618347167969
77;1673388469.7116234;47.1306425;7.2406206;3.249000072479248;1673388469.8411555;27.593969345092773;1.1051207780838013;86.8343734741211
78;1673388469.902384;47.1306425;7.2406206;3.434000253677368;1673388470.023911;27.674562454223633;-1.795959711074829;85.91751098632812
79;1673388470.0821457;47.1306425;7.2406204999999995;3.622000217437744;1673388470.220661;27.797452926635742;0.054492391645908356;86.50131225585938
80;1673388470.2856956;47.1306425;7.2406204999999995;3.808000087738037;1673388470.4236188;27.813735961914062;1.3565891981124878;86.81378173828125
81;1673388470.489622;47.1306425;7.2406204;3.994000196456909;1673388470.621219;27.809980392456055;-1.7240562438964844;86.0015640258789
82;1673388470.6784005;47.1306424;7.2406204;4.185000419616699;1673388470.811878;27.768579483032227;-1.0613138675689697;86.16114807128906
83;1673388470.8874316;47.1306423;7.2406203;4.377000331878662;1673388471.0187492;27.585783004760742;1.1493221521377563;87.07225799560547
84;1673388471.0916672;47.1306423;7.2406201999999995;4.568000316619873;1673388471.2330635;27.52815818786621;-1.4356136322021484;86.2743911743164
85;1673388471.2922566;47.1306423;7.2406201;4.76200008392334;1673388471.4266326;27.51972007751465;-1.4365136623382568;86.2337417602539
86;1673388471.4818969;47.1306423;7.24062;4.955000400543213;1673388471.614174;27.564197540283203;1.4574135541915894;87.06364440917969
87;1673388471.672784;47.1306423;7.24062;5.147000312805176;1673388471.8086;27.649965286254883;-0.8660221695899963;86.43240356445312
88;1673388471.8692095;47.1306423;7.2406201;5.342000484466553;1673388472.0080137;27.7018985748291;-2.0360593795776367;86.0738525390625
89;1673388472.0714622;47.1306423;7.2406201;5.5370001792907715;1673388472.2199423;27.727725982666016;1.024998426437378;86.88230895996094
90;1673388472.28199;47.1306423;7.2406201;5.7330002784729;1673388472.4155743;27.742422103881836;-0.24733053147792816;86.44307708740234
91;1673388472.4762225;47.1306424;7.2406201;5.927000045776367;1673388472.6186283;27.690336227416992;-1.9012137651443481;85.82046508789062
92;1673388472.680661;47.1306424;7.2406201;6.119000434875488;1673388472.8277438;27.796520233154297;1.165168046951294;86.62415313720703
93;1673388472.9004223;47.1306425;7.2406201;6.311000347137451;1673388473.0350277;27.81645393371582;0.38655245304107666;86.60922241210938
94;1673388473.0909505;47.1306425;7.24062;6.504000186920166;1673388473.2441497;27.613801956176758;-1.8255693912506104;85.9808578491211
95;1673388473.311532;47.1306424;7.24062;6.699000358581543;1673388473.468786;27.702247619628906;0.5991164445877075;86.67105865478516
96;1673388473.5266716;47.1306424;7.24062;6.89300012588501;1673388473.6492224;27.788747787475586;0.7887288928031921;86.83856201171875
97;1673388473.7104335;47.1306424;7.24062;7.090000152587891;1673388473.829099;27.689273834228516;-1.7537356615066528;86.00971984863281
98;1673388473.8922062;47.1306424;7.24062;7.289000511169434;1673388474.0226321;27.707977294921875;0.37330353260040283;86.62649536132812
99;1673388474.0878541;47.1306424;7.2406198999999996;7.4860005378723145;1673388474.2272243;27.61309814453125;0.9857854843139648;86.88129425048828
100;1673388474.2894616;47.1306424;7.2406198999999996;7.687000274658203;1673388474.439633;27.735912322998047;-2.182013511657715;86.06686401367188
101;1673388474.505666;47.1306423;7.2406198999999996;7.889000415802002;1673388474.6349506;27.681936264038086;-0.4051124155521393;86.34573364257812
102;1673388474.6970108;47.1306423;7.2406198999999996;8.094000816345215;1673388474.8265774;27.810747146606445;1.0849889516830444;86.807373046875
103;1673388474.8874485;47.1306423;7.2406198999999996;8.301000595092773;1673388475.0434246;27.83852195739746;-1.5073424577713013;86.1304931640625
104;1673388475.0947537;47.1306423;7.24062;8.506000518798828;1673388475.2137365;27.751285552978516;-0.6949092149734497;86.3379135131836
105;1673388475.2695715;47.1306423;7.2406198999999996;8.706000328063965;1673388475.4080238;27.681137084960938;1.5422013998031616;87.06697082519531
106;1673388475.4637315;47.1306424;7.2406198999999996;8.905000686645508;1673388475.5918946;27.589839935302734;-1.2765259742736816;86.29398345947266
107;1673388475.6532402;47.1306423;7.2406198999999996;9.110000610351562;1673388475.797429;27.61861228942871;-1.1803838014602661;86.20561218261719
108;1673388475.8570266;47.1306423;7.240619799999999;9.315000534057617;1673388475.996854;27.50564956665039;1.4277198314666748;86.93761444091797
109;1673388476.0700533;47.1306423;7.240619799999999;9.52500057220459;1673388476.2147868;27.562829971313477;-0.8976294994354248;86.30866241455078
110;1673388476.2833567;47.1306424;7.240619799999999;9.734000205993652;1673388476.4160755;27.530309677124023;-1.4420166015625;86.11270141601562
111;1673388476.4798372;47.1306424;7.240619799999999;9.942000389099121;1673388476.6140792;27.591493606567383;1.1472313404083252;86.8545913696289
112;1673388476.6706855;47.1306424;7.2406197;10.151000022888184;1673388476.8123748;26.944971084594727;-0.25729408860206604;86.48614501953125
113;1673388476.8700287;47.1306424;7.2406196;10.444000244140625;1673388477.007942;28.492704391479492;-1.8026074171066284;85.98176574707031
114;1673388477.0675979;47.1306424;7.240619199999999;10.825000762939453;1673388477.2182398;27.77271842956543;0.19544227421283722;86.58795928955078
115;1673388477.2798991;47.1306424;7.2406185999999995;11.225000381469727;1673388477.4137993;26.451431274414062;0.9578819274902344;86.68609619140625
116;1673388477.4772518;47.1306425;7.2406181;11.63700008392334;1673388477.6125762;25.739377975463867;-1.530797004699707;85.93036651611328
117;1673388477.6799567;47.1306425;7.2406177;12.053000450134277;1673388477.8092055;25.407041549682617;0.32173869013786316;86.36995697021484
118;1673388477.8670125;47.1306425;7.2406174;12.464000701904297;1673388478.0244615;25.316064834594727;1.318649411201477;86.89453125
119;1673388478.088437;47.1306425;7.2406174;12.879000663757324;1673388478.2249796;25.548559188842773;-1.5557326078414917;86.12986755371094
120;1673388478.2845216;47.1306425;7.2406175;13.29800033569336;1673388478.431084;25.79764175415039;-0.42401137948036194;86.33458709716797
121;1673388478.4896567;47.1306425;7.2406177;13.7160005569458;1673388478.619774;26.3503475189209;1.186774492263794;86.8507080078125
122;1673388478.680287;47.130642599999995;7.2406179999999996;14.130001068115234;1673388478.826807;26.512962341308594;-1.2759714126586914;86.11141967773438
123;1673388478.8977077;47.130642599999995;7.2406182;14.541000366210938;1673388479.031271;26.878347396850586;-0.33120208978652954;86.36771392822266
124;1673388479.094291;47.130642599999995;7.2406184;14.94800090789795;1673388479.2159433;26.96348762512207;1.3889210224151611;86.89846801757812
125;1673388479.270634;47.130642599999995;7.2406185999999995;15.346000671386719;1673388479.4122944;27.128263473510742;-1.4230684041976929;86.17192077636719
126;1673388479.4816616;47.1306425;7.2406187;15.746000289916992;1673388479.6251945;27.01279067993164;-0.9552340507507324;86.27812194824219
127;1673388479.7009354;47.1306425;7.2406188;16.152999877929688;1673388479.8264327;27.14044761657715;1.4724918603897095;86.97445678710938
128;1673388479.8918874;47.130642599999995;7.240618899999999;16.562000274658203;1673388480.0189965;27.058927536010742;-0.5563618540763855;86.37592315673828
129;1673388480.07176;47.130642599999995;7.240618899999999;16.97100067138672;1673388480.203826;26.878515243530273;-0.9735262393951416;86.16394805908203
130;1673388480.2620456;47.130642599999995;7.240618899999999;17.37700080871582;1673388480.4159384;26.866010665893555;1.3658396005630493;86.86114501953125
131;1673388480.4883225;47.130642599999995;7.240618899999999;17.77400016784668;1673388480.6232395;26.96027183532715;-0.2034328281879425;86.4301986694336
132;1673388480.6925879;47.130642599999995;7.240618899999999;18.17500114440918;1673388480.847444;26.77396583557129;-1.5585137605667114;86.00605773925781
133;1673388480.9100363;47.130642599999995;7.240618899999999;18.57900047302246;1673388481.0463233;26.90149688720703;1.1027508974075317;86.67755126953125
134;1673388481.123015;47.130642699999996;7.240618899999999;18.98200035095215;1673388481.2836978;26.826250076293945;0.44793620705604553;86.51499938964844
135;1673388481.3349974;47.130642699999996;7.240618899999999;19.381999969482422;1673388481.4822268;26.78757667541504;-1.255228042602539;86.02715301513672
136;1673388481.531368;47.130642699999996;7.240618899999999;19.78900146484375;1673388481.663748;26.6744441986084;1.2088654041290283;86.66136169433594
137;1673388481.7238376;47.130642699999996;7.240619;20.194000244140625;1673388481.8564382;26.783218383789062;0.6986459493637085;86.68270874023438
138;1673388481.9145715;47.130642699999996;7.240619;20.59000015258789;1673388482.0491412;26.83868408203125;-1.647778868675232;85.9850082397461
139;1673388482.111187;47.130642599999995;7.2406191;20.988000869750977;1673388482.2540905;26.80476951599121;0.2561219334602356;86.51586151123047
140;1673388482.3113117;47.130642599999995;7.2406191;21.386001586914062;1673388482.441955;26.887941360473633;1.3807454109191895;86.8797378540039
141;1673388482.5064943;47.130642599999995;7.2406191;21.788000106811523;1673388482.634261;26.79135513305664;-1.3789862394332886;86.1500244140625
142;1673388482.6928988;47.130642599999995;7.240619199999999;22.189001083374023;1673388482.8259118;26.934349060058594;0.2853332459926605;86.58114624023438
143;1673388482.8876138;47.130642599999995;7.240619199999999;22.591001510620117;1673388483.0290134;26.925262451171875;1.1505494117736816;86.8295669555664
144;1673388483.0946884;47.1306425;7.2406193;22.985000610351562;1673388483.2381086;26.844167709350586;-1.340435266494751;86.14586639404297
145;1673388483.298754;47.1306425;7.2406193;23.384000778198242;1673388483.4358342;26.847938537597656;-0.6077237725257874;86.20822143554688
146;1673388483.4837127;47.1306425;7.2406193;23.788002014160156;1673388483.6095395;26.964059829711914;1.3677542209625244;86.79088592529297
147;1673388483.674967;47.130642599999995;7.2406194;24.192001342773438;1673388483.8212335;26.972373962402344;-0.5947594046592712;86.27325439453125
148;1673388483.8868666;47.130642599999995;7.2406194;24.59800148010254;1673388484.0405595;26.88315773010254;-0.8421435356140137;86.16903686523438
149;1673388484.1026385;47.130642599999995;7.2406194;25.003000259399414;1673388484.247015;26.861635208129883;1.3926039934158325;86.92108154296875
150;1673388484.310568;47.130642599999995;7.2406194;25.406002044677734;1673388484.4509382;26.852943420410156;-0.4816945195198059;86.33978271484375
151;1673388484.5108125;47.130642599999995;7.2406194;25.80000114440918;1673388484.6490805;26.802099227905273;-1.399783968925476;86.01565551757812
152;1673388484.719131;47.130642599999995;7.2406194;26.202001571655273;1673388484.8535333;26.825971603393555;1.4596973657608032;86.8443374633789
153;1673388484.9097877;47.130642599999995;7.2406194;26.60700035095215;1673388485.0421145;26.88456916809082;0.08305615931749344;86.55136108398438
154;1673388485.097744;47.130642599999995;7.2406194;27.014001846313477;1673388485.2250519;26.807552337646484;-1.5208215713500977;86.11198425292969
155;1673388485.282064;47.130642599999995;7.2406194;27.418001174926758;1673388485.4293048;26.72677993774414;1.2521308660507202;86.71055603027344
156;1673388485.4869525;47.130642699999996;7.2406194;27.82400131225586;1673388485.6247823;26.85787010192871;0.3237855136394501;86.54742431640625
157;1673388485.684373;47.130642599999995;7.2406194;28.220001220703125;1673388485.8269813;26.687307357788086;-1.5019910335540771;86.01795959472656
158;1673388485.885607;47.130642599999995;7.2406193;28.621002197265625;1673388486.0253015;26.71180534362793;1.093794345855713;86.64887237548828
159;1673388486.0851433;47.130642699999996;7.2406193;29.0210018157959;1673388486.2195966;26.845277786254883;0.9465782642364502;86.7345962524414
160;1673388486.279235;47.1306428;7.2406194;29.42500114440918;1673388486.4141235;26.789779663085938;-1.2918009757995605;86.04569244384766
161;1673388486.4776437;47.1306428;7.240619499999999;29.830001831054688;1673388486.6156135;26.89967918395996;0.7895750403404236;86.5776596069336
162;1673388486.694863;47.1306428;7.240619499999999;30.23400115966797;1673388486.8401947;26.982807159423828;1.2461495399475098;86.74472045898438
163;1673388486.9149556;47.1306428;7.2406196;30.637001037597656;1673388487.046484;26.92608070373535;-1.1821799278259277;86.0364761352539
164;1673388487.1463287;47.1306428;7.2406196;31.029001235961914;1673388487.256432;26.868268966674805;0.4548167288303375;86.45248413085938
165;1673388487.3087654;47.1306428;7.2406196;31.423002243041992;1673388487.4429538;26.92269515991211;1.554132103919983;86.91071319580078
166;1673388487.5070868;47.1306428;7.2406196;31.82000160217285;1673388487.6518312;26.956069946289062;-1.3620703220367432;86.0081787109375
167;1673388487.713874;47.130642699999996;7.2406196;32.217002868652344;1673388487.8463435;26.921823501586914;-0.16007153689861298;86.34671020507812
168;1673388487.9039354;47.130642599999995;7.2406196;32.6140022277832;1673388488.0271947;26.967628479003906;1.5547375679016113;86.87609100341797
169;1673388488.0769708;47.130642599999995;7.2406196;33.01300048828125;1673388488.2244802;26.871662139892578;-1.0715258121490479;86.19696807861328
170;1673388488.304522;47.1306425;7.2406196;33.40299987792969;1673388488.4414084;26.860628128051758;-0.3275699019432068;86.30221557617188
171;1673388488.4990706;47.1306425;7.2406196;33.80000305175781;1673388488.6702557;26.888259887695312;1.718244194984436;86.96955871582031
172;1673388488.7304895;47.130642599999995;7.2406196;34.202003479003906;1673388488.867376;26.964969635009766;-0.7984790205955505;86.31559753417969
173;1673388488.9392433;47.1306425;7.2406196;34.605003356933594;1673388489.0493183;26.887451171875;-0.7481830716133118;86.26863098144531
174;1673388489.104185;47.1306425;7.2406196;35.009002685546875;1673388489.2472484;26.92743682861328;1.3122674226760864;86.90478515625
175;1673388489.3161042;47.1306425;7.2406196;35.40999984741211;1673388489.4532213;26.98877716064453;0.11772007495164871;86.51473999023438
176;1673388489.5000865;47.1306425;7.2406196;35.81100082397461;1673388489.6241925;26.867177963256836;-1.3001444339752197;86.1001205444336
177;1673388489.6818154;47.1306425;7.2406196;36.202003479003906;1673388489.8314078;26.758440017700195;1.613236427307129;86.88528442382812
178;1673388489.8906627;47.130642599999995;7.240619499999999;36.60000228881836;1673388490.0363762;26.85210609436035;0.19473443925380707;86.5137710571289
179;1673388490.0960734;47.130642599999995;7.240619499999999;37.00200271606445;1673388490.2379723;26.798120498657227;-1.47306227684021;86.02018737792969
180;1673388490.2937524;47.1306425;7.240619499999999;37.402000427246094;1673388490.460797;26.867618560791016;1.1867566108703613;86.73050689697266
181;1673388490.517057;47.1306425;7.2406194;37.80000305175781;1673388490.6423135;26.78082275390625;0.7505797743797302;86.64176940917969
182;1673388490.7009335;47.1306425;7.2406194;38.20000076293945;1673388490.8425748;26.676820755004883;-1.3868757486343384;86.00336456298828
183;1673388490.9131596;47.130642599999995;7.2406194;38.59300231933594;1673388491.0428243;26.723560333251953;1.2775251865386963;86.73737335205078
184;1673388491.1023564;47.130642599999995;7.2406194;38.99300003051758;1673388491.2615063;26.715866088867188;1.003282904624939;86.70995330810547
185;1673388491.3266678;47.130642599999995;7.2406193;39.39500045776367;1673388491.4591033;26.614849090576172;-1.51753568649292;86.03952026367188
186;1673388491.520369;47.1306425;7.2406193;39.79900360107422;1673388491.6594963;26.495712280273438;0.35313668847084045;86.58399963378906
187;1673388491.7246408;47.1306425;7.240619199999999;40.202003479003906;1673388491.8463886;26.668251037597656;1.042963981628418;86.71820068359375
188;1673388491.9000711;47.1306425;7.240619199999999;40.604000091552734;1673388492.0287445;26.6663761138916;-1.456716537475586;85.98973083496094
189;1673388492.085595;47.1306425;7.2406193;41.009002685546875;1673388492.2223818;26.76925277709961;0.47181251645088196;86.4441909790039
190;1673388492.285935;47.1306425;7.2406193;41.40500259399414;1673388492.430637;26.802160263061523;1.2639878988265991;86.76073455810547
191;1673388492.506833;47.1306425;7.2406193;41.80800247192383;1673388492.6299798;26.76432991027832;-1.6484971046447754;85.99063110351562
192;1673388492.6895087;47.1306424;7.2406194;42.21200180053711;1673388492.8331711;26.78352928161621;0.029192490503191948;86.46316528320312
193;1673388492.8910432;47.1306425;7.2406194;42.61300277709961;1673388493.0215316;26.786256790161133;1.671137809753418;87.00499725341797
194;1673388493.0801249;47.1306425;7.2406194;43.0150032043457;1673388493.2180007;26.849435806274414;-0.8773661851882935;86.22418212890625
195;1673388493.2795463;47.130642599999995;7.2406194;43.415000915527344;1673388493.4239376;26.706769943237305;-0.28278815746307373;86.27122497558594
196;1673388493.4846218;47.130642599999995;7.240619499999999;43.80500030517578;1673388493.63193;26.772294998168945;1.7552118301391602;86.92241668701172
197;1673388493.687596;47.1306425;7.240619499999999;44.202003479003906;1673388493.8233824;26.747846603393555;-0.7938033938407898;86.36212158203125
198;1673388493.937623;47.1306425;7.2406194;44.60600280761719;1673388494.0619378;26.66717529296875;-0.844990074634552;86.27774047851562
199;1673388494.1143992;47.1306425;7.2406194;45.01000213623047;1673388494.2614753;26.793472290039062;1.5238275527954102;86.87361145019531
200;1673388494.3283794;47.1306425;7.240619499999999;45.413002014160156;1673388494.4655979;26.85700798034668;-0.5014697909355164;86.25371551513672
201;1673388494.521039;47.1306425;7.240619499999999;45.816001892089844;1673388494.6469336;26.79796600341797;-1.0766470432281494;86.00279998779297
202;1673388494.7045631;47.1306425;7.240619499999999;46.217002868652344;1673388494.8328884;26.822330474853516;1.5872904062271118;86.82940673828125
203;1673388494.9181063;47.1306425;7.240619499999999;46.60900115966797;1673388495.062969;26.795013427734375;0.1291242390871048;86.47686004638672
204;1673388495.1211987;47.1306425;7.2406196;47.00400161743164;1673388495.291973;26.83510398864746;-1.2244948148727417;86.0501708984375
205;1673388495.3769646;47.1306425;7.240619499999999;47.40300369262695;1673388495.4878595;26.78607177734375;1.4126746654510498;86.81157684326172
206;1673388495.5384033;47.1306425;7.2406196;47.80400085449219;1673388495.6561098;26.920433044433594;0.28438839316368103;86.72824096679688
207;1673388495.7222097;47.130642599999995;7.2406196;48.19600296020508;1673388495.8528755;26.952314376831055;-0.8504160046577454;86.13570404052734
208;1673388495.9124212;47.130642599999995;7.240619799999999;48.540000915527344;1673388496.0549188;27.02531623840332;1.232935905456543;86.60806274414062
209;1673388496.1337733;47.130642599999995;7.24062;48.82100296020508;1673388496.2689545;27.23551368713379;0.9058704376220703;86.71434783935547
210;1673388496.326244;47.130642599999995;7.2406204;49.06100082397461;1673388496.448852;27.709436416625977;-1.8149478435516357;85.9010238647461
211;1673388496.5074651;47.1306425;7.240620799999999;49.2660026550293;1673388496.6513467;32.8914909362793;5.55409574508667;87.70967864990234
212;1673388496.711895;47.1306425;7.240621099999999;49.448001861572266;1673388496.844789;44.43580627441406;24.3243465423584;98.05625915527344
213;1673388496.907274;47.1306418;7.2406204999999995;49.61300277709961;1673388497.0567024;48.26370620727539;40.72014236450195;109.47034454345703
214;1673388497.1194403;47.130639599999995;7.2406177;49.750003814697266;1673388497.2593691;46.451969146728516;49.828861236572266;114.96699523925781
215;1673388497.3205185;47.1306355;7.2406121;49.849002838134766;1673388497.4487202;32.52787780761719;48.3329963684082;120.10359954833984
216;1673388497.5043433;47.130629299999995;7.2406045;49.86600112915039;1673388497.6470284;16.666513442993164;43.26356506347656;136.51882934570312
217;1673388497.702708;47.1306223;7.2405957;49.87000274658203;1673388497.8447201;1.3714851140975952;45.41449737548828;150.41436767578125
218;1673388497.9043083;47.1306149;7.2405862;49.88100051879883;1673388498.0373092;-13.284730911254883;43.344547271728516;160.523193359375
219;1673388498.0959775;47.1306069;7.2405764999999995;49.88500213623047;1673388498.26374;-25.44685935974121;41.09109115600586;169.94583129882812
220;1673388498.3530037;47.1305984;7.2405665;49.887001037597656;1673388498.508111;-35.07533264160156;39.259986877441406;178.96585083007812
221;1673388498.5611377;47.130589099999995;7.2405564;49.88500213623047;1673388498.6844172;-43.130943298339844;34.847618103027344;-169.62567138671875
222;1673388498.7406821;47.130578899999996;7.240545699999999;49.87700271606445;1673388498.8723369;-48.480438232421875;30.569561004638672;-157.8848114013672
223;1673388498.921098;47.130568;7.2405341;49.86300277709961;1673388499.041125;-45.38746643066406;23.33179473876953;-149.94764709472656
224;1673388499.1036701;47.1305568;7.2405218;49.827003479003906;1673388499.2211974;-44.33755111694336;18.921531677246094;-144.79513549804688
225;1673388499.2735355;47.130545399999995;7.2405092;49.78900146484375;1673388499.4127982;-46.796756744384766;15.453628540039062;-137.9767608642578
226;1673388499.4769037;47.130533899999996;7.2404962;49.77100372314453;1673388499.6207123;-48.15382385253906;11.601683616638184;-130.46890258789062
227;1673388499.6881292;47.1305225;7.2404829;49.76700210571289;1673388499.8406928;-48.178245544433594;5.839205265045166;-127.02069091796875
228;1673388499.9013655;47.1305112;7.2404692;49.75400161743164;1673388500.0513554;-44.55229187011719;5.252030372619629;-130.7451629638672
229;1673388500.1140285;47.130499699999994;7.2404557;49.724002838134766;1673388500.253084;-43.782901763916016;6.326187610626221;-133.36717224121094
230;1673388500.3158276;47.130488;7.2404426;49.70500183105469;1673388500.4549065;-46.07261276245117;7.587764263153076;-134.2390899658203
231;1673388500.5191915;47.1304762;7.240429799999999;49.70100402832031;1673388500.6453505;-47.93843078613281;8.782426834106445;-134.5486602783203
232;1673388500.7140532;47.1304641;7.240417099999999;49.711002349853516;1673388500.8622313;-48.690086364746094;9.778717994689941;-134.61907958984375
233;1673388500.9258885;47.1304519;7.2404043;49.72600173950195;1673388501.0534608;-48.528480529785156;10.395934104919434;-134.5027618408203
234;1673388501.115985;47.1304394;7.2403913;49.74100112915039;1673388501.2501543;-48.104427337646484;10.798394203186035;-134.36404418945312
235;1673388501.3058362;47.130426899999996;7.240378;49.742000579833984;1673388501.435896;-46.618350982666016;13.429780960083008;-134.08859252929688
236;1673388501.4983408;47.1304145;7.2403645;49.749000549316406;1673388501.6556013;-44.6505126953125;12.222657203674316;-125.3663558959961
237;1673388501.7064462;47.1304024;7.2403508;49.75400161743164;1673388501.8297536;-41.832054138183594;5.311328411102295;-113.99559783935547
238;1673388501.890072;47.130390899999995;7.240336999999999;49.75200271606445;1673388502.017775;-41.6466064453125;-0.7577424645423889;-105.16069030761719
239;1673388502.093037;47.1303802;7.2403233;49.75800323486328;1673388502.236779;-40.907615661621094;-6.799150466918945;-96.28089141845703
240;1673388502.298528;47.1303701;7.2403097999999995;49.7660026550293;1673388502.4470973;-39.30763244628906;-12.542412757873535;-87.07353210449219
241;1673388502.5056605;47.130360599999996;7.2402966;49.77100372314453;1673388502.6300406;-36.68500900268555;-17.708812713623047;-77.78953552246094
242;1673388502.6905506;47.1303516;7.2402836;49.76300048828125;1673388502.8201094;-32.2901611328125;-21.445775985717773;-68.42938995361328
243;1673388502.879201;47.1303431;7.2402709;49.75800323486328;1673388503.024244;-28.830476760864258;-24.646554946899414;-58.197845458984375
244;1673388503.0932684;47.1303353;7.2402587;49.76700210571289;1673388503.2308595;-28.07868003845215;-32.58976745605469;-47.19322204589844
245;1673388503.2934887;47.130328;7.2402466;49.803001403808594;1673388503.4278119;-26.249948501586914;-44.759647369384766;-36.86348342895508
246;1673388503.4888723;47.1303212;7.240234;49.87200164794922;1673388503.627542;-22.958702087402344;-46.742034912109375;-36.59199142456055
247;1673388503.6910644;47.1303145;7.2402204;49.932003021240234;1673388503.8341835;-25.179393768310547;-41.356163024902344;-46.49116897583008
248;1673388503.8937693;47.1303078;7.240206199999999;49.94900131225586;1673388504.0244098;-34.46575927734375;-33.098358154296875;-61.24532699584961
249;1673388504.0933387;47.1303008;7.2401917;49.97100067138672;1673388504.224834;-45.413177490234375;-21.257572174072266;-78.63618469238281
250;1673388504.2859745;47.130293699999996;7.2401769;50.01300048828125;1673388504.4313476;-48.037166595458984;-11.240045547485352;-88.49984741210938
251;1673388504.4885302;47.1302867;7.2401618;50.03900146484375;1673388504.6413097;-53.29037094116211;-11.874024391174316;-94.44330596923828
252;1673388504.700827;47.130279699999996;7.240145999999999;50.06200408935547;1673388504.8347874;-51.8356819152832;-16.230844497680664;-101.36297607421875
253;1673388504.8934917;47.1302722;7.2401295999999995;50.06800079345703;1673388505.033966;-43.5247802734375;-17.43090057373047;-110.9355239868164
254;1673388505.09467;47.130263799999994;7.2401136;50.044002532958984;1673388505.2203023;-34.7249870300293;-13.30314826965332;-120.75602722167969
255;1673388505.2786381;47.1302543;7.2400991999999995;49.99500274658203;1673388505.4169385;-33.61620330810547;-7.3804850578308105;-128.5362091064453
256;1673388505.4717643;47.1302442;7.2400866;49.954002380371094;1673388505.6132545;-38.265724182128906;-0.4565446674823761;-137.26358032226562
257;1673388505.6730034;47.1302336;7.240075699999999;49.941001892089844;1673388505.810345;-45.99285125732422;6.721599102020264;-142.74305725097656
258;1673388505.874374;47.1302224;7.240065899999999;49.967002868652344;1673388506.0245905;-51.305641174316406;14.350226402282715;-141.60067749023438
259;1673388506.0927026;47.130210399999996;7.2400559;50.005001068115234;1673388506.2349906;-53.12617874145508;17.00198745727539;-137.7719268798828
260;1673388506.2952557;47.1301979;7.2400449;50.0410041809082;1673388506.435744;-49.36327362060547;14.968242645263672;-134.6649627685547
261;1673388506.500483;47.130185399999995;7.2400326999999995;50.053001403808594;1673388506.6452324;-48.94554901123047;13.213420867919922;-133.97918701171875
262;1673388506.710678;47.130173;7.2400196999999995;50.066001892089844;1673388506.8435988;-48.585968017578125;11.886555671691895;-133.4622344970703
263;1673388506.9042554;47.1301607;7.2400063999999995;50.07100296020508;1673388507.0337143;-48.37544631958008;11.243995666503906;-133.07508850097656
264;1673388507.0910015;47.130148399999996;7.2399926;50.070003509521484;1673388507.2253094;-48.0986213684082;11.49960708618164;-133.18475341796875
265;1673388507.282648;47.130136099999994;7.2399784;50.073001861572266;1673388507.4302518;-46.24952697753906;13.017498016357422;-132.833251953125
266;1673388507.490332;47.1301239;7.2399641;50.07200241088867;1673388507.656484;-45.428565979003906;12.946653366088867;-125.66950225830078
267;1673388507.7253723;47.1301121;7.2399493999999995;50.057003021240234;1673388507.853025;-42.95426559448242;6.011735439300537;-114.59516143798828
268;1673388507.9098358;47.130100899999995;7.2399346;50.03300094604492;1673388508.0454388;-42.22993850708008;-0.13299192488193512;-105.89295196533203
269;1673388508.10107;47.1300903;7.2399198;50.01300048828125;1673388508.2418354;-41.65513229370117;-6.240780353546143;-97.17253875732422
270;1673388508.3052602;47.1300804;7.239905299999999;49.99400329589844;1673388508.4520447;-38.87157440185547;-11.647971153259277;-88.2156753540039
271;1673388508.5107331;47.130071;7.2398910999999995;49.97300338745117;1673388508.6554236;-34.63134765625;-16.648136138916016;-78.69334411621094
272;1673388508.7120645;47.1300622;7.2398773;49.94900131225586;1673388508.854058;-31.193553924560547;-22.60733413696289;-69.15882110595703
273;1673388508.9214015;47.1300538;7.2398641999999995;49.941001892089844;1673388509.1062088;-36.65836715698242;-30.888023376464844;-67.74150085449219
274;1673388509.1565096;47.130045599999995;7.2398511999999995;49.952003479003906;1673388509.2626514;-41.236915588378906;-34.670345306396484;-83.766845703125
275;1673388509.3094985;47.130036999999994;7.239838;49.98100280761719;1673388509.4313834;-46.7844352722168;-25.976640701293945;-101.17244720458984
276;1673388509.48364;47.1300271;7.239825;49.99500274658203;1673388509.6155176;-45.29970932006836;-17.663074493408203;-110.60690307617188
277;1673388509.676136;47.1300161;7.239812499999999;49.99500274658203;1673388509.8169901;-46.3194694519043;-12.34964656829834;-117.21051025390625
278;1673388509.8807127;47.130004199999995;7.239800499999999;50.00200271606445;1673388510.040983;-46.942176818847656;-0.35872337222099304;-120.28414916992188
279;1673388510.1050985;47.1299917;7.2397889;50.000003814697266;1673388510.2449203;-39.376190185546875;-3.090085983276367;-104.17831420898438
280;1673388510.3123105;47.1299795;7.2397772;49.974002838134766;1673388510.456041;-35.33632278442383;-4.907126426696777;-91.22164154052734
281;1673388510.5197346;47.1299681;7.2397659;49.94300079345703;1673388510.6601386;-36.407798767089844;-6.30312967300415;-80.74769592285156
282;1673388510.7277253;47.1299577;7.2397548;49.927001953125;1673388510.8569329;-43.10026168823242;-1.725932002067566;-73.8108901977539
283;1673388510.916469;47.129948899999995;7.2397439;49.932003021240234;1673388511.0581927;-45.39238357543945;0.7824007868766785;-63.41494369506836
284;1673388511.1128402;47.1299421;7.2397328;49.94200134277344;1673388511.2809656;-45.136600494384766;0.6002023220062256;-51.18812942504883
285;1673388511.3317847;47.129937999999996;7.2397218;49.96600341796875;1673388511.465767;-44.73649597167969;-7.438790321350098;-38.4295768737793
286;1673388511.5190508;47.1299369;7.239711499999999;50.00700378417969;1673388511.6431923;-36.014774322509766;-11.772900581359863;-37.451969146728516
287;1673388511.6984742;47.129937999999996;7.2397019;50.048004150390625;1673388511.832445;-29.239604949951172;-6.265661716461182;-47.96172332763672
288;1673388511.896718;47.1299403;7.2396933;50.08700180053711;1673388512.0321293;-27.025148391723633;-1.0229824781417847;-62.204078674316406
289;1673388512.0921974;47.1299433;7.2396859;50.117000579833984;1673388512.2390723;-25.561344146728516;4.693868637084961;-74.23957824707031
290;1673388512.321277;47.1299467;7.2396797;50.137001037597656;1673388512.4651995;-26.34191131591797;8.292553901672363;-82.86607360839844
291;1673388512.5283105;47.1299503;7.2396746;50.15400314331055;1673388512.6529136;-28.658300399780273;9.174703598022461;-91.90074920654297
292;1673388512.7114747;47.1299543;7.2396704;50.16800308227539;1673388512.8565385;-32.21855545043945;7.970062732696533;-100.66192626953125
293;1673388512.9141407;47.1299583;7.2396664;50.18000411987305;1673388513.0478194;-33.725616455078125;6.362176895141602;-109.8636474609375
294;1673388513.1074436;47.1299619;7.2396623;50.185001373291016;1673388513.2531188;-33.89037322998047;0.5438892245292664;-118.55793762207031
295;1673388513.319646;47.129964699999995;7.2396584;50.18400192260742;1673388513.4916322;-42.6742057800293;-7.178074836730957;-127.50760650634766
296;1673388513.5405388;47.129965999999996;7.2396547;50.185001373291016;1673388513.6547663;-52.306129455566406;-10.12222957611084;-138.0307159423828
297;1673388513.705686;47.1299645;7.2396515;50.17400360107422;1673388513.8323343;-54.95810317993164;0.5796047449111938;-145.93092346191406
298;1673388513.8953524;47.129959899999996;7.2396487;50.15200424194336;1673388514.036577;-51.780277252197266;-2.171886920928955;-142.6819305419922
299;1673388514.1074328;47.1299527;7.2396458;50.12200164794922;1673388514.2568185;-50.71731948852539;-1.1690574884414673;-139.220947265625
300;1673388514.3184543;47.1299432;7.2396426;50.10200119018555;1673388514.4490361;-50.37028121948242;-0.9521589279174805;-137.4778289794922
301;1673388514.5194726;47.1299321;7.2396389999999995;50.090003967285156;1673388514.6584024;-51.82119369506836;3.5366125106811523;-137.38536071777344
302;1673388514.7140293;47.129919699999995;7.2396346;50.090003967285156;1673388514.8735378;-56.22294616699219;6.203155517578125;-137.1785125732422
303;1673388514.9292972;47.1299062;7.2396289;50.10100173950195;1673388515.065101;-54.415985107421875;7.415672779083252;-136.37698364257812
304;1673388515.1276407;47.1298919;7.239622;50.09600067138672;1673388515.246426;-53.212284088134766;7.986520767211914;-135.98220825195312
305;1673388515.3036401;47.129877099999995;7.2396137;50.08000183105469;1673388515.4485233;-50.466121673583984;7.792013645172119;-135.38548278808594
306;1673388515.5071886;47.129861999999996;7.239604399999999;50.06300354003906;1673388515.6251993;-48.8818244934082;9.629758834838867;-134.4158172607422
307;1673388515.6874542;47.129847;7.239594599999999;50.0420036315918;1673388515.8399768;-45.7424201965332;6.425353050231934;-124.71942138671875
308;1673388515.9049408;47.129832099999994;7.239584;50.01100158691406;1673388516.0433838;-40.47840881347656;1.0509049892425537;-113.92829895019531
309;1673388516.1031563;47.1298179;7.239573099999999;49.967002868652344;1673388516.2355072;-39.83066177368164;-3.9227938652038574;-105.14334106445312
310;1673388516.3220627;47.1298044;7.2395621;49.932003021240234;1673388516.4467475;-38.20226287841797;-8.917779922485352;-95.83899688720703
311;1673388516.5049448;47.1297918;7.2395513;49.900001525878906;1673388516.6376865;-36.6137580871582;-14.820530891418457;-86.02186584472656
312;1673388516.7016823;47.129779799999994;7.2395406;49.875003814697266;1673388516.8640137;-35.4548225402832;-20.652978897094727;-76.35966491699219
313;1673388516.9798203;47.1297687;7.2395301;49.86300277709961;1673388517.1061704;-32.37961959838867;-26.566720962524414;-66.62791442871094
314;1673388517.1816607;47.1297581;7.2395195999999995;49.8640022277832;1673388517.298239;-30.356924057006836;-35.70772171020508;-56.34178161621094
315;1673388517.349002;47.1297479;7.239508799999999;49.88500213623047;1673388517.47029;-25.083675384521484;-42.6371955871582;-46.29674530029297
316;1673388517.5294714;47.129737999999996;7.2394975;49.91100311279297;1673388517.6618679;-18.010679244995117;-45.32616424560547;-36.59025955200195
317;1673388517.7184768;47.1297283;7.2394855;49.93800354003906;1673388517.8574033;-13.182921409606934;-45.29296112060547;-35.17093276977539
318;1673388517.9179158;47.1297187;7.2394728;49.9530029296875;1673388518.0534325;-12.653182983398438;-41.56853103637695;-39.888221740722656
319;1673388518.1176891;47.1297092;7.2394601;49.961002349853516;1673388518.2463608;-17.400693893432617;-41.49203109741211;-42.778778076171875
320;1673388518.3255177;47.1296998;7.2394473999999995;49.974002838134766;1673388518.4620824;-24.190017700195312;-45.25048065185547;-44.02861785888672
321;1673388518.5212896;47.1296903;7.2394343999999995;50.00100326538086;1673388518.6607878;-29.39837646484375;-43.980464935302734;-46.60737609863281
322;1673388518.734131;47.129680799999996;7.2394207999999995;50.018001556396484;1673388518.8737977;-35.979469299316406;-42.269649505615234;-48.3339729309082
323;1673388518.9345474;47.1296715;7.2394061;50.03200149536133;1673388519.0637324;-39.33926010131836;-37.66066360473633;-51.14863204956055
324;1673388519.1291792;47.1296624;7.2393905;50.02900314331055;1673388519.2567775;-38.543033599853516;-26.45802116394043;-52.2955207824707
325;1673388519.3121579;47.129654099999996;7.2393744;50.000003814697266;1673388519.4494781;-38.009925842285156;-18.093666076660156;-49.91709899902344
326;1673388519.5090294;47.1296471;7.239358299999999;49.96600341796875;1673388519.6458263;-45.07956314086914;-12.250990867614746;-48.61324691772461
327;1673388519.7099125;47.129641799999995;7.2393426;49.94700241088867;1673388519.848231;-46.95976257324219;-7.318652153015137;-46.86079025268555
328;1673388519.9083097;47.129638799999995;7.239327299999999;49.93400192260742;1673388520.0378027;-47.488685607910156;-6.469021320343018;-46.065956115722656
329;1673388520.0972376;47.129638299999996;7.239312399999999;49.93300247192383;1673388520.2297854;-44.87473678588867;-4.059081077575684;-47.188697814941406
330;1673388520.2967875;47.1296399;7.2392983;49.93400192260742;1673388520.4409325;-46.364017486572266;-8.44595718383789;-49.56416320800781
331;1673388520.5058959;47.1296433;7.2392845999999995;49.948001861572266;1673388520.6530867;-48.121246337890625;-13.080854415893555;-56.60885238647461
332;1673388520.707456;47.129647899999995;7.2392708;49.98400115966797;1673388520.841844;-45.09373474121094;-9.411212921142578;-68.28392791748047
333;1673388520.9009123;47.129652899999996;7.2392563999999995;50.03000259399414;1673388521.0486655;-34.58527755737305;-16.269691467285156;-76.30821228027344
334;1673388521.1068988;47.129657699999996;7.2392422;50.06100082397461;1673388521.2412355;-28.15836524963379;-33.40627670288086;-86.00727844238281
335;1673388521.3012998;47.129661;7.2392292;50.082000732421875;1673388521.4435878;-26.14481544494629;-47.39739227294922;-96.77888488769531
336;1673388521.4990737;47.1296616;7.2392182;50.053001403808594;1673388521.6427138;-22.373783111572266;-38.726924896240234;-107.94549560546875
337;1673388521.7113276;47.129658899999995;7.239210399999999;49.99800109863281;1673388521.8560305;-21.650972366333008;-32.026763916015625;-116.17488861083984
338;1673388521.9189625;47.1296538;7.239205699999999;49.948001861572266;1673388522.0537384;-29.282447814941406;-32.626068115234375;-123.11805725097656
339;1673388522.1086185;47.1296465;7.2392042;49.923004150390625;1673388522.2468781;-40.101829528808594;-28.0913028717041;-131.92413330078125
340;1673388522.31185;47.1296371;7.2392050999999995;49.9170036315918;1673388522.4663026;-48.68363952636719;-12.361349105834961;-143.38502502441406
341;1673388522.5289388;47.1296256;7.239207599999999;49.93700408935547;1673388522.6593034;-53.64270782470703;7.769462585449219;-147.88916015625
342;1673388522.7135673;47.1296122;7.23921;49.97100067138672;1673388522.8520448;-52.79906463623047;13.920232772827148;-140.84176635742188
343;1673388522.9067445;47.1295978;7.239210399999999;50.0150032043457;1673388523.042121;-45.588253021240234;21.971899032592773;-137.49371337890625
344;1673388523.1025672;47.1295834;7.2392085999999995;50.05800247192383;1673388523.2377818;-36.51750183105469;34.93935775756836;-134.75514221191406
345;1673388523.3005173;47.129570199999996;7.239204699999999;50.09600067138672;1673388523.4438474;-21.385936737060547;46.80953598022461;-128.70599365234375
346;1673388523.50507;47.12956;7.2391992;50.1150016784668;1673388523.6286957;-16.277456283569336;44.67983627319336;-117.48057556152344
347;1673388523.6876955;47.1295529;7.2391931;50.08400344848633;1673388523.822788;-21.29983139038086;37.33236312866211;-109.44397735595703
348;1673388523.881036;47.129549;7.2391872;50.05800247192383;1673388524.0339174;-32.688079833984375;39.03717041015625;-103.14153289794922
349;1673388524.0962274;47.129548;7.2391817;50.053001403808594;1673388524.2633677;-43.19499206542969;27.220767974853516;-90.40784454345703
350;1673388524.3151987;47.1295497;7.2391758;50.05400085449219;1673388524.45371;-44.38383102416992;10.144619941711426;-80.17900085449219
351;1673388524.5089567;47.1295533;7.2391692999999995;50.070003509521484;1673388524.6542602;-39.60289001464844;7.494523048400879;-89.78719329833984
352;1673388524.7144089;47.1295577;7.239161999999999;50.0890007019043;1673388524.8498483;-36.626895904541016;15.091937065124512;-105.15739440917969
353;1673388524.9050746;47.129562299999996;7.2391546;50.11000061035156;1673388525.0364058;-35.81140899658203;21.197450637817383;-117.46905517578125
354;1673388525.0916142;47.1295668;7.239147;50.13200378417969;1673388525.2240365;-31.815698623657227;23.627042770385742;-125.99031829833984
355;1673388525.2821782;47.1295711;7.239139;50.150001525878906;1673388525.429769;-27.57699966430664;21.494544982910156;-135.79421997070312
356;1673388525.4975147;47.129574999999996;7.2391312;50.15300369262695;1673388525.648325;-30.272397994995117;19.444564819335938;-145.0778045654297
357;1673388525.7293837;47.129578099999996;7.2391236;50.15800094604492;1673388525.864994;-39.731231689453125;7.194887638092041;-144.4704132080078
358;1673388525.9276817;47.129579799999995;7.2391166;50.15900421142578;1673388526.1234705;-49.41225051879883;-9.620159149169922;-140.07456970214844
359;1673388526.1718907;47.1295791;7.2391106;50.1510009765625;1673388526.2987149;-52.93063735961914;-10.230792045593262;-140.07510375976562
360;1673388526.3543456;47.1295754;7.2391057;50.13900375366211;1673388526.4736009;-56.30464553833008;-9.627486228942871;-139.42552185058594
361;1673388526.5307646;47.1295686;7.239101499999999;50.12200164794922;1673388526.6720428;-49.28203582763672;-8.188793182373047;-141.31907653808594
362;1673388526.7267377;47.129559199999996;7.2390979;50.086002349853516;1673388526.8691163;-45.26310348510742;-3.455641269683838;-140.477294921875
363;1673388526.9283395;47.129548;7.2390948999999996;50.05800247192383;1673388527.072851;-52.353981018066406;-1.6761131286621094;-138.5740966796875
364;1673388527.1281433;47.1295353;7.2390919;50.06200408935547;1673388527.26838;-55.22871398925781;2.217902660369873;-138.29518127441406
365;1673388527.3336215;47.1295212;7.2390881;50.07500076293945;1673388527.4685233;-57.2042236328125;6.693063259124756;-138.0116729736328
366;1673388527.536064;47.129506;7.2390829;50.08100128173828;1673388527.6889608;-54.29475021362305;8.314895629882812;-137.2538299560547
367;1673388527.7449179;47.1294902;7.2390763;50.05900192260742;1673388527.8642309;-50.07301712036133;7.8137054443359375;-135.6242218017578
368;1673388527.9176197;47.1294742;7.2390685999999995;50.02000427246094;1673388528.0619745;-48.538002014160156;8.207820892333984;-134.59280395507812
369;1673388528.1217544;47.129458199999995;7.239059999999999;49.980003356933594;1673388528.2503433;-43.514854431152344;5.114480018615723;-125.84102630615234
370;1673388528.3045838;47.129442499999996;7.2390509;49.928001403808594;1673388528.4469016;-39.584590911865234;-0.20791460573673248;-114.5680160522461
371;1673388528.5649042;47.1294275;7.2390415;49.87600326538086;1673388528.6847885;-38.72644805908203;-4.838778018951416;-105.45103454589844
372;1673388528.7347188;47.129413299999996;7.2390323;49.8390007019043;1673388528.8800685;-38.0847282409668;-10.41306209564209;-95.73326110839844
373;1673388528.9289088;47.1294;7.2390229999999995;49.814002990722656;1673388529.070592;-38.77081298828125;-16.683204650878906;-86.38195037841797
374;1673388529.1291957;47.1293873;7.2390136;49.80500411987305;1673388529.27857;-35.80055618286133;-22.59611701965332;-76.90839385986328
375;1673388529.3470428;47.1293752;7.2390039999999996;49.803001403808594;1673388529.4716177;-33.6657829284668;-30.18111228942871;-67.09601593017578
376;1673388529.5199873;47.1293637;7.238994099999999;49.81100082397461;1673388529.6660876;-28.73716163635254;-36.135353088378906;-57.133567810058594
377;1673388529.734998;47.129352399999995;7.2389839;49.823001861572266;1673388529.8664536;-22.155113220214844;-41.4620475769043;-46.308650970458984
378;1673388529.9227486;47.129341499999995;7.2389734;49.84600067138672;1673388530.0553348;-16.2846736907959;-48.94736862182617;-35.76454162597656
379;1673388530.1103477;47.1293308;7.238962;49.87800216674805;1673388530.2468796;-11.611225128173828;-46.6962890625;-35.596275329589844
380;1673388530.3075938;47.129320199999995;7.2389499;49.893001556396484;1673388530.4624786;-11.94773006439209;-40.07535171508789;-40.18659210205078
381;1673388530.5226417;47.1293097;7.238937699999999;49.88900375366211;1673388530.663641;-16.701265335083008;-40.38502502441406;-42.33613204956055
382;1673388530.7278967;47.1292993;7.2389256;49.89400100708008;1673388530.8736112;-22.446033477783203;-43.53672790527344;-43.73814010620117
383;1673388530.9278393;47.129289;7.2389133;49.913002014160156;1673388531.0615456;-27.92521095275879;-42.648380279541016;-45.53131866455078
384;1673388531.1104362;47.129279;7.2389005;49.935001373291016;1673388531.2370238;-35.9969482421875;-41.22085189819336;-45.69206237792969
385;1673388531.3051324;47.1292693;7.2388866;49.952003479003906;1673388531.439959;-39.84790802001953;-34.82929992675781;-47.24089431762695
386;1673388531.508159;47.1292603;7.2388717;49.95900344848633;1673388531.6622403;-44.26903533935547;-26.86056137084961;-48.489444732666016
387;1673388531.7298942;47.1292525;7.238855999999999;49.9640007019043;1673388531.8651593;-47.82708740234375;-16.972000122070312;-50.73404312133789
388;1673388531.9264202;47.1292463;7.2388395999999995;49.965003967285156;1673388532.0617135;-45.637359619140625;-5.929194450378418;-50.440433502197266
389;1673388532.1125064;47.1292422;7.2388233;49.952003479003906;1673388532.2509494;-44.72614288330078;-0.3977307677268982;-48.815345764160156
390;1673388532.3098931;47.129240599999996;7.238807899999999;49.94200134277344;1673388532.4765346;-44.880680084228516;7.759068965911865;-49.59614181518555
391;1673388532.5391915;47.1292416;7.2387936999999996;49.93100357055664;1673388532.6575012;-43.9468879699707;4.848961353302002;-47.5993537902832
392;1673388532.7145548;47.129244899999996;7.2387812;49.93800354003906;1673388532.8460438;-42.65106964111328;-4.479151248931885;-46.961429595947266
393;1673388532.902365;47.1292502;7.2387698;49.97700119018555;1673388533.0336983;-37.89548110961914;-10.408308982849121;-46.26327896118164
394;1673388533.0967221;47.1292566;7.238759;50.02300262451172;1673388533.233504;-34.50117492675781;-21.051189422607422;-52.16685104370117
395;1673388533.2934358;47.1292632;7.2387486999999995;50.057003021240234;1673388533.4324603;-31.385120391845703;-30.87847137451172;-65.02056884765625
396;1673388533.4945066;47.1292689;7.2387384;50.08500289916992;1673388533.636847;-26.38679313659668;-44.00243377685547;-75.96986389160156
397;1673388533.6999378;47.1292724;7.2387286;50.090003967285156;1673388533.8362226;-25.502058029174805;-45.983238220214844;-87.58448791503906
398;1673388533.9354665;47.1292725;7.2387201;50.044002532958984;1673388534.0899773;-26.41581916809082;-35.89203643798828;-95.19274139404297
399;1673388534.1457093;47.1292696;7.2387133;50.00800323486328;1673388534.3048437;-34.16086959838867;-33.47521209716797;-101.71906280517578
400;1673388534.372223;47.129264299999996;7.238708;49.987003326416016;1673388534.5157957;-42.7940673828125;-23.591411590576172;-113.47348022460938
401;1673388534.6117904;47.1292568;7.238703699999999;49.97700119018555;1673388534.7255788;-49.60459899902344;-11.784895896911621;-123.91697692871094
402;1673388534.7715669;47.129247299999996;7.2386995;49.98600387573242;1673388534.8769896;-51.74605941772461;2.0524508953094482;-132.9211883544922
403;1673388534.927947;47.1292362;7.238694799999999;50.018001556396484;1673388535.0626142;-53.17290496826172;18.584972381591797;-140.77606201171875
404;1673388535.1165297;47.129224199999996;7.2386887;50.060001373291016;1673388535.252783;-54.43072509765625;28.057161331176758;-140.4708709716797
405;1673388535.3197036;47.1292121;7.2386802999999995;50.07400131225586;1673388535.4433148;-47.10817337036133;25.451717376708984;-132.09494018554688
406;1673388535.505713;47.129200499999996;7.238669799999999;50.060001373291016;1673388535.6457572;-40.984413146972656;28.418560028076172;-128.27139282226562
407;1673388535.7117164;47.129190099999995;7.238658099999999;50.035003662109375;1673388535.8364847;-37.74152755737305;26.95237922668457;-124.23329162597656
408;1673388535.8966122;47.1291813;7.2386453;50.01400375366211;1673388536.0282607;-37.406333923339844;22.37362289428711;-121.10896301269531
409;1673388536.0895178;47.1291741;7.238632099999999;50.018001556396484;1673388536.2442126;-30.54020881652832;19.188356399536133;-121.90091705322266
410;1673388536.310286;47.129168;7.2386189;50.03900146484375;1673388536.440771;-21.871620178222656;17.03134536743164;-123.59032440185547
411;1673388536.5086546;47.1291629;7.2386067999999995;50.05500411987305;1673388536.6508636;-14.816609382629395;14.426834106445312;-125.80366516113281
412;1673388536.7198024;47.1291587;7.238596299999999;50.06500244140625;1673388536.8642282;-10.39580249786377;12.63305377960205;-127.77470397949219
413;1673388536.9376776;47.1291552;7.2385877;50.06700134277344;1673388537.0611985;-9.47828197479248;12.133665084838867;-129.3582763671875
414;1673388537.1182487;47.129152399999995;7.2385813;50.06900405883789;1673388537.247723;-23.722972869873047;9.975173950195312;-133.140380859375
415;1673388537.3114982;47.1291501;7.238576699999999;50.130001068115234;1673388537.44573;-45.4741325378418;12.62238597869873;-141.02828979492188
416;1673388537.5166078;47.129146999999996;7.238572;50.297000885009766;1673388537.6687355;-46.65276336669922;7.642034530639648;-138.93838500976562
417;1673388537.7337523;47.1291419;7.2385661;50.52800369262695;1673388537.8923473;-28.404741287231445;-1.0735409259796143;-134.0404815673828
418;1673388537.9539695;47.1291357;7.238560199999999;50.82600402832031;1673388538.085567;-21.55963706970215;8.18677043914795;-136.1450958251953
