;pos_time;latitude;longitude;altitude;alt_time;pitch;roll;yaw
0;1673377584.571034;47.1306424;7.240619799999999;0.004000000189989805;1673377584.734684;0.1523982733488083;-0.12695126235485077;90.21221160888672
1;1673377584.7831323;47.1306424;7.240619799999999;0.006000000052154064;1673377584.9461496;0.07842844724655151;-0.10659437626600266;90.35554504394531
2;1673377584.998846;47.1306424;7.240619799999999;0.003000000026077032;1673377585.166128;0.18968456983566284;-0.053752731531858444;90.35082244873047
3;1673377585.2032151;47.1306424;7.240619799999999;0.0020000000949949026;1673377585.3516986;-0.10130733251571655;-0.09517858922481537;90.32461547851562
4;1673377585.4036047;47.1306424;7.2406198999999996;0.0;1673377585.5653327;-0.13939858973026276;-0.08000577986240387;90.18069458007812
5;1673377585.6094122;47.1306424;7.2406198999999996;-0.0010000000474974513;1673377585.7417278;-0.15005318820476532;-0.2229492962360382;90.32205200195312
6;1673377585.7911453;47.1306424;7.24062;-0.0020000000949949026;1673377585.9428499;-0.10588327795267105;0.039773572236299515;90.16095733642578
7;1673377585.981461;47.1306424;7.24062;-0.0020000000949949026;1673377586.1801841;-0.10719747841358185;-0.2757300138473511;90.21888732910156
8;1673377586.2094643;47.1306424;7.24062;-0.0010000000474974513;1673377586.389742;-0.06179315969347954;-0.06601647287607193;90.20711517333984
9;1673377586.4151192;47.1306425;7.24062;-0.0020000000949949026;1673377586.5624733;0.02568330615758896;-0.18907183408737183;90.37613677978516
10;1673377586.59581;47.1306425;7.2406198999999996;-0.003000000026077032;1673377586.7549257;-0.07965589314699173;-0.1154235303401947;90.18013763427734
11;1673377586.7949753;47.1306425;7.2406198999999996;-0.004000000189989805;1673377586.97775;-0.11216765642166138;-0.3053165376186371;90.2245101928711
12;1673377587.0060217;47.130642599999995;7.240619799999999;-0.00800000037997961;1673377587.1585746;-0.018161147832870483;0.04282993823289871;90.1329574584961
13;1673377587.2103033;47.130642599999995;7.240619799999999;-0.003000000026077032;1673377587.3498108;0.3243478238582611;-0.2828289866447449;90.18820190429688
14;1673377587.3841236;47.130642599999995;7.240619799999999;-0.005000000353902578;1673377587.55913;0.29613813757896423;-0.17664389312267303;90.13227081298828
15;1673377587.606127;47.1306425;7.240619799999999;-0.007000000216066837;1673377587.7505965;0.1622072458267212;-0.031109903007745743;90.07418060302734
16;1673377587.7928238;47.1306425;7.240619799999999;-0.007000000216066837;1673377587.9516864;0.11245846003293991;-0.3142969012260437;90.34207153320312
17;1673377587.9824417;47.1306425;7.2406198999999996;-0.007000000216066837;1673377588.1543198;0.013918327167630196;-0.12258047610521317;90.36795043945312
18;1673377588.1866753;47.1306425;7.2406198999999996;-0.005000000353902578;1673377588.367687;0.0023841294459998608;0.17946529388427734;90.31879425048828
19;1673377588.4067278;47.1306425;7.24062;-0.006000000052154064;1673377588.5658994;-0.036571428179740906;0.15446802973747253;90.28202056884766
20;1673377588.6018462;47.1306425;7.2406201;-0.009000000543892384;1673377588.7617788;0.2939614951610565;0.14082658290863037;90.17015075683594
21;1673377588.8118558;47.1306425;7.2406201;-0.0010000000474974513;1673377588.9847028;0.23700010776519775;-0.3895631730556488;90.45262145996094
22;1673377589.012758;47.1306424;7.2406201999999995;0.0;1673377589.1735814;0.13846825063228607;0.5472515821456909;90.11189270019531
23;1673377589.210781;47.1306425;7.2406201999999995;0.0010000000474974513;1673377589.3836038;0.028645958751440048;-0.35419467091560364;90.2762222290039
24;1673377589.4317117;47.1306425;7.2406201999999995;0.0010000000474974513;1673377589.5797513;0.25719425082206726;-0.3008136749267578;90.66162109375
25;1673377589.6186893;47.1306425;7.2406201999999995;0.0010000000474974513;1673377589.7756946;0.27542799711227417;0.06242627277970314;90.64036560058594
26;1673377589.8106487;47.1306425;7.2406201;0.004000000189989805;1673377589.9944484;0.11753387749195099;-0.22269870340824127;90.55266571044922
27;1673377590.0167058;47.1306425;7.2406201;0.010000000707805157;1673377590.1877098;0.2784722149372101;-0.3122107982635498;90.47911834716797
28;1673377590.2244773;47.1306424;7.24062;0.015000000596046448;1673377590.3767247;1.1685583591461182;-0.2005939781665802;90.62887573242188
29;1673377590.4358106;47.1306424;7.24062;0.01600000075995922;1673377590.5899973;2.514399766921997;-0.30475637316703796;90.49424743652344
30;1673377590.624488;47.1306424;7.2406198999999996;0.01600000075995922;1673377590.7787592;2.669013738632202;-0.32382529973983765;90.48204803466797
31;1673377590.8217564;47.1306425;7.240619799999999;0.014000000432133675;1673377591.0146825;-3.620694160461426;0.14545570313930511;91.01055908203125
32;1673377591.0589542;47.1306425;7.240619199999999;0.020000001415610313;1673377591.217113;-9.200263977050781;-0.22744683921337128;90.91455841064453
33;1673377591.2666051;47.1306424;7.2406185999999995;0.04000000283122063;1673377591.4180324;-11.345131874084473;-3.5700485706329346;90.93726348876953
34;1673377591.4575932;47.1306424;7.2406181;0.08000000566244125;1673377591.5961578;-12.175765991210938;-0.7361853122711182;90.54952239990234
35;1673377591.626731;47.1306424;7.2406178;0.14300000667572021;1673377591.813916;-11.646994590759277;0.8162705302238464;90.31626892089844
36;1673377591.8447995;47.1306424;7.2406177;0.2200000137090683;1673377591.9771223;-11.166083335876465;-3.487247943878174;91.38887786865234
37;1673377592.0191653;47.1306424;7.2406177;0.3100000023841858;1673377592.1904056;-11.002267837524414;-1.6999802589416504;91.42813873291016
38;1673377592.2276056;47.1306424;7.2406179999999996;0.4130000174045563;1673377592.3974261;-10.270145416259766;2.171149730682373;90.8826904296875
39;1673377592.4483938;47.1306425;7.2406182999999995;0.5330000519752502;1673377592.5845919;-9.345968246459961;-1.3730015754699707;91.3394546508789
40;1673377592.6273227;47.130642599999995;7.2406187;0.6680000424385071;1673377592.7954454;-8.864412307739258;-2.186136245727539;91.58777618408203
41;1673377592.8327084;47.130642699999996;7.240619;0.8140000104904175;1673377593.0262828;-8.661396026611328;2.6603784561157227;90.76824951171875
42;1673377593.0576289;47.130642699999996;7.2406193;0.9730000495910645;1673377593.2278473;-8.358360290527344;-0.20560312271118164;91.18738555908203
43;1673377593.2658994;47.130642599999995;7.2406194;1.1440000534057617;1673377593.465163;-8.361889839172363;-3.615506172180176;91.63239288330078
44;1673377593.5115805;47.1306425;7.240619499999999;1.3260000944137573;1673377593.650743;-8.729779243469238;1.0264424085617065;90.78081512451172
45;1673377593.6761549;47.1306424;7.240619499999999;1.5180001258850098;1673377593.8568919;-8.682943344116211;0.28131386637687683;90.04168701171875
46;1673377593.884228;47.1306424;7.240619499999999;1.7140001058578491;1673377594.0395606;-8.777155876159668;-3.3788387775421143;90.80050659179688
47;1673377594.0668862;47.1306425;7.240619499999999;1.91100013256073;1673377594.2263608;-9.031488418579102;0.5385484099388123;90.20967864990234
48;1673377594.272346;47.130642599999995;7.240619499999999;2.1100001335144043;1673377594.4415174;-9.279308319091797;1.5100007057189941;90.0022201538086
49;1673377594.4873886;47.130642599999995;7.2406194;2.313000202178955;1673377594.6369884;-9.420445442199707;-3.582982063293457;90.6394271850586
50;1673377594.6663923;47.1306425;7.2406194;2.515000104904175;1673377594.847612;-9.24820327758789;-0.3831437826156616;90.32734680175781
51;1673377594.8975925;47.1306425;7.2406194;2.7160000801086426;1673377595.0144534;-9.405957221984863;1.9677965641021729;89.56340789794922
52;1673377595.0398269;47.130642599999995;7.2406194;2.9180002212524414;1673377595.2097156;-9.665310859680176;-2.2218973636627197;90.32369232177734
53;1673377595.2487848;47.1306428;7.2406194;3.121000051498413;1673377595.4034684;-9.744285583496094;-0.27851641178131104;90.31065368652344
54;1673377595.447505;47.1306429;7.2406194;3.327000141143799;1673377595.6124275;-9.652192115783691;2.641510486602783;89.68632507324219
55;1673377595.65655;47.1306428;7.2406194;3.5340001583099365;1673377595.8022811;-9.522050857543945;-2.1379387378692627;90.21299743652344
56;1673377595.8513188;47.130642699999996;7.240619499999999;3.739000082015991;1673377596.0169802;-9.551733016967773;-2.35943603515625;90.30085754394531
57;1673377596.043352;47.1306425;7.2406196;3.939000129699707;1673377596.2028697;-9.431096076965332;1.579169750213623;89.90792083740234
58;1673377596.250696;47.1306424;7.2406197;4.140000343322754;1673377596.4140658;-9.262213706970215;-1.2747230529785156;90.0744400024414
59;1673377596.45016;47.1306425;7.240619799999999;4.340000152587891;1673377596.6102543;-8.91810131072998;-2.396000623703003;90.54271697998047
60;1673377596.654092;47.130642699999996;7.24062;4.539000034332275;1673377596.7945085;-8.936044692993164;2.135759115219116;89.77129364013672
61;1673377596.845198;47.130642699999996;7.2406201;4.743000030517578;1673377596.9755704;-8.789993286132812;0.08399078994989395;89.97132110595703
62;1673377597.011453;47.130642599999995;7.2406201999999995;4.950000286102295;1673377597.1742904;-9.028061866760254;-3.13016676902771;90.54647827148438
63;1673377597.2208712;47.130642699999996;7.2406201999999995;5.15500020980835;1673377597.3951366;-9.152959823608398;1.3088080883026123;89.7193603515625
64;1673377597.4244747;47.130642699999996;7.2406201;5.360000133514404;1673377597.5970294;-9.336798667907715;1.4613269567489624;89.82456970214844
65;1673377597.6351025;47.130642699999996;7.24062;5.568000316619873;1673377597.8068929;-9.471670150756836;-2.8768508434295654;90.40901947021484
66;1673377597.8433006;47.1306428;7.2406198999999996;5.776000499725342;1673377597.9995265;-9.688395500183105;1.0779577493667603;90.03789520263672
67;1673377598.0336852;47.1306428;7.2406198999999996;5.9810004234313965;1673377598.20176;-9.547727584838867;1.918501615524292;89.64379119873047
68;1673377598.2590506;47.130642699999996;7.2406198999999996;6.185000419616699;1673377598.41463;-9.628219604492188;-2.9788129329681396;90.41124725341797
69;1673377598.4595258;47.130642699999996;7.2406198999999996;6.386000156402588;1673377598.6098392;-9.601397514343262;-0.24627357721328735;90.0715560913086
70;1673377598.64904;47.130642599999995;7.2406198999999996;6.590000152587891;1673377598.7892547;-9.53818416595459;2.035604476928711;89.71208953857422
71;1673377598.8280373;47.130642599999995;7.2406198999999996;6.7920002937316895;1673377598.99191;-9.575276374816895;-2.5738306045532227;90.43399047851562
72;1673377599.0231755;47.130642599999995;7.2406198999999996;6.992000102996826;1673377599.182986;-9.488615036010742;-1.1886531114578247;90.12039184570312
73;1673377599.2228467;47.130642599999995;7.2406198999999996;7.192000389099121;1673377599.408634;-9.601795196533203;2.4149627685546875;89.7099838256836
74;1673377599.4437904;47.1306425;7.2406198999999996;7.391000270843506;1673377599.6148295;-9.305776596069336;-2.3347322940826416;90.2177734375
75;1673377599.6490188;47.1306424;7.24062;7.587000370025635;1673377599.8113678;-9.381352424621582;-1.9602116346359253;90.4693832397461
76;1673377599.8505538;47.1306425;7.24062;7.781000137329102;1673377600.0140004;-9.63366985321045;2.4304404258728027;89.7119369506836
77;1673377600.0482776;47.1306425;7.2406201;7.974000453948975;1673377600.2047946;-9.474102973937988;-1.0308825969696045;90.11905670166016
78;1673377600.250667;47.130642599999995;7.2406201;8.167000770568848;1673377600.425626;-9.603631019592285;-2.283374309539795;90.40206909179688
79;1673377600.465983;47.130642699999996;7.2406201;8.366000175476074;1673377600.6350505;-9.44145393371582;2.443810224533081;89.66283416748047
80;1673377600.6780226;47.130642599999995;7.2406201999999995;8.567000389099121;1673377600.8305652;-9.33262825012207;0.08495571464300156;90.03330993652344
81;1673377600.8764362;47.1306425;7.2406201999999995;8.768000602722168;1673377601.035204;-9.430492401123047;-3.4950904846191406;90.37372589111328
82;1673377601.078823;47.1306425;7.2406201999999995;8.967000007629395;1673377601.2455473;-9.596741676330566;0.7155842781066895;90.03273010253906
83;1673377601.2845755;47.1306425;7.2406201;9.168000221252441;1673377601.4333105;-9.688939094543457;2.0769965648651123;89.89325714111328
84;1673377601.4745765;47.1306424;7.2406201999999995;9.369000434875488;1673377601.6198206;-9.532027244567871;-3.2278683185577393;90.45674896240234
85;1673377601.6786444;47.1306425;7.2406201999999995;9.568000793457031;1673377601.8387246;-9.43647575378418;-0.9808357954025269;90.29016876220703
86;1673377601.8809524;47.1306425;7.2406203;9.766000747680664;1673377602.0369768;-9.265708923339844;2.199003219604492;89.50703430175781
87;1673377602.079926;47.1306424;7.2406204;9.963000297546387;1673377602.2500257;-9.349936485290527;-1.9896973371505737;90.27128601074219
88;1673377602.2910388;47.1306423;7.2406204;10.163000106811523;1673377602.454657;-9.386716842651367;-2.598923444747925;90.5218276977539
89;1673377602.4771054;47.1306424;7.2406204999999995;10.426000595092773;1673377602.6467752;-10.776368141174316;0.9761398434638977;89.96004486083984
90;1673377602.6936872;47.1306425;7.2406207;10.779000282287598;1673377602.8547401;-9.810942649841309;1.9210947751998901;89.8450927734375
91;1673377602.8908403;47.1306425;7.240621099999999;11.158000946044922;1673377603.054482;-8.8761625289917;-2.941723108291626;90.4393081665039
92;1673377603.0896184;47.130642599999995;7.240621399999999;11.553000450134277;1673377603.2860537;-8.315118789672852;-0.23113670945167542;89.88650512695312
93;1673377603.326751;47.130642599999995;7.240621699999999;11.955000877380371;1673377603.476723;-8.030497550964355;2.290881872177124;89.6194839477539
94;1673377603.499202;47.1306425;7.2406219;12.356000900268555;1673377603.657856;-7.687339782714844;-1.9220900535583496;90.1583023071289
95;1673377603.6949532;47.1306425;7.2406219;12.757000923156738;1673377603.8493478;-8.141119956970215;-1.4785419702529907;90.330078125
96;1673377603.8969495;47.1306425;7.2406217999999996;13.156001091003418;1673377604.0466604;-8.348316192626953;1.9367620944976807;89.71057891845703
97;1673377604.0886884;47.1306424;7.240621699999999;13.555000305175781;1673377604.2492716;-8.910398483276367;-0.5152853727340698;90.22428894042969
98;1673377604.2883372;47.1306425;7.2406215;13.952000617980957;1673377604.450795;-8.848769187927246;-2.549748420715332;90.41516876220703
99;1673377604.4928691;47.1306425;7.2406213;14.349000930786133;1673377604.6559007;-9.149267196655273;1.2326396703720093;89.95867156982422
100;1673377604.7063859;47.1306425;7.240621099999999;14.744000434875488;1673377604.8464234;-9.247637748718262;0.8555700182914734;89.77549743652344
101;1673377604.884482;47.1306424;7.2406209;15.131000518798828;1673377605.0664797;-9.71645450592041;-3.163731098175049;90.42845153808594
102;1673377605.1055295;47.1306424;7.2406207;15.51400089263916;1673377605.260736;-9.78954029083252;-0.46343615651130676;90.07941436767578
103;1673377605.2909904;47.1306424;7.2406206;15.898000717163086;1673377605.4500813;-9.551135063171387;1.8948992490768433;89.65573120117188
104;1673377605.4942725;47.1306424;7.2406206;16.28499984741211;1673377605.650138;-9.467340469360352;-1.6250228881835938;90.153564453125
105;1673377605.6833034;47.130642599999995;7.2406206;16.67300033569336;1673377605.8309028;-9.3440523147583;-2.1028811931610107;90.3566665649414
106;1673377605.8631485;47.130642699999996;7.2406206;17.06300163269043;1673377606.0155768;-9.333939552307129;1.9444204568862915;89.80064392089844
107;1673377606.0458238;47.130642699999996;7.2406207;17.452001571655273;1673377606.2107103;-9.114237785339355;0.6735469698905945;89.88379669189453
108;1673377606.2525153;47.130642599999995;7.2406207;17.838001251220703;1673377606.4188097;-9.192642211914062;-3.1034460067749023;90.47234344482422
109;1673377606.4763935;47.1306425;7.2406207;18.226001739501953;1673377606.6552186;-9.135501861572266;-0.2286648452281952;90.03854370117188
110;1673377606.7061284;47.1306424;7.2406207;18.619001388549805;1673377606.90902;-9.106779098510742;1.8139790296554565;89.6523208618164
111;1673377606.936395;47.1306424;7.2406207;19.012001037597656;1673377607.0529044;-9.139476776123047;-2.2393977642059326;90.26237487792969
112;1673377607.0841994;47.130642599999995;7.2406207;19.4010009765625;1673377607.223937;-9.227433204650879;-1.3923734426498413;90.37127685546875
113;1673377607.2563944;47.130642699999996;7.2406206;19.78700065612793;1673377607.408327;-9.143985748291016;2.753777265548706;89.71094512939453
114;1673377607.4469662;47.1306428;7.2406206;20.174001693725586;1673377607.6009414;-9.227952003479004;-0.9383314251899719;90.19242095947266
115;1673377607.6385803;47.130642699999996;7.2406204999999995;20.559001922607422;1673377607.7984018;-9.37781810760498;-2.7132434844970703;90.43462371826172
116;1673377607.8341262;47.130642699999996;7.2406204;20.94300079345703;1673377607.9920738;-9.340434074401855;1.7537895441055298;89.71383666992188
117;1673377608.032634;47.130642599999995;7.2406204;21.332000732421875;1673377608.1954129;-9.192634582519531;-0.07079705595970154;89.77297973632812
118;1673377608.2341292;47.130642699999996;7.2406204;21.726001739501953;1673377608.3969572;-9.246073722839355;-2.747718095779419;90.533935546875
119;1673377608.434601;47.1306428;7.2406204;22.12200164794922;1673377608.5951242;-9.267050743103027;1.6482508182525635;89.96530151367188
120;1673377608.6330009;47.1306429;7.2406204;22.516000747680664;1673377608.7901475;-9.326879501342773;1.399932622909546;89.84906768798828
121;1673377608.8277779;47.1306429;7.2406203;22.905000686645508;1673377608.9826784;-9.287238121032715;-2.771409749984741;90.35124206542969
122;1673377609.0193458;47.1306429;7.2406203;23.293001174926758;1673377609.1734514;-9.409214973449707;0.4107758700847626;89.98711395263672
123;1673377609.2239437;47.1306429;7.2406201999999995;23.68000030517578;1673377609.3709402;-9.27999210357666;2.1968584060668945;89.70152282714844
124;1673377609.4060845;47.1306429;7.2406201999999995;24.071001052856445;1673377609.5585592;-9.424290657043457;-2.2779955863952637;90.40406036376953
125;1673377609.5937257;47.130643;7.2406201999999995;24.466001510620117;1673377609.751256;-9.205085754394531;-0.6809520721435547;90.22238159179688
126;1673377609.7874434;47.1306431;7.2406201999999995;24.862001419067383;1673377609.947445;-9.342005729675293;2.8687727451324463;89.65770721435547
127;1673377609.9816482;47.1306431;7.2406201999999995;25.259000778198242;1673377610.1429238;-9.361822128295898;-0.24414867162704468;90.05378723144531
128;1673377610.2430935;47.130643;7.2406201;25.6510009765625;1673377610.436304;-9.307254791259766;-2.929978370666504;90.48055267333984
129;1673377610.4841883;47.1306429;7.2406201;26.045001983642578;1673377610.6340277;-9.34013843536377;1.7217990159988403;89.80663299560547
130;1673377610.6712735;47.1306429;7.2406201;26.444002151489258;1673377610.834443;-9.261041641235352;1.172539234161377;89.86819458007812
131;1673377610.8687577;47.1306429;7.2406201;26.84400177001953;1673377611.0520077;-9.302834510803223;-2.8627288341522217;90.549560546875
132;1673377611.0832384;47.130643;7.24062;27.244001388549805;1673377611.2219903;-9.457868576049805;1.240329623222351;89.97569274902344
133;1673377611.2581468;47.1306431;7.24062;27.6460018157959;1673377611.4252162;-9.309004783630371;2.525148391723633;89.77078247070312
134;1673377611.4583998;47.1306431;7.24062;28.04400062561035;1673377611.6123896;-9.381309509277344;-2.257017135620117;90.35836791992188
135;1673377611.6451423;47.130643;7.24062;28.441001892089844;1673377611.797198;-9.408699989318848;-0.3387148678302765;90.18812561035156
136;1673377611.8309097;47.1306429;7.24062;28.839000701904297;1673377611.9810274;-9.116373062133789;2.411938190460205;89.59815979003906
137;1673377612.0180986;47.1306428;7.24062;29.238000869750977;1673377612.1783807;-9.295845985412598;-1.8906680345535278;90.2911148071289
138;1673377612.2125435;47.1306428;7.24062;29.63500213623047;1673377612.3945825;-9.46156120300293;-1.5394575595855713;90.32443237304688
139;1673377612.431932;47.1306429;7.2406198999999996;30.03400230407715;1673377612.6303813;-9.470100402832031;2.823901891708374;89.6933822631836
140;1673377612.6665065;47.1306428;7.2406198999999996;30.434001922607422;1673377612.8538723;-9.361983299255371;-0.9462847709655762;90.1689224243164
141;1673377612.8880315;47.130642699999996;7.2406198999999996;30.830001831054688;1673377613.0712922;-9.5012845993042;-2.6275851726531982;90.40372467041016
142;1673377613.1074672;47.130642699999996;7.2406198999999996;31.226001739501953;1673377613.2735102;-9.48521900177002;1.9774504899978638;89.75634002685547
143;1673377613.3028696;47.130642599999995;7.2406198999999996;31.623001098632812;1673377613.4945123;-9.390046119689941;0.7540381550788879;89.78443908691406
144;1673377613.514035;47.130642599999995;7.24062;32.0260009765625;1673377613.6742249;-9.387752532958984;-2.730435371398926;90.46047973632812
145;1673377613.7231774;47.1306428;7.24062;32.432003021240234;1673377613.8784971;-9.376638412475586;1.568411946296692;89.90467071533203
146;1673377613.9068022;47.1306428;7.24062;32.83700180053711;1673377614.0584416;-9.3497314453125;1.7599323987960815;89.79182434082031
147;1673377614.0917375;47.1306428;7.2406201;33.237003326416016;1673377614.2242355;-9.291650772094727;-2.4425997734069824;90.40165710449219
148;1673377614.2600946;47.1306428;7.24062;33.63600158691406;1673377614.4105499;-9.505646705627441;0.28021904826164246;90.08241271972656
149;1673377614.4564104;47.130642699999996;7.24062;34.03900146484375;1673377614.6019936;-9.284632682800293;2.083859920501709;89.74962615966797
150;1673377614.6406407;47.130642699999996;7.2406201;34.444000244140625;1673377614.7889316;-9.431619644165039;-2.2235424518585205;90.4535903930664
151;1673377614.8388507;47.1306428;7.2406201;34.84700012207031;1673377615.0275195;-9.28041934967041;-0.6935621500015259;90.26494598388672
152;1673377615.06089;47.1306429;7.2406201;35.24800109863281;1673377615.236435;-9.391092300415039;2.841468095779419;89.57378387451172
153;1673377615.275626;47.1306429;7.2406201;35.647003173828125;1673377615.4409997;-9.39603042602539;-0.6897788047790527;90.0186767578125
154;1673377615.469468;47.1306428;7.2406201;36.04199981689453;1673377615.6144617;-9.497249603271484;-2.341552495956421;90.22931671142578
155;1673377615.649776;47.1306428;7.2406201;36.435001373291016;1673377615.8099182;-9.491650581359863;2.1478285789489746;89.70958709716797
156;1673377615.8451476;47.1306428;7.2406201;36.83100128173828;1673377616.0005176;-9.486493110656738;0.4651361107826233;90.11695861816406
157;1673377616.0344672;47.1306429;7.2406201;37.230003356933594;1673377616.211156;-9.28753662109375;-2.1895153522491455;90.67870330810547
158;1673377616.2453687;47.1306431;7.2406201;37.63100051879883;1673377616.422299;-9.355708122253418;2.1223533153533936;89.99369812011719
159;1673377616.4536252;47.130643199999994;7.2406201999999995;38.03300094604492;1673377616.6180618;-9.197467803955078;2.23836350440979;89.78687286376953
160;1673377616.678605;47.1306431;7.2406201999999995;38.42900085449219;1673377616.82893;-9.420402526855469;-2.570744752883911;90.31398010253906
161;1673377616.8681026;47.1306431;7.2406203;38.82200241088867;1673377617.027476;-9.270079612731934;0.46500954031944275;89.84600067138672
162;1673377617.0563614;47.130643;7.2406203;39.21800231933594;1673377617.1917567;-9.151386260986328;2.199719190597534;89.4776611328125
163;1673377617.224085;47.1306429;7.2406204;39.61900329589844;1673377617.3727186;-9.149331092834473;-2.055736780166626;90.33319854736328
164;1673377617.4069188;47.130643;7.2406204;40.018001556396484;1673377617.5623534;-9.026735305786133;-0.4860134422779083;90.22817993164062
165;1673377617.5994766;47.1306431;7.2406204;40.415000915527344;1673377617.7577212;-9.266544342041016;3.1264054775238037;89.71599578857422
166;1673377617.794878;47.1306431;7.2406203;40.81100082397461;1673377617.9524348;-9.123186111450195;-1.2574080228805542;90.40459442138672
167;1673377617.9889538;47.130643;7.2406203;41.202003479003906;1673377618.1479764;-9.56217098236084;-1.831397533416748;90.4383544921875
168;1673377618.1850917;47.1306429;7.2406201999999995;41.592002868652344;1673377618.3619902;-9.267730712890625;2.3889827728271484;89.6488265991211
169;1673377618.4186378;47.1306428;7.2406201;41.98500061035156;1673377618.6015399;-9.352737426757812;-0.20704717934131622;89.92396545410156
170;1673377618.6416965;47.1306429;7.2406201;42.38100051879883;1673377618.8099477;-9.489027976989746;-2.2895894050598145;90.39142608642578
171;1673377618.847673;47.130643;7.24062;42.77900314331055;1673377619.022036;-9.594367027282715;1.5792654752731323;89.8326644897461
172;1673377619.063772;47.130643;7.24062;43.176002502441406;1673377619.233358;-9.430695533752441;1.1069632768630981;89.76351928710938
173;1673377619.28319;47.1306429;7.24062;43.56800079345703;1673377619.4492671;-9.38803482055664;-2.265930652618408;90.37525177001953
174;1673377619.4906414;47.1306429;7.24062;43.95900344848633;1673377619.669893;-9.526535034179688;-0.3547864556312561;90.24030303955078
175;1673377619.699172;47.1306428;7.2406198999999996;44.35300064086914;1673377619.8367946;-9.527454376220703;2.064518451690674;89.71644592285156
176;1673377619.8699794;47.1306428;7.2406198999999996;44.74800109863281;1673377620.0440185;-9.546802520751953;-2.178579330444336;90.43486785888672
177;1673377620.0798736;47.1306429;7.2406198999999996;45.14800262451172;1673377620.2805898;-9.548444747924805;-0.8102103471755981;90.2636947631836
178;1673377620.3069584;47.130643;7.240619799999999;45.552001953125;1673377620.446784;-9.421307563781738;3.3991763591766357;89.64380645751953
179;1673377620.4789033;47.1306431;7.2406198999999996;45.95600128173828;1673377620.632367;-9.312153816223145;-0.5729849338531494;90.1366958618164
180;1673377620.6685078;47.130643;7.2406198999999996;46.35300064086914;1673377620.8333156;-9.450151443481445;-2.243091106414795;90.34183502197266
181;1673377620.8690767;47.1306429;7.2406198999999996;46.75100326538086;1673377621.0469744;-9.453149795532227;2.102498769760132;89.6554946899414
182;1673377621.0801582;47.1306428;7.2406198999999996;47.152000427246094;1673377621.246258;-9.606773376464844;0.11529432237148285;90.00894165039062
183;1673377621.3548875;47.1306428;7.240619799999999;47.552001953125;1673377621.489432;-9.471975326538086;-2.654419422149658;90.5711441040039
184;1673377621.5177352;47.1306429;7.240619799999999;47.94900131225586;1673377621.6489089;-9.806356430053711;2.8418235778808594;89.93111419677734
185;1673377621.6839833;47.1306429;7.240619799999999;48.31300354003906;1673377621.840527;-9.798833847045898;-1.0022869110107422;90.05139923095703
186;1673377621.875697;47.1306429;7.2406197;48.62300109863281;1673377622.0508106;-9.756144523620605;-1.24074387550354;90.35275268554688
187;1673377622.0912855;47.1306428;7.2406196;48.88300323486328;1673377622.2831333;-9.857781410217285;1.5124504566192627;89.83940887451172
188;1673377622.3203743;47.1306428;7.240619499999999;49.10200119018555;1673377622.487663;-9.94117546081543;0.5193890333175659;89.93997192382812
189;1673377622.5161395;47.1306428;7.2406194;49.285003662109375;1673377622.6695218;-1.757775068283081;6.274959087371826;92.17203521728516
190;1673377622.7007551;47.1306428;7.2406191;49.43800354003906;1673377622.8766224;14.56651496887207;30.071353912353516;103.92305755615234
191;1673377622.9315455;47.130641999999995;7.2406177;49.573001861572266;1673377623.0841184;18.548242568969727;47.585548400878906;114.22290802001953
192;1673377623.1368618;47.1306395;7.240613499999999;49.689002990722656;1673377623.279533;12.60898208618164;58.202362060546875;122.43331909179688
193;1673377623.3050182;47.1306344;7.2406052;49.775001525878906;1673377623.430803;-5.751986503601074;58.67167663574219;132.03904724121094
194;1673377623.4632077;47.1306264;7.2405927;49.82500076293945;1673377623.5984309;-20.649049758911133;54.20745086669922;144.08486938476562
195;1673377623.6278908;47.130615899999995;7.240577;49.85200119018555;1673377623.7793856;-33.91147232055664;49.806610107421875;154.5784149169922
196;1673377623.8116252;47.1306033;7.2405585;49.86100387573242;1673377623.96918;-43.93898391723633;46.009300231933594;165.81033325195312
197;1673377624.0033402;47.1305888;7.2405374;49.85700225830078;1673377624.1627982;-48.328121185302734;35.95528793334961;178.98963928222656
198;1673377624.1961727;47.130572699999995;7.2405136;49.833003997802734;1673377624.3555849;-46.56034851074219;25.680377960205078;-173.32049560546875
199;1673377624.3918464;47.1305556;7.2404879;49.79500198364258;1673377624.5548224;-49.51461410522461;20.71270179748535;-166.98326110839844
200;1673377624.5930018;47.1305377;7.240461;49.749000549316406;1673377624.754425;-49.903900146484375;13.494002342224121;-158.50347900390625
201;1673377624.791766;47.130519;7.2404331;49.69400405883789;1673377624.9525604;-48.03044891357422;7.336830139160156;-151.05148315429688
202;1673377624.9925954;47.130499799999996;7.2404044;49.63500213623047;1673377625.1549754;-45.1759033203125;4.789050102233887;-145.0117645263672
203;1673377625.1921747;47.130480299999995;7.2403754;49.590003967285156;1673377625.3547232;-45.6253776550293;0.3041774034500122;-137.8537139892578
204;1673377625.3918846;47.130460799999994;7.2403458999999994;49.56200408935547;1673377625.5572658;-45.89311599731445;-8.62258529663086;-131.3367462158203
205;1673377625.595375;47.1304413;7.2403163;49.54600143432617;1673377625.7586968;-46.283180236816406;-10.968811988830566;-133.6962127685547
206;1673377625.7948365;47.1304215;7.2402868;49.544002532958984;1673377625.9578733;-47.16336441040039;-8.962417602539062;-137.239013671875
207;1673377625.9942346;47.1304014;7.2402577;49.55400085449219;1673377626.1536663;-47.755950927734375;-8.140636444091797;-138.47134399414062
208;1673377626.1907551;47.1303809;7.2402289;49.57200241088867;1673377626.351982;-48.28345489501953;-6.867523193359375;-139.18002319335938
209;1673377626.3883672;47.1303601;7.240200199999999;49.595001220703125;1673377626.5541317;-49.02350997924805;-5.1679887771606445;-139.81570434570312
210;1673377626.594183;47.1303389;7.240171699999999;49.61900329589844;1673377626.787647;-48.70338821411133;-4.216349124908447;-139.9944305419922
211;1673377626.8326156;47.1303175;7.2401431999999994;49.64200210571289;1673377627.0080044;-48.404685974121094;-3.7032315731048584;-139.92982482910156
212;1673377627.042167;47.130296;7.2401148;49.66400146484375;1673377627.218959;-47.962833404541016;-3.4083526134490967;-139.71878051757812
213;1673377627.2582874;47.130274299999996;7.2400863;49.682003021240234;1673377627.4435165;-47.59488296508789;-3.57460618019104;-139.4597930908203
214;1673377627.47382;47.1302527;7.2400576999999995;49.70000076293945;1673377627.6635234;-47.50804138183594;-3.8031375408172607;-139.1973419189453
215;1673377627.6967165;47.130230999999995;7.2400288999999995;49.72200393676758;1673377627.8456123;-47.9246711730957;-4.032191276550293;-139.02024841308594
216;1673377627.8970494;47.1302094;7.2400001;49.74400329589844;1673377628.0445993;-48.24793243408203;-3.9981420040130615;-138.94488525390625
217;1673377628.0778778;47.1301877;7.239971199999999;49.76100158691406;1673377628.230876;-47.948856353759766;-4.03671407699585;-138.84246826171875
218;1673377628.2981539;47.130165999999996;7.2399423;49.77300262451172;1673377628.4649367;-47.630836486816406;-4.0380859375;-138.728271484375
219;1673377628.499298;47.1301443;7.2399134;49.78300094604492;1673377628.6545296;-47.41200637817383;-4.079677104949951;-138.5772705078125
220;1673377628.6896553;47.1301226;7.239884399999999;49.7910041809082;1673377628.8425622;-47.474945068359375;-4.1018967628479;-138.53248596191406
221;1673377628.8865526;47.130100899999995;7.2398554;49.801002502441406;1673377629.0362267;-47.85107421875;-4.240396499633789;-138.43089294433594
222;1673377629.0689397;47.1300792;7.2398263;49.81300354003906;1673377629.2219424;-48.0151481628418;-4.248556613922119;-138.39495849609375
223;1673377629.25665;47.1300575;7.2397971;49.82400131225586;1673377629.4138665;-48.05088424682617;-4.230086326599121;-138.3824462890625
224;1673377629.4541087;47.130035799999995;7.2397678;49.8380012512207;1673377629.6272242;-48.19127655029297;-4.29148530960083;-138.31997680664062
225;1673377629.6672363;47.130013999999996;7.2397386;49.849002838134766;1673377629.8249605;-48.08228302001953;-4.171877384185791;-138.3055877685547
226;1673377629.8607833;47.1299923;7.2397094;49.85400390625;1673377630.0128427;-47.83177947998047;-4.0823774337768555;-138.273681640625
227;1673377630.0525706;47.1299706;7.239680099999999;49.85600280761719;1673377630.2240088;-47.484901428222656;-4.116857051849365;-138.2213134765625
228;1673377630.2674942;47.1299488;7.239650699999999;49.85600280761719;1673377630.422371;-47.57821273803711;-4.127089977264404;-138.19888305664062
229;1673377630.4621818;47.1299272;7.2396213;49.858001708984375;1673377630.6230822;-47.9805793762207;-4.242403507232666;-138.12815856933594
230;1673377630.6580226;47.1299055;7.239592;49.862003326416016;1673377630.8130734;-48.23527145385742;-4.220484733581543;-138.1599884033203
231;1673377630.8491957;47.129883799999995;7.2395625;49.86900329589844;1673377631.0193706;-48.261051177978516;-4.200561046600342;-138.17691040039062
232;1673377631.0516193;47.1298622;7.2395331;49.87300109863281;1673377631.2038238;-48.037689208984375;-4.1652936935424805;-138.18283081054688
233;1673377631.2402992;47.1298405;7.2395036;49.87000274658203;1673377631.4026349;-47.6557731628418;-4.1491379737854;-138.18028259277344
234;1673377631.4397507;47.1298189;7.2394741;49.86600112915039;1673377631.6026785;-47.57595443725586;-4.2797465324401855;-138.13299560546875
235;1673377631.6348865;47.1297973;7.239444499999999;49.86600112915039;1673377631.8070602;-47.84233093261719;-4.374175071716309;-138.13011169433594
236;1673377631.847085;47.129775599999995;7.2394149;49.86900329589844;1673377632.0082679;-48.025230407714844;-4.324054718017578;-138.1793975830078
237;1673377632.0424604;47.129754;7.2393854;49.87200164794922;1673377632.19872;-48.1038932800293;-4.252762317657471;-138.2367706298828
238;1673377632.2349894;47.129732399999995;7.239355799999999;49.874000549316406;1673377632.3991036;-47.941131591796875;-4.243400573730469;-138.22149658203125
239;1673377632.4352148;47.1297108;7.2393262;49.871002197265625;1673377632.606652;-47.523643493652344;-4.092462062835693;-138.27407836914062
240;1673377632.6427987;47.1296891;7.2392967;49.867000579833984;1673377632.8051481;-47.38861083984375;-4.140631198883057;-138.2415313720703
241;1673377632.8482964;47.1296675;7.2392672;49.86600112915039;1673377633.0100951;-47.469852447509766;-4.196573734283447;-138.20716857910156
242;1673377633.0433466;47.1296459;7.2392376;49.87000274658203;1673377633.222308;-47.874656677246094;-4.219428539276123;-138.2366485595703
243;1673377633.2545192;47.1296244;7.2392081;49.87600326538086;1673377633.4225028;-48.15437698364258;-4.199409008026123;-138.26148986816406
244;1673377633.4573224;47.1296028;7.2391786;49.87900161743164;1673377633.6174145;-47.955955505371094;-4.114756107330322;-138.3264923095703
245;1673377633.651739;47.1295812;7.2391491;49.880001068115234;1673377633.8169312;-47.690555572509766;-4.016414165496826;-138.3747100830078
246;1673377633.864558;47.1295596;7.239119499999999;49.88100051879883;1673377634.0208657;-47.628395080566406;-4.102605819702148;-138.33900451660156
247;1673377634.0521088;47.129538;7.2390897999999995;49.884002685546875;1673377634.2142987;-47.71609115600586;-4.159869194030762;-138.36692810058594
248;1673377634.252416;47.1295163;7.2390602;49.8900032043457;1673377634.4057455;-48.025794982910156;-4.067219257354736;-138.44744873046875
249;1673377634.4539797;47.129494699999995;7.239030499999999;49.89800262451172;1673377634.6297183;-48.18087387084961;-4.147817611694336;-138.4464874267578
250;1673377634.66794;47.1294731;7.2390009;49.90300369262695;1673377634.8341806;-47.95228576660156;-3.9103479385375977;-138.60484313964844
251;1673377634.8753567;47.129451499999995;7.238971299999999;49.906002044677734;1673377635.0361717;-47.616764068603516;-4.412921905517578;-138.4612579345703
252;1673377635.0787468;47.1294298;7.2389415999999995;49.913002014160156;1673377635.25526;-47.62094497680664;-4.961799144744873;-138.56985473632812
253;1673377635.2919662;47.1294082;7.238912;49.91800308227539;1673377635.435303;-47.70747375488281;-6.057714462280273;-138.3931427001953
254;1673377635.4680483;47.1293864;7.2388825;49.922000885009766;1673377635.6201375;-47.52906799316406;-6.7718987464904785;-138.77049255371094
255;1673377635.6562653;47.129364599999995;7.2388533;49.927001953125;1673377635.8145065;-47.72674560546875;-6.987074851989746;-138.9676971435547
256;1673377635.8478622;47.129342699999995;7.2388242;49.93100357055664;1673377636.0023408;-47.09306335449219;-7.709170818328857;-139.1847381591797
257;1673377636.0394301;47.1293206;7.2387954;49.94000244140625;1673377636.2006116;-39.70201873779297;-6.407642841339111;-139.95033264160156
258;1673377636.2413962;47.1292985;7.238766999999999;49.967002868652344;1673377636.4168937;-22.639650344848633;-8.181300163269043;-138.5847930908203
259;1673377636.4520338;47.1292769;7.2387396;50.00100326538086;1673377636.608692;-3.63742995262146;-6.257222652435303;-137.6409454345703
260;1673377636.6457806;47.1292566;7.2387139;50.02000427246094;1673377636.8285127;11.009590148925781;-5.161794185638428;-136.302734375
261;1673377636.8680933;47.1292384;7.2386908;50.02000427246094;1673377637.0499787;20.324386596679688;-2.064586639404297;-137.03729248046875
262;1673377637.080276;47.129222899999995;7.2386707999999995;49.993003845214844;1673377637.2145715;26.850271224975586;-6.010078430175781;-136.78941345214844
263;1673377637.2487445;47.129210199999996;7.2386539999999995;49.93700408935547;1673377637.3981707;18.71100425720215;-8.14483642578125;-135.90487670898438
264;1673377637.4313533;47.1292002;7.2386406;49.89600372314453;1673377637.5908513;21.528013229370117;-7.636239051818848;-136.2941131591797
265;1673377637.6347713;47.1291924;7.2386301;49.897003173828125;1673377637.803272;17.55838966369629;-5.337255477905273;-135.7455291748047
266;1673377637.8452399;47.1291863;7.2386219;49.910003662109375;1673377638.01996;9.930054664611816;-5.9237565994262695;-135.95066833496094
267;1673377638.0512204;47.1291813;7.2386154;49.926002502441406;1673377638.2167985;1.92311692237854;-9.216952323913574;-135.91175842285156
268;1673377638.2538846;47.129177;7.2386098;49.952003479003906;1673377638.4170482;-3.9644649028778076;-9.484243392944336;-136.27244567871094
269;1673377638.4810238;47.129172999999994;7.2386045999999995;49.97900390625;1673377638.6745024;-6.523286819458008;-6.767892837524414;-136.260009765625
270;1673377638.7067099;47.1291692;7.2385994;50.00300216674805;1673377638.89603;-4.576797008514404;-5.102139949798584;-136.30438232421875
271;1673377638.9273007;47.1291655;7.2385942;50.02400207519531;1673377639.0742238;0.4359862506389618;-4.393303394317627;-136.75894165039062
272;1673377639.107392;47.129162;7.238588999999999;50.0410041809082;1673377639.2823944;4.082369327545166;-4.234076976776123;-136.653564453125
273;1673377639.3223934;47.1291586;7.238584299999999;50.05400085449219;1673377639.478996;6.951097011566162;-5.508634090423584;-136.7311248779297
274;1673377639.5123484;47.129155499999996;7.238579799999999;50.064002990722656;1673377639.6583512;-9.751534461975098;-9.843214988708496;-136.10830688476562
275;1673377639.6930475;47.1291526;7.2385755;50.08500289916992;1673377639.8459003;-21.170345306396484;-6.226391792297363;-137.27627563476562
276;1673377639.8815827;47.1291492;7.2385703999999995;50.13900375366211;1673377640.0364199;-19.555416107177734;-3.43057918548584;-138.4755401611328
277;1673377640.0731523;47.129145;7.238563999999999;50.298004150390625;1673377640.2300005;-17.8123722076416;0.45583575963974;-138.56349182128906
278;1673377640.2651489;47.129140299999996;7.238556399999999;50.551002502441406;1673377640.422695;-26.38376235961914;-2.695833921432495;-137.94686889648438
279;1673377640.4578474;47.1291349;7.2385477;50.88900375366211;1673377640.63153;-42.10636901855469;-12.032243728637695;-137.3875732421875
280;1673377640.6750681;47.1291283;7.2385373;51.262001037597656;1673377640.835669;-40.03701400756836;-9.515567779541016;-139.08242797851562
281;1673377640.870353;47.1291198;7.2385255;51.65200424194336;1673377641.0293186;-34.970703125;-10.643780708312988;-137.3143768310547
282;1673377641.0635414;47.129109899999996;7.2385123;52.0410041809082;1673377641.2265763;-28.62224006652832;-9.13052749633789;-137.64453125
283;1673377641.2648175;47.1290992;7.2384983;52.422000885009766;1673377641.4333825;-23.29548454284668;-7.242049217224121;-137.43215942382812
284;1673377641.4646163;47.1290881;7.238483899999999;52.79900360107422;1673377641.630645;-19.40597915649414;-4.214043140411377;-137.70130920410156
285;1673377641.6858497;47.1290769;7.2384695;53.177001953125;1673377641.850657;-16.516271591186523;-2.334024667739868;-137.8688201904297
286;1673377641.8881538;47.1290659;7.2384552;53.557003021240234;1673377642.037695;-15.27772045135498;-1.3224279880523682;-138.01803588867188
287;1673377642.0714366;47.129055199999996;7.238441099999999;53.94000244140625;1673377642.2305698;-15.141671180725098;-2.54719877243042;-137.7071075439453
288;1673377642.26876;47.1290449;7.238427199999999;54.32500076293945;1673377642.442064;-15.852228164672852;-4.522043228149414;-137.33187866210938
289;1673377642.4816737;47.129034999999995;7.2384135999999994;54.711002349853516;1673377642.642066;-17.093629837036133;-7.224403381347656;-136.6803436279297
290;1673377642.6778061;47.129025399999996;7.2384002999999995;55.10000228881836;1673377642.8424108;-18.601360321044922;-8.496760368347168;-136.65509033203125
291;1673377642.8757765;47.1290159;7.2383869999999995;55.4900016784668;1673377643.0383844;-19.843982696533203;-8.46812629699707;-136.9229736328125
292;1673377643.0740755;47.1290066;7.2383736;55.88200378417969;1673377643.2436936;-21.035768508911133;-6.606964111328125;-137.260009765625
293;1673377643.281986;47.1289972;7.2383603;56.2760009765625;1673377643.454287;-21.895444869995117;-5.10459041595459;-137.66905212402344
294;1673377643.4921649;47.128987599999995;7.2383469;56.67000198364258;1673377643.647939;-22.512357711791992;-4.729995250701904;-137.53738403320312
295;1673377643.6866043;47.1289778;7.2383336;57.06300354003906;1673377643.846705;-22.372703552246094;-4.988982677459717;-137.27191162109375
296;1673377643.8845913;47.1289678;7.2383201999999995;57.45700454711914;1673377644.0645554;-22.126523971557617;-5.921104431152344;-137.08473205566406
297;1673377644.0998828;47.128957799999995;7.2383067;57.85200119018555;1673377644.261351;-21.539793014526367;-7.012916088104248;-136.8601531982422
298;1673377644.314754;47.1289476;7.2382931;58.25100326538086;1673377644.4726815;-21.063438415527344;-7.802046775817871;-136.6433868408203
299;1673377644.5029383;47.1289375;7.2382794;58.65200424194336;1673377644.669552;-20.582592010498047;-8.098917007446289;-136.62889099121094
300;1673377644.7042892;47.128927399999995;7.2382656;59.052001953125;1673377644.854233;-20.21165657043457;-7.573344707489014;-136.7946319580078
301;1673377644.8979175;47.1289174;7.2382518;59.45100402832031;1673377645.0568435;-20.12310028076172;-7.442107200622559;-136.8977813720703
302;1673377645.0994287;47.128907299999995;7.238238;59.84800338745117;1673377645.2591739;-20.42450523376465;-5.498203277587891;-137.0402069091797
303;1673377645.2958112;47.1288973;7.238224199999999;60.24400329589844;1673377645.4840548;-20.215808868408203;-4.471899032592773;-137.32974243164062
304;1673377645.5222797;47.128887299999995;7.2382105999999995;60.643001556396484;1673377645.6757128;-20.638248443603516;-3.4414353370666504;-137.55690002441406
305;1673377645.7088842;47.1288772;7.2381969999999995;61.04300308227539;1673377645.858237;-20.51793670654297;-3.3868606090545654;-137.42593383789062
306;1673377645.8934112;47.128867199999995;7.2381834;61.44400405883789;1673377646.048604;-20.81406021118164;-3.6055550575256348;-137.1821746826172
307;1673377646.0800211;47.1288572;7.2381698;61.845001220703125;1673377646.2439735;-20.83600425720215;-3.998030424118042;-137.0944061279297
308;1673377646.2777276;47.128847199999996;7.238156099999999;62.24500274658203;1673377646.453473;-20.89306640625;-4.581820964813232;-137.18275451660156
309;1673377646.4876697;47.1288372;7.2381424;62.64200210571289;1673377646.6523268;-21.007488250732422;-5.271059036254883;-136.98846435546875
310;1673377646.7197366;47.128827199999996;7.2381286;63.03700256347656;1673377646.869669;-21.042253494262695;-5.900432586669922;-136.84317016601562
311;1673377646.9069483;47.128817299999994;7.2381148;63.43100357055664;1673377647.0635607;-21.13524627685547;-6.994436264038086;-136.6908416748047
312;1673377647.1061444;47.1288074;7.2381009;63.83000183105469;1673377647.2727418;-21.067928314208984;-7.8092427253723145;-136.5735321044922
313;1673377647.305984;47.1287975;7.238086999999999;64.23400115966797;1673377647.4579966;-20.952239990234375;-8.2728853225708;-136.49354553222656
314;1673377647.495671;47.1287875;7.2380732;64.63700103759766;1673377647.6510282;-20.7965030670166;-8.41706657409668;-136.48094177246094
315;1673377647.6872046;47.1287775;7.238059499999999;65.03600311279297;1673377647.8380597;-20.71915054321289;-8.302699089050293;-136.64453125
316;1673377647.8753262;47.128767499999995;7.2380457;65.4320068359375;1673377648.0377705;-20.666606903076172;-8.43130111694336;-136.5048370361328
317;1673377648.0749002;47.1287574;7.238032;65.8270034790039;1673377648.229544;-20.700199127197266;-8.00904369354248;-136.6560821533203
318;1673377648.266641;47.128747499999996;7.2380182;66.22100067138672;1673377648.4348488;-20.787548065185547;-7.587213516235352;-136.81617736816406
319;1673377648.4803295;47.1287375;7.2380043999999994;66.61700439453125;1673377648.664422;-20.749874114990234;-7.2816362380981445;-137.00120544433594
320;1673377648.7001038;47.1287275;7.2379906;67.01399993896484;1673377648.858016;-20.87779426574707;-6.9004740715026855;-136.9875030517578
321;1673377648.893725;47.1287175;7.2379769;67.41200256347656;1673377649.0582702;-21.046926498413086;-6.495661735534668;-137.0900421142578
322;1673377649.0951102;47.1287075;7.2379631;67.81000518798828;1673377649.2616744;-20.939903259277344;-6.021303653717041;-137.22935485839844
323;1673377649.297838;47.1286975;7.2379495;68.20600128173828;1673377649.4750593;-21.128923416137695;-6.0721964836120605;-137.26364135742188
324;1673377649.5070667;47.1286874;7.2379358;68.60100555419922;1673377649.6518555;-21.03059196472168;-5.569372653961182;-137.30833435058594
325;1673377649.687026;47.1286773;7.237922299999999;68.99800109863281;1673377649.8369327;-21.017526626586914;-5.2292256355285645;-137.09365844726562
326;1673377649.8692646;47.128667199999995;7.2379086;69.39800262451172;1673377650.0317671;-20.966243743896484;-4.994951248168945;-136.98216247558594
327;1673377650.0681295;47.1286571;7.2378949;69.79900360107422;1673377650.2316568;-20.999631881713867;-5.144491195678711;-136.84825134277344
328;1673377650.2710152;47.128647099999995;7.2378811999999995;70.19900512695312;1673377650.4219706;-3.806105136871338;-4.895975589752197;-137.52699279785156
329;1673377650.4592202;47.1286372;7.2378677;70.5770034790039;1673377650.6259432;2.0030441284179688;-4.679007530212402;-137.49844360351562
330;1673377650.6621585;47.1286281;7.237855199999999;70.92200469970703;1673377650.8303354;6.874664306640625;-4.53809118270874;-137.1766357421875
331;1673377650.8615675;47.1286199;7.237844099999999;71.22900390625;1673377651.0130997;11.184404373168945;-3.2640514373779297;-136.692626953125
332;1673377651.0600994;47.1286126;7.237834299999999;71.49200439453125;1673377651.223205;13.837858200073242;-3.342059373855591;-136.32763671875
333;1673377651.2585027;47.1286065;7.2378259;71.71500396728516;1673377651.4216952;14.11767578125;-3.788684844970703;-136.17709350585938
334;1673377651.4597611;47.128601499999995;7.2378189;71.91500091552734;1673377651.6260767;13.468310356140137;-4.2661027908325195;-135.5330810546875
335;1673377651.6633134;47.1285974;7.2378130999999994;72.08700561523438;1673377651.82269;11.850361824035645;-4.541198253631592;-135.45574951171875
336;1673377651.8568535;47.128594199999995;7.237808299999999;72.2280044555664;1673377652.027983;10.022261619567871;1.8671624660491943;-134.74359130859375
337;1673377652.0650804;47.1285917;7.237804499999999;72.34500122070312;1673377652.2295604;12.74068546295166;24.63011932373047;-124.74585723876953
338;1673377652.2621074;47.1285903;7.237800699999999;72.44700622558594;1673377652.4203472;4.6759161949157715;23.75035858154297;-115.1811752319336
339;1673377652.455602;47.1285903;7.2377965;72.52200317382812;1673377652.616708;4.53727912902832;15.246109962463379;-103.65071868896484
340;1673377652.6557467;47.1285914;7.2377915999999995;72.58000183105469;1673377652.8221266;-0.9760781526565552;10.862738609313965;-95.15202331542969
341;1673377652.8582833;47.1285932;7.2377864;72.63200378417969;1673377653.0224442;-1.8840454816818237;8.127883911132812;-86.17259979248047
342;1673377653.060665;47.128595399999995;7.2377807999999995;72.67400360107422;1673377653.218123;-2.965972423553467;6.3645710945129395;-76.85464477539062
343;1673377653.2561867;47.128598;7.2377749;72.7090072631836;1673377653.416626;-3.6685948371887207;4.426486968994141;-67.71514129638672
344;1673377653.4507933;47.1286007;7.237768999999999;72.73900604248047;1673377653.6161828;-3.801362991333008;4.808537483215332;-58.43877410888672
345;1673377653.6554878;47.128603399999996;7.2377631;72.76600646972656;1673377653.8131094;-2.46295166015625;4.802310466766357;-49.405677795410156
346;1673377653.8552544;47.1286061;7.2377572;72.79000091552734;1673377654.0232832;-1.1849522590637207;5.0305070877075195;-41.28779220581055
347;1673377654.0665045;47.1286087;7.2377514;72.81500244140625;1673377654.226367;-1.0949560403823853;4.232912063598633;-39.54402160644531
348;1673377654.2839503;47.1286111;7.237745599999999;72.83600616455078;1673377654.451034;-11.487699508666992;5.544636249542236;-42.8807487487793
349;1673377654.501349;47.1286135;7.237739599999999;72.8550033569336;1673377654.6583586;-37.7022819519043;5.51650857925415;-45.53001403808594
350;1673377654.6979516;47.1286166;7.2377327;72.88700103759766;1673377654.850867;-54.45026779174805;3.75323748588562;-45.0831184387207
351;1673377654.8914728;47.1286215;7.2377233;72.92200469970703;1673377655.0736947;-60.615413665771484;1.7147095203399658;-45.0367431640625
352;1673377655.138723;47.1286291;7.2377101999999995;72.94499969482422;1673377655.2905996;-58.8197021484375;0.9270213842391968;-44.814048767089844
353;1673377655.3189032;47.128639;7.2376930999999995;72.96400451660156;1673377655.490649;-60.896270751953125;-0.5490685105323792;-43.29216384887695
354;1673377655.5220304;47.1286511;7.2376724999999995;72.97700500488281;1673377655.6879094;-58.9770622253418;1.085019826889038;-43.61491394042969
355;1673377655.729072;47.1286649;7.2376489;72.97000122070312;1673377655.8870678;-54.29922103881836;2.723618507385254;-44.394195556640625
356;1673377655.920926;47.1286803;7.237622999999999;72.95800018310547;1673377656.087131;-55.21736526489258;3.630561590194702;-45.062828063964844
357;1673377656.135964;47.1286968;7.2375954;72.94100189208984;1673377656.2894;-55.89814758300781;3.928992748260498;-45.416507720947266
358;1673377656.321655;47.1287144;7.2375666;72.91400146484375;1673377656.4693522;-52.1824836730957;4.27005672454834;-45.43278503417969
359;1673377656.5033042;47.128732799999995;7.2375367;72.88600158691406;1673377656.659243;-49.91062545776367;3.5142242908477783;-45.20606994628906
360;1673377656.6939337;47.128751699999995;7.2375061999999994;72.85800170898438;1673377656.8459363;-48.88666915893555;4.157227993011475;-45.48908233642578
361;1673377656.8801672;47.1287709;7.2374751999999996;72.8340072631836;1673377657.04027;-49.021976470947266;4.150473117828369;-45.45085144042969
362;1673377657.0812557;47.1287902;7.237444099999999;72.81999969482422;1673377657.251238;-49.87108612060547;4.287184238433838;-45.473209381103516
363;1673377657.2903562;47.1288098;7.2374127999999995;72.81200408935547;1673377657.4543676;-49.328189849853516;4.276673793792725;-45.433860778808594
364;1673377657.4906106;47.128829599999996;7.2373812;72.80500030517578;1673377657.6524184;-48.61967468261719;4.198506832122803;-45.41456604003906
365;1673377657.6914823;47.1288495;7.237349399999999;72.79800415039062;1673377657.8556795;-48.482177734375;4.353741645812988;-45.50006103515625
366;1673377657.896089;47.1288695;7.2373176;72.79300689697266;1673377658.0646114;-48.278648376464844;4.373859405517578;-45.50395965576172
367;1673377658.1002822;47.1288896;7.2372857999999995;72.78800201416016;1673377658.2721448;-38.55057907104492;3.0688412189483643;-44.58829879760742
368;1673377658.3079329;47.1289096;7.2372540999999995;72.67000579833984;1673377658.4520352;-4.14692497253418;-0.3399663269519806;-43.4146728515625
369;1673377658.484189;47.128929299999996;7.237222699999999;72.20000457763672;1673377658.623167;53.67654800415039;-6.505715847015381;-46.25715255737305
370;1673377658.6599627;47.128948699999995;7.2371916999999995;71.33600616455078;1673377658.8170295;64.03089904785156;-172.47291564941406;150.55712890625
371;1673377658.850917;47.1289683;7.2371605;70.08200073242188;1673377659.0110836;23.92943572998047;179.2181854248047;141.7816162109375
372;1673377659.0482106;47.128987699999996;7.2371295;68.47900390625;1673377659.2044368;12.747053146362305;179.17750549316406;140.38758850097656
373;1673377659.2410386;47.1290068;7.237099;66.50800323486328;1673377659.4042327;29.920133590698242;179.25518798828125;139.15499877929688
374;1673377659.4399986;47.1290255;7.2370689;64.1570053100586;1673377659.6022427;78.299072265625;-177.00912475585938;142.72744750976562
375;1673377659.638332;47.1290438;7.2370392;61.45000457763672;1673377659.8009183;28.820056915283203;0.6208854913711548;-42.12800598144531
376;1673377659.837985;47.1290623;7.2370092999999995;58.38500213623047;1673377660.0001395;-37.715091705322266;3.4520668983459473;-42.581329345703125
377;1673377660.0361853;47.129080599999995;7.2369797;54.910003662109375;1673377660.223182;-67.78827667236328;3.3494062423706055;-41.508460998535156
378;1673377660.2632606;47.1290985;7.2369505;51.08400344848633;1673377660.4472914;-55.974647521972656;1.3809890747070312;-38.437992095947266
379;1673377660.4980173;47.1291161;7.2369216;46.94600296020508;1673377660.6481402;-1.0556046962738037;0.4114072024822235;-36.2029914855957
380;1673377660.684147;47.1291334;7.236893299999999;42.46800231933594;1673377660.825099;71.80502319335938;5.60127067565918;-28.86117172241211
381;1673377660.8629572;47.129150499999994;7.236865;37.573001861572266;1673377661.015242;67.26722717285156;169.20660400390625;134.11993408203125
382;1673377661.0510042;47.129167699999996;7.2368367;32.35000228881836;1673377661.2171907;78.65310668945312;151.12835693359375;115.62513732910156
383;1673377661.2751667;47.129184699999996;7.2368086;26.838001251220703;1673377661.454185;38.09746170043945;6.274768352508545;-29.26603126525879
384;1673377661.503059;47.1292019;7.2367805;21.017000198364258;1673377661.6531694;-35.143836975097656;1.5806384086608887;-33.12455749511719
385;1673377661.6945746;47.129219;7.236752399999999;14.79900074005127;1673377661.84821;-63.02475357055664;-2.5208847522735596;-30.24698829650879
386;1673377661.8883955;47.1292356;7.2367249;8.254000663757324;1673377662.0509987;-29.9359188079834;0.9900152683258057;-31.17041778564453
387;1673377662.084207;47.1292518;7.236698;1.4200000762939453;1673377662.2540991;5.082926273345947;-6.651244163513184;-29.813135147094727
388;1673377662.298675;47.1292501;7.2366955;0.30900001525878906;1673377662.4901226;7.455210208892822;-5.266627788543701;-36.5543327331543
389;1673377662.524689;47.1292483;7.2366966999999995;0.3720000088214874;1673377662.6931164;11.003829956054688;-8.53306770324707;-37.25357437133789
390;1673377662.734372;47.1292488;7.2366971;0.4780000150203705;1673377662.8843246;11.695496559143066;-8.500587463378906;-37.24557876586914
391;1673377662.927215;47.129249699999995;7.2366971;0.6020000576972961;1673377663.0889742;11.44225025177002;-8.463558197021484;-37.33378601074219
392;1673377663.119244;47.1292505;7.2366968;0.7130000591278076;1673377663.260284;11.089049339294434;-8.386648178100586;-37.421714782714844
393;1673377663.2997632;47.1292512;7.2366964;0.8080000281333923;1673377663.4541616;10.868733406066895;-8.290904998779297;-37.48302459716797
394;1673377663.4910407;47.1292508;7.2366965;0.9010000228881836;1673377663.6570966;10.879227638244629;-8.221997261047363;-37.463966369628906
395;1673377663.6953988;47.1292487;7.2366975;0.9650000333786011;1673377663.876231;10.882163047790527;-8.085243225097656;-37.449913024902344
396;1673377663.9340477;47.1292453;7.2366988999999995;0.9920000433921814;1673377664.1020248;10.871603965759277;-7.9664788246154785;-37.447608947753906
397;1673377664.1461465;47.129241199999996;7.2367007;0.999000072479248;1673377664.3082032;10.85346794128418;-7.796389102935791;-37.449405670166016
398;1673377664.343075;47.1292366;7.2367026;0.9940000176429749;1673377664.4710746;10.768912315368652;-7.629255771636963;-37.44124984741211
399;1673377664.500485;47.1292317;7.2367045999999995;0.984000027179718;1673377664.6353135;10.712362289428711;-7.43605375289917;-37.41473388671875
400;1673377664.6702116;47.1292267;7.2367064999999995;0.9730000495910645;1673377664.8208249;10.641380310058594;-7.200602054595947;-37.39422607421875
401;1673377664.8582094;47.1292209;7.2367089;0.9670000672340393;1673377665.0164406;10.555891990661621;-6.981306552886963;-37.37877655029297
402;1673377665.0506585;47.1292152;7.236711199999999;0.968000054359436;1673377665.2472835;10.405411720275879;-6.697167873382568;-37.36455535888672
403;1673377665.2941422;47.1292104;7.236713;0.9750000238418579;1673377665.4716988;10.19882869720459;-6.461706161499023;-37.334197998046875
404;1673377665.5065198;47.1292062;7.2367145;0.9850000739097595;1673377665.6684778;10.062728881835938;-6.200290679931641;-37.2922248840332
405;1673377665.6990266;47.1292006;7.2367167;0.9880000352859497;1673377665.862723;10.107336044311523;-5.992382049560547;-37.296871185302734
406;1673377665.9012384;47.1291927;7.236720099999999;0.9750000238418579;1673377666.0551481;10.057665824890137;-5.809821128845215;-37.288883209228516
407;1673377666.0902927;47.1291832;7.2367241;0.9520000219345093;1673377666.2348843;9.99227523803711;-5.5749969482421875;-37.236610412597656
408;1673377666.2799916;47.1291727;7.236728599999999;0.9240000247955322;1673377666.439464;9.992837905883789;-5.381403923034668;-37.21036911010742
409;1673377666.4833727;47.1291613;7.2367335;0.8870000243186951;1673377666.6408708;9.944226264953613;-5.183807849884033;-37.20464324951172
410;1673377666.6760473;47.1291492;7.2367387;0.8470000624656677;1673377666.8349242;9.90573501586914;-5.013133525848389;-37.17078399658203
411;1673377666.8684502;47.1291365;7.2367441999999995;0.8040000200271606;1673377667.0373254;9.864999771118164;-4.829165458679199;-37.206295013427734
412;1673377667.0716596;47.129123199999995;7.2367498999999995;0.7580000162124634;1673377667.2426703;9.85322380065918;-4.662431716918945;-37.18334197998047
413;1673377667.2935748;47.1291094;7.2367558;0.7130000591278076;1673377667.4665694;9.744410514831543;-4.481099605560303;-37.174007415771484
414;1673377667.5013876;47.129095;7.236762;0.6640000343322754;1673377667.6575491;9.73657512664795;-4.286500930786133;-37.16230773925781
415;1673377667.690553;47.129080099999996;7.236768499999999;0.6150000095367432;1673377667.8432457;9.700366973876953;-4.145042419433594;-37.15729522705078
416;1673377667.8808367;47.1290646;7.2367751;0.5700000524520874;1673377668.0414774;9.652365684509277;-3.968250036239624;-37.12478256225586
417;1673377668.0787766;47.1290486;7.2367818999999995;0.527999997138977;1673377668.2527168;9.59484577178955;-3.7255897521972656;-37.13382339477539
418;1673377668.2935727;47.1290322;7.236789;0.48600003123283386;1673377668.4497166;9.496379852294922;-3.48771071434021;-37.12749099731445
419;1673377668.484513;47.1290152;7.2367963;0.445000022649765;1673377668.6584911;9.425501823425293;-3.300318479537964;-37.09690475463867
