;pos_time;latitude;longitude;altitude;alt_time;pitch;roll;yaw
0;1673375380.3246088;47.1306425;7.2406203;-0.030000001192092896;1673375380.424824;0.07195773720741272;0.37769603729248047;90.04759216308594
1;1673375380.527909;47.1306425;7.2406203;-0.030000001192092896;1673375380.646535;0.13262905180454254;0.1010846495628357;90.0149154663086
2;1673375380.721271;47.1306425;7.2406203;-0.030000001192092896;1673375380.8145995;0.15931913256645203;-0.059864819049835205;89.92426300048828
3;1673375380.9242845;47.1306424;7.2406203;-0.03200000151991844;1673375381.036919;0.20595696568489075;-0.4755488634109497;89.9570083618164
4;1673375381.1679378;47.1306424;7.2406203;-0.03100000135600567;1673375381.2729142;0.07884565740823746;-0.3716207444667816;89.93093872070312
5;1673375381.356578;47.1306424;7.2406203;-0.029000001028180122;1673375381.4577196;-0.01644270494580269;-0.4092295467853546;89.97636413574219
6;1673375381.563983;47.1306424;7.2406201999999995;-0.030000001192092896;1673375381.647218;-0.10699380189180374;-0.31596875190734863;89.88523864746094
7;1673375381.7313142;47.1306424;7.2406201;-0.032999999821186066;1673375381.826904;-0.023019511252641678;-0.38775041699409485;89.90442657470703
8;1673375381.920474;47.1306425;7.24062;-0.03700000047683716;1673375382.019637;0.10664226859807968;-0.25483712553977966;89.95710754394531
9;1673375382.1430042;47.1306425;7.24062;-0.0010000000474974513;1673375382.2532485;0.275515615940094;-0.770138680934906;89.8040771484375
10;1673375382.3399436;47.1306425;7.24062;-0.0020000000949949026;1673375382.4341948;-0.10079146921634674;-0.5941095948219299;89.89816284179688
11;1673375382.5216744;47.1306425;7.24062;-0.0010000000474974513;1673375382.622672;-0.07708099484443665;-0.6246522068977356;89.8497085571289
12;1673375382.714619;47.1306424;7.24062;-0.0020000000949949026;1673375382.82528;-0.10900305211544037;-0.6782002449035645;89.95759582519531
13;1673375382.9159162;47.1306425;7.24062;0.0;1673375383.0281506;-0.05155181884765625;-0.5712061524391174;89.88970184326172
14;1673375383.1233797;47.1306425;7.24062;0.007000000216066837;1673375383.2184849;-0.03808705881237984;-0.5680356025695801;90.01046752929688
15;1673375383.311302;47.1306425;7.2406201;0.014000000432133675;1673375383.4083385;-0.05193585529923439;-0.7923480868339539;90.16592407226562
16;1673375383.506298;47.1306425;7.2406201;0.024000000208616257;1673375383.6063452;-0.11040454357862473;-0.7511403560638428;90.09196472167969
17;1673375383.7022495;47.1306425;7.2406201;0.0010000000474974513;1673375383.812223;-0.1970956027507782;-0.685183048248291;90.11626434326172
18;1673375383.9163492;47.1306425;7.2406201;0.006000000052154064;1673375384.0253916;-0.04475262761116028;-0.9007536768913269;90.03548431396484
19;1673375384.1056018;47.1306425;7.2406201;0.007000000216066837;1673375384.2004702;0.042519502341747284;-0.5857667922973633;89.85700988769531
20;1673375384.2993877;47.1306425;7.2406201;0.007000000216066837;1673375384.397234;-0.1651362031698227;-0.866386353969574;90.14627838134766
21;1673375384.4894106;47.1306425;7.2406201;0.00800000037997961;1673375384.6033416;-0.1847883015871048;-0.25219282507896423;90.28919219970703
22;1673375384.7075007;47.130642599999995;7.2406201;0.010000000707805157;1673375384.8174975;0.04237354174256325;-0.18313871324062347;90.34623718261719
23;1673375384.906298;47.130642599999995;7.2406201;0.01100000087171793;1673375384.9985523;-0.08840648829936981;-0.38780781626701355;90.38706970214844
24;1673375385.0893385;47.130642599999995;7.2406201;0.012000000104308128;1673375385.2002828;-0.10603149980306625;-0.20812861621379852;90.79351043701172
25;1673375385.2983756;47.130642599999995;7.2406201;0.009000000543892384;1673375385.403452;0.022995110601186752;-0.06515245884656906;90.93594360351562
26;1673375385.5172527;47.130642699999996;7.2406201;0.006000000052154064;1673375385.683345;0.13284097611904144;0.8738124370574951;91.6224365234375
27;1673375385.792216;47.1306428;7.2406201999999995;0.0020000000949949026;1673375385.878164;2.5397322177886963;2.246065378189087;91.67988586425781
28;1673375385.9714663;47.130643;7.2406204999999995;0.01100000087171793;1673375386.0612931;6.513559341430664;3.5253942012786865;91.50553131103516
29;1673375386.1983652;47.130643299999996;7.240621;0.04700000211596489;1673375386.3124979;9.152441024780273;7.030714988708496;91.15106964111328
30;1673375386.406508;47.1306437;7.240621399999999;0.09300000220537186;1673375386.5002189;9.238911628723145;9.692707061767578;90.1370849609375
31;1673375386.580301;47.1306438;7.240621699999999;0.14900000393390656;1673375386.6693382;8.635831832885742;8.589337348937988;89.12806701660156
32;1673375386.7602832;47.130643899999995;7.2406217999999996;0.22200001776218414;1673375386.8584628;8.247580528259277;5.362319469451904;88.8886489868164
33;1673375386.9467206;47.130643899999995;7.2406216;0.3060000240802765;1673375387.0509698;8.688790321350098;6.2988409996032715;88.88843536376953
34;1673375387.137444;47.1306437;7.2406213;0.4010000228881836;1673375387.2385156;8.90921401977539;9.545814514160156;88.92717742919922
35;1673375387.324956;47.1306434;7.2406209;0.5090000033378601;1673375387.414817;8.618195533752441;6.6857757568359375;88.61903381347656
36;1673375387.5141902;47.130643299999996;7.2406204999999995;0.6340000033378601;1673375387.6302807;8.251683235168457;4.315534591674805;87.62530517578125
37;1673375387.7425444;47.1306431;7.2406201;0.7760000228881836;1673375387.842557;7.190523147583008;5.98403787612915;86.05579376220703
38;1673375387.9418223;47.130643;7.240619799999999;0.9260000586509705;1673375388.0263777;7.350419521331787;7.457082271575928;84.92545318603516
39;1673375388.1301997;47.1306429;7.2406196;1.093000054359436;1673375388.236209;6.056641101837158;3.55414080619812;84.54645538330078
40;1673375388.3313105;47.130643;7.2406194;1.2720000743865967;1673375388.4184387;6.394786357879639;4.057316780090332;84.71163177490234
41;1673375388.5089223;47.130643;7.2406194;1.4570000171661377;1673375388.6099896;7.059648513793945;8.388853073120117;87.320068359375
42;1673375388.7045763;47.1306428;7.2406194;1.6400001049041748;1673375388.8021352;7.533339500427246;6.887101650238037;86.58040618896484
43;1673375388.8949463;47.130642699999996;7.240619499999999;1.8260000944137573;1673375388.9980462;8.084138870239258;3.191727638244629;85.66989135742188
44;1673375389.1005166;47.130642599999995;7.2406196;2.0180001258850098;1673375389.2080705;8.292526245117188;5.1897807121276855;85.04943084716797
45;1673375389.312191;47.130642599999995;7.2406197;2.2060000896453857;1673375389.4135258;8.315088272094727;7.808780670166016;84.38548278808594
46;1673375389.5122337;47.130642599999995;7.2406198999999996;2.3990001678466797;1673375389.6267457;7.8622283935546875;5.062323570251465;84.2034683227539
47;1673375389.7225757;47.130642599999995;7.2406198999999996;2.5940001010894775;1673375389.816929;7.624001979827881;4.242481231689453;84.41204833984375
48;1673375389.9073548;47.130642699999996;7.24062;2.7890000343322754;1673375390.012472;8.062631607055664;7.621494293212891;84.25961303710938
49;1673375390.1106322;47.1306425;7.24062;2.9830000400543213;1673375390.2190695;8.013099670410156;6.646162033081055;83.7056655883789
50;1673375390.3137856;47.1306423;7.24062;3.1760001182556152;1673375390.4187627;8.231022834777832;2.652858018875122;83.49111938476562
51;1673375390.5418878;47.130642099999996;7.24062;3.366000175476074;1673375390.6314912;8.47599983215332;3.0445313453674316;83.7061767578125
52;1673375390.7423391;47.130641999999995;7.24062;3.563000202178955;1673375390.820578;8.523411750793457;6.337499618530273;84.16253662109375
53;1673375390.9151835;47.1306419;7.2406201;3.760000228881836;1673375391.0182207;8.396502494812012;4.582359790802002;84.3624267578125
54;1673375391.115945;47.130642099999996;7.2406201;3.953000068664551;1673375391.2146363;8.227766990661621;3.1608471870422363;84.1163330078125
55;1673375391.3079348;47.1306423;7.2406201;4.150000095367432;1673375391.4091396;7.887386798858643;6.3248982429504395;83.9147720336914
56;1673375391.496835;47.1306425;7.2406201;4.350000381469727;1673375391.6038427;7.778406620025635;8.044938087463379;83.8163070678711
57;1673375391.7100277;47.1306425;7.2406201999999995;4.548000335693359;1673375391.813649;7.952677249908447;4.526068687438965;83.59194946289062
58;1673375391.9129512;47.1306425;7.2406201999999995;4.742000102996826;1673375392.0009997;8.057816505432129;3.1597304344177246;83.89474487304688
59;1673375392.0888653;47.1306424;7.2406201;4.937000274658203;1673375392.212935;8.220610618591309;6.921163082122803;84.53202819824219
60;1673375392.3131702;47.1306424;7.24062;5.135000228881836;1673375392.4383144;8.865750312805176;7.060910701751709;84.53768157958984
61;1673375392.546391;47.1306424;7.24062;5.339000225067139;1673375392.649426;8.99925708770752;3.7906014919281006;83.90922546386719
62;1673375392.741732;47.1306425;7.2406198999999996;5.543000221252441;1673375392.8391755;8.3231782913208;4.928360462188721;83.26655578613281
63;1673375392.9340968;47.130642699999996;7.2406198999999996;5.742000102996826;1673375393.0336967;8.151227951049805;8.136466026306152;83.32669830322266
64;1673375393.1176605;47.1306428;7.2406198999999996;5.941000461578369;1673375393.2104094;7.712469100952148;5.030325412750244;83.7890396118164
65;1673375393.2992945;47.1306429;7.2406197;6.146000385284424;1673375393.3984172;7.321117877960205;3.85727858543396;84.04170227050781
66;1673375393.5065255;47.1306428;7.2406196;6.3510003089904785;1673375393.609361;7.341244220733643;7.646536350250244;84.29427337646484
67;1673375393.7051282;47.130642599999995;7.240619499999999;6.554000377655029;1673375393.8020856;7.865180969238281;7.006953239440918;84.26351928710938
68;1673375393.8964043;47.1306425;7.240619499999999;6.760000228881836;1673375394.0062785;8.219149589538574;4.05652379989624;84.1192398071289
69;1673375394.1067493;47.1306424;7.240619499999999;6.969000339508057;1673375394.210987;8.000595092773438;4.897788047790527;83.85922241210938
70;1673375394.3035274;47.1306424;7.240619499999999;7.174000263214111;1673375394.4077196;8.177700996398926;8.018108367919922;83.8310546875
71;1673375394.508964;47.1306425;7.2406196;7.377000331878662;1673375394.6133492;7.347882270812988;4.777771472930908;84.25553894042969
72;1673375394.7307355;47.1306425;7.2406197;7.579000473022461;1673375394.825016;7.491091728210449;4.338979721069336;84.59929656982422
73;1673375394.9145849;47.1306425;7.2406198999999996;7.779000282287598;1673375395.0176125;7.672502040863037;7.861799240112305;84.38785552978516
74;1673375395.1141853;47.1306424;7.24062;7.9810004234313965;1673375395.2181745;7.622544288635254;6.862295150756836;83.86041259765625
75;1673375395.3219783;47.1306422;7.2406201;8.179000854492188;1673375395.4224663;8.323972702026367;2.8662264347076416;83.57177734375
76;1673375395.518089;47.1306422;7.2406201;8.375;1673375395.6196628;8.545720100402832;4.125317573547363;83.85221862792969
77;1673375395.7258484;47.1306422;7.2406201;8.572000503540039;1673375395.829214;8.538154602050781;7.625338077545166;84.43869018554688
78;1673375395.9317942;47.1306423;7.2406201999999995;8.771000862121582;1673375396.0646837;8.767660140991211;5.3506903648376465;84.44154357910156
79;1673375396.1492388;47.1306424;7.2406203;8.973000526428223;1673375396.2553523;8.298944473266602;3.151362419128418;84.10613250732422
80;1673375396.3466623;47.1306424;7.2406204;9.175000190734863;1673375396.4566774;7.886611461639404;6.284471035003662;83.84832763671875
81;1673375396.5431387;47.1306424;7.2406204999999995;9.374000549316406;1673375396.6510785;7.68153190612793;7.874135971069336;83.45954132080078
82;1673375396.7463622;47.1306423;7.2406204999999995;9.570000648498535;1673375396.8484206;8.192304611206055;3.4613840579986572;83.304931640625
83;1673375396.940462;47.1306422;7.2406204999999995;9.770000457763672;1673375397.038245;8.19374942779541;3.499052047729492;83.85343933105469
84;1673375397.1396744;47.1306422;7.2406204999999995;9.968000411987305;1673375397.2306132;8.34545612335205;7.49569845199585;84.72888946533203
85;1673375397.3277895;47.1306422;7.2406204999999995;10.171000480651855;1673375397.4356754;8.926281929016113;6.47786283493042;84.50762939453125
86;1673375397.528117;47.1306423;7.2406204;10.451000213623047;1673375397.6390717;9.65468978881836;5.987821102142334;83.83804321289062
87;1673375397.7342923;47.130642099999996;7.2406203;10.814000129699707;1673375397.8372993;9.167956352233887;6.573208808898926;83.6703109741211
88;1673375397.933538;47.1306419;7.2406201;11.197000503540039;1673375398.033658;7.8635358810424805;7.618514537811279;84.14534759521484
89;1673375398.1279833;47.130641499999996;7.2406198999999996;11.588000297546387;1673375398.2231936;7.0641608238220215;3.103525400161743;84.19357299804688
90;1673375398.321405;47.1306412;7.2406196;11.984000205993652;1673375398.4147213;6.5015363693237305;1.8634475469589233;84.05948638916016
91;1673375398.5051932;47.130641;7.240619499999999;12.383000373840332;1673375398.610364;6.563060760498047;4.6198530197143555;84.27961730957031
92;1673375398.706596;47.130640899999996;7.2406194;12.784000396728516;1673375398.817523;7.430525779724121;5.265372276306152;84.36221313476562
93;1673375398.9129004;47.130641;7.2406194;13.188000679016113;1673375399.0208023;7.632089614868164;2.6433722972869873;83.97940826416016
94;1673375399.1096046;47.1306413;7.2406194;13.592000961303711;1673375399.2063305;7.719829559326172;3.72786545753479;83.5965576171875
95;1673375399.3064594;47.130641499999996;7.2406196;13.993000984191895;1673375399.4144402;8.174070358276367;7.5038604736328125;84.01852416992188
96;1673375399.5206954;47.1306417;7.2406197;14.4010009765625;1673375399.6318018;7.862961292266846;6.105778694152832;84.31602478027344
97;1673375399.7304714;47.1306419;7.240619799999999;14.805000305175781;1673375399.8347192;7.949979305267334;3.9855804443359375;84.33476257324219
98;1673375399.9292033;47.130641999999995;7.2406198999999996;15.212000846862793;1673375400.021683;7.600799083709717;6.405423164367676;84.19251251220703
99;1673375400.1168988;47.130641999999995;7.24062;15.622000694274902;1673375400.2270017;7.7721452713012695;7.624543190002441;83.87542724609375
100;1673375400.3379178;47.130641999999995;7.24062;16.033000946044922;1673375400.4523678;7.963391304016113;4.310037612915039;83.93505096435547
101;1673375400.5433278;47.130642099999996;7.24062;16.446001052856445;1673375400.653018;7.618858814239502;3.705444097518921;84.1270751953125
102;1673375400.7419417;47.1306422;7.2406198999999996;16.856000900268555;1673375400.8515673;7.673344135284424;7.198321342468262;84.31616973876953
103;1673375400.9423788;47.1306422;7.2406198999999996;17.26300048828125;1673375401.043643;8.059813499450684;7.566630840301514;84.39913177490234
104;1673375401.1311505;47.1306423;7.240619799999999;17.672000885009766;1673375401.2343369;8.3292875289917;3.606916904449463;84.02108764648438
105;1673375401.3412094;47.1306423;7.240619799999999;18.07900047302246;1673375401.4386666;8.038357734680176;5.117122650146484;83.7614974975586
106;1673375401.533645;47.1306422;7.2406198999999996;18.485000610351562;1673375401.705826;8.02745532989502;7.790881156921387;83.99266815185547
107;1673375401.8096719;47.130642099999996;7.2406198999999996;18.889001846313477;1673375401.8943381;7.9423699378967285;4.43027925491333;84.037841796875
108;1673375401.9739566;47.130642099999996;7.24062;19.29400062561035;1673375402.0644293;7.789224147796631;3.291898727416992;84.16804504394531
109;1673375402.1443076;47.130642099999996;7.2406198999999996;19.705001831054688;1673375402.2461417;7.527986526489258;6.734862804412842;84.08985900878906
110;1673375402.3430827;47.130642099999996;7.2406198999999996;20.110000610351562;1673375402.4428794;7.928497791290283;7.003525733947754;84.00067901611328
111;1673375402.5372322;47.1306422;7.2406198999999996;20.522001266479492;1673375402.6464856;8.09615707397461;3.9557690620422363;83.96885681152344
112;1673375402.7371123;47.1306423;7.240619799999999;20.93600082397461;1673375402.8692265;8.010010719299316;4.275547027587891;84.00680541992188
113;1673375402.9616973;47.1306423;7.240619799999999;21.345001220703125;1673375403.0644703;7.905550003051758;7.698276996612549;84.28411102294922
114;1673375403.1627674;47.130642099999996;7.240619799999999;21.75200080871582;1673375403.272785;8.309205055236816;6.170729160308838;84.46772003173828
115;1673375403.362185;47.130641999999995;7.240619799999999;22.157001495361328;1673375403.4564846;8.19029426574707;2.90480899810791;84.10871887207031
116;1673375403.560629;47.130641999999995;7.2406198999999996;22.558000564575195;1673375403.657978;7.588995456695557;4.711448669433594;83.66138458251953
117;1673375403.755156;47.1306419;7.2406198999999996;22.963001251220703;1673375403.8372273;7.655655384063721;6.926550388336182;83.52116394042969
118;1673375403.9307895;47.1306419;7.2406198999999996;23.373001098632812;1673375404.022377;7.842003345489502;5.035130023956299;84.02281188964844
119;1673375404.115008;47.130642099999996;7.240619799999999;23.783000946044922;1673375404.213822;7.389477252960205;3.2674217224121094;84.2718276977539
120;1673375404.3117704;47.1306423;7.240619799999999;24.18600082397461;1673375404.4227614;7.592657089233398;7.0613298416137695;84.32401275634766
121;1673375404.5220852;47.1306424;7.2406197;24.58500099182129;1673375404.6387684;7.901979446411133;7.516872882843018;84.168701171875
122;1673375404.7458904;47.1306424;7.2406197;24.98600196838379;1673375404.8468192;8.094724655151367;3.4767918586730957;83.81766510009766
123;1673375404.942222;47.1306424;7.2406197;25.381000518798828;1673375405.034562;8.040868759155273;4.608546257019043;83.9177474975586
124;1673375405.1558278;47.1306423;7.2406197;25.779001235961914;1673375405.256743;7.587512493133545;7.805974960327148;84.222412109375
125;1673375405.336815;47.1306424;7.2406197;26.181001663208008;1673375405.4304168;7.548947334289551;5.24312686920166;84.14059448242188
126;1673375405.5362298;47.1306425;7.2406196;26.584001541137695;1673375405.6478617;7.345060348510742;3.5789906978607178;84.07962799072266
127;1673375405.7406454;47.130642599999995;7.2406196;26.98600196838379;1673375405.8430471;7.467126846313477;7.244747161865234;84.22760009765625
128;1673375405.9407973;47.130642699999996;7.2406196;27.386001586914062;1673375406.0905623;7.602138519287109;8.114639282226562;84.11408996582031
129;1673375406.2178147;47.130642699999996;7.2406197;27.783000946044922;1673375406.3013253;7.8258562088012695;4.276782989501953;83.88532257080078
130;1673375406.3936143;47.130642699999996;7.2406197;28.184001922607422;1673375406.504607;8.082300186157227;4.38779878616333;83.9373550415039
131;1673375406.592988;47.130642699999996;7.2406197;28.586000442504883;1673375406.6737292;8.102987289428711;7.686704635620117;84.26729583740234
132;1673375406.7530968;47.130642599999995;7.2406197;28.98200225830078;1673375406.843206;8.494479179382324;6.528160572052002;84.31613159179688
133;1673375406.94895;47.130642599999995;7.2406197;29.384000778198242;1673375407.0571132;8.350232124328613;3.6826696395874023;84.04058074951172
134;1673375407.149552;47.130642699999996;7.2406197;29.78700065612793;1673375407.2385268;7.752824306488037;6.093716621398926;83.86739349365234
135;1673375407.3324225;47.1306428;7.2406197;30.187002182006836;1673375407.4305642;7.959182262420654;8.171540260314941;84.10066986083984
136;1673375407.5297277;47.1306428;7.2406197;30.584001541137695;1673375407.6271715;7.637699127197266;4.347951412200928;84.1124267578125
137;1673375407.7258644;47.1306428;7.240619799999999;30.98200225830078;1673375407.8279254;7.5243330001831055;3.854030132293701;84.11607360839844
138;1673375407.9449582;47.1306428;7.240619799999999;31.384000778198242;1673375408.0551803;7.447291374206543;7.904873847961426;84.18006134033203
139;1673375408.1465204;47.130642699999996;7.240619799999999;31.790000915527344;1673375408.239512;7.54874324798584;6.531903266906738;84.01235961914062
140;1673375408.3732486;47.130642599999995;7.2406197;32.19600296020508;1673375408.466816;7.841442584991455;3.3905677795410156;83.97894287109375
141;1673375408.5737753;47.130642599999995;7.2406197;32.59800338745117;1673375408.6589134;7.714572906494141;5.521761417388916;83.97367858886719
142;1673375408.7514966;47.1306425;7.2406197;32.99300003051758;1673375408.8598237;8.001740455627441;7.77556037902832;84.14789581298828
143;1673375408.9468336;47.1306425;7.2406197;33.39400100708008;1673375409.0359404;7.93312406539917;4.851771831512451;84.2535400390625
144;1673375409.1278193;47.130642599999995;7.240619799999999;33.794002532958984;1673375409.2284217;7.884200572967529;4.33392858505249;84.20167541503906
145;1673375409.3227425;47.1306425;7.240619799999999;34.194000244140625;1673375409.445413;7.829904556274414;7.045657634735107;84.09517669677734
146;1673375409.54082;47.1306424;7.240619799999999;34.595001220703125;1673375409.6614945;8.149721145629883;6.7290730476379395;84.06513214111328
147;1673375409.7590048;47.1306423;7.2406198999999996;34.99400329589844;1673375409.8681328;8.008369445800781;3.4824130535125732;84.0726318359375
148;1673375409.948166;47.1306423;7.2406198999999996;35.39400100708008;1673375410.0427706;7.865356922149658;4.849775791168213;84.1658935546875
149;1673375410.1339378;47.1306423;7.240619799999999;35.79100036621094;1673375410.2311447;7.635636329650879;7.552512168884277;84.11833190917969
150;1673375410.3341715;47.1306423;7.240619799999999;36.194000244140625;1673375410.4588027;7.736942291259766;5.160667896270752;84.0833969116211
151;1673375410.558198;47.1306424;7.240619799999999;36.60200119018555;1673375410.6604903;7.584621429443359;3.5385658740997314;84.00727844238281
152;1673375410.7441998;47.1306425;7.240619799999999;37.01000213623047;1673375410.8463414;7.476154804229736;6.884573936462402;84.12928771972656
153;1673375410.951633;47.1306424;7.240619799999999;37.413002014160156;1673375411.0558379;7.489233016967773;7.420238494873047;84.1715316772461
154;1673375411.1576571;47.1306424;7.240619799999999;37.81300354003906;1673375411.2685437;7.629583835601807;3.5366642475128174;83.97093200683594
155;1673375411.3546207;47.1306423;7.240619799999999;38.20800018310547;1673375411.4557133;7.696471691131592;4.18994140625;83.9058609008789
156;1673375411.5598285;47.1306423;7.2406198999999996;38.60600280761719;1673375411.6522655;7.950081825256348;7.360089302062988;84.12102508544922
157;1673375411.7544768;47.1306423;7.2406198999999996;39.00800323486328;1673375411.85947;8.25832748413086;6.057129383087158;84.20655059814453
158;1673375411.9517455;47.1306425;7.2406198999999996;39.413002014160156;1673375412.0499318;8.258086204528809;3.6949288845062256;84.0901107788086
159;1673375412.1454241;47.130642699999996;7.2406198999999996;39.81300354003906;1673375412.2471936;8.222097396850586;6.338303089141846;84.02098846435547
160;1673375412.352568;47.1306428;7.24062;40.211002349853516;1673375412.455254;8.151202201843262;8.485177993774414;84.2083969116211
161;1673375412.5555198;47.1306428;7.24062;40.60900115966797;1673375412.6617084;7.942997932434082;4.6987409591674805;84.27095031738281
162;1673375412.8164566;47.1306428;7.24062;41.00400161743164;1673375412.9134617;7.706308841705322;4.093913555145264;84.25529479980469
163;1673375413.0047603;47.130642699999996;7.24062;41.402000427246094;1673375413.103675;7.356383800506592;7.01023006439209;83.95394897460938
164;1673375413.2004755;47.130642599999995;7.24062;41.80000305175781;1673375413.2990355;7.318036079406738;7.161726474761963;83.82814025878906
165;1673375413.3909633;47.130642699999996;7.24062;42.19700241088867;1673375413.4921012;7.6228413581848145;3.3805742263793945;83.8893051147461
166;1673375413.5825448;47.1306428;7.24062;42.595001220703125;1673375413.686664;7.341339588165283;5.218040943145752;83.95793914794922
167;1673375413.7828696;47.1306429;7.2406198999999996;42.99100112915039;1673375413.8859131;7.746165752410889;8.668091773986816;84.22926330566406
168;1673375413.985259;47.130643;7.2406198999999996;43.38600158691406;1673375414.0854356;7.880528450012207;6.373905181884766;84.09598541259766
169;1673375414.1954901;47.1306431;7.2406198999999996;43.78600311279297;1673375414.2986648;8.062606811523438;4.2699761390686035;83.90824127197266
170;1673375414.4241366;47.130643;7.2406198999999996;44.185001373291016;1673375414.5154905;8.1550874710083;5.609462261199951;84.06816864013672
171;1673375414.6168492;47.1306429;7.2406198999999996;44.58400344848633;1673375414.717083;8.285805702209473;7.7233757972717285;84.40522003173828
172;1673375414.8425543;47.1306428;7.24062;44.98100280761719;1673375414.9593735;8.492194175720215;4.219188690185547;84.22270965576172
173;1673375415.1407626;47.1306428;7.24062;45.380001068115234;1673375415.2034197;8.055068016052246;4.166370391845703;83.97061920166016
174;1673375415.2670085;47.1306428;7.24062;45.7760009765625;1673375415.3560681;7.955749034881592;7.309633731842041;83.89901733398438
175;1673375415.435692;47.1306429;7.24062;46.16800308227539;1673375415.5232124;7.659721851348877;6.826271057128906;84.09162902832031
176;1673375415.6083717;47.1306429;7.2406198999999996;46.566001892089844;1673375415.7084723;7.414343357086182;3.555572271347046;84.03953552246094
177;1673375415.7959774;47.130643;7.240619799999999;46.965003967285156;1673375415.8942878;7.065096855163574;6.061979293823242;84.080810546875
178;1673375415.9875677;47.1306429;7.240619799999999;47.36300277709961;1673375416.0837579;7.151136875152588;8.157388687133789;83.97476959228516
179;1673375416.173946;47.1306428;7.2406197;47.76000213623047;1673375416.2836025;7.464770317077637;4.4247212409973145;83.82855224609375
180;1673375416.3809276;47.130642699999996;7.2406197;48.1400032043457;1673375416.483279;7.962906360626221;4.160585403442383;83.74564361572266
181;1673375416.57654;47.130642699999996;7.240619799999999;48.46900177001953;1673375416.6684227;7.738510608673096;6.983084201812744;83.99616241455078
182;1673375416.7638836;47.130642699999996;7.2406198999999996;48.75400161743164;1673375416.8628569;8.045943260192871;6.435000896453857;83.9455337524414
183;1673375416.9666421;47.1306428;7.24062;48.99500274658203;1673375417.0839643;7.956353664398193;3.490642786026001;83.6897964477539
184;1673375417.1841788;47.130643;7.2406201;49.19300079345703;1673375417.2873538;9.748086929321289;6.46579122543335;83.89131927490234
185;1673375417.3806496;47.130643;7.2406201999999995;49.362003326416016;1673375417.4838924;26.163869857788086;21.913082122802734;90.49951934814453
186;1673375417.5928779;47.1306425;7.2406194;49.51700210571289;1673375417.698116;34.579715728759766;38.33198547363281;102.2363510131836
187;1673375417.7953188;47.1306407;7.2406162;49.64900207519531;1673375417.8876503;35.22002029418945;50.10704803466797;112.18413543701172
188;1673375417.9716141;47.1306368;7.240609699999999;49.762001037597656;1673375418.0701218;24.992788314819336;57.39274978637695;121.05536651611328
189;1673375418.153371;47.1306308;7.2405998;49.855003356933594;1673375418.251137;7.1956329345703125;59.89201354980469;131.80784606933594
190;1673375418.3512895;47.1306229;7.2405871;49.90300369262695;1673375418.4623442;-10.752368927001953;53.2195930480957;142.81393432617188
191;1673375418.5597951;47.130613499999995;7.2405725;49.913002014160156;1673375418.6860068;-23.072174072265625;48.90705108642578;151.8473358154297
192;1673375418.776785;47.1306029;7.240556499999999;49.90700149536133;1673375418.8795047;-33.52919006347656;43.3256721496582;162.61798095703125
193;1673375418.986372;47.1305913;7.2405395;49.89600372314453;1673375419.1254575;-43.653350830078125;38.90199279785156;175.20281982421875
194;1673375419.2063262;47.1305786;7.240521299999999;49.871002197265625;1673375419.3033044;-48.77540969848633;31.79812240600586;-171.74424743652344
195;1673375419.4013698;47.1305651;7.2405018;49.82200241088867;1673375419.4840016;-44.14093017578125;23.552888870239258;-164.79856872558594
196;1673375419.5708745;47.1305511;7.2404815;49.759002685546875;1673375419.669121;-44.34504699707031;18.777729034423828;-159.603759765625
197;1673375419.7528317;47.130537;7.2404607;49.70500183105469;1673375419.86383;-46.891719818115234;14.430163383483887;-152.23011779785156
198;1673375419.9727163;47.1305226;7.2404395;49.663002014160156;1673375420.078726;-47.153804779052734;9.490615844726562;-144.51242065429688
199;1673375420.1696315;47.1305082;7.2404179;49.63600158691406;1673375420.2676396;-45.98160171508789;3.9237027168273926;-137.4623565673828
200;1673375420.3603957;47.130493699999995;7.2403961;49.62900161743164;1673375420.474245;-47.36492156982422;-0.7121003866195679;-131.95787048339844
201;1673375420.5675015;47.130479099999995;7.2403740999999995;49.62700271606445;1673375420.6716247;-48.958980560302734;-6.355325222015381;-131.35194396972656
202;1673375420.7708647;47.1304643;7.2403521;49.63100051879883;1673375420.8648164;-47.82108688354492;-5.046287536621094;-135.11781311035156
203;1673375420.9586535;47.1304492;7.2403303999999995;49.63600158691406;1673375421.0656495;-47.78837203979492;-4.03842306137085;-136.59153747558594
204;1673375421.1726184;47.1304337;7.240309;49.643001556396484;1673375421.2766485;-47.99395751953125;-2.781081438064575;-137.37384033203125
205;1673375421.372943;47.1304179;7.240287899999999;49.656002044677734;1673375421.4720724;-48.04465866088867;-1.2117993831634521;-138.11431884765625
206;1673375421.5652149;47.1304018;7.240266999999999;49.673004150390625;1673375421.669263;-48.503875732421875;-0.22168011963367462;-138.42886352539062
207;1673375421.7656512;47.1303856;7.240246099999999;49.689002990722656;1673375421.8696635;-49.05818176269531;0.4839094281196594;-138.6124725341797
208;1673375421.9630713;47.1303692;7.2402253;49.7130012512207;1673375422.0665624;-49.39844512939453;0.8423212766647339;-138.60317993164062
209;1673375422.1731863;47.130352699999996;7.240204299999999;49.7400016784668;1673375422.2683892;-49.416751861572266;0.8532510995864868;-138.38861083984375
210;1673375422.3638532;47.130336199999995;7.2401832;49.76100158691406;1673375422.4772675;-48.94198226928711;0.9028818011283875;-138.20864868164062
211;1673375422.5676405;47.1303195;7.240162;49.77800369262695;1673375422.659008;-48.5250129699707;0.7903340458869934;-137.95249938964844
212;1673375422.7464263;47.1303029;7.2401406999999995;49.78600311279297;1673375422.8732214;-48.196388244628906;0.7549493908882141;-137.7925567626953
213;1673375422.9717593;47.1302862;7.240119399999999;49.78600311279297;1673375423.0625687;-47.758243560791016;0.670905351638794;-137.59109497070312
214;1673375423.1686583;47.1302696;7.240098;49.78000259399414;1673375423.2631476;-47.45637893676758;0.629683792591095;-137.4893035888672
215;1673375423.3522115;47.130252999999996;7.2400765;49.78300094604492;1673375423.4503677;-47.697757720947266;0.6387233734130859;-137.42437744140625
216;1673375423.5527086;47.1302364;7.2400549;49.7910041809082;1673375423.6649299;-48.36275863647461;0.5621529817581177;-137.30862426757812
217;1673375423.7621632;47.1302199;7.2400332999999994;49.79900360107422;1673375423.8714519;-48.570682525634766;0.5117272138595581;-137.24000549316406
218;1673375423.9653714;47.1302034;7.2400116;49.80500411987305;1673375424.0705554;-48.4634895324707;0.4570891559123993;-137.17657470703125
219;1673375424.175709;47.1301869;7.2399898;49.80800247192383;1673375424.2731154;-48.13963317871094;0.4348914623260498;-137.0856475830078
220;1673375424.378387;47.1301705;7.2399679;49.80400085449219;1673375424.486839;-47.6804084777832;0.4160269796848297;-137.0182342529297
221;1673375424.5798266;47.130154;7.2399461;49.80400085449219;1673375424.679111;-47.821006774902344;0.3942717909812927;-136.986572265625
222;1673375424.786258;47.1301376;7.2399242;49.807003021240234;1673375424.8826346;-48.334163665771484;0.38028475642204285;-136.96791076660156
223;1673375424.983858;47.1301213;7.2399023;49.81500244140625;1673375425.0904706;-48.62997055053711;0.3415454030036926;-136.9462127685547
224;1673375425.183881;47.130105;7.2398804;49.82400131225586;1673375425.2929716;-48.782615661621094;0.3357180655002594;-136.92657470703125
225;1673375425.379991;47.130088699999995;7.2398583;49.829002380371094;1673375425.4742353;-48.537635803222656;0.31404441595077515;-136.90325927734375
226;1673375425.566704;47.130072299999995;7.2398362999999994;49.829002380371094;1673375425.6710494;-48.171844482421875;0.29953065514564514;-136.86700439453125
227;1673375425.762467;47.130055899999995;7.2398142;49.823001861572266;1673375425.858303;-47.853607177734375;0.3651127219200134;-136.87733459472656
228;1673375425.9486773;47.130039499999995;7.239792;49.820003509521484;1673375426.0488534;-47.87278366088867;0.3415374159812927;-136.8730010986328
229;1673375426.1421134;47.1300232;7.2397697999999995;49.81900405883789;1673375426.2428184;-48.183502197265625;0.3004874587059021;-136.85281372070312
230;1673375426.3446894;47.1300069;7.239747599999999;49.820003509521484;1673375426.4465437;-48.487144470214844;0.3276464641094208;-136.8401641845703
231;1673375426.5534651;47.1299906;7.2397255;49.82100296020508;1673375426.6626825;-48.46371841430664;0.3572435677051544;-136.8672637939453
232;1673375426.755951;47.1299743;7.2397032999999995;49.82600402832031;1673375426.8598483;-48.5361328125;0.37410682439804077;-136.86117553710938
233;1673375426.9521227;47.129957999999995;7.239681099999999;49.8280029296875;1673375427.0632138;-48.366058349609375;0.30385303497314453;-136.81106567382812
234;1673375427.175048;47.129941599999995;7.239658899999999;49.82600402832031;1673375427.3144708;-48.188419342041016;0.3211013972759247;-136.8065948486328
235;1673375427.403164;47.1299253;7.239636699999999;49.82600402832031;1673375427.487164;-48.223915100097656;0.33334487676620483;-136.81854248046875
236;1673375427.5756192;47.129909;7.2396144;49.829002380371094;1673375427.678966;-48.3501091003418;0.2563396096229553;-136.7875213623047
237;1673375427.7796726;47.1298927;7.2395922;49.83000183105469;1673375427.8818197;-48.33720779418945;0.29582324624061584;-136.78170776367188
238;1673375427.9763296;47.1298764;7.23957;49.83100128173828;1673375428.0727606;-48.324562072753906;0.34955474734306335;-136.80947875976562
239;1673375428.1690261;47.129860099999995;7.239547699999999;49.836002349853516;1673375428.2662349;-48.370548248291016;0.37348249554634094;-136.8115234375
240;1673375428.3645768;47.129843799999996;7.2395255;49.8380012512207;1673375428.4707403;-48.24594497680664;0.3703640103340149;-136.7910614013672
241;1673375428.5652046;47.1298275;7.2395032;49.83700180053711;1673375428.676214;-48.02509689331055;0.33392348885536194;-136.78233337402344
242;1673375428.7765446;47.1298112;7.239480899999999;49.83700180053711;1673375428.888507;-47.83811569213867;0.28463494777679443;-136.74378967285156
243;1673375428.9886894;47.1297949;7.2394586;49.84100341796875;1673375429.1149797;-48.140750885009766;0.291155606508255;-136.78712463378906
244;1673375429.2082577;47.129778599999995;7.2394362999999995;49.84700393676758;1673375429.3399153;-48.410282135009766;0.3119194507598877;-136.77252197265625
245;1673375429.480619;47.1297624;7.239414;49.855003356933594;1673375429.5584266;-48.54109191894531;0.29512760043144226;-136.7631072998047
246;1673375429.6480458;47.1297461;7.2393917;49.85900115966797;1673375429.734478;-48.37125778198242;0.34188607335090637;-136.80047607421875
247;1673375429.8226445;47.1297298;7.239369399999999;49.8640022277832;1673375429.918966;-48.257118225097656;0.3238922357559204;-136.77252197265625
248;1673375430.0395885;47.1297135;7.2393471;49.87300109863281;1673375430.1547072;-48.40659713745117;0.2823493182659149;-136.74447631835938
249;1673375430.2598774;47.1296973;7.2393247999999994;49.88100051879883;1673375430.368666;-48.57778549194336;0.4107191264629364;-136.8112335205078
250;1673375430.4522326;47.129681;7.2393025;49.88600158691406;1673375430.5376744;-48.47378921508789;0.31505540013313293;-136.76470947265625
251;1673375430.6348941;47.1296647;7.239280099999999;49.88800048828125;1673375430.7312443;-48.16937255859375;0.3388482928276062;-136.78848266601562
252;1673375430.824554;47.1296484;7.2392578;49.8900032043457;1673375430.9355981;-48.02855682373047;0.2953750491142273;-136.7475128173828
253;1673375431.0252326;47.129632;7.2392354;49.8910026550293;1673375431.1244433;-48.13693618774414;0.28146710991859436;-136.7555694580078
254;1673375431.2128644;47.129615799999996;7.2392129999999995;49.8910026550293;1673375431.3129802;-48.03108596801758;0.25335201621055603;-136.75967407226562
255;1673375431.3999548;47.1295995;7.2391907;49.8910026550293;1673375431.4923475;-47.994049072265625;0.32648345828056335;-136.78482055664062
256;1673375431.5839717;47.1295832;7.239168299999999;49.89200210571289;1673375431.7047694;-47.96320343017578;0.32387349009513855;-136.78941345214844
257;1673375431.8020928;47.1295669;7.239146;49.89600372314453;1673375431.9032924;-48.0962028503418;0.29310449957847595;-136.76217651367188
258;1673375432.0011492;47.129550599999995;7.2391236;49.900001525878906;1673375432.1148703;-48.22154235839844;0.2769034802913666;-136.77392578125
259;1673375432.2059884;47.1295344;7.2391013;49.90500259399414;1673375432.2958198;-48.238040924072266;0.26871436834335327;-136.74070739746094
260;1673375432.3920898;47.1295181;7.2390789;49.90800094604492;1673375432.500305;-48.01266860961914;0.3049556314945221;-136.7560272216797
261;1673375432.5932467;47.1295017;7.2390566;49.910003662109375;1673375432.6904492;-47.94314956665039;0.31376293301582336;-136.73707580566406
262;1673375432.7883477;47.1294854;7.239034299999999;49.91400146484375;1673375432.8922708;-48.00578308105469;0.34295567870140076;-136.7441864013672
263;1673375432.992034;47.129469099999994;7.239012;49.92100143432617;1673375433.09791;-48.20185089111328;0.3690253496170044;-136.73162841796875
264;1673375433.2021966;47.1294529;7.238989699999999;49.93000411987305;1673375433.3046522;-48.3364143371582;0.3632734417915344;-136.7293243408203
265;1673375433.4020905;47.1294366;7.2389674;49.93800354003906;1673375433.5069327;-48.27627944946289;0.17860865592956543;-136.66761779785156
266;1673375433.5958412;47.1294203;7.2389451;49.945003509521484;1673375433.6773937;-48.345394134521484;1.1858437061309814;-136.9708709716797
267;1673375433.7668111;47.129404;7.2389227;49.95000076293945;1673375433.8688543;-48.19285202026367;0.40440458059310913;-136.53604125976562
268;1673375433.9632146;47.129387699999995;7.2389002;49.952003479003906;1673375434.0635703;-47.81584930419922;-0.02818468026816845;-136.51722717285156
269;1673375434.1672976;47.129371299999995;7.2388778;49.95500183105469;1673375434.27573;-48.07972717285156;0.3605141043663025;-136.64329528808594
270;1673375434.37476;47.129355;7.2388555;49.957000732421875;1673375434.4901543;-48.17873764038086;0.27941739559173584;-136.57989501953125
271;1673375434.5870252;47.1293387;7.238833;49.96000289916992;1673375434.6978579;-48.132198333740234;0.39799854159355164;-136.6363067626953
272;1673375434.8339014;47.1293224;7.2388106;49.965003967285156;1673375435.016607;-48.379180908203125;0.6273130774497986;-136.6739959716797
273;1673375435.0784266;47.1293061;7.238788199999999;49.970001220703125;1673375435.1576853;-48.3455924987793;0.5303127765655518;-136.5879669189453
274;1673375435.265016;47.129289799999995;7.2387657;49.97300338745117;1673375435.3553507;-48.2385139465332;0.3299403786659241;-136.48394775390625
275;1673375435.4427388;47.1292735;7.2387432;49.974002838134766;1673375435.5262783;-46.9422492980957;0.5990246534347534;-136.5484619140625
276;1673375435.6090908;47.1292573;7.238720799999999;49.983001708984375;1673375435.7055974;-38.50185012817383;0.07368466258049011;-136.20327758789062
277;1673375435.7960117;47.1292413;7.2386987;50.0150032043457;1673375435.8905296;-25.720991134643555;0.70381098985672;-136.4868621826172
278;1673375435.9799035;47.129225999999996;7.2386778;50.040000915527344;1673375436.081116;-11.150758743286133;0.7608739137649536;-136.03160095214844
279;1673375436.1883273;47.1292122;7.2386586;50.052001953125;1673375436.2821825;-1.7699884176254272;1.5331568717956543;-136.26695251464844
280;1673375436.3775468;47.1292;7.238641899999999;50.057003021240234;1673375436.4738126;5.29191780090332;2.917400360107422;-136.52169799804688
281;1673375436.5681605;47.1291897;7.2386279;50.053001403808594;1673375436.667943;9.748790740966797;2.3934051990509033;-137.1405487060547
282;1673375436.7643676;47.1291814;7.238616599999999;50.03600311279297;1673375436.86839;8.52165412902832;-1.3552082777023315;-138.11497497558594
283;1673375436.9638784;47.129175;7.2386078;50.02000427246094;1673375437.0750804;1.8144917488098145;1.1616055965423584;-137.611572265625
284;1673375437.1769462;47.129170099999996;7.2386010999999995;50.01900100708008;1673375437.2917533;-2.7228875160217285;2.238837242126465;-136.84103393554688
285;1673375437.3909514;47.1291665;7.238595999999999;50.03000259399414;1673375437.5023708;-6.08729362487793;3.581143617630005;-136.15199279785156
286;1673375437.6074214;47.1291636;7.238592;50.04600143432617;1673375437.7155938;-9.105030059814453;3.0023882389068604;-135.38519287109375
287;1673375437.8169198;47.1291611;7.2385888;50.06200408935547;1673375437.9123676;-11.881372451782227;0.8366336822509766;-134.7288055419922
288;1673375438.0031686;47.1291589;7.238586;50.0780029296875;1673375438.1061933;-13.66117000579834;-0.21236595511436462;-134.486328125
289;1673375438.194285;47.1291568;7.238583299999999;50.092002868652344;1673375438.2989717;-15.530773162841797;-1.5673598051071167;-134.2364959716797
290;1673375438.3956316;47.129154799999995;7.238580499999999;50.11000061035156;1673375438.505875;-33.095096588134766;-0.270416259765625;-136.15113830566406
291;1673375438.634242;47.1291523;7.238576999999999;50.178001403808594;1673375438.7314813;-33.81947326660156;-0.03817339241504669;-136.82199096679688
292;1673375438.8236556;47.129149;7.238572;50.28200149536133;1673375438.920838;-17.85495376586914;1.5144288539886475;-137.5542755126953
293;1673375439.0182006;47.1291455;7.2385665999999995;50.44900131225586;1673375439.1190517;-15.464116096496582;2.7144527435302734;-137.45462036132812
294;1673375439.2163017;47.129141999999995;7.2385613;50.70600128173828;1673375439.3112054;-23.11300277709961;1.2554264068603516;-137.21234130859375
295;1673375439.408706;47.129138399999995;7.238555799999999;51.06300354003906;1673375439.514855;-49.17931365966797;0.1404816210269928;-136.64779663085938
296;1673375439.614795;47.1291337;7.2385489;51.45100402832031;1673375439.7159538;-49.33683776855469;-2.5263988971710205;-135.9900360107422
297;1673375439.8325639;47.1291273;7.2385399999999995;51.79300308227539;1673375439.9250112;-47.84434127807617;0.4151010811328888;-136.94924926757812
298;1673375440.0080435;47.1291194;7.2385294;52.117000579833984;1673375440.1054287;-45.415218353271484;0.221035897731781;-136.1814727783203
299;1673375440.2098505;47.1291106;7.2385174999999995;52.42400360107422;1673375440.31551;-42.178558349609375;0.8007683753967285;-136.68251037597656
300;1673375440.4094298;47.129101;7.2385044999999995;52.72500228881836;1673375440.5147724;-39.56780242919922;0.8073650002479553;-136.55624389648438
301;1673375440.6065533;47.129090999999995;7.2384907;53.02900314331055;1673375440.7099316;-36.47835922241211;0.9350624680519104;-136.7164306640625
302;1673375440.8115158;47.1290808;7.238476599999999;53.34100341796875;1673375440.9206364;-34.94587707519531;1.105885624885559;-136.80142211914062
303;1673375441.010591;47.129070399999996;7.2384623999999995;53.66400146484375;1673375441.1019273;-33.735565185546875;1.0625051259994507;-136.82064819335938
304;1673375441.1973975;47.1290601;7.2384482;53.99800109863281;1673375441.2984817;-33.028324127197266;1.0658798217773438;-136.877685546875
305;1673375441.396063;47.1290499;7.2384341999999995;54.34300231933594;1673375441.4952269;-32.748050689697266;0.9134795665740967;-136.86587524414062
306;1673375441.5895395;47.1290398;7.2384201;54.69900131225586;1673375441.686024;-32.549278259277344;0.7849951982498169;-136.9219512939453
307;1673375441.7812517;47.1290297;7.238406299999999;55.064002990722656;1673375441.8784964;-32.795711517333984;0.7742238640785217;-136.9095458984375
308;1673375441.984459;47.1290197;7.2383925;55.43700408935547;1673375442.0876434;-32.9981803894043;0.6833045482635498;-136.885986328125
309;1673375442.1887474;47.1290098;7.2383788;55.814002990722656;1673375442.2867868;-33.38936996459961;0.7118290066719055;-136.9308624267578
310;1673375442.3914065;47.1289999;7.2383653;56.19700241088867;1673375442.4903936;-33.84864044189453;0.5916861295700073;-136.8909149169922
311;1673375442.5729868;47.128990099999996;7.238351799999999;56.583003997802734;1673375442.6721938;-34.01872634887695;0.9102575778961182;-136.9866180419922
312;1673375442.765453;47.128980299999995;7.238338199999999;56.97300338745117;1673375442.8755536;-34.177764892578125;1.1090407371520996;-137.0277099609375
313;1673375442.9717805;47.1289704;7.2383247;57.36900329589844;1673375443.0700252;-34.37345886230469;1.1774301528930664;-137.08746337890625
314;1673375443.1797168;47.1289605;7.2383109999999995;57.7650032043457;1673375443.2835233;-34.339027404785156;1.1449298858642578;-137.07855224609375
315;1673375443.3852262;47.128950599999996;7.2382973999999995;58.160003662109375;1673375443.4848714;-34.33285903930664;1.0158522129058838;-137.0466766357422
316;1673375443.5918062;47.1289406;7.2382838;58.557003021240234;1673375443.7065475;-34.361759185791016;0.7723504900932312;-136.9268035888672
317;1673375443.797901;47.1289307;7.2382702;58.95000457763672;1673375443.8940887;-34.32868194580078;0.5303139090538025;-136.8202362060547
318;1673375443.988627;47.128920799999996;7.2382566;59.345001220703125;1673375444.0860102;-34.341949462890625;0.5067405104637146;-136.82199096679688
319;1673375444.179862;47.1289109;7.2382428999999995;59.743003845214844;1673375444.2751224;-34.33608627319336;0.4967963993549347;-136.8749542236328
320;1673375444.3665543;47.1289009;7.238229199999999;60.1410026550293;1673375444.466726;-34.27873611450195;0.62627774477005;-136.96780395507812
321;1673375444.5719337;47.128890999999996;7.2382155;60.53900146484375;1673375444.6693501;-34.285099029541016;1.0397733449935913;-137.1162109375
322;1673375444.7600114;47.1288811;7.2382019;60.935001373291016;1673375444.8626328;-34.25529479980469;1.104542851448059;-137.1153564453125
323;1673375444.963959;47.1288711;7.2381882;61.329002380371094;1673375445.0652165;-34.271148681640625;1.0979516506195068;-137.08689880371094
324;1673375445.1681988;47.128861199999996;7.2381746;61.721004486083984;1673375445.2820814;-34.32057571411133;0.9497155547142029;-137.02317810058594
325;1673375445.3799562;47.1288512;7.238161;62.11600112915039;1673375445.479123;-34.340362548828125;0.4896031320095062;-136.8387908935547
326;1673375445.5731864;47.1288412;7.2381474;62.51100158691406;1673375445.6751223;-34.364402770996094;0.4542185068130493;-136.82325744628906
327;1673375445.784026;47.1288312;7.2381338;62.906002044677734;1673375445.8950918;-34.23305130004883;0.3720426857471466;-136.77685546875
328;1673375446.0016224;47.1288212;7.2381202;63.29900360107422;1673375446.1130795;-34.300758361816406;0.5668536424636841;-136.82421875
329;1673375446.1951265;47.1288112;7.2381066;63.69200134277344;1673375446.3099487;-34.37306594848633;0.9150635600090027;-136.97030639648438
330;1673375446.407072;47.1288013;7.2380929;64.08399963378906;1673375446.5121562;-34.32126998901367;1.082956075668335;-136.98269653320312
331;1673375446.6116967;47.128791299999996;7.2380793;64.47500610351562;1673375446.7113774;-34.47869873046875;1.2681726217269897;-137.02943420410156
332;1673375446.8008986;47.1287813;7.2380656;64.86700439453125;1673375446.9060128;-34.34085464477539;1.2734336853027344;-136.96498107910156
333;1673375447.0057201;47.1287713;7.238051899999999;65.26200103759766;1673375447.1093185;-34.323829650878906;0.9512256383895874;-136.8728790283203
334;1673375447.1978264;47.1287613;7.2380381;65.65800476074219;1673375447.2907352;-34.30757522583008;0.7144472599029541;-136.82278442382812
335;1673375447.383739;47.1287513;7.2380244;66.05599975585938;1673375447.4834254;-34.359580993652344;0.5707666873931885;-136.77696228027344
336;1673375447.5774672;47.128741299999994;7.238010699999999;66.4540023803711;1673375447.678243;-34.407535552978516;0.4781218469142914;-136.79859924316406
337;1673375447.7707498;47.1287313;7.237997;66.85200500488281;1673375447.8697324;-34.328651428222656;0.6084210872650146;-136.82821655273438
338;1673375447.9630034;47.128721399999996;7.2379831999999995;67.2509994506836;1673375448.066248;-34.26021957397461;0.7519305348396301;-136.9580078125
339;1673375448.1661327;47.1287114;7.2379694;67.6500015258789;1673375448.2691634;-34.395355224609375;1.083800196647644;-137.1029510498047
340;1673375448.3682806;47.1287015;7.2379557;68.04800415039062;1673375448.487069;-34.2553825378418;1.1056761741638184;-137.10369873046875
341;1673375448.5888917;47.128691499999995;7.2379419;68.44600677490234;1673375448.6916611;-34.274478912353516;1.2419347763061523;-137.1017303466797
342;1673375448.7888005;47.1286814;7.2379283;68.84300231933594;1673375448.8894026;-34.52533721923828;1.130226731300354;-136.98663330078125
343;1673375448.9789138;47.128671399999995;7.2379146;69.23600006103516;1673375449.072849;-34.441993713378906;0.9298309683799744;-136.84963989257812
344;1673375449.1876476;47.1286614;7.2379009;69.6300048828125;1673375449.2900217;-34.45922088623047;0.7557893395423889;-136.7425994873047
345;1673375449.3925998;47.128651399999995;7.237887199999999;70.0250015258789;1673375449.4943297;-32.755157470703125;0.2822156250476837;-136.67181396484375
346;1673375449.5876029;47.1286415;7.2378735;70.41000366210938;1673375449.6847842;-16.956756591796875;0.7870664000511169;-136.6484832763672
347;1673375449.773238;47.1286321;7.237860599999999;70.76200103759766;1673375449.874371;-13.916393280029297;0.8351763486862183;-136.8438720703125
348;1673375449.9765906;47.128623499999996;7.2378488;71.07500457763672;1673375450.07977;-8.28929328918457;0.6021471619606018;-136.787109375
349;1673375450.1782622;47.1286159;7.237838399999999;71.33900451660156;1673375450.2801652;-5.242549419403076;1.161468505859375;-136.8240509033203
350;1673375450.377464;47.128609399999995;7.237829499999999;71.56000518798828;1673375450.4855423;-2.620229721069336;-0.39160439372062683;-136.3494873046875
351;1673375450.5767076;47.128603899999995;7.2378219999999995;71.76500701904297;1673375450.6827717;-1.4939438104629517;-0.2978494465351105;-136.7511444091797
352;1673375450.779027;47.1285994;7.2378157;71.95000457763672;1673375450.8909361;-1.9598503112792969;-0.15524621307849884;-137.27476501464844
353;1673375450.9949672;47.1285958;7.2378105999999995;72.11200714111328;1673375451.107784;-3.2745747566223145;-0.9436793923377991;-136.91319274902344
354;1673375451.2011406;47.128592999999995;7.2378066;72.2490005493164;1673375451.2983496;-5.11397647857666;2.7407753467559814;-136.4164581298828
355;1673375451.3906295;47.1285909;7.2378032;72.37100219726562;1673375451.4879675;-2.5557775497436523;23.33062744140625;-126.77274322509766
356;1673375451.5845706;47.1285898;7.2377999;72.47000122070312;1673375451.6964805;-12.808979034423828;21.749650955200195;-115.79815673828125
357;1673375451.7949307;47.1285902;7.2377961;72.54000091552734;1673375451.8976994;-15.59070873260498;9.594430923461914;-104.04615020751953
358;1673375451.994113;47.1285917;7.2377918;72.58800506591797;1673375452.0914414;-20.067472457885742;3.739640712738037;-95.70210266113281
359;1673375452.1887236;47.128593699999996;7.237787099999999;72.63300323486328;1673375452.2894638;-19.71428871154785;-0.4912204146385193;-86.43909454345703
360;1673375452.3916128;47.128596099999996;7.237781999999999;72.66900634765625;1673375452.4839156;-18.32158088684082;-5.894388675689697;-77.20330047607422
361;1673375452.5757523;47.1285987;7.2377766999999995;72.69800567626953;1673375452.6843019;-14.969184875488281;-10.609101295471191;-67.87229919433594
362;1673375452.7787805;47.1286013;7.2377709999999995;72.72700500488281;1673375452.877057;-11.535842895507812;-12.575786590576172;-58.95326614379883
363;1673375452.968177;47.128603899999995;7.2377652999999995;72.75200653076172;1673375453.0683746;-8.092270851135254;-14.200119972229004;-49.696441650390625
364;1673375453.1651263;47.1286063;7.2377598;72.7750015258789;1673375453.2797673;-5.926721572875977;-14.213411331176758;-41.34439468383789
365;1673375453.3875172;47.1286087;7.2377544;72.8010025024414;1673375453.4945924;-6.113326549530029;-13.754738807678223;-41.0165901184082
366;1673375453.6117082;47.1286109;7.2377493;72.82300567626953;1673375453.717976;-16.509374618530273;-12.756105422973633;-43.85760498046875
367;1673375453.809293;47.1286132;7.2377442;72.84800720214844;1673375453.904599;-40.4595947265625;-9.884267807006836;-45.22294616699219
368;1673375453.991484;47.128616199999996;7.2377379;72.88600158691406;1673375454.094176;-54.5699577331543;-6.164113521575928;-46.79825210571289
369;1673375454.2007396;47.1286211;7.237729099999999;72.91400146484375;1673375454.3086772;-60.6980094909668;-4.159900665283203;-47.63187789916992
370;1673375454.4090035;47.1286286;7.237717;72.92400360107422;1673375454.5200045;-57.87195587158203;-3.319997549057007;-48.576541900634766
371;1673375454.6143975;47.1286383;7.237702;72.93600463867188;1673375454.7165189;-57.51079177856445;-2.07659912109375;-49.24239730834961
372;1673375454.808322;47.1286499;7.2376846;72.94700622558594;1673375454.9072988;-56.34195327758789;-2.083272933959961;-48.87232208251953
373;1673375455.0439754;47.1286633;7.237665;72.95000457763672;1673375455.1595206;-56.10761642456055;-3.148205280303955;-48.354278564453125
374;1673375455.2548633;47.128678;7.2376438;72.94499969482422;1673375455.3442886;-55.90225601196289;-4.478455066680908;-47.80206298828125
375;1673375455.459221;47.1286937;7.237621;72.93600463867188;1673375455.559512;-53.99918746948242;-4.943460464477539;-47.75181579589844
376;1673375455.6631203;47.1287102;7.2375969;72.91600036621094;1673375455.7560391;-52.90242004394531;-5.457981586456299;-47.558773040771484
377;1673375455.8493488;47.1287273;7.2375719;72.89200592041016;1673375455.9445257;-50.576171875;-5.992661952972412;-47.63587951660156
378;1673375456.0325363;47.1287448;7.2375463;72.875;1673375456.1304326;-49.360267639160156;-7.097151279449463;-47.71695327758789
379;1673375456.2425163;47.1287624;7.2375202;72.86300659179688;1673375456.3398752;-49.151771545410156;-7.304164409637451;-48.204063415527344
380;1673375456.4356165;47.1287801;7.237493499999999;72.85400390625;1673375456.5350442;-50.134117126464844;-4.578897476196289;-48.655059814453125
381;1673375456.62881;47.1287978;7.2374665;72.84500122070312;1673375456.7255702;-49.419288635253906;-4.730870246887207;-48.621559143066406
382;1673375456.822922;47.128815599999996;7.237439299999999;72.83500671386719;1673375456.9222376;-48.66304397583008;-4.993773460388184;-48.67182540893555
383;1673375457.0112715;47.1288335;7.2374119;72.82600402832031;1673375457.10799;-48.34345626831055;-5.130276679992676;-48.585968017578125
384;1673375457.2003973;47.128851399999995;7.2373844;72.81800079345703;1673375457.2949564;-48.10777282714844;-5.411743640899658;-48.50698471069336
385;1673375457.3988345;47.1288694;7.2373568;72.81300354003906;1673375457.5053096;-48.177974700927734;-5.519930362701416;-48.53830337524414
386;1673375457.5959032;47.128887399999996;7.237329099999999;72.81200408935547;1673375457.7087755;-48.511558532714844;-5.518985271453857;-48.620113372802734
387;1673375457.80027;47.1289053;7.2373012999999995;72.81500244140625;1673375457.898987;-48.684593200683594;-5.437718391418457;-48.69267654418945
388;1673375457.9907148;47.128923199999996;7.2372735;72.79300689697266;1673375458.0945313;-32.49781799316406;-3.3463950157165527;-50.09249496459961
389;1673375458.199642;47.128940899999996;7.237246;72.48400115966797;1673375458.3276749;7.888486385345459;0.22710663080215454;-50.9443473815918
390;1673375458.416857;47.1289583;7.237219;71.81300354003906;1673375458.5137944;69.27872467041016;9.645621299743652;-44.524559020996094
391;1673375458.603778;47.1289757;7.2371922;70.74000549316406;1673375458.7058806;52.151180267333984;176.67271423339844;119.88199615478516
392;1673375458.8041503;47.1289932;7.2371653;69.3080062866211;1673375458.9087715;19.38022232055664;-179.98048400878906;120.60929107666016
393;1673375459.0076718;47.1290104;7.2371389;67.51700592041016;1673375459.1107852;15.559890747070312;179.7119598388672;116.4567642211914
394;1673375459.2153058;47.1290274;7.237113;65.34200286865234;1673375459.3247669;40.84628677368164;176.99623107910156;115.6611328125
395;1673375459.4235396;47.129044099999994;7.2370876;62.801002502441406;1673375459.5178092;81.83464813232422;-2.925764799118042;-60.5898551940918
396;1673375459.624802;47.129060599999995;7.237062399999999;59.90800094604492;1673375459.7318776;7.37493371963501;-1.5438958406448364;-58.23646926879883
397;1673375459.8338094;47.1290773;7.237037099999999;56.6150016784668;1673375459.9391978;-49.14120864868164;-3.100131034851074;-54.004058837890625
398;1673375460.0203915;47.1290937;7.2370125;52.94300079345703;1673375460.1257195;-66.18489837646484;-6.203333377838135;-49.23228073120117
399;1673375460.2269673;47.129109899999996;7.236988299999999;48.948001861572266;1673375460.3329568;-40.571449279785156;-1.2949247360229492;-51.72267532348633
400;1673375460.4277635;47.1291259;7.2369647;44.62900161743164;1673375460.519838;24.596450805664062;2.771501064300537;-49.11522674560547
401;1673375460.6158066;47.129141499999996;7.2369416;39.91100311279297;1673375460.7259862;83.70639038085938;89.31754302978516;36.543190002441406
402;1673375460.816789;47.129157299999996;7.2369182;34.820003509521484;1673375460.9186933;66.87550354003906;160.70257568359375;107.89310455322266
403;1673375461.0137463;47.129172999999994;7.236895;29.441001892089844;1673375461.1146472;76.92343139648438;45.42290496826172;-5.399235725402832
404;1673375461.215012;47.129188799999994;7.2368719;23.769001007080078;1673375461.3087175;9.26109504699707;4.593580722808838;-42.29588317871094
405;1673375461.403147;47.129204699999995;7.2368486;17.724000930786133;1673375461.5106533;-49.581199645996094;-6.004173278808594;-38.8172607421875
406;1673375461.6138794;47.1292202;7.236826;11.315000534057617;1673375461.7248006;-53.65991973876953;-8.002225875854492;-36.20856475830078
407;1673375461.8887875;47.1292353;7.2368041;4.61400032043457;1673375461.9905746;0.1500520557165146;3.344736099243164;-37.337745666503906
408;1673375462.0926626;47.1292492;7.2367875999999995;0.37400001287460327;1673375462.2107;-9.706720352172852;1.6492068767547607;-36.022403717041016
409;1673375462.293611;47.129262;7.2367792;0.8170000314712524;1673375462.37592;-7.891075134277344;1.5821954011917114;-32.81462860107422
410;1673375462.4525156;47.129275299999996;7.2367716;1.0049999952316284;1673375462.5609071;-7.803798675537109;1.2595784664154053;-32.24666213989258
411;1673375462.6716232;47.1292871;7.236765;1.125;1673375462.767947;-7.57533073425293;0.7212503552436829;-31.907499313354492
412;1673375462.8587692;47.129298299999995;7.2367588;1.2060000896453857;1673375462.949687;-7.247473239898682;0.3922314941883087;-31.633682250976562
413;1673375463.0316567;47.1293088;7.2367528;1.2690000534057617;1673375463.1149023;-7.109104633331299;0.2584763765335083;-31.574562072753906
414;1673375463.1988244;47.129320799999995;7.236745999999999;1.3340001106262207;1673375463.2977443;-7.028256416320801;0.14753615856170654;-31.57065200805664
415;1673375463.3938994;47.1293339;7.236738399999999;1.4310001134872437;1673375463.497588;-6.947672367095947;0.09742943942546844;-31.564348220825195
416;1673375463.5897284;47.1293477;7.2367304;1.4930000305175781;1673375463.6887364;-6.872361660003662;0.06971000134944916;-31.587656021118164
417;1673375463.789756;47.129362099999994;7.2367222;1.537000060081482;1673375463.897749;-6.795037269592285;0.028195315971970558;-31.576318740844727
418;1673375463.9978054;47.1293769;7.2367137999999995;1.5690001249313354;1673375464.099791;-6.691524982452393;-0.02351677604019642;-31.57259178161621
419;1673375464.2027059;47.129391999999996;7.2367051;1.592000126838684;1673375464.3040025;-6.634420871734619;-0.033953990787267685;-31.597043991088867
420;1673375464.3989744;47.1294075;7.2366962;1.6060000658035278;1673375464.5058038;-6.584726333618164;-0.05875970050692558;-31.59637451171875
421;1673375464.6068792;47.1294234;7.236687;1.6220000982284546;1673375464.7227268;-6.550342559814453;-0.05758998915553093;-31.597549438476562
