;pos_time;latitude;longitude;altitude;alt_time;pitch;roll;yaw
0;1673387569.6163228;47.1306425;7.240619799999999;-0.030000001192092896;1673387569.6612217;-0.31449493765830994;-0.5444831252098083;90.56841278076172
1;1673387569.8205616;47.1306425;7.240619799999999;-0.029000001028180122;1673387569.8683794;-0.20099219679832458;-0.311092346906662;90.37589263916016
2;1673387570.0288877;47.1306424;7.2406198999999996;-0.02800000086426735;1673387570.0767777;-0.16845804452896118;-0.5431714057922363;90.5499267578125
3;1673387570.23366;47.1306425;7.2406198999999996;-0.02500000037252903;1673387570.2844975;0.0051803914830088615;-0.2866760194301605;90.3131103515625
4;1673387570.4582334;47.1306425;7.2406198999999996;-0.023000001907348633;1673387570.5038202;0.04439828544855118;-0.47335144877433777;90.44698333740234
5;1673387570.6611874;47.1306425;7.240619799999999;-0.024000000208616257;1673387570.707648;-0.041179146617650986;-0.47749966382980347;90.54161071777344
6;1673387570.8635244;47.1306425;7.2406197;-0.02800000086426735;1673387570.9023564;0.050511401146650314;-0.29332634806632996;90.38111877441406
7;1673387571.063103;47.1306425;7.2406197;-0.03100000135600567;1673387571.1047091;-0.1584581583738327;-0.42894798517227173;90.42212677001953
8;1673387571.2518246;47.1306425;7.2406197;-0.032999999821186066;1673387571.2967167;-0.03354216739535332;-0.2632453143596649;90.28916931152344
9;1673387571.455035;47.1306425;7.2406196;0.0;1673387571.5021698;0.18214428424835205;-0.34758633375167847;90.46770477294922
10;1673387571.6492653;47.1306425;7.2406196;-0.0010000000474974513;1673387571.691283;0.20779073238372803;-0.2575629651546478;90.18307495117188
11;1673387571.8390474;47.1306425;7.240619499999999;-0.004000000189989805;1673387571.8790631;0.04335307329893112;-0.254616379737854;90.28812408447266
12;1673387572.0513883;47.1306424;7.2406194;-0.006000000052154064;1673387572.0943794;-0.14946462213993073;-0.19457626342773438;90.29293823242188
13;1673387572.2491524;47.1306424;7.2406194;-0.00800000037997961;1673387572.2883358;-0.21306763589382172;-0.23760990798473358;90.33480834960938
14;1673387572.4511228;47.1306423;7.240619499999999;-0.009000000543892384;1673387572.503357;0.115923672914505;-0.35616034269332886;90.27642822265625
15;1673387572.6623433;47.1306423;7.2406197;-0.010000000707805157;1673387572.7143729;0.27554547786712646;-0.35848522186279297;90.15775299072266
16;1673387572.869138;47.1306423;7.2406197;-0.010000000707805157;1673387572.9033742;0.17135335505008698;0.06190608814358711;90.34929656982422
17;1673387573.0504434;47.1306423;7.240619799999999;0.0;1673387573.0951462;0.20382803678512573;-0.6087266206741333;90.32243347167969
18;1673387573.2543855;47.1306423;7.2406198999999996;0.0;1673387573.2900474;-0.007845791056752205;-0.04832642152905464;90.5022964477539
19;1673387573.4533956;47.1306423;7.24062;0.0010000000474974513;1673387573.4964046;0.03545856103301048;-0.11282328516244888;90.5055923461914
20;1673387573.6484582;47.1306423;7.2406201;0.004000000189989805;1673387573.6894372;1.272987961769104;-0.09133884310722351;90.45213317871094
21;1673387573.8453057;47.1306423;7.24062;0.012000000104308128;1673387573.8852885;4.267777919769287;-0.21193188428878784;90.46762084960938
22;1673387574.0345445;47.1306423;7.24062;0.023000001907348633;1673387574.0735846;7.179501056671143;-0.1976684182882309;90.51530456542969
23;1673387574.230545;47.1306423;7.2406198999999996;0.03200000151991844;1673387574.2772803;10.65725326538086;-0.2379867285490036;90.48185729980469
24;1673387574.4483118;47.1306423;7.240619499999999;0.032999999821186066;1673387574.4944098;-0.8348214030265808;-0.0546005442738533;88.84049987792969
25;1673387574.6573088;47.1306423;7.240617599999999;0.01600000075995922;1673387574.702513;-2.73000431060791;-0.3889078199863434;87.64412689208984
26;1673387574.8572142;47.1306424;7.2406147999999995;0.020000001415610313;1673387574.8963625;-7.323398590087891;-0.14990879595279694;87.17578887939453
27;1673387575.0486324;47.1306424;7.2406112;0.029000001028180122;1673387575.0945284;-13.202208518981934;0.2931126058101654;86.48101806640625
28;1673387575.2403805;47.1306423;7.2406068999999995;0.03700000047683716;1673387575.2804458;-16.66749382019043;1.304141640663147;86.0855941772461
29;1673387575.4399965;47.1306423;7.2406019;0.046000003814697266;1673387575.4874349;-16.862565994262695;0.32963937520980835;87.1761474609375
30;1673387575.6543913;47.1306423;7.240596399999999;0.06300000101327896;1673387575.6994412;-17.546777725219727;0.13984057307243347;87.89637756347656
31;1673387575.8592021;47.1306422;7.240590399999999;0.08500000089406967;1673387575.8996894;-18.869001388549805;0.9818402528762817;88.20327758789062
32;1673387576.056485;47.130642099999996;7.2405840999999995;0.11000000685453415;1673387576.107156;-20.501691818237305;0.26365426182746887;88.77379608154297
33;1673387576.2740235;47.1306419;7.240577699999999;0.13900001347064972;1673387576.3179548;-22.400821685791016;-0.48880934715270996;89.26775360107422
34;1673387576.4575002;47.1306418;7.240571399999999;0.1720000058412552;1673387576.4965696;-24.399307250976562;0.0833318829536438;89.3672866821289
35;1673387576.646287;47.1306416;7.2405653999999995;0.20800000429153442;1673387576.693136;-26.45332908630371;0.0019902049098163843;89.51373291015625
36;1673387576.861246;47.130641399999995;7.240559999999999;0.24700000882148743;1673387576.9119797;-28.56369972229004;-1.051673412322998;89.9466552734375
37;1673387577.0743098;47.1306413;7.2405551;0.28700000047683716;1673387577.1173441;-30.681713104248047;-0.8569374084472656;89.96710968017578
38;1673387577.2572162;47.1306412;7.240551;0.3290000259876251;1673387577.2982104;-32.79348373413086;-0.46752557158470154;89.96682739257812
39;1673387577.4447157;47.1306412;7.2405478;0.37300002574920654;1673387577.4925716;-35.006568908691406;-1.0219229459762573;90.18084716796875
40;1673387577.6713624;47.1306412;7.2405456;0.42100003361701965;1673387577.71444;-37.23967742919922;-1.2543888092041016;90.32067108154297
41;1673387577.8721426;47.1306412;7.2405446;0.4710000157356262;1673387577.9170394;-39.39389419555664;-0.9014629125595093;90.27162170410156
42;1673387578.0703607;47.1306413;7.2405447999999994;0.5230000019073486;1673387578.1105528;-41.557132720947266;-0.9287130236625671;90.25072479248047
43;1673387578.2623832;47.130641399999995;7.2405463999999995;0.5800000429153442;1673387578.3014667;-43.72080612182617;-1.154672622680664;90.27889251708984
44;1673387578.4421988;47.130641499999996;7.240549499999999;0.6380000114440918;1673387578.4841676;-45.93845748901367;-0.9090176820755005;90.09378814697266
45;1673387578.6475964;47.1306416;7.2405541;0.7000000476837158;1673387578.6935222;-48.13740921020508;-0.7497367858886719;90.05379486083984
46;1673387578.8880222;47.1306418;7.240560299999999;0.7630000114440918;1673387578.928044;-47.151100158691406;-0.7117365002632141;89.91954803466797
47;1673387579.0835621;47.1306419;7.240568;0.8180000185966492;1673387579.1314275;-42.03274154663086;-0.3035914897918701;89.9600601196289
48;1673387579.2980967;47.130642099999996;7.2405763;0.8680000305175781;1673387579.3396375;-36.645565032958984;-0.4980691075325012;90.05631256103516
49;1673387579.4846976;47.1306422;7.240584699999999;0.9110000729560852;1673387579.5217972;-31.113880157470703;-0.24370074272155762;89.92285919189453
50;1673387579.6683855;47.1306424;7.240592599999999;0.9450000524520874;1673387579.709385;-25.63519859313965;-0.16282638907432556;89.90225219726562
51;1673387579.8570375;47.1306425;7.2405995999999995;0.9770000576972961;1673387579.900976;-21.605287551879883;0.06297361105680466;89.87403869628906
52;1673387580.059289;47.1306425;7.2406052999999995;1.0090000629425049;1673387580.098304;-19.317657470703125;-0.18122810125350952;90.06588745117188
53;1673387580.2536905;47.1306425;7.2406096;1.0470000505447388;1673387580.2927296;-19.028226852416992;-0.45220503211021423;90.20982360839844
54;1673387580.4519432;47.1306425;7.240612499999999;1.093000054359436;1673387580.4939315;-20.135089874267578;0.24839149415493011;89.88178253173828
55;1673387580.6443448;47.1306424;7.2406143;1.1480000019073486;1673387580.6833847;-21.690139770507812;-0.24659182131290436;89.92395782470703
56;1673387580.8358285;47.1306423;7.240615;1.2190001010894775;1673387580.8758442;-23.37726593017578;-2.4536726474761963;90.72675323486328
57;1673387581.0306132;47.1306423;7.2406152;1.3040000200271606;1673387581.0760455;-25.581127166748047;-0.1106274202466011;90.03498077392578
58;1673387581.2452862;47.1306422;7.240615099999999;1.4010000228881836;1673387581.291158;-27.02835464477539;0.8087006211280823;89.47936248779297
59;1673387581.4417102;47.1306422;7.2406149;1.5080000162124634;1673387581.4807503;-28.647029876708984;-3.0761306285858154;90.55612182617188
60;1673387581.6459816;47.130642099999996;7.2406147999999995;1.6260000467300415;1673387581.6899035;-29.4774112701416;-2.752368688583374;96.144287109375
61;1673387581.8469713;47.130642099999996;7.2406149;1.7590000629425049;1673387581.8899698;-30.113025665283203;-0.5584504008293152;95.08381652832031
62;1673387582.0450714;47.1306422;7.2406152;1.908000111579895;1673387582.086834;-29.694822311401367;-2.8458077907562256;96.08946990966797
63;1673387582.247104;47.1306423;7.2406156;2.070000171661377;1673387582.296166;-29.61858367919922;-0.46059027314186096;95.47000122070312
64;1673387582.4527597;47.1306425;7.2406162;2.244000196456909;1673387582.49684;-28.9638671875;1.4516924619674683;94.77622985839844
65;1673387582.6575692;47.130642699999996;7.2406169;2.4220001697540283;1673387582.7073457;-28.476720809936523;-1.280125379562378;96.10089111328125
66;1673387582.868418;47.130642699999996;7.2406177;2.6100001335144043;1673387582.9134874;-27.65403175354004;0.02042078971862793;95.95230865478516
67;1673387583.0679708;47.130642699999996;7.2406184;2.7980000972747803;1673387583.10912;-27.07744598388672;1.7377889156341553;95.22013854980469
68;1673387583.2604532;47.130642699999996;7.240619;2.9850001335144043;1673387583.3016388;-26.365970611572266;-1.2047970294952393;96.42833709716797
69;1673387583.4642437;47.130642599999995;7.240619499999999;3.1700000762939453;1673387583.5014615;-26.29029655456543;-0.48283612728118896;96.15838623046875
70;1673387583.658141;47.1306425;7.240619799999999;3.3510000705718994;1673387583.7031147;-25.907995223999023;1.6715853214263916;95.24327087402344
71;1673387583.8622992;47.1306424;7.24062;3.5340001583099365;1673387583.90134;-26.41386604309082;-1.8281152248382568;96.18306732177734
72;1673387584.0634768;47.1306422;7.24062;3.7220001220703125;1673387584.1135058;-26.341943740844727;-2.0766541957855225;96.08792877197266
73;1673387584.2853003;47.130642099999996;7.24062;3.9150002002716064;1673387584.3273876;-26.652002334594727;0.6638671159744263;95.10487365722656
74;1673387584.5196013;47.130641999999995;7.240619799999999;4.107000350952148;1673387584.560634;-27.078310012817383;-1.810637354850769;95.84110260009766
75;1673387584.7491393;47.130641999999995;7.2406196;4.299000263214111;1673387584.7844083;-27.212675094604492;-2.7057251930236816;96.30545806884766
76;1673387584.9312882;47.130641999999995;7.2406194;4.491000175476074;1673387584.9679444;-27.70197868347168;0.755294144153595;95.21459197998047
77;1673387585.104672;47.130641999999995;7.2406193;4.681000232696533;1673387585.1427934;-28.024381637573242;-1.5993860960006714;95.87480926513672
78;1673387585.2944663;47.130641999999995;7.2406191;4.873000144958496;1673387585.3315845;-28.012649536132812;-3.2267093658447266;96.46450805664062
79;1673387585.4840071;47.130641999999995;7.240619;5.067000389099121;1673387585.526991;-28.132976531982422;0.37056031823158264;95.3612060546875
80;1673387585.686427;47.130642099999996;7.2406191;5.264000415802002;1673387585.7342825;-27.933507919311523;-0.9529491066932678;95.80785369873047
81;1673387585.8811262;47.130642099999996;7.2406191;5.459000110626221;1673387585.920164;-27.734167098999023;-2.54006290435791;96.4148941040039
82;1673387586.085726;47.1306422;7.240619199999999;5.653000354766846;1673387586.1329162;-27.79205894470215;0.5150097012519836;95.40441131591797
83;1673387586.2830093;47.1306423;7.2406193;5.843000411987305;1673387586.3285959;-27.48692512512207;-0.07512129843235016;95.63751983642578
84;1673387586.4933052;47.1306423;7.2406194;6.031000137329102;1673387586.5485017;-27.548677444458008;-2.8113315105438232;96.59609985351562
85;1673387586.6917706;47.1306423;7.240619499999999;6.223000526428223;1673387586.7358308;-27.35703468322754;-0.2332540899515152;95.6812973022461
86;1673387586.9077232;47.1306423;7.2406196;6.4160003662109375;1673387586.9497657;-27.389150619506836;0.5496066808700562;95.39884185791016
87;1673387587.107334;47.1306424;7.2406197;6.607000350952148;1673387587.167428;-27.0904541015625;-2.552791118621826;96.42119598388672
88;1673387587.3400483;47.1306424;7.2406197;6.800000190734863;1673387587.3767931;-27.421602249145508;-0.5389189720153809;95.78253936767578
89;1673387587.5158615;47.1306425;7.2406197;6.991000175476074;1673387587.5540283;-27.429542541503906;1.0426472425460815;95.2693099975586
90;1673387587.7000883;47.1306425;7.2406197;7.179000377655029;1673387587.741616;-27.429767608642578;-2.3801815509796143;96.28048706054688
91;1673387587.880874;47.1306424;7.2406197;7.368000507354736;1673387587.920921;-27.187223434448242;-1.389915943145752;96.02101135253906
92;1673387588.0712912;47.1306424;7.240619799999999;7.559000492095947;1673387588.106419;-27.498947143554688;1.1244782209396362;95.1600570678711
93;1673387588.2728097;47.1306424;7.240619799999999;7.754000186920166;1673387588.3187342;-27.22844886779785;-1.994769811630249;96.14684295654297
94;1673387588.4698765;47.1306424;7.240619799999999;7.946000576019287;1673387588.509876;-27.503400802612305;-2.011777877807617;96.28179931640625
95;1673387588.6511905;47.1306424;7.240619799999999;8.13700008392334;1673387588.6931658;-27.38051986694336;1.175884485244751;95.19987487792969
96;1673387588.8455577;47.1306424;7.240619799999999;8.329999923706055;1673387588.8935924;-27.590471267700195;-1.6057219505310059;96.07479858398438
97;1673387589.0595949;47.1306423;7.240619799999999;8.52400016784668;1673387589.0978065;-27.324691772460938;-2.5021097660064697;96.41156005859375
98;1673387589.254808;47.1306423;7.2406198999999996;8.718000411987305;1673387589.2979243;-27.674659729003906;0.5880561470985413;95.2995376586914
99;1673387589.469767;47.1306424;7.2406198999999996;8.916000366210938;1673387589.5156503;-27.255535125732422;-1.0224529504776;95.85739135742188
100;1673387589.6741292;47.1306424;7.24062;9.113000869750977;1673387589.714261;-27.46895408630371;-2.61600399017334;96.55075073242188
101;1673387589.865882;47.1306425;7.24062;9.312000274658203;1673387589.9078379;-27.455049514770508;0.752167820930481;95.40675354003906
102;1673387590.0652869;47.1306425;7.24062;9.51200008392334;1673387590.104387;-27.41719627380371;-0.36429139971733093;95.66394805908203
103;1673387590.25396;47.1306425;7.24062;9.711000442504883;1673387590.2979221;-27.254901885986328;-2.721163749694824;96.54292297363281
104;1673387590.4575262;47.1306424;7.2406201;9.916000366210938;1673387590.4965265;-27.338090896606445;0.34732165932655334;95.49463653564453
105;1673387590.6618838;47.1306425;7.2406201999999995;10.120000839233398;1673387590.704865;-27.089195251464844;-0.013280835933983326;95.74794006347656
106;1673387590.8584023;47.1306425;7.2406203;10.362000465393066;1673387590.8993943;-28.964519500732422;-2.04620361328125;96.31651306152344
107;1673387591.0642507;47.1306425;7.2406209;10.679000854492188;1673387591.1092014;-34.02034378051758;-0.4791841208934784;95.69789123535156
108;1673387591.266583;47.1306424;7.2406222;11.06100082397461;1673387591.3095427;-29.386064529418945;-0.5379911661148071;95.64614868164062
109;1673387591.4689817;47.1306423;7.2406238;11.463000297546387;1673387591.50705;-26.41498565673828;-2.17344331741333;96.30022430419922
110;1673387591.6602721;47.1306422;7.2406253;11.872000694274902;1673387591.705335;-23.40644645690918;0.082809679210186;95.62572479248047
111;1673387591.8989577;47.1306423;7.2406263;12.283000946044922;1673387591.940063;-21.734577178955078;0.40963608026504517;95.46521759033203
112;1673387592.1044188;47.1306423;7.2406269;12.692000389099121;1673387592.140532;-21.180971145629883;-1.9737716913223267;96.42243957519531
113;1673387592.2907996;47.1306423;7.240626799999999;13.101000785827637;1673387592.3318512;-21.76410484313965;0.13983625173568726;95.71111297607422
114;1673387592.4764178;47.1306423;7.2406261999999995;13.509000778198242;1673387592.5332325;-23.145092010498047;0.7014886736869812;95.3497085571289
115;1673387592.6909978;47.1306422;7.2406253;13.921000480651855;1673387592.7232676;-24.506872177124023;-2.868577241897583;96.36590576171875
116;1673387592.8770082;47.130642099999996;7.2406242999999995;14.333001136779785;1673387592.9131818;-25.63995933532715;-1.2337695360183716;95.90110778808594
117;1673387593.0779371;47.130642099999996;7.240623299999999;14.746000289916992;1673387593.1180167;-26.92092514038086;0.6643025875091553;95.33743286132812
118;1673387593.2687132;47.130642099999996;7.2406223999999995;15.16200065612793;1673387593.306764;-27.21457290649414;-2.5773730278015137;96.2409896850586
119;1673387593.4673355;47.130642099999996;7.240621699999999;15.578001022338867;1673387593.502516;-28.037860870361328;-2.1819043159484863;96.08987426757812
120;1673387593.6637113;47.130642099999996;7.2406213;15.99100112915039;1673387593.7077477;-27.891063690185547;0.26674380898475647;95.31218719482422
121;1673387593.8679757;47.130642099999996;7.240621;16.4010009765625;1673387593.9109905;-28.00004005432129;-2.2361578941345215;96.14901733398438
122;1673387594.0604138;47.130642099999996;7.2406209;16.817001342773438;1673387594.0965343;-27.521358489990234;-2.141252040863037;96.23661041259766
123;1673387594.2637463;47.1306422;7.2406209;17.235000610351562;1673387594.3128903;-27.373661041259766;0.6372320055961609;95.30332946777344
124;1673387594.4580672;47.1306424;7.2406209;17.650001525878906;1673387594.5020573;-26.91245460510254;-0.8241873383522034;95.8980712890625
125;1673387594.6603951;47.1306424;7.240621;18.06100082397461;1673387594.70725;-26.897655487060547;-1.9384583234786987;96.43531799316406
126;1673387594.8558376;47.1306425;7.240621;18.46500015258789;1673387594.8968306;-26.329858779907227;0.6176964044570923;95.4736328125
127;1673387595.087592;47.1306425;7.240621099999999;18.865001678466797;1673387595.130599;-26.45730209350586;-0.15802906453609467;95.72493743896484
128;1673387595.288438;47.130642599999995;7.240621099999999;19.270000457763672;1673387595.3216097;-26.38661766052246;-2.229013442993164;96.50704956054688
129;1673387595.4542773;47.130642699999996;7.240621099999999;19.679000854492188;1673387595.4946723;-26.507347106933594;0.4650111496448517;95.63809967041016
130;1673387595.668272;47.1306428;7.240621;20.089000701904297;1673387595.7183506;-26.3267822265625;0.6611020565032959;95.52714538574219
131;1673387595.8902662;47.1306428;7.240621;20.494001388549805;1673387595.9422185;-26.61551856994629;-1.745827078819275;96.3708267211914
132;1673387596.1488004;47.130642699999996;7.2406209;20.898000717163086;1673387596.181627;-26.554367065429688;-0.4380999803543091;95.89525604248047
133;1673387596.3181074;47.130642699999996;7.2406209;21.302001953125;1673387596.3596866;-26.692710876464844;0.9298368096351624;95.27681732177734
134;1673387596.5340998;47.130642599999995;7.240620799999999;21.703001022338867;1673387596.5687802;-26.648508071899414;-1.8478407859802246;96.09417724609375
135;1673387596.7327576;47.1306425;7.2406207;22.10700035095215;1673387596.8084972;-26.624574661254883;-1.5576822757720947;96.11591339111328
136;1673387596.9604073;47.1306424;7.2406207;22.509000778198242;1673387596.9947264;-26.677885055541992;0.8365588784217834;95.29813385009766
137;1673387597.1754775;47.1306424;7.2406207;22.910001754760742;1673387597.205817;-26.353296279907227;-1.5671027898788452;96.08820343017578
138;1673387597.333615;47.1306424;7.2406207;23.310001373291016;1673387597.368954;-26.711910247802734;-1.9509437084197998;96.27934265136719
139;1673387597.5468447;47.1306423;7.2406206;23.709001541137695;1673387597.5849454;-26.76048469543457;0.629851222038269;95.3445816040039
140;1673387597.721121;47.1306423;7.2406204999999995;24.10300064086914;1673387597.757801;-26.641834259033203;-1.199703574180603;95.9709701538086
141;1673387597.9107451;47.1306423;7.2406204999999995;24.503000259399414;1673387597.9497938;-26.638179779052734;-2.2083778381347656;96.36561584472656
142;1673387598.0935616;47.1306424;7.2406204999999995;24.907001495361328;1673387598.1371562;-26.811283111572266;0.9434680938720703;95.37495422363281
143;1673387598.285354;47.1306424;7.2406204;25.31300163269043;1673387598.324394;-26.785945892333984;-0.4905533790588379;95.84831237792969
144;1673387598.4789314;47.1306424;7.2406204;25.718000411987305;1673387598.5199218;-26.720115661621094;-2.012188673019409;96.40301513671875
145;1673387598.6705554;47.1306424;7.2406204;26.12200164794922;1673387598.715487;-26.760135650634766;0.18822365999221802;95.68016052246094
146;1673387598.8771365;47.1306424;7.2406204;26.522001266479492;1673387598.9261956;-26.79586410522461;-0.07044398039579391;95.69251251220703
147;1673387599.0807586;47.1306424;7.2406204;26.916000366210938;1673387599.1238964;-26.836198806762695;-2.018690586090088;96.26463317871094
148;1673387599.2885354;47.1306424;7.2406204;27.315000534057617;1673387599.330503;-26.77740478515625;0.01586546003818512;95.65625762939453
149;1673387599.4642658;47.1306425;7.2406204;27.71700096130371;1673387599.5053334;-26.845178604125977;0.738681972026825;95.40201568603516
150;1673387599.6665473;47.1306424;7.2406204;28.119001388549805;1673387599.7124314;-26.69243812561035;-2.3356845378875732;96.31439971923828
151;1673387599.8825903;47.1306424;7.2406204;28.523000717163086;1673387599.9178042;-26.60056495666504;-0.5713098049163818;95.7808837890625
152;1673387600.0809877;47.1306424;7.2406204;28.927001953125;1673387600.1280768;-26.742122650146484;0.7555139064788818;95.35235595703125
153;1673387600.2703428;47.1306424;7.2406204;29.327001571655273;1673387600.3115532;-26.517038345336914;-2.210958480834961;96.29328155517578
154;1673387600.4630706;47.1306425;7.2406204;29.73000144958496;1673387600.5031195;-26.948692321777344;-0.970272421836853;96.059326171875
155;1673387600.6603246;47.1306425;7.2406204;30.13500213623047;1673387600.7035067;-26.738101959228516;1.1253647804260254;95.3438949584961
156;1673387600.863854;47.130642599999995;7.2406204;30.53900146484375;1673387600.9049404;-26.74358558654785;-1.326966404914856;96.04039001464844
157;1673387601.0668082;47.130642599999995;7.2406204;30.940000534057617;1673387601.108815;-26.680166244506836;-1.650551199913025;96.24490356445312
158;1673387601.2867246;47.1306425;7.2406204;31.340002059936523;1673387601.3269424;-26.56825065612793;0.9417550563812256;95.35440063476562
159;1673387601.4772897;47.130642599999995;7.2406204;31.739002227783203;1673387601.5125382;-26.77487564086914;-0.8856964707374573;95.95498657226562
160;1673387601.708041;47.130642599999995;7.2406204;32.134002685546875;1673387601.7529523;-26.595460891723633;-1.9918965101242065;96.4253921508789
161;1673387601.8967419;47.130642599999995;7.2406204;32.53200149536133;1673387601.9378817;-26.90833282470703;0.984330952167511;95.40648651123047
162;1673387602.0888548;47.130642599999995;7.2406204;32.92900085449219;1673387602.1318288;-26.550678253173828;-0.22412800788879395;95.690185546875
163;1673387602.2903023;47.130642599999995;7.2406203;33.329002380371094;1673387602.331294;-26.826557159423828;-2.1161324977874756;96.41339111328125
164;1673387602.4879994;47.130642599999995;7.2406203;33.729000091552734;1673387602.528016;-26.86236572265625;0.5577337741851807;95.56526184082031
165;1673387602.7120018;47.130642599999995;7.2406203;34.124000549316406;1673387602.754949;-26.754249572753906;0.420513391494751;95.49171447753906
166;1673387602.9267826;47.130642599999995;7.2406203;34.518001556396484;1673387602.9782865;-26.634336471557617;-2.223222494125366;96.4350357055664
167;1673387603.157738;47.130642599999995;7.2406203;34.91699981689453;1673387603.1969056;-26.710811614990234;-0.03347477689385414;95.75895690917969
168;1673387603.3220463;47.130642599999995;7.2406203;35.32200241088867;1673387603.361099;-26.595312118530273;0.7611738443374634;95.54212951660156
169;1673387603.4960568;47.130642599999995;7.2406203;35.72800064086914;1673387603.5380569;-26.8085994720459;-2.205758571624756;96.40125274658203
170;1673387603.6869032;47.1306425;7.2406201999999995;36.12800216674805;1673387603.7347987;-26.440515518188477;-0.44620516896247864;95.72920989990234
171;1673387603.8924377;47.1306425;7.2406201999999995;36.52900314331055;1673387603.9373813;-26.759017944335938;0.7593183517456055;95.31251525878906
172;1673387604.1028569;47.1306425;7.2406201999999995;36.93000030517578;1673387604.143849;-26.623796463012695;-2.0629160404205322;96.27655029296875
173;1673387604.27689;47.1306425;7.2406201;37.3280029296875;1673387604.3178816;-26.972469329833984;-0.8135873079299927;95.98750305175781
174;1673387604.4783256;47.130642599999995;7.24062;37.730003356933594;1673387604.5359817;-26.763887405395508;1.172581434249878;95.29639434814453
175;1673387604.7029471;47.1306425;7.24062;38.13300323486328;1673387604.7421896;-26.999773025512695;-1.804770827293396;96.20561981201172
176;1673387604.8917127;47.1306425;7.2406198999999996;38.53600311279297;1673387604.934703;-26.68777847290039;-1.2636563777923584;96.08328247070312
177;1673387605.0893922;47.1306425;7.2406198999999996;38.93800354003906;1673387605.130418;-27.064043045043945;1.042386770248413;95.33902740478516
178;1673387605.2789254;47.1306425;7.2406198999999996;39.33500289916992;1673387605.3150618;-26.822385787963867;-1.2019978761672974;96.12822723388672
179;1673387605.4698908;47.130642599999995;7.2406198999999996;39.73100280761719;1673387605.5153944;-26.848587036132812;-1.8337206840515137;96.37753295898438
180;1673387605.6783552;47.130642599999995;7.240619799999999;40.13200378417969;1673387605.7203405;-26.836118698120117;1.2654224634170532;95.3415298461914
181;1673387605.8765087;47.130642599999995;7.240619799999999;40.535003662109375;1673387605.9204357;-27.163740158081055;-0.693202555179596;95.91449737548828
182;1673387606.0856156;47.130642599999995;7.240619799999999;40.94000244140625;1673387606.1266735;-26.837108612060547;-1.7993510961532593;96.26738739013672
183;1673387606.2781937;47.130642599999995;7.240619799999999;41.34400177001953;1673387606.3173492;-26.966894149780273;0.8941974639892578;95.4340591430664
184;1673387606.468595;47.130642599999995;7.240619799999999;41.74500274658203;1673387606.5156786;-26.822406768798828;-0.38717523217201233;95.71759033203125
185;1673387606.6783183;47.130642599999995;7.240619799999999;42.143001556396484;1673387606.720292;-26.88898277282715;-1.994067907333374;96.4179916381836
186;1673387606.8703136;47.130642599999995;7.240619799999999;42.53700256347656;1673387606.9108994;-26.890371322631836;1.02041494846344;95.45747375488281
187;1673387607.0785303;47.130642699999996;7.240619799999999;42.935001373291016;1673387607.120609;-26.833650588989258;0.13892288506031036;95.67640686035156
188;1673387607.2770052;47.130642599999995;7.240619799999999;43.33500289916992;1673387607.3170226;-26.769054412841797;-2.2008938789367676;96.46920013427734
189;1673387607.459434;47.130642599999995;7.240619799999999;43.7400016784668;1673387607.4990706;-26.82261848449707;0.5283523201942444;95.5672607421875
190;1673387607.6669786;47.130642599999995;7.2406198999999996;44.14600372314453;1673387607.7149963;-26.80061149597168;0.295992374420166;95.59961700439453
191;1673387607.8647773;47.130642599999995;7.2406198999999996;44.547000885009766;1673387607.9043705;-26.76584243774414;-2.0575075149536133;96.47590637207031
192;1673387608.0689514;47.130642599999995;7.2406198999999996;44.944000244140625;1673387608.1108787;-26.84296226501465;0.2919567823410034;95.70870971679688
193;1673387608.259834;47.130642599999995;7.240619799999999;45.345001220703125;1673387608.3077555;-26.650739669799805;0.6784161329269409;95.52838897705078
194;1673387608.4873836;47.1306425;7.240619799999999;45.74700164794922;1673387608.5286756;-26.91865348815918;-2.1836626529693604;96.32393646240234
195;1673387608.685617;47.1306424;7.240619799999999;46.147003173828125;1673387608.7246807;-26.67232322692871;-0.43021562695503235;95.77672576904297
196;1673387608.8934448;47.1306425;7.240619799999999;46.54600143432617;1673387608.9434743;-26.937360763549805;1.0078747272491455;95.24552917480469
197;1673387609.1051588;47.1306425;7.240619799999999;46.94700241088867;1673387609.1471384;-26.704830169677734;-1.5192521810531616;96.2010269165039
198;1673387609.301398;47.1306425;7.2406197;47.34400177001953;1673387609.3482647;-26.887346267700195;-0.940841555595398;96.07571411132812
199;1673387609.5043297;47.1306425;7.2406197;47.7390022277832;1673387609.548301;-26.87520980834961;1.1904762983322144;95.36373138427734
200;1673387609.7017133;47.1306424;7.2406197;48.12900161743164;1673387609.743674;-27.529699325561523;-1.370076060295105;96.09534454345703
201;1673387609.8939524;47.1306424;7.2406196;48.47200393676758;1673387609.935064;-27.116003036499023;-1.0025478601455688;96.122802734375
202;1673387610.1083689;47.1306425;7.2406193;48.76400375366211;1673387610.1467528;-27.42024803161621;0.6416521668434143;95.4128646850586
203;1673387610.3190536;47.1306425;7.240618899999999;49.005001068115234;1673387610.371875;-27.905750274658203;-0.8290625810623169;96.01460266113281
204;1673387610.5314102;47.1306425;7.2406184;49.20000076293945;1673387610.56655;-28.515687942504883;-1.2760381698608398;96.22847747802734
205;1673387610.707228;47.1306425;7.2406178;49.35700225830078;1673387610.7463195;-21.023681640625;12.853837966918945;96.10047149658203
206;1673387610.8969116;47.1306419;7.2406166;49.493003845214844;1673387610.9369185;-6.43842887878418;35.10120391845703;108.62014770507812
207;1673387611.1198726;47.130639699999996;7.2406128999999995;49.61900329589844;1673387611.1530554;-5.112236022949219;52.856971740722656;120.00617218017578
208;1673387611.308628;47.1306349;7.2406052;49.70500183105469;1673387611.3642745;-13.315946578979492;56.79139709472656;128.82955932617188
209;1673387611.5353582;47.1306272;7.2405931;49.742000579833984;1673387611.5744066;-25.01382827758789;52.56056594848633;136.4688262939453
210;1673387611.7331696;47.1306167;7.240577399999999;49.75600051879883;1673387611.7708232;-31.73177719116211;47.261390686035156;148.01507568359375
211;1673387611.920352;47.130604;7.240558699999999;49.7400016784668;1673387611.9584024;-33.889137268066406;38.15055847167969;159.16856384277344
212;1673387612.0954754;47.130589799999996;7.2405371;49.71000289916992;1673387612.1345768;-38.262996673583984;34.67744827270508;167.09072875976562
213;1673387612.2792058;47.1305738;7.240513099999999;49.69400405883789;1673387612.3192534;-47.79253387451172;33.216739654541016;174.78427124023438
214;1673387612.4634786;47.130556399999996;7.2404864;49.669002532958984;1673387612.506188;-49.87066650390625;21.121597290039062;-172.48707580566406
215;1673387612.6593044;47.1305377;7.2404573999999995;49.64800262451172;1673387612.701775;-50.77505874633789;13.553229331970215;-164.52244567871094
216;1673387612.881264;47.130517999999995;7.240426299999999;49.63500213623047;1673387612.9077837;-53.14605712890625;4.013290882110596;-156.81007385253906
217;1673387613.0753138;47.130497399999996;7.2403938;49.630001068115234;1673387613.1217985;-51.96614074707031;-6.552584171295166;-148.8678741455078
218;1673387613.2755067;47.130475999999994;7.2403606;49.62900161743164;1673387613.3220708;-52.64045715332031;-9.461263656616211;-141.9251708984375
219;1673387613.496761;47.1304539;7.2403267;49.608001708984375;1673387613.534925;-46.7861328125;-14.40135383605957;-134.2073974609375
220;1673387613.6873314;47.1304313;7.240292299999999;49.58100128173828;1673387613.7312896;-43.67828369140625;-17.78059196472168;-134.6714630126953
221;1673387613.866777;47.1304084;7.2402579;49.56800079345703;1673387613.9053988;-46.35276412963867;-18.39152717590332;-137.8441162109375
222;1673387614.0738995;47.1303851;7.2402238;49.566001892089844;1673387614.1166072;-46.66484069824219;-17.53418731689453;-139.8084259033203
223;1673387614.2743726;47.1303614;7.2401900999999995;49.56900405883789;1673387614.3168888;-46.39919662475586;-16.063749313354492;-140.60618591308594
224;1673387614.4796586;47.130337399999995;7.240156799999999;49.57200241088867;1673387614.5153294;-45.7041130065918;-15.19243335723877;-140.5326690673828
225;1673387614.6711447;47.1303133;7.240124;49.577003479003906;1673387614.7089233;-44.8994255065918;-14.272220611572266;-140.31838989257812
226;1673387614.867403;47.1302891;7.2400911;49.58500289916992;1673387614.917832;-44.728118896484375;-13.892714500427246;-140.144775390625
227;1673387615.0835152;47.1302649;7.240058299999999;49.59600067138672;1673387615.127029;-45.1621208190918;-13.87744140625;-139.98284912109375
228;1673387615.2771783;47.130240699999995;7.2400253999999995;49.61300277709961;1673387615.3235822;-45.47175979614258;-13.918030738830566;-139.89004516601562
229;1673387615.4936757;47.130216499999996;7.2399926;49.63200378417969;1673387615.535754;-45.70854949951172;-13.857503890991211;-139.85498046875
230;1673387615.689045;47.130192199999996;7.239959799999999;49.65200424194336;1673387615.7322342;-45.877777099609375;-13.91592788696289;-139.7376708984375
231;1673387615.8883767;47.130168;7.2399271999999995;49.6660041809082;1673387615.9320445;-45.53306198120117;-13.604844093322754;-139.74383544921875
232;1673387616.075329;47.1301437;7.2398944;49.68000411987305;1673387616.12595;-45.03178024291992;-13.579774856567383;-139.7264404296875
233;1673387616.288893;47.1301195;7.2398615;49.695003509521484;1673387616.3358176;-45.46117401123047;-13.8443021774292;-139.64356994628906
234;1673387616.499004;47.1300953;7.2398285;49.71000289916992;1673387616.5419466;-45.92879104614258;-14.164283752441406;-139.62432861328125
235;1673387616.687485;47.130071099999995;7.2397955;49.72600173950195;1673387616.7285275;-45.96892547607422;-14.196378707885742;-139.70175170898438
236;1673387616.8834805;47.130046899999996;7.2397626;49.7400016784668;1673387616.9274502;-45.69489669799805;-14.176628112792969;-139.72103881835938
237;1673387617.0919774;47.1300226;7.2397295999999995;49.750003814697266;1673387617.1319923;-45.40047073364258;-14.151448249816895;-139.68643188476562
238;1673387617.2833884;47.1299984;7.2396968;49.75800323486328;1673387617.3244133;-45.22390365600586;-14.026355743408203;-139.67628479003906
239;1673387617.4676764;47.1299741;7.2396638;49.76400375366211;1673387617.508245;-45.253787994384766;-14.063243865966797;-139.64697265625
240;1673387617.6682775;47.1299498;7.2396309;49.76700210571289;1673387617.708453;-45.0837516784668;-14.013256072998047;-139.66885375976562
241;1673387617.874793;47.1299256;7.2395979;49.76900100708008;1673387617.9182925;-44.921546936035156;-14.081517219543457;-139.65406799316406
242;1673387618.0847065;47.1299014;7.2395648999999995;49.76900100708008;1673387618.1264505;-44.71871566772461;-14.098594665527344;-139.6370391845703
243;1673387618.2795537;47.129877199999996;7.239532;49.775001525878906;1673387618.3196094;-45.07212448120117;-14.235940933227539;-139.59738159179688
244;1673387618.480507;47.129853;7.2394991;49.785003662109375;1673387618.5276244;-45.54102325439453;-14.284943580627441;-139.59414672851562
245;1673387618.6940954;47.1298288;7.2394662;49.79600143432617;1673387618.7332196;-45.77301025390625;-14.289793014526367;-139.67274475097656
246;1673387618.8907998;47.1298046;7.2394333;49.80500411987305;1673387618.9366963;-45.67703628540039;-14.277923583984375;-139.74853515625
247;1673387619.0909908;47.1297804;7.2394004;49.81100082397461;1673387619.135889;-45.482627868652344;-14.176645278930664;-139.77182006835938
248;1673387619.308673;47.129756199999996;7.2393674;49.814002990722656;1673387619.3498175;-45.17360305786133;-14.06903076171875;-139.80386352539062
249;1673387619.5068393;47.129732;7.2393345;49.81500244140625;1673387619.542159;-44.99929428100586;-13.95842170715332;-139.81546020507812
250;1673387619.6898715;47.1297078;7.2393016;49.816001892089844;1673387619.7336168;-45.15867614746094;-14.067877769470215;-139.7723388671875
251;1673387619.8927433;47.1296836;7.2392686;49.82200241088867;1673387619.9301178;-45.44856643676758;-14.070192337036133;-139.85731506347656
252;1673387620.081578;47.1296593;7.2392356;49.8280029296875;1673387620.1250741;-45.45541000366211;-14.094135284423828;-139.8938751220703
253;1673387620.2711847;47.129635099999994;7.2392026;49.832000732421875;1673387620.3215048;-45.525848388671875;-14.0513277053833;-139.97967529296875
254;1673387620.4850624;47.129610899999996;7.2391695;49.832000732421875;1673387620.529516;-45.1380729675293;-13.939107894897461;-140.06309509277344
255;1673387620.6814456;47.1295867;7.2391364;49.83400344848633;1673387620.724006;-44.90931701660156;-13.81561279296875;-140.10731506347656
256;1673387620.904605;47.1295625;7.2391033;49.83500289916992;1673387620.9437156;-45.02649688720703;-13.8651762008667;-140.13397216796875
257;1673387621.0999122;47.1295382;7.2390703;49.84100341796875;1673387621.144814;-45.36028289794922;-13.921215057373047;-140.2154083251953
258;1673387621.3081775;47.129514099999994;7.239037199999999;49.84800338745117;1673387621.3444412;-45.68045425415039;-13.926172256469727;-140.3413848876953
259;1673387621.491049;47.129489799999995;7.2390042;49.855003356933594;1673387621.5400443;-45.66301345825195;-13.785922050476074;-140.48939514160156
260;1673387621.7033138;47.129465599999996;7.2389711;49.85900115966797;1673387621.7414353;-45.2178840637207;-13.532546043395996;-140.64431762695312
261;1673387621.890456;47.1294414;7.2389380999999995;49.867000579833984;1673387621.9440253;-44.942989349365234;-14.9290189743042;-140.39015197753906
262;1673387622.0905254;47.1294172;7.2389052;49.87800216674805;1673387622.1283164;-45.92189407348633;-18.6505126953125;-140.52781677246094
263;1673387622.2775028;47.1293927;7.2388727;49.893001556396484;1673387622.3200197;-46.173274993896484;-22.647930145263672;-141.50613403320312
264;1673387622.488073;47.1293678;7.238840799999999;49.91200256347656;1673387622.5272994;-45.17348861694336;-24.02223014831543;-142.55209350585938
265;1673387622.6980717;47.1293425;7.23881;49.927001953125;1673387622.740073;-39.102264404296875;-26.136940002441406;-143.5593719482422
266;1673387622.8891647;47.129317199999996;7.238780599999999;49.93700408935547;1673387622.9294138;-24.315235137939453;-25.96146011352539;-143.96493530273438
267;1673387623.1023848;47.1292926;7.238753;49.94900131225586;1673387623.14061;-2.6998331546783447;-24.222763061523438;-141.75096130371094
268;1673387623.2894905;47.1292696;7.2387277;49.97600173950195;1673387623.3292272;12.902527809143066;-18.329940795898438;-136.6046600341797
269;1673387623.484889;47.129249099999996;7.2387049;50.00300216674805;1673387623.5239856;25.61935806274414;-11.967805862426758;-133.9702606201172
270;1673387623.680511;47.1292318;7.2386846;50.02000427246094;1673387623.7196264;33.67778396606445;-3.5829436779022217;-134.95660400390625
271;1673387623.881261;47.1292176;7.2386668;50.00300216674805;1673387623.926346;36.28389358520508;-10.695564270019531;-134.04624938964844
272;1673387624.0819104;47.129206499999995;7.2386515;49.96600341796875;1673387624.1224887;36.49422836303711;-14.329063415527344;-132.31088256835938
273;1673387624.285474;47.129197999999995;7.2386392;49.9640007019043;1673387624.3274846;34.062744140625;-18.54657745361328;-131.31597900390625
274;1673387624.4734561;47.129191299999995;7.2386295;49.974002838134766;1673387624.512071;28.53120994567871;-19.72087860107422;-132.19046020507812
275;1673387624.662731;47.129186;7.2386218;49.993003845214844;1673387624.7043712;21.317035675048828;-21.355140686035156;-133.52316284179688
276;1673387624.8730445;47.1291813;7.238615299999999;50.0150032043457;1673387624.9194715;16.43450164794922;-19.617149353027344;-133.92198181152344
277;1673387625.0793366;47.129177;7.2386094;50.03400421142578;1673387625.1209445;10.89983081817627;-17.813390731811523;-134.21885681152344
278;1673387625.2887795;47.129173099999996;7.2386038;50.04300308227539;1673387625.3250947;8.528857231140137;-18.0693416595459;-134.67044067382812
279;1673387625.5125408;47.1291693;7.238598199999999;50.04900360107422;1673387625.5672343;8.197872161865234;-18.777982711791992;-135.0031280517578
280;1673387625.7175949;47.1291656;7.2385926;50.05800247192383;1673387625.7596157;10.253779411315918;-20.14946937561035;-135.6826934814453
281;1673387625.9296913;47.129162099999995;7.238587099999999;50.07200241088867;1673387625.9706838;13.646437644958496;-20.613435745239258;-136.74276733398438
282;1673387626.134816;47.1291587;7.2385817999999995;50.083003997802734;1673387626.1739068;17.793363571166992;-19.87451934814453;-137.901611328125
283;1673387626.3598216;47.129155499999996;7.2385768;50.09800338745117;1673387626.3949678;12.292820930480957;-18.436548233032227;-136.8646697998047
284;1673387626.5348732;47.1291525;7.238572;50.16400146484375;1673387626.5758557;-18.175525665283203;-20.759492874145508;-135.642333984375
285;1673387626.735142;47.129148199999996;7.2385658;50.31500244140625;1673387626.7784503;-34.63255310058594;-21.101131439208984;-137.17254638671875
286;1673387626.9286604;47.1291417;7.2385570999999995;50.51900100708008;1673387626.9707143;-24.221332550048828;-12.07320499420166;-139.10975646972656
287;1673387627.124217;47.1291339;7.2385462;50.775001525878906;1673387627.1642303;-16.096784591674805;-11.529135704040527;-139.05552673339844
288;1673387627.3110063;47.1291253;7.238533599999999;51.11600112915039;1673387627.3500476;-26.925352096557617;-30.31730842590332;-138.3338165283203
289;1673387627.4804552;47.1291151;7.2385202;51.5150032043457;1673387627.5219893;-21.364004135131836;-26.184640884399414;-139.3304443359375
290;1673387627.679893;47.129103799999996;7.2385065;51.93100357055664;1673387627.7214277;-15.518837928771973;-23.745397567749023;-137.89596557617188
291;1673387627.8816226;47.1290921;7.2384927;52.35400390625;1673387627.926943;-10.402288436889648;-18.672882080078125;-137.6177978515625
292;1673387628.0966759;47.1290804;7.2384786;52.77700424194336;1673387628.14113;-5.064966201782227;-14.297552108764648;-137.43556213378906
293;1673387628.2919354;47.129069;7.2384645999999995;53.195003509521484;1673387628.3354092;-1.7948590517044067;-13.096648216247559;-136.8821258544922
294;1673387628.4950411;47.129058199999996;7.2384505;53.605003356933594;1673387628.5386808;-1.0254428386688232;-13.830770492553711;-136.54046630859375
295;1673387628.6937845;47.1290482;7.2384366;54.01000213623047;1673387628.7372746;-2.227599620819092;-15.742268562316895;-136.25827026367188
296;1673387628.8968549;47.1290386;7.2384229;54.41100311279297;1673387628.938391;-4.222321510314941;-18.342710494995117;-135.8979949951172
297;1673387629.092267;47.1290293;7.2384094;54.81500244140625;1673387629.1328332;-5.521230697631836;-19.915205001831055;-135.836181640625
298;1673387629.2867641;47.1290201;7.2383958999999995;55.22200393676758;1673387629.325414;-6.8939056396484375;-21.14337730407715;-135.9147491455078
299;1673387629.4942675;47.1290109;7.2383826;55.62600326538086;1673387629.537756;-7.7816572189331055;-21.094688415527344;-136.26283264160156
300;1673387629.68092;47.129001699999996;7.238369199999999;56.02800369262695;1673387629.7205153;-9.083208084106445;-20.515304565429688;-136.6526336669922
301;1673387629.8776348;47.1289922;7.2383558;56.43000411987305;1673387629.9267077;-10.24959945678711;-19.313037872314453;-136.98040771484375
302;1673387630.088586;47.128982699999995;7.2383422;56.833003997802734;1673387630.1315703;-10.820358276367188;-18.612977981567383;-137.1094970703125
303;1673387630.285511;47.1289729;7.2383285;57.23200225830078;1673387630.3241024;-11.014707565307617;-18.327768325805664;-137.0513916015625
304;1673387630.485649;47.128963;7.2383146;57.634002685546875;1673387630.5232809;-10.645095825195312;-19.47222900390625;-137.0137939453125
305;1673387630.6664722;47.1289531;7.2383006;58.03900146484375;1673387630.7119248;-9.999771118164062;-20.987924575805664;-136.85406494140625
306;1673387630.870995;47.1289431;7.2382865;58.44000244140625;1673387630.9125388;-8.8355131149292;-22.259517669677734;-136.80836486816406
307;1673387631.0625286;47.128932999999996;7.2382725;58.840003967285156;1673387631.1104028;-8.176230430603027;-21.699737548828125;-136.79449462890625
308;1673387631.2693603;47.1289229;7.2382586;59.23800277709961;1673387631.3138597;-7.384212017059326;-20.84466552734375;-136.90611267089844
309;1673387631.465674;47.128912799999995;7.2382449;59.634002685546875;1673387631.5096033;-7.101961135864258;-19.488386154174805;-136.99154663085938
310;1673387631.669039;47.1289028;7.2382313;60.03600311279297;1673387631.7125344;-7.640861511230469;-18.718711853027344;-137.01097106933594
311;1673387631.8771625;47.128892799999996;7.2382177;60.43800354003906;1673387631.920657;-8.196666717529297;-17.965055465698242;-136.98883056640625
312;1673387632.0871685;47.1288828;7.2382041;60.8380012512207;1673387632.1345825;-8.908365249633789;-18.037113189697266;-136.84323120117188
313;1673387632.2971978;47.1288729;7.2381905;61.2400016784668;1673387632.3403366;-9.234923362731934;-18.88348960876465;-136.75233459472656
314;1673387632.4963915;47.128862899999994;7.2381768;61.6410026550293;1673387632.5447497;-9.292221069335938;-19.788684844970703;-136.67022705078125
315;1673387632.7076662;47.128853;7.2381632;62.044002532958984;1673387632.7453003;-8.842755317687988;-21.12273597717285;-136.6222686767578
316;1673387632.8974388;47.128842899999995;7.2381495;62.43700408935547;1673387632.9409375;-8.623392105102539;-21.75844383239746;-136.7261962890625
317;1673387633.1005626;47.1288329;7.2381359;62.8280029296875;1673387633.1450331;-8.425304412841797;-21.090967178344727;-136.83848571777344
318;1673387633.3247862;47.128822799999995;7.238122199999999;63.21900177001953;1673387633.3657968;-8.210714340209961;-20.478290557861328;-136.8660888671875
319;1673387633.507922;47.1288127;7.2381085999999994;63.60900115966797;1673387633.5514977;-8.471964836120605;-18.74137306213379;-136.9532470703125
320;1673387633.7081723;47.1288027;7.2380949999999995;64.0009994506836;1673387633.7522666;-8.811962127685547;-17.70204734802246;-137.04217529296875
321;1673387633.9068937;47.1287926;7.238081299999999;64.39600372314453;1673387633.9503708;-8.978622436523438;-17.296241760253906;-137.03163146972656
322;1673387634.1127114;47.1287826;7.2380675;64.79199981689453;1673387634.1518595;-8.914986610412598;-18.111936569213867;-136.86167907714844
323;1673387634.3077502;47.1287727;7.2380534999999995;65.19300079345703;1673387634.3498874;-8.919240951538086;-19.96848487854004;-136.70870971679688
324;1673387634.503087;47.128762699999996;7.238039499999999;65.59300231933594;1673387634.5572233;-8.8452730178833;-21.297252655029297;-136.6815948486328
325;1673387634.7078981;47.1287528;7.2380255;65.99100494384766;1673387634.7513864;-8.59672737121582;-21.752382278442383;-136.66383361816406
326;1673387634.9276247;47.1287428;7.2380116;66.39400482177734;1673387634.9715877;-8.611956596374512;-22.148048400878906;-136.7488250732422
327;1673387635.1319418;47.128732799999995;7.2379978;66.79800415039062;1673387635.1729198;-7.949305057525635;-22.21291732788086;-136.88807678222656
328;1673387635.3197696;47.1287228;7.237984099999999;67.19900512695312;1673387635.3588126;-7.935577869415283;-21.69444465637207;-136.9021453857422
329;1673387635.5165567;47.128712799999995;7.2379704;67.59500122070312;1673387635.5584989;-8.01261043548584;-20.59758186340332;-137.07205200195312
330;1673387635.7270303;47.1287027;7.2379568;67.99100494384766;1673387635.7710614;-8.594636917114258;-19.700790405273438;-137.10694885253906
331;1673387635.9245217;47.128692699999995;7.2379432999999995;68.38700103759766;1673387635.961654;-9.060890197753906;-18.7625789642334;-137.13186645507812
332;1673387636.107929;47.1286826;7.2379297;68.78400421142578;1673387636.147093;-9.181604385375977;-17.95180320739746;-137.10342407226562
333;1673387636.3068328;47.1286725;7.2379161;69.18400573730469;1673387636.3756585;-9.367450714111328;-17.462228775024414;-137.16807556152344
334;1673387636.5251496;47.128662399999996;7.237902399999999;69.58300018310547;1673387636.5742893;-9.145415306091309;-17.559932708740234;-137.1427001953125
335;1673387636.7194636;47.1286524;7.2378886;69.9800033569336;1673387636.760458;-8.574496269226074;-17.636682510375977;-137.10171508789062
336;1673387636.915545;47.1286424;7.2378747;70.37300109863281;1673387636.9568238;7.780270576477051;-19.104230880737305;-138.69398498535156
337;1673387637.1060898;47.128633;7.2378614;70.74100494384766;1673387637.15032;13.866400718688965;-19.237730026245117;-137.50013732910156
338;1673387637.3095968;47.1286245;7.2378491;71.07400512695312;1673387637.3574836;18.84314727783203;-19.238178253173828;-136.88670349121094
339;1673387637.5054858;47.1286169;7.2378382;71.36400604248047;1673387637.5480754;22.333736419677734;-19.63829803466797;-136.43202209472656
340;1673387637.7086902;47.1286104;7.237828599999999;71.61500549316406;1673387637.755116;23.762094497680664;-19.450443267822266;-136.47457885742188
341;1673387637.9079564;47.1286049;7.2378205;71.8280029296875;1673387637.9584622;24.917316436767578;-20.61530876159668;-137.15020751953125
342;1673387638.1274006;47.128600299999995;7.237813699999999;72.01000213623047;1673387638.1822102;25.51119041442871;-21.366971969604492;-138.2227020263672
343;1673387638.3457184;47.1285964;7.237808299999999;72.17000579833984;1673387638.3838005;25.641279220581055;-22.16010093688965;-139.4229736328125
344;1673387638.563594;47.1285932;7.237804;72.30500030517578;1673387638.6163452;25.582103729248047;-15.045671463012695;-138.03858947753906
345;1673387638.7773154;47.1285908;7.2378002;72.41500091552734;1673387638.815499;30.42681121826172;8.607423782348633;-127.21419525146484
346;1673387638.961251;47.128589899999994;7.2377959999999995;72.5060043334961;1673387638.996387;24.373289108276367;11.273099899291992;-118.0545425415039
347;1673387639.151062;47.1285904;7.2377914;72.56999969482422;1673387639.1852207;22.321125030517578;7.788475513458252;-107.52392578125
348;1673387639.3513262;47.128591899999996;7.2377863;72.61300659179688;1673387639.3933225;18.264972686767578;9.594917297363281;-98.30916595458984
349;1673387639.5468934;47.128594;7.237781;72.65299987792969;1673387639.5842853;16.930681228637695;9.832505226135254;-89.44711303710938
350;1673387639.7520678;47.1285964;7.237775399999999;72.69100189208984;1673387639.7950468;15.326094627380371;10.033125877380371;-80.6475830078125
351;1673387639.9378927;47.128599099999995;7.2377693999999995;72.72600555419922;1673387639.9798927;14.549579620361328;11.744492530822754;-71.08944702148438
352;1673387640.1190574;47.1286018;7.237763299999999;72.75700378417969;1673387640.1723742;13.48430347442627;13.855789184570312;-60.923065185546875
353;1673387640.3278;47.128604599999996;7.2377568;72.79300689697266;1673387640.371714;12.051462173461914;16.145057678222656;-51.446590423583984
354;1673387640.520954;47.1286073;7.2377503;72.82500457763672;1673387640.5595784;9.39044189453125;18.718311309814453;-42.5006217956543
355;1673387640.7066474;47.128609999999995;7.2377439;72.85100555419922;1673387640.7510958;7.322875022888184;21.008821487426758;-40.75226593017578
356;1673387640.9279487;47.1286129;7.237737399999999;72.87700653076172;1673387640.9679854;-6.378392219543457;20.40601921081543;-45.621673583984375
357;1673387641.119851;47.1286163;7.237730399999999;72.90900421142578;1673387641.1643085;-34.22331237792969;17.489139556884766;-46.27272415161133
358;1673387641.3114216;47.1286214;7.237721;72.94900512695312;1673387641.353914;-53.59358215332031;10.891664505004883;-44.552913665771484
359;1673387641.5260694;47.1286288;7.2377077;72.97500610351562;1673387641.569939;-56.924556732177734;6.4678192138671875;-43.787288665771484
360;1673387641.7580538;47.128638599999995;7.2376897;72.97700500488281;1673387641.796009;-54.322540283203125;7.534422397613525;-44.837100982666016
361;1673387641.9540212;47.1286503;7.2376678;72.96500396728516;1673387641.997951;-54.628700256347656;7.934537410736084;-43.94295120239258
362;1673387642.160296;47.1286639;7.237642999999999;72.94800567626953;1673387642.2009163;-55.76451110839844;8.96214485168457;-43.26653289794922
363;1673387642.34325;47.128679299999995;7.237615399999999;72.9280014038086;1673387642.3930118;-55.26447296142578;8.942410469055176;-42.61198043823242
364;1673387642.5340033;47.128696399999995;7.2375853999999995;72.90400695800781;1673387642.5801575;-53.85443115234375;9.972900390625;-42.546470642089844
365;1673387642.7428179;47.1287149;7.2375535;72.8810043334961;1673387642.7829902;-53.70390319824219;12.322917938232422;-43.46234130859375
366;1673387642.9372787;47.1287346;7.237520099999999;72.85600280761719;1673387642.9813008;-51.416927337646484;13.820779800415039;-43.603111267089844
367;1673387643.134368;47.1287551;7.237485899999999;72.8280029296875;1673387643.172537;-50.18852996826172;13.199783325195312;-44.113922119140625
368;1673387643.319679;47.128776099999996;7.2374510999999995;72.79500579833984;1673387643.3641205;-48.282623291015625;13.056865692138672;-44.1065673828125
369;1673387643.5091293;47.1287978;7.2374158;72.7560043334961;1673387643.5516872;-45.250267028808594;12.688691139221191;-44.097476959228516
370;1673387643.7191398;47.1288197;7.237380099999999;72.72200012207031;1673387643.7626247;-44.554298400878906;12.95305061340332;-44.291404724121094
371;1673387643.9192967;47.1288418;7.2373442;72.7020034790039;1673387643.9618034;-45.38467788696289;13.46385669708252;-44.43275833129883
372;1673387644.1267867;47.128864;7.237308199999999;72.69300079345703;1673387644.1576483;-45.604217529296875;13.826322555541992;-44.373695373535156
373;1673387644.3235924;47.1288863;7.2372723;72.69200134277344;1673387644.3763173;-45.868202209472656;14.009183883666992;-44.34865951538086
374;1673387644.5334928;47.1289087;7.2372365;72.68800354003906;1673387644.5754478;-39.896217346191406;11.636214256286621;-42.6497688293457
375;1673387644.7266374;47.1289309;7.2372007;72.44000244140625;1673387644.7663016;-10.34719181060791;2.680379629135132;-38.500877380371094
376;1673387644.9316432;47.1289527;7.2371652;71.83399963378906;1673387644.974703;41.79347610473633;-11.852900505065918;-41.866634368896484
377;1673387645.1215525;47.1289745;7.2371298;70.82300567626953;1673387645.1606243;71.0527572631836;-145.2666473388672;-166.9607696533203
378;1673387645.3145306;47.1289964;7.2370943;69.43800354003906;1673387645.356561;29.707250595092773;-178.0737762451172;164.74951171875
379;1673387645.515407;47.1290179;7.2370589999999995;67.69800567626953;1673387645.5598962;14.44653034210205;177.62278747558594;161.51776123046875
380;1673387645.7095659;47.129039;7.237024;65.58000183105469;1673387645.7544913;25.933191299438477;176.19219970703125;158.19866943359375
381;1673387645.9117043;47.1290596;7.2369894;63.08200454711914;1673387645.9545124;66.81846618652344;170.3408966064453;149.3673095703125
382;1673387646.1113348;47.129080099999996;7.2369549;60.24700164794922;1673387646.153711;43.80555725097656;6.477797985076904;-18.42426109313965
383;1673387646.3155437;47.129100799999996;7.236920199999999;57.0260009765625;1673387646.3575623;-27.6002197265625;7.084640026092529;-25.161447525024414
384;1673387646.5256338;47.129121;7.236885699999999;53.40900421142578;1673387646.568691;-65.19354248046875;11.208491325378418;-30.255645751953125
385;1673387646.7244787;47.129140899999996;7.236851499999999;49.467002868652344;1673387646.7768788;-63.48814010620117;6.8140716552734375;-26.005592346191406
386;1673387646.936431;47.129160399999996;7.236817599999999;45.20900344848633;1673387646.9774802;-17.98096466064453;1.7398269176483154;-20.110048294067383
387;1673387647.1363647;47.1291794;7.2367840999999995;40.57400131225586;1673387647.179677;53.7363166809082;2.3595221042633057;-15.78376579284668
388;1673387647.342567;47.129198599999995;7.236750499999999;35.54800033569336;1673387647.3806608;73.76789855957031;168.45889282226562;151.5656280517578
389;1673387647.541726;47.1292178;7.236716899999999;30.21700096130371;1673387647.5849056;71.25518798828125;167.1337432861328;149.69100952148438
390;1673387647.7405975;47.1292368;7.2366833999999995;24.591001510620117;1673387647.7823231;58.151100158691406;9.019683837890625;-9.846085548400879
391;1673387647.9398825;47.129256;7.2366499;18.628000259399414;1673387647.9778726;-18.195350646972656;3.2299673557281494;-17.498605728149414
392;1673387648.1248775;47.1292749;7.236616499999999;12.268000602722168;1673387648.1699066;-62.994354248046875;1.3662841320037842;-18.049531936645508
393;1673387648.3274946;47.1292932;7.2365835;5.611000061035156;1673387648.367697;-47.472076416015625;0.954800546169281;-17.053451538085938
394;1673387648.526485;47.1293121;7.2365549;0.1980000138282776;1673387648.5667143;-26.51154327392578;-19.663652420043945;-16.352561950683594
395;1673387648.730546;47.1293401;7.236538599999999;0.5680000185966492;1673387648.7715774;-26.501161575317383;-0.0566914938390255;-41.30677032470703
396;1673387648.9416847;47.129368799999995;7.236523999999999;0.7250000238418579;1673387648.9832194;-25.70636558532715;0.9069343209266663;-40.634090423583984
397;1673387649.1539142;47.1293983;7.236509;0.800000011920929;1673387649.1917083;-25.596778869628906;-2.4145264625549316;-40.18521499633789
398;1673387649.3406057;47.129429599999995;7.2364925;0.8190000653266907;1673387649.3816478;-25.539775848388672;-3.0498900413513184;-40.000003814697266
399;1673387649.540641;47.1294624;7.2364745;0.8030000329017639;1673387649.5837376;-25.428218841552734;-4.408362865447998;-39.755767822265625
400;1673387649.726734;47.129496499999995;7.236455299999999;0.7830000519752502;1673387649.775757;-25.302244186401367;-5.428805828094482;-39.608577728271484
401;1673387649.9207356;47.1295314;7.236434999999999;0.7230000495910645;1673387649.968695;-25.0390625;-5.970760822296143;-39.615943908691406
402;1673387650.138671;47.1295673;7.2364137;0.6480000019073486;1673387650.1778612;-24.821491241455078;-6.122955322265625;-39.70746994018555
403;1673387650.338722;47.1296039;7.2363915;0.5630000233650208;1673387650.3798497;-24.638105392456055;-5.994771480560303;-39.87084197998047
404;1673387650.5649223;47.129641199999995;7.2363683;0.4700000286102295;1673387650.6155329;-24.37628746032715;-5.681570529937744;-40.028194427490234
405;1673387650.780777;47.1296793;7.236344;0.3710000216960907;1673387650.8227134;-24.179075241088867;-5.467711925506592;-40.16582107543945
406;1673387650.978749;47.1297182;7.236318799999999;0.26100000739097595;1673387651.0235724;-23.952280044555664;-5.176549911499023;-40.32266616821289
407;1673387651.1936333;47.1297578;7.2362926;0.13100001215934753;1673387651.2441225;-23.73633575439453;-4.892136573791504;-40.461708068847656
408;1673387651.3945546;47.1297978;7.236265599999999;0.012000000104308128;1673387651.43262;-23.540069580078125;-4.641295909881592;-40.592288970947266
409;1673387651.6025496;47.129838199999995;7.236237699999999;-0.09800000488758087;1673387651.6374793;-23.277198791503906;-4.320630073547363;-40.69267654418945
410;1673387651.783191;47.1298791;7.2362091;-0.2070000171661377;1673387651.8164499;-23.02846908569336;-4.071114540100098;-40.79757308959961
411;1673387651.9687192;47.129920299999995;7.2361797;-0.3140000104904175;1673387652.0116441;-22.768308639526367;-3.679436683654785;-40.91897201538086
412;1673387652.1748495;47.1299622;7.2361495;-0.4390000104904175;1673387652.2226048;-22.54735565185547;-3.42553448677063;-41.024658203125
413;1673387652.3706012;47.130004899999996;7.2361185;-0.5950000286102295;1673387652.4098887;-22.295303344726562;-3.107632875442505;-41.144989013671875
414;1673387652.555775;47.130047399999995;7.2360871;-0.718000054359436;1673387652.5996277;-22.000905990600586;-2.8821980953216553;-41.224151611328125
415;1673387652.7546592;47.130089899999994;7.2360554;-0.8230000138282776;1673387652.7908914;-21.694175720214844;-2.5758538246154785;-41.32164001464844
416;1673387652.9298134;47.1301324;7.236023299999999;-0.9080000519752502;1673387652.968714;-21.410036087036133;-2.345787286758423;-41.428749084472656
