;pos_time;latitude;longitude;altitude;alt_time;pitch;roll;yaw
0;1666336121.3232157;46.9755342;7.1803552999999996;-0.03800000250339508;1666336121.4775798;-0.2693710923194885;0.4028034210205078;90.84618377685547
1;1666336121.5380933;46.9755342;7.1803554;-0.03800000250339508;1666336121.6688766;-0.2050715833902359;0.36674565076828003;90.7634048461914
2;1666336121.7274354;46.9755342;7.1803554;-0.04000000283122063;1666336121.8660264;-0.2510570287704468;0.42200523614883423;90.68441772460938
3;1666336121.9392273;46.9755342;7.1803554;-0.036000002175569534;1666336122.0856283;-0.25375252962112427;0.5116028785705566;90.69171142578125
4;1666336122.1598048;46.9755342;7.1803554;-0.03200000151991844;1666336122.2993724;-0.27680981159210205;0.32947075366973877;90.89974212646484
5;1666336122.36574;46.9755342;7.1803554;-0.030000001192092896;1666336122.5072637;-0.29842719435691833;0.3834480941295624;90.89791107177734
6;1666336122.5736277;46.9755341;7.1803555;-0.029000001028180122;1666336122.7102697;-0.26378512382507324;0.4418581426143646;90.73321533203125
7;1666336122.7756612;46.9755342;7.1803555;-0.02800000086426735;1666336122.9083967;-0.3247385621070862;0.45604273676872253;90.70671844482422
8;1666336122.9923317;46.9755342;7.1803555;-0.02800000086426735;1666336123.1445885;-0.3815271854400635;0.36954253911972046;90.85124969482422
9;1666336123.1992462;46.9755342;7.1803555999999995;-0.027000000700354576;1666336123.3368604;-0.29296568036079407;0.4261118173599243;90.83811950683594
10;1666336123.3954222;46.9755342;7.1803557;-0.02500000037252903;1666336123.5388925;-0.248733252286911;0.48210301995277405;90.82260131835938
11;1666336123.6023326;46.9755342;7.1803557;-0.023000001907348633;1666336123.7370205;-0.16520348191261292;0.3864397704601288;90.77901458740234
12;1666336123.8024127;46.9755342;7.1803558;-0.021000001579523087;1666336123.9410057;-0.3819959759712219;0.31022676825523376;90.7622299194336
13;1666336124.0015175;46.9755343;7.1803558;0.0020000000949949026;1666336124.156701;-0.2884652316570282;0.4076036214828491;90.71356964111328
14;1666336124.2123349;46.9755343;7.1803558;0.006000000052154064;1666336124.3460455;-0.37830179929733276;0.4771983325481415;90.83173370361328
15;1666336124.4104624;46.9755343;7.1803558;0.009000000543892384;1666336124.5529573;-0.20650434494018555;0.38693666458129883;90.69999694824219
16;1666336124.6124938;46.9755343;7.1803558;0.010000000707805157;1666336124.7852454;-0.29336199164390564;0.49711665511131287;90.76507568359375
17;1666336124.8564959;46.9755343;7.1803558;0.009000000543892384;1666336124.9941096;-0.20377148687839508;0.40462183952331543;90.80133819580078
18;1666336125.0565765;46.9755343;7.1803557;0.003000000026077032;1666336125.2068782;-0.29077643156051636;0.35689443349838257;90.74331665039062
19;1666336125.2693434;46.9755342;7.1803557;0.0;1666336125.4089105;-0.30423858761787415;0.3609386086463928;90.79566955566406
20;1666336125.4625902;46.9755342;7.1803555999999995;0.0;1666336125.5968142;-0.3217754364013672;0.4556232690811157;90.70089721679688
21;1666336125.6602569;46.9755342;7.1803555999999995;0.0020000000949949026;1666336125.8212955;-0.2793406844139099;0.4322301745414734;90.60964965820312
22;1666336125.8798568;46.9755342;7.1803555999999995;0.004000000189989805;1666336126.0262568;-0.1641116589307785;0.32392022013664246;90.72098541259766
23;1666336126.09561;46.9755342;7.1803555999999995;0.005000000353902578;1666336126.2342007;0.2960163950920105;0.1792319118976593;90.80949401855469
24;1666336126.3025188;46.9755343;7.1803555999999995;0.01900000125169754;1666336126.4303753;0.5044639706611633;-0.8610082268714905;90.87413787841797
25;1666336126.4879608;46.9755343;7.1803555999999995;0.0560000017285347;1666336126.643143;0.012772239744663239;6.459029197692871;90.45774841308594
26;1666336126.7036552;46.9755343;7.1803555;0.1340000033378601;1666336126.8578637;0.5088538527488708;0.6681672930717468;91.46463012695312
27;1666336126.922282;46.975533999999996;7.1803555;0.23900000751018524;1666336127.0657518;1.2621921300888062;9.364331245422363;89.71632385253906
28;1666336127.1321201;46.9755337;7.1803554;0.3800000250339508;1666336127.2697372;1.997617244720459;-12.912818908691406;94.3165054321289
29;1666336127.3331773;46.9755335;7.180355199999999;0.5570000410079956;1666336127.4888752;0.3163975179195404;-5.533425331115723;92.78251647949219
30;1666336127.5552504;46.9755336;7.1803551;0.7350000143051147;1666336127.805107;-0.19263623654842377;-2.6799261569976807;86.57091522216797
31;1666336127.8636658;46.9755341;7.180354899999999;0.9670000672340393;1666336128.0028548;-0.15109726786613464;-0.07266241312026978;91.83528900146484
32;1666336128.063368;46.9755349;7.1803548;1.1980000734329224;1666336128.2059102;-0.4558042287826538;2.4008729457855225;93.49227905273438
33;1666336128.271301;46.9755355;7.1803547;1.471000075340271;1666336128.4074764;-1.0538986921310425;3.0849390029907227;82.44532012939453
34;1666336128.4826272;46.975536;7.1803547;1.7950000762939453;1666336128.6280537;-0.5609368085861206;1.922406554222107;86.16763305664062
35;1666336128.68466;46.975536299999995;7.1803547;2.0960001945495605;1666336128.8300831;-1.1644691228866577;2.32666277885437;89.16695404052734
36;1666336128.8935254;46.9755366;7.180354899999999;2.454000234603882;1666336129.039924;0.11305025964975357;2.910240888595581;80.37229919433594
37;1666336129.1101954;46.9755367;7.180355199999999;2.820000171661377;1666336129.2644074;1.1322872638702393;1.4257817268371582;81.8724594116211
38;1666336129.340532;46.9755367;7.1803554;3.2080001831054688;1666336129.4781494;0.2290508896112442;1.3561736345291138;86.53718566894531
39;1666336129.5435405;46.9755365;7.1803555;3.636000156402588;1666336129.6889646;1.0859473943710327;0.8220403790473938;77.80020904541016
40;1666336129.7475252;46.975536399999996;7.1803555999999995;4.069000244140625;1666336129.9017327;0.9017211198806763;0.804990828037262;79.16088104248047
41;1666336129.9573646;46.9755362;7.1803555999999995;4.49500036239624;1666336130.0930305;-0.05090153589844704;0.39385172724723816;84.37012481689453
42;1666336130.165253;46.9755361;7.1803555;4.952000141143799;1666336130.2989662;0.27030619978904724;0.7145376801490784;76.35115814208984
43;1666336130.3594766;46.9755359;7.1803555;5.380000114440918;1666336130.5156364;0.3254484534263611;0.02319396287202835;80.94774627685547
44;1666336130.5868855;46.975535799999996;7.1803555;5.805000305175781;1666336130.7479262;-0.19376002252101898;-0.16900378465652466;85.86988830566406
45;1666336130.809415;46.975535699999995;7.1803555;6.242000102996826;1666336130.9470308;0.3758683204650879;0.8754114508628845;76.85468292236328
46;1666336131.0114481;46.975535699999995;7.1803555;6.668000221252441;1666336131.148087;0.28161677718162537;0.37500137090682983;81.47987365722656
47;1666336131.2095733;46.9755356;7.1803555999999995;7.080000400543213;1666336131.3413334;-0.30827075242996216;0.06337884813547134;83.89093017578125
48;1666336131.4067307;46.9755356;7.1803555999999995;7.512000560760498;1666336131.546298;0.0636247992515564;0.9723167419433594;75.6781234741211
49;1666336131.636086;46.9755356;7.1803555999999995;7.944000244140625;1666336131.7571104;0.33214977383613586;0.4244076907634735;82.82225036621094
50;1666336131.8166463;46.9755355;7.1803555999999995;8.360000610351562;1666336131.9552398;0.040279146283864975;0.39309248328208923;83.12837982177734
51;1666336132.0167267;46.9755355;7.1803555999999995;8.78600025177002;1666336132.1641035;-0.33423376083374023;0.7685489058494568;76.18750762939453
52;1666336132.2265685;46.9755355;7.1803555999999995;9.21500015258789;1666336132.3612556;0.45995980501174927;0.4961923062801361;83.52738189697266
53;1666336132.4246953;46.9755354;7.1803557;9.633000373840332;1666336132.5915945;0.3693541884422302;0.578438937664032;80.4664535522461
54;1666336132.7750823;46.9755354;7.1803557;10.058000564575195;1666336132.9819922;0.08108936250209808;1.018903136253357;78.14492797851562
55;1666336133.0405557;46.9755353;7.1803557;10.515000343322754;1666336133.1986654;0.17924366891384125;0.5133422017097473;79.3944091796875
56;1666336133.259177;46.975535199999996;7.1803557;11.052000999450684;1666336133.3948412;0.2357703298330307;0.22700634598731995;87.73664093017578
57;1666336133.4592552;46.975535199999996;7.1803558;11.659000396728516;1666336133.596874;0.9495939016342163;0.4518633484840393;80.64466094970703
58;1666336133.6573842;46.975535099999995;7.1803557;12.265000343322754;1666336133.794025;0.16490384936332703;0.8009040355682373;80.73486328125
59;1666336133.849658;46.975535;7.1803557;12.87600040435791;1666336133.992153;-0.22278669476509094;0.004175624810159206;87.4745864868164
60;1666336134.0555944;46.975535;7.1803557;13.50200080871582;1666336134.1932113;0.03784904256463051;0.30715978145599365;80.65975952148438
61;1666336134.2546961;46.975535;7.1803557;14.088000297546387;1666336134.4040246;-0.22471016645431519;1.0633093118667603;77.76969909667969
62;1666336134.4664912;46.975535;7.1803557;14.690000534057617;1666336134.5982494;0.013155707158148289;0.10973718762397766;85.06693267822266
63;1666336134.6597369;46.975535;7.1803558;15.280000686645508;1666336134.804187;0.33909478783607483;0.4942985773086548;81.23320770263672
64;1666336134.8617685;46.975535;7.1803558999999995;15.86400032043457;1666336135.0179303;0.04892214015126228;1.0083743333816528;76.95830535888672
65;1666336135.0872283;46.975535;7.1803558999999995;16.463001251220703;1666336135.2355795;0.3212282955646515;0.1572737693786621;84.15425109863281
66;1666336135.295115;46.9755349;7.1803558999999995;17.051000595092773;1666336135.4376104;0.09231020510196686;0.24047474563121796;83.70759582519531
67;1666336135.4932432;46.9755349;7.1803558999999995;17.630001068115234;1666336135.6328096;0.11667405813932419;1.0155256986618042;76.65740203857422
68;1666336135.691371;46.9755349;7.1803558999999995;18.23000144958496;1666336135.8309386;0.2141217738389969;0.4308060109615326;82.6213150024414
69;1666336135.8924263;46.9755349;7.180356;18.796001434326172;1666336136.0466363;0.06226677447557449;0.027707414701581;84.55034637451172
70;1666336136.1032448;46.9755349;7.180356;19.380001068115234;1666336136.2525723;0.15319614112377167;0.7675586938858032;79.90890502929688
71;1666336136.316988;46.9755348;7.180356;19.951000213623047;1666336136.4741228;0.4067014157772064;0.5586750507354736;82.22532653808594
72;1666336136.5336635;46.9755348;7.1803561;20.5260009765625;1666336136.6742058;-0.16296683251857758;0.07941056042909622;85.46845245361328
73;1666336136.7405715;46.9755348;7.1803561;21.11800193786621;1666336136.8928285;0.3338431119918823;0.6156538724899292;78.89396667480469
74;1666336136.9494357;46.9755348;7.1803561;21.68000030517578;1666336137.096812;0.12557654082775116;0.7535790801048279;80.25772857666016
75;1666336137.1543956;46.9755348;7.180356199999999;22.253000259399414;1666336137.2851806;0.023045677691698074;0.1518690437078476;85.6611328125
76;1666336137.3456945;46.9755348;7.180356199999999;22.839000701904297;1666336137.5106392;0.5726611018180847;0.4222176671028137;81.61316680908203
77;1666336137.5672438;46.9755347;7.1803563;23.408000946044922;1666336137.7273076;0.30027449131011963;0.7198407649993896;75.88935852050781
78;1666336137.7848923;46.9755347;7.1803563;23.994001388549805;1666336137.9068923;0.5503821969032288;0.3628329038619995;82.71376037597656
79;1666336137.9761887;46.9755347;7.1803563;24.57400131225586;1666336138.1138055;0.20779350399971008;0.1706581860780716;83.44306182861328
80;1666336138.1821244;46.9755347;7.1803563;25.159000396728516;1666336138.3168128;0.23346611857414246;0.6497789025306702;76.31977844238281
81;1666336138.377326;46.975534599999996;7.1803563;25.75200080871582;1666336138.5276299;0.16190682351589203;0.47885915637016296;81.6203842163086
82;1666336138.58131;46.975534599999996;7.1803563;26.32000160217285;1666336138.7218568;-0.14185881614685059;-0.07689177989959717;85.41271209716797
83;1666336138.7911482;46.975534599999996;7.1803563;26.910001754760742;1666336138.9453578;0.44573935866355896;0.49547043442726135;79.61274719238281
84;1666336138.9902554;46.975534599999996;7.1803563;27.485000610351562;1666336139.1376297;0.3221423327922821;0.36922451853752136;80.96092224121094
85;1666336139.182525;46.975534599999996;7.1803563;28.055002212524414;1666336139.333805;0.029185444116592407;-0.1510641723871231;87.14700317382812
86;1666336139.3874857;46.975534499999995;7.1803563;28.6460018157959;1666336139.5381207;0.46046143770217896;0.425219863653183;82.07366180419922
87;1666336139.5849693;46.975534499999995;7.1803563;29.207000732421875;1666336139.8543468;0.12236802279949188;0.6059753894805908;79.39747619628906
88;1666336139.899243;46.975534499999995;7.1803563;29.792001724243164;1666336140.0563776;0.1130712702870369;-0.05784410238265991;85.57145690917969
89;1666336140.1051774;46.975534499999995;7.1803563;30.389001846313477;1666336140.263308;0.29403629899024963;0.23939673602581024;81.95538330078125
90;1666336140.3110497;46.975534599999996;7.1803564;30.974000930786133;1666336140.4701347;0.09305156767368317;0.7683035135269165;78.43275451660156
91;1666336140.5277193;46.975534599999996;7.1803564;31.56500244140625;1666336140.6799777;0.3953917622566223;0.30931931734085083;84.96713256835938
92;1666336140.7297528;46.975534599999996;7.1803564;32.15800094604492;1666336140.8800547;0.22157353162765503;-0.048882558941841125;84.0983657836914
93;1666336140.92788;46.975534599999996;7.1803564;32.73500061035156;1666336141.0791607;0.16132403910160065;0.7157610058784485;77.26905822753906
94;1666336141.1250348;46.975534599999996;7.1803563;33.3380012512207;1666336141.2724082;0.33922579884529114;0.3911486268043518;82.3589859008789
95;1666336141.3251116;46.975534599999996;7.1803563;33.90400314331055;1666336141.489081;-0.09231484681367874;-0.0706949308514595;85.49783325195312
96;1666336141.5369034;46.975534599999996;7.1803563;34.48400115966797;1666336141.6891596;0.25573500990867615;0.8335790038108826;79.08232879638672
97;1666336141.7379599;46.975534599999996;7.1803563;35.057003021240234;1666336141.881434;0.4282696843147278;0.5342608094215393;81.1801986694336
98;1666336141.9302318;46.9755347;7.1803563;35.634002685546875;1666336142.0863934;-0.008268987759947777;-0.11445622146129608;85.30113220214844
99;1666336142.1381228;46.975534599999996;7.1803563;36.224002838134766;1666336142.2972083;0.37526679039001465;0.4250539243221283;80.1130599975586
100;1666336142.3450346;46.9755347;7.1803563;36.797000885009766;1666336142.500216;0.2683188319206238;0.5609912872314453;79.63168334960938
101;1666336142.5460901;46.9755347;7.180356199999999;37.37800216674805;1666336142.6954217;0.06595443189144135;0.191716268658638;85.7450942993164
102;1666336142.7412896;46.9755347;7.180356199999999;37.97600173950195;1666336142.8906167;0.24503184854984283;0.4279744327068329;81.18223571777344
103;1666336142.9374688;46.9755347;7.180356199999999;38.55600357055664;1666336143.0906973;-0.009690357372164726;0.8670052289962769;78.02816009521484
104;1666336143.1531613;46.9755347;7.180356199999999;39.147003173828125;1666336143.301515;0.14378352463245392;0.2912546992301941;85.68357849121094
105;1666336143.3503132;46.9755347;7.180356199999999;39.74800109863281;1666336143.5084248;0.1958584040403366;0.3588004410266876;82.46780395507812
106;1666336143.5572293;46.9755347;7.180356199999999;40.310001373291016;1666336143.7104585;-0.14954987168312073;0.7727532386779785;76.77264404296875
107;1666336143.758283;46.9755347;7.180356199999999;40.906002044677734;1666336143.9115155;0.3413616716861725;0.4713464677333832;82.30123138427734
108;1666336143.9622674;46.9755347;7.180356199999999;41.483001708984375;1666336144.2140749;-0.007228085771203041;0.037645094096660614;83.80896759033203
109;1666336144.2687318;46.9755347;7.180356199999999;42.06700134277344;1666336144.4307487;0.02354470081627369;0.6729687452316284;77.2503890991211
110;1666336144.4746659;46.9755347;7.1803563;42.65400314331055;1666336144.6308281;0.5290791392326355;0.6404109597206116;81.96054077148438
111;1666336144.6835325;46.9755347;7.1803563;43.23400115966797;1666336144.8396919;-0.05692550167441368;0.11510119587182999;85.79295349121094
112;1666336144.8865397;46.9755347;7.1803563;43.816001892089844;1666336145.0387957;0.2553980052471161;0.6663818955421448;78.3009262084961
113;1666336145.0836928;46.975534599999996;7.1803563;44.406002044677734;1666336145.2242358;0.2092960774898529;0.48593688011169434;80.09947204589844
114;1666336145.2730358;46.975534599999996;7.1803563;44.98400115966797;1666336145.4262686;0.06658601015806198;0.20780371129512787;85.39788055419922
115;1666336145.474093;46.975534599999996;7.1803564;45.586002349853516;1666336145.6253731;0.34963512420654297;0.4616909325122833;80.76273345947266
116;1666336145.6712444;46.975534599999996;7.1803564;46.17000198364258;1666336145.8391163;0.09955952316522598;0.7022070288658142;76.04882049560547
117;1666336145.8957312;46.975534599999996;7.1803564;46.7650032043457;1666336146.0470052;0.4950878918170929;0.48523828387260437;81.51750183105469
118;1666336146.0958061;46.975534599999996;7.1803564;47.35100173950195;1666336146.246109;-0.036276791244745255;0.26571276783943176;85.18438720703125
119;1666336146.292958;46.975534499999995;7.1803564;47.93600082397461;1666336146.453997;0.10392172634601593;0.6309802532196045;80.02664184570312
120;1666336146.5067012;46.975534499999995;7.1803564;48.53200149536133;1666336146.663837;0.23364786803722382;0.7289636731147766;80.77259826660156
121;1666336146.7106853;46.975534499999995;7.180356499999999;49.10700225830078;1666336146.958589;0.08067509531974792;0.28499922156333923;87.12403869628906
122;1666336147.007391;46.975534499999995;7.180356499999999;49.689002990722656;1666336147.1547654;0.40735098719596863;-0.00042803151882253587;82.58346557617188
123;1666336147.2025886;46.9755344;7.180356499999999;50.26100158691406;1666336147.3597255;0.03582965210080147;0.9304015040397644;78.02252197265625
124;1666336147.4085262;46.975534499999995;7.180356499999999;50.84300231933594;1666336147.5588317;0.09648504108190536;0.4907197058200836;84.71855926513672
125;1666336147.6144612;46.9755344;7.180356499999999;51.426002502441406;1666336147.7618382;0.036153387278318405;0.08986359089612961;84.07896423339844
126;1666336147.8155184;46.9755344;7.180356499999999;51.98800277709961;1666336147.9677737;0.09190260618925095;0.8240975141525269;78.0286636352539
127;1666336148.0165746;46.9755344;7.1803566;52.58100128173828;1666336148.1737106;0.2264709770679474;0.3845534324645996;82.94628143310547
128;1666336148.2244616;46.9755344;7.1803566;53.150001525878906;1666336148.3757424;-0.06442242860794067;-0.09324182569980621;86.18516540527344
129;1666336148.4323497;46.9755343;7.1803566;53.73100280761719;1666336148.588512;0.369366317987442;0.5472486615180969;79.318603515625
130;1666336148.634382;46.9755343;7.1803567;54.30900192260742;1666336148.7710226;0.37120071053504944;0.3882671892642975;80.92255401611328
131;1666336148.8207996;46.9755343;7.1803566;54.87300109863281;1666336148.9662237;-0.2058781385421753;-0.1549946814775467;86.01909637451172
132;1666336149.0189264;46.9755343;7.1803566;55.474002838134766;1666336149.2726865;0.1546793282032013;0.532734215259552;76.82250213623047
133;1666336149.3205116;46.9755343;7.180356499999999;56.01000213623047;1666336149.477647;-0.3569716215133667;0.2655242085456848;79.8850326538086
134;1666336149.526453;46.9755343;7.180356499999999;56.4530029296875;1666336149.6816328;-0.31521716713905334;0.6976214051246643;81.24351501464844
135;1666336149.727505;46.9755343;7.180356499999999;56.8280029296875;1666336149.8817134;0.07697702199220657;0.6151360869407654;82.0702133178711
136;1666336149.9295354;46.9755344;7.180356499999999;57.14400100708008;1666336150.0876486;0.27830228209495544;0.10260899364948273;82.45789337158203
137;1666336150.139378;46.9755343;7.1803566;57.40900421142578;1666336150.2935834;0.3880881071090698;-0.12174691259860992;82.31684875488281
138;1666336150.340432;46.9755343;7.180356499999999;57.634002685546875;1666336150.4917138;0.27955925464630127;1.877655029296875;82.07552337646484
139;1666336150.5385597;46.9755343;7.1803564;57.83000183105469;1666336150.6927698;0.26916539669036865;1.6603350639343262;82.33211517333984
140;1666336150.7454722;46.9755343;7.1803564;57.99700164794922;1666336150.9035854;-0.09668297320604324;-2.290022373199463;82.62532043457031
141;1666336150.9543386;46.9755341;7.1803563;58.138004302978516;1666336151.1144001;-0.24568700790405273;0.606463611125946;82.45406341552734
142;1666336151.1661294;46.9755341;7.180356199999999;58.25700378417969;1666336151.3125288;3.350843667984009;-12.865248680114746;78.63345336914062
143;1666336151.3613303;46.9755343;7.180356;58.37200164794922;1666336151.5262733;16.07879638671875;-33.665557861328125;71.24311828613281
144;1666336151.5750735;46.9755356;7.1803547;58.5160026550293;1666336151.7283065;18.18494987487793;-50.16263961791992;59.435333251953125
145;1666336151.785889;46.9755385;7.180351099999999;58.63500213623047;1666336151.934241;14.132383346557617;-53.00307846069336;51.374900817871094
146;1666336151.9840174;46.9755439;7.1803436;58.7650032043457;1666336152.1343222;-6.08420467376709;-58.01740646362305;38.0572395324707
147;1666336152.1919098;46.9755511;7.1803325;58.86100387573242;1666336152.3412347;-25.815027236938477;-48.788597106933594;20.298152923583984
148;1666336152.3919876;46.9755599;7.180318499999999;58.945003509521484;1666336152.5413136;-39.697052001953125;-26.879716873168945;-2.022056818008423
149;1666336152.5881612;46.975569899999996;7.1803025;59.02700424194336;1666336152.7482271;-34.811561584472656;-19.307178497314453;-11.891746520996094
150;1666336152.7950766;46.9755806;7.180285899999999;59.10600280761719;1666336152.9746585;-39.660888671875;-18.849058151245117;-21.51963233947754
151;1666336153.0263867;46.9755914;7.1802692;59.14200210571289;1666336153.1952348;-35.989540100097656;-7.493731498718262;-30.042516708374023
152;1666336153.2313552;46.9756024;7.180251999999999;59.173004150390625;1666336153.4070275;-41.07407760620117;-2.7283554077148438;-30.375242233276367
153;1666336153.4441159;46.975613499999994;7.180234899999999;59.215003967285156;1666336153.605155;-39.02535629272461;-6.942636013031006;-17.58998680114746
154;1666336153.6432207;46.975625;7.1802185;59.22500228881836;1666336153.8071885;-42.21469497680664;-20.110645294189453;-3.528254508972168
155;1666336153.8481789;46.975637;7.1802028;59.24500274658203;1666336154.0131233;-40.26738357543945;-26.035737991333008;7.760961055755615
156;1666336154.0472858;46.9756496;7.180187399999999;59.256004333496094;1666336154.213204;-38.713409423828125;-42.149696350097656;23.807939529418945
157;1666336154.247363;46.9756632;7.180172;59.27100372314453;1666336154.410355;-28.53461265563965;-50.57798385620117;41.68730926513672
158;1666336154.447446;46.9756777;7.1801565;59.255001068115234;1666336154.610439;-13.439887046813965;-53.90199279785156;59.61875915527344
159;1666336154.647524;46.975693799999995;7.180141099999999;59.24200439453125;1666336154.8114915;-4.983974456787109;-43.65261459350586;59.95903015136719
160;1666336154.850532;46.9757107;7.1801261;59.237003326416016;1666336155.0154786;4.013290882110596;-47.04032897949219;54.596405029296875
161;1666336155.0535426;46.9757278;7.1801112;59.2390022277832;1666336155.2341018;4.731395721435547;-45.8255729675293;42.90733337402344
162;1666336155.2721665;46.9757446;7.180095499999999;59.246002197265625;1666336155.4293017;-1.3341059684753418;-48.2227668762207;30.79461669921875
163;1666336155.4663885;46.975760799999996;7.1800783;59.2760009765625;1666336155.6313338;-11.537931442260742;-49.851768493652344;17.89183807373047
164;1666336155.6674454;46.9757761;7.180059699999999;59.28300094604492;1666336155.8294618;-26.406047821044922;-40.0105094909668;-3.3048770427703857
165;1666336155.8655741;46.975790599999996;7.1800396;59.28900146484375;1666336156.0295408;-37.899932861328125;-29.590856552124023;-30.4903621673584
166;1666336156.072485;46.975804;7.180018;59.3180046081543;1666336156.237429;-38.487548828125;-6.743914604187012;-43.906795501708984
167;1666336156.2872057;46.9758163;7.1799956;59.33700180053711;1666336156.4501994;-39.9543342590332;2.3044726848602295;-42.48514175415039
168;1666336156.493143;46.975828199999995;7.179973899999999;59.349002838134766;1666336156.6580853;-40.81407165527344;7.007830619812012;-49.603431701660156
169;1666336156.6912744;46.9758402;7.179952999999999;59.38200378417969;1666336156.864998;-40.44344711303711;16.568225860595703;-51.47859191894531
170;1666336156.904039;46.975852499999995;7.1799328;59.415000915527344;1666336157.0709338;-42.52857208251953;13.394587516784668;-37.42273712158203
171;1666336157.1041186;46.975865299999995;7.179913999999999;59.40800094604492;1666336157.267111;-47.13277816772461;0.2368604689836502;-23.18030548095703
172;1666336157.307127;46.9758788;7.1798968;59.4010009765625;1666336157.474999;-49.441001892089844;-5.17814826965332;-15.24170970916748
173;1666336157.5111103;46.975893;7.179880799999999;59.37400436401367;1666336157.681917;-44.35538101196289;-15.25008487701416;1.488244891166687
174;1666336157.7189999;46.975907799999995;7.1798658;59.31200408935547;1666336157.8732069;-31.691858291625977;-20.66103172302246;10.38166332244873
175;1666336157.9102957;46.975922999999995;7.1798516999999995;59.25800323486328;1666336158.0869527;-14.086471557617188;-9.099101066589355;13.457942008972168
176;1666336158.1279447;46.975937599999995;7.1798388;59.19600296020508;1666336158.296793;1.590935230255127;-9.06911849975586;17.522178649902344
177;1666336158.3407109;46.9759508;7.1798272;59.13900375366211;1666336158.5076075;10.144929885864258;-17.516040802001953;7.9037766456604
178;1666336158.5437212;46.9759618;7.1798166;59.09700393676758;1666336158.7106168;5.775716304779053;-35.924747467041016;-5.785923004150391
179;1666336158.751608;46.9759707;7.179805999999999;59.0680046081543;1666336158.9058175;-17.404996871948242;-40.081485748291016;-19.772865295410156
180;1666336158.9409552;46.9759774;7.1797939;59.053001403808594;1666336159.0971143;-39.42989730834961;-26.045738220214844;-28.808582305908203
181;1666336159.1312714;46.975983;7.1797794999999995;59.08100128173828;1666336159.2893856;-53.76244354248047;-0.13567154109477997;-41.32173538208008
182;1666336159.3362343;46.9759891;7.1797638;59.10600280761719;1666336159.4972777;-59.828697204589844;4.836071491241455;-36.46095657348633
183;1666336159.5392427;46.9759974;7.179747;59.14400100708008;1666336159.7178502;-60.924560546875;-1.6050995588302612;-19.382373809814453
184;1666336159.7529848;46.976008;7.179729999999999;59.14900207519531;1666336159.907193;-56.80870056152344;-0.8519716262817383;-16.621313095092773
185;1666336159.9433048;46.9760213;7.1797137;59.15400314331055;1666336160.1092262;-48.31309509277344;-8.080556869506836;0.11074062436819077
186;1666336160.1433852;46.9760363;7.1796985;59.15400314331055;1666336160.400075;-42.113685607910156;-7.410339832305908;11.256284713745117
187;1666336160.5357368;46.976051999999996;7.1796853;59.12900161743164;1666336160.7016582;-32.63125228881836;-4.422696113586426;23.061925888061523
188;1666336160.738747;46.9760679;7.179674299999999;59.10100173950195;1666336160.9085715;-17.891510009765625;8.859054565429688;31.105344772338867
189;1666336160.950539;46.976082899999994;7.1796659;59.05400466918945;1666336161.1057227;3.998556137084961;7.246621131896973;34.60105895996094
190;1666336161.144762;46.976096;7.179659699999999;59.00800323486328;1666336161.3165405;18.86958885192871;-4.974365234375;13.173491477966309
191;1666336161.3536274;46.9761065;7.1796548;58.971004486083984;1666336161.514667;26.929271697998047;-20.45986557006836;3.4478471279144287
192;1666336161.5537064;46.976113999999995;7.17965;58.961002349853516;1666336161.7284105;10.161811828613281;-43.94390869140625;-5.320497989654541
193;1666336161.7742853;46.976118899999996;7.1796438;58.96000289916992;1666336162.0280428;-20.057830810546875;-50.6755256652832;-20.433448791503906
194;1666336162.0641556;46.9761217;7.1796343;58.93400192260742;1666336162.2222667;-35.00807189941406;-28.115280151367188;-32.84088134765625
195;1666336162.2603312;46.9761239;7.179621699999999;58.9160041809082;1666336162.4574838;-43.30509948730469;5.631510257720947;-45.655941009521484
196;1666336162.4965243;46.9761265;7.1796074999999995;58.91200256347656;1666336162.666348;-53.00076675415039;9.997119903564453;-45.21573257446289
197;1666336162.70246;46.976131099999996;7.1795925;58.95700454711914;1666336162.883997;-56.53220748901367;12.184976577758789;-39.38848114013672
198;1666336162.9152305;46.976138399999996;7.179577399999999;58.99800109863281;1666336163.096765;-56.59580993652344;6.023233413696289;-31.299680709838867
199;1666336163.133853;46.9761485;7.179562799999999;59.0410041809082;1666336163.2978194;-54.30289077758789;-0.15271803736686707;-24.21782684326172
200;1666336163.3339336;46.976161;7.1795487;59.077003479003906;1666336163.5047321;-46.011539459228516;1.3356693983078003;-15.385746002197266
201;1666336163.5379176;46.9761751;7.1795355;59.10700225830078;1666336163.7038379;-44.27836227416992;-5.166085243225098;-3.8973262310028076
202;1666336163.7448301;46.976189999999995;7.1795238999999995;59.13600158691406;1666336163.9078197;-44.797481536865234;-9.978915214538574;-3.9561054706573486
203;1666336163.943933;46.9762056;7.1795136;59.16100311279297;1666336164.1079;-45.766902923583984;-7.863380432128906;-24.80499267578125
204;1666336164.1440153;46.976221699999996;7.1795034;59.19200134277344;1666336164.3040776;-42.25587844848633;-10.441710472106934;-27.198686599731445
205;1666336164.3411648;46.9762378;7.179492499999999;59.221004486083984;1666336164.510014;-42.12339401245117;-15.20556640625;-35.506744384765625
206;1666336164.5441728;46.976253299999996;7.1794803;59.2390022277832;1666336164.7110686;-43.29826736450195;0.6693196296691895;-50.81507873535156
207;1666336164.7471828;46.9762682;7.179466799999999;59.24700164794922;1666336164.913103;-37.19376754760742;9.131609916687012;-54.261268615722656
208;1666336164.9521444;46.9762827;7.1794527;59.22700119018555;1666336165.111229;-25.873483657836914;8.71187686920166;-58.14780044555664
209;1666336165.150275;46.9762967;7.1794386999999995;59.19400405883789;1666336165.3113105;-11.726903915405273;-7.604796409606934;-61.13066101074219
210;1666336165.3464513;46.9763094;7.1794253999999995;59.130001068115234;1666336165.5133433;-2.5894057750701904;-26.609365463256836;-75.41287994384766
211;1666336165.5533605;46.9763198;7.1794132;59.05600357055664;1666336165.7085414;-1.429633378982544;-44.15583801269531;-88.22991180419922
212;1666336165.7495341;46.9763266;7.1794025999999995;58.9890022277832;1666336165.9066706;-3.239575147628784;-44.831886291503906;-97.73899841308594
213;1666336165.9427838;46.976329;7.179394299999999;58.92500305175781;1666336166.1204164;-9.38648796081543;-32.31319808959961;-108.14496612548828
214;1666336166.1594577;46.976327999999995;7.1793876999999995;58.90800094604492;1666336166.320495;-23.208959579467773;-19.505868911743164;-119.08137512207031
215;1666336166.3663678;46.9763251;7.1793821;58.91200256347656;1666336166.5410724;-21.01415252685547;4.174345016479492;-122.26970672607422
216;1666336166.58304;46.9763212;7.1793765;58.91400146484375;1666336166.7577436;-5.167003154754639;31.79491424560547;-113.39361572265625
217;1666336166.8065429;46.976317599999994;7.1793701;58.935001373291016;1666336166.9636796;3.495793104171753;42.0528450012207;-102.23186492919922
218;1666336167.0076003;46.976316499999996;7.179364199999999;58.954002380371094;1666336167.168641;-9.348965644836426;43.39427185058594;-90.92005157470703
219;1666336167.2076805;46.9763186;7.1793583;58.9890022277832;1666336167.3687196;-18.986745834350586;42.950008392333984;-79.30763244628906
220;1666336167.4106872;46.976323;7.179353;59.00100326538086;1666336167.5687995;-24.910398483276367;36.85172653198242;-61.365394592285156
221;1666336167.6127222;46.976329899999996;7.1793482;59.03200149536133;1666336167.778641;-21.50571632385254;27.405742645263672;-55.87811279296875
222;1666336167.8157299;46.9763381;7.1793441;59.044002532958984;1666336167.976768;-19.325063705444336;18.484424591064453;-47.77931594848633
223;1666336168.0158086;46.9763471;7.1793407;59.044002532958984;1666336168.1797779;-13.419882774353027;8.249284744262695;-37.616764068603516
224;1666336168.2168658;46.9763562;7.1793378;59.0260009765625;1666336168.3808322;-0.8028133511543274;-11.900677680969238;-38.73986053466797
225;1666336168.4228017;46.9763644;7.179335099999999;58.98600387573242;1666336168.6804652;9.848356246948242;-23.6707706451416;-42.69770812988281
226;1666336168.7165782;46.9763707;7.179332199999999;58.958003997802734;1666336168.8785937;16.76273536682129;-28.81926727294922;-52.67967224121094
227;1666336168.9147062;46.9763745;7.1793292;58.941001892089844;1666336169.0894094;14.661935806274414;-40.46061706542969;-56.31162643432617
228;1666336169.1284587;46.9763756;7.179326;58.94400405883789;1666336169.2904665;-8.639296531677246;-36.84203338623047;-69.0499267578125
229;1666336169.330484;46.976374;7.1793219;58.94700241088867;1666336169.4885945;-14.268165588378906;-32.09584045410156;-70.73698425292969
230;1666336169.5315397;46.9763709;7.179316999999999;58.96900177001953;1666336169.6857474;-9.17784595489502;-20.995079040527344;-60.80619812011719
231;1666336169.726738;46.9763668;7.179310999999999;58.96000289916992;1666336169.8994908;-9.394916534423828;3.729783773422241;-49.176727294921875
232;1666336169.9365776;46.9763628;7.1793046;58.939002990722656;1666336170.1112816;-22.95842170715332;22.52474594116211;-39.53497314453125
233;1666336170.1522748;46.9763601;7.1792989;58.919002532958984;1666336170.3191717;-24.161909103393555;27.975555419921875;-28.513412475585938
234;1666336170.3562584;46.9763594;7.1792947;58.89600372314453;1666336170.6256366;-10.752457618713379;45.09336853027344;-21.62626838684082
235;1666336170.6588204;46.976360899999996;7.179293299999999;58.9010009765625;1666336170.814002;-7.438985824584961;32.23661804199219;-10.23896312713623
236;1666336170.8501165;46.9763635;7.1792951;58.89400100708008;1666336171.0199394;-8.675086975097656;17.489810943603516;1.4945868253707886
237;1666336171.056053;46.9763667;7.1792995;58.913002014160156;1666336171.2268522;-9.007434844970703;13.167279243469238;1.143521785736084
238;1666336171.263942;46.9763697;7.1793046;58.90900421142578;1666336171.5225792;-13.982264518737793;-1.6481828689575195;-7.970535755157471
239;1666336171.5655258;46.9763727;7.1793095;58.89600372314453;1666336171.7324219;-20.403059005737305;-19.967008590698242;-21.640472412109375
240;1666336171.77146;46.976375999999995;7.1793133;58.8910026550293;1666336171.9334772;-24.129283905029297;-26.732263565063477;-33.29259490966797
241;1666336171.9705644;46.9763792;7.179314199999999;58.87300109863281;1666336172.1394124;-35.523380279541016;-12.253291130065918;-43.409629821777344
242;1666336172.1755273;46.976382099999995;7.1793121;58.87700271606445;1666336172.3346136;-39.30238342285156;-6.954930305480957;-46.1660041809082
243;1666336172.3707254;46.976385799999996;7.179307;58.91400146484375;1666336172.5278616;-43.20785140991211;5.528895854949951;-55.500911712646484
244;1666336172.563972;46.9763902;7.1792997;58.97600173950195;1666336172.7298944;-48.29745864868164;4.22901725769043;-47.55241394042969
245;1666336172.7679558;46.976396199999996;7.17929;59.05800247192383;1666336172.9348536;-49.87601089477539;0.3201715350151062;-42.34852600097656
246;1666336172.9699903;46.976403499999996;7.179278699999999;59.09400177001953;1666336173.13591;-46.98442459106445;6.258410930633545;-48.46290588378906
247;1666336173.1729977;46.9764127;7.1792652;59.137001037597656;1666336173.332085;-41.90494918823242;4.517371654510498;-43.74994659423828
248;1666336173.3769805;46.9764221;7.179252;59.1510009765625;1666336173.5350955;-36.96209716796875;4.767243385314941;-38.47547149658203
249;1666336173.5702295;46.976432599999995;7.179238;59.17000198364258;1666336173.7312698;-34.45571517944336;2.577092409133911;-40.639225006103516
250;1666336173.774213;46.9764433;7.1792244;59.15800094604492;1666336173.9430635;-31.22792625427246;-1.378282070159912;-42.94361877441406
251;1666336173.9791799;46.976453899999996;7.1792112999999995;59.11700439453125;1666336174.140216;-25.283653259277344;-4.940753936767578;-44.27361297607422
252;1666336174.1782796;46.976464;7.1791985;59.07100296020508;1666336174.336391;-18.340940475463867;1.991624116897583;-44.2679443359375
253;1666336174.3744555;46.976473399999996;7.1791863;59.013004302978516;1666336174.5452547;-12.837705612182617;3.3593924045562744;-43.14116287231445
254;1666336174.5872226;46.9764823;7.179174799999999;58.948001861572266;1666336174.7463114;-9.087660789489746;-0.4138987958431244;-43.194923400878906
255;1666336174.7833984;46.9764899;7.1791652;58.89400100708008;1666336174.9424908;-3.747680187225342;-3.159616470336914;-42.60447692871094
256;1666336174.977622;46.976496499999996;7.1791567;58.85900115966797;1666336175.147446;2.0515329837799072;-1.6498608589172363;-43.23424530029297
257;1666336175.1894162;46.9765018;7.1791497;58.836002349853516;1666336175.352406;6.930509090423584;-0.7974713444709778;-43.75164794921875
258;1666336175.3885212;46.976506099999995;7.179143799999999;58.82200241088867;1666336175.5524888;8.842550277709961;-0.998782753944397;-43.59828186035156
259;1666336175.5905514;46.9765093;7.1791393;58.811004638671875;1666336175.7633045;9.640195846557617;-0.12959523499011993;-42.1314582824707
260;1666336175.8043;46.976511599999995;7.179136;58.79600143432617;1666336175.9663126;8.41393756866455;4.028495788574219;-43.107845306396484
261;1666336176.003401;46.9765131;7.1791339;58.78900146484375;1666336176.1644418;8.021223068237305;0.5079872608184814;-42.573272705078125
262;1666336176.1995776;46.976514099999996;7.1791328;58.77900314331055;1666336176.3664718;6.172961711883545;-0.052801713347435;-43.12525177001953
263;1666336176.3996577;46.976514599999994;7.1791323;58.77300262451172;1666336176.561672;3.672520875930786;0.11442716419696808;-43.05585861206055
264;1666336176.5968094;46.9765149;7.1791322;58.77000427246094;1666336176.7666326;-1.7161664962768555;-1.4006719589233398;-43.09748840332031
265;1666336176.8066533;46.9765151;7.1791320999999995;58.775001525878906;1666336176.9813535;-12.658869743347168;-1.4773396253585815;-45.85132598876953
266;1666336177.0174646;46.976515299999996;7.1791317;58.78700256347656;1666336177.1931462;-31.348493576049805;3.4191064834594727;-49.955650329589844
267;1666336177.23219;46.9765161;7.1791301999999995;58.82600402832031;1666336177.3990803;-50.12565994262695;2.9712371826171875;-52.60359191894531
268;1666336177.4381208;46.976518299999995;7.1791269;58.884002685546875;1666336177.6089215;-56.879669189453125;-8.46015453338623;-44.32501220703125
269;1666336177.6430843;46.9765224;7.1791201;58.94900131225586;1666336177.8109553;-57.55696105957031;-0.2745622396469116;-50.972042083740234
270;1666336177.8490174;46.9765284;7.1791095;58.99900436401367;1666336178.003227;-55.45357131958008;5.692568302154541;-57.54826736450195
271;1666336178.0403194;46.976535999999996;7.1790956999999995;59.03900146484375;1666336178.2072115;-52.955039978027344;-2.5559723377227783;-44.95378875732422
272;1666336178.2423453;46.976545699999996;7.1790788;59.08500289916992;1666336178.401434;-47.89175033569336;-0.29710230231285095;-45.58298873901367
273;1666336178.4404755;46.976555499999996;7.1790617;59.118003845214844;1666336178.6268902;-41.1278190612793;1.4563766717910767;-52.06047058105469
274;1666336178.663978;46.976566399999996;7.1790432;59.165000915527344;1666336178.8181858;-38.424659729003906;0.1296856850385666;-49.3891716003418
275;1666336178.8591785;46.9765778;7.1790237999999995;59.20000457763672;1666336179.0133877;-38.869468688964844;-3.0160412788391113;-47.404632568359375
276;1666336179.0543785;46.976588299999996;7.179005999999999;59.233001708984375;1666336179.2154183;-40.0164909362793;0.6927272081375122;-51.521427154541016
277;1666336179.260315;46.9765991;7.1789874;59.26000213623047;1666336179.4242823;-38.81897735595703;-0.9231358766555786;-49.18216323852539
278;1666336179.4613717;46.9766099;7.1789689;59.27300262451172;1666336179.6331465;-41.29695129394531;-2.200218439102173;-46.48176574707031
279;1666336179.6682858;46.9766206;7.1789502999999995;59.302001953125;1666336179.8322513;-41.6746711730957;2.1560254096984863;-52.04887008666992
280;1666336179.8693404;46.9766313;7.1789317;59.31500244140625;1666336180.0381877;-40.92488098144531;0.32081717252731323;-50.49380111694336
281;1666336180.0752752;46.9766421;7.178913;59.323001861572266;1666336180.2382698;-44.0850944519043;-1.4637376070022583;-47.11126708984375
282;1666336180.280237;46.9766534;7.1788935;59.340003967285156;1666336180.446159;-42.93960189819336;3.6552352905273438;-53.35871505737305
283;1666336180.4871483;46.976664;7.178875199999999;59.345001220703125;1666336180.6413558;-41.547786712646484;2.1801180839538574;-52.914241790771484
284;1666336180.6784446;46.9766751;7.178856199999999;59.34100341796875;1666336180.8346055;-43.352073669433594;-0.6684731245040894;-47.73369598388672
285;1666336180.8707163;46.9766864;7.178836899999999;59.355003356933594;1666336181.038589;-43.4683952331543;0.7713245153427124;-49.8990592956543
286;1666336181.0805597;46.9766978;7.1788177;59.346004486083984;1666336181.2494044;-42.79058837890625;0.8879379034042358;-50.43479537963867
287;1666336181.2913728;46.976709199999995;7.178798199999999;59.34300231933594;1666336181.4504628;-45.62488555908203;0.5753969550132751;-50.98898696899414
288;1666336181.4875515;46.976720799999995;7.1787787;59.3380012512207;1666336181.6593275;-43.88053894042969;1.2903947830200195;-50.111961364746094
289;1666336181.6954381;46.9767325;7.1787588;59.33000183105469;1666336181.8633142;-43.12862014770508;1.7227132320404053;-52.52300262451172
290;1666336181.898445;46.9767443;7.178738699999999;59.33400344848633;1666336182.0653412;-45.02015686035156;1.4257018566131592;-52.22954177856445
291;1666336182.1082857;46.976755999999995;7.1787185;59.327003479003906;1666336182.2732294;-43.85514450073242;1.6160032749176025;-50.400516510009766
292;1666336182.3093426;46.9767684;7.1786971;59.32600402832031;1666336182.476238;-43.301265716552734;3.0327141284942627;-52.82722473144531
293;1666336182.5143023;46.9767799;7.1786774;59.32400131225586;1666336182.6704617;-41.23850631713867;3.1288442611694336;-52.015106201171875
294;1666336182.7153597;46.9767918;7.1786571;59.29500198364258;1666336182.8803036;-39.50578308105469;0.0642266497015953;-50.09359359741211
295;1666336182.9232476;46.9768036;7.1786370999999995;59.27100372314453;1666336183.0940504;-38.53030014038086;1.1630311012268066;-51.68099594116211
296;1666336183.1389425;46.976815099999996;7.1786176;59.2400016784668;1666336183.4092953;-36.54637145996094;0.6835981607437134;-51.198997497558594
297;1666336183.4415045;46.9768262;7.1785986;59.19200134277344;1666336183.5986385;-33.86925506591797;0.6039045453071594;-50.976837158203125
298;1666336183.6396313;46.976836999999996;7.1785802;59.14600372314453;1666336183.802624;-29.59226417541504;0.8362424373626709;-50.929649353027344
299;1666336183.839714;46.976847299999996;7.1785625;59.10200119018555;1666336183.9997776;-23.890504837036133;0.1961929053068161;-50.49714660644531
300;1666336184.037842;46.9768571;7.1785459;59.060001373291016;1666336184.2047355;-17.091211318969727;0.0959014892578125;-50.23930740356445
301;1666336184.2506077;46.976866;7.178530599999999;59.01900100708008;1666336184.41653;-10.162842750549316;0.24773521721363068;-50.14472579956055
302;1666336184.4516628;46.976874099999996;7.1785168;58.97700119018555;1666336184.6244164;-3.453434705734253;-0.4566156268119812;-50.081722259521484
303;1666336184.6654074;46.976881;7.1785049;58.941001892089844;1666336184.8303533;1.922881007194519;-0.45086637139320374;-50.006683349609375
304;1666336184.8674414;46.976886799999996;7.178495;58.90800094604492;1666336185.03824;5.120678901672363;0.4948439300060272;-49.93006134033203
305;1666336185.1729286;46.976891599999995;7.1784868;58.88600158691406;1666336185.339825;6.690152168273926;0.9667147397994995;-49.524837493896484
306;1666336185.3798418;46.976895;7.1784808;58.88500213623047;1666336185.5408804;6.305173873901367;1.752174735069275;-49.630794525146484
307;1666336185.580897;46.976897699999995;7.1784761999999995;58.88900375366211;1666336185.7565773;4.231586456298828;0.1659330129623413;-49.66386032104492
308;1666336185.7936664;46.9768998;7.1784728;58.893001556396484;1666336185.9586093;1.4381626844406128;-0.8727515339851379;-49.61244201660156
309;1666336186.001553;46.976901299999994;7.1784702;58.89600372314453;1666336186.1538105;-1.1297328472137451;-0.7193502187728882;-49.5428581237793
310;1666336186.1908987;46.9769024;7.1784681;58.89400100708008;1666336186.3548682;-3.4477741718292236;0.3577001094818115;-49.28937911987305
311;1666336186.3900042;46.9769034;7.1784664;58.89800262451172;1666336186.5529954;-4.164884567260742;-1.0332040786743164;-48.420101165771484
312;1666336186.5920377;46.9769042;7.178464699999999;58.900001525878906;1666336186.7540498;-2.4483590126037598;1.1813089847564697;-47.87248992919922
313;1666336186.7911403;46.976904999999995;7.1784631999999995;58.90400314331055;1666336186.9502277;-0.5115103721618652;0.7907922863960266;-47.21242904663086
314;1666336186.9912174;46.976905699999996;7.1784618;58.910003662109375;1666336187.1561646;-1.1844522953033447;0.4477183520793915;-47.00299835205078
315;1666336187.19911;46.9769065;7.1784607;58.913002014160156;1666336187.3620985;-1.8141124248504639;0.5638991594314575;-46.93622589111328
316;1666336187.4089527;46.9769071;7.1784596;58.90900421142578;1666336187.5621834;-3.1738364696502686;0.4212360382080078;-47.025028228759766
317;1666336187.603173;46.9769078;7.1784585;58.90300369262695;1666336187.7856846;-3.562398910522461;0.286294162273407;-47.101200103759766
318;1666336187.817893;46.976908599999994;7.1784574;58.8900032043457;1666336187.9808824;0.2043193280696869;6.0517683029174805;-43.300865173339844
319;1666336188.0209024;46.9769094;7.1784564;58.92000198364258;1666336188.1897466;2.9884839057922363;9.99621295928955;-33.11434555053711
320;1666336188.2268434;46.9769103;7.1784561;59.060001373291016;1666336188.3820212;-3.2541592121124268;21.178308486938477;-21.993104934692383
321;1666336188.4181314;46.976911199999996;7.178457099999999;59.281002044677734;1666336188.581123;-13.917074203491211;40.62947082519531;-4.050668716430664
322;1666336188.6269956;46.9769128;7.178460299999999;59.58200454711914;1666336188.7909634;-32.44438552856445;33.298683166503906;5.421491622924805
323;1666336188.8290281;46.976915899999995;7.1784685999999995;59.98600387573242;1666336188.9871402;-46.94098663330078;23.128767013549805;13.619037628173828
324;1666336189.026179;46.9769207;7.1784797;60.40800476074219;1666336189.1989317;-52.56351089477539;12.509133338928223;28.932161331176758
325;1666336189.2369957;46.976927499999995;7.178492899999999;60.81900405883789;1666336189.4331717;-51.40465545654297;11.86549186706543;24.9872989654541
326;1666336189.4683077;46.976936699999996;7.1785087;61.259002685546875;1666336189.6342282;-48.41567611694336;14.323247909545898;14.564225196838379
327;1666336189.670341;46.9769477;7.1785258;61.69700241088867;1666336189.837237;-44.01107406616211;25.039688110351562;1.430336356163025
328;1666336189.8762765;46.976960399999996;7.1785432;62.144004821777344;1666336190.0402458;-36.2237434387207;33.88393020629883;-7.9484710693359375
329;1666336190.075381;46.976974299999995;7.1785611;62.5780029296875;1666336190.2305646;-31.825668334960938;36.536590576171875;-10.90194320678711
330;1666336190.2676528;46.9769888;7.1785796;62.98800277709961;1666336190.4296696;-34.174110412597656;36.08111572265625;5.851013660430908
331;1666336190.4657812;46.9770034;7.1785989;63.362003326416016;1666336190.6317012;-31.859838485717773;19.132083892822266;27.280290603637695
332;1666336190.6746454;46.977017499999995;7.1786192;63.728004455566406;1666336190.8425229;-34.07387924194336;12.596607208251953;32.218360900878906
333;1666336190.8844879;46.9770308;7.178639899999999;64.12000274658203;1666336191.0494304;-37.1396369934082;7.135622024536133;40.12588882446289
334;1666336191.0904226;46.9770441;7.178661099999999;64.51200103759766;1666336191.2641506;-39.901676177978516;-0.1029541939496994;44.530067443847656
335;1666336191.3051434;46.977056;7.1786806;64.86600494384766;1666336191.469115;-42.67063522338867;0.6391246914863586;43.36189651489258
336;1666336191.5052235;46.977068499999994;7.1787006;65.23400115966797;1666336191.6711428;-42.23772048950195;-8.825498580932617;53.283355712890625
337;1666336191.7121363;46.9770811;7.1787205;65.57400512695312;1666336191.8819606;-45.20204544067383;-4.487039089202881;42.840675354003906
338;1666336191.9180703;46.977094199999996;7.1787399;65.91200256347656;1666336192.0810618;-46.156246185302734;-5.095616817474365;48.56299591064453
339;1666336192.1210783;46.9771078;7.178759299999999;66.24600219726562;1666336192.2860231;-42.266319274902344;-3.2017862796783447;44.38617706298828
340;1666336192.3172543;46.9771217;7.1787785;66.54400634765625;1666336192.4773207;-37.72288513183594;1.7522183656692505;40.7097053527832
341;1666336192.51636;46.9771356;7.178797299999999;66.81900024414062;1666336192.6822815;-35.758819580078125;1.033306360244751;42.7728385925293
342;1666336192.7213228;46.9771497;7.1788165;67.0790023803711;1666336192.8921187;-34.077152252197266;1.1945899724960327;42.663795471191406
343;1666336192.9243276;46.977162299999996;7.1788335;67.28500366210938;1666336193.0853684;-32.058536529541016;1.6384985446929932;43.0675048828125
344;1666336193.1205049;46.9771749;7.1788506;67.4800033569336;1666336193.2903304;-28.3714656829834;1.8827056884765625;43.59304428100586
345;1666336193.3313198;46.9771868;7.1788669;67.64900207519531;1666336193.4933355;-22.84391212463379;1.891566514968872;43.97053909301758
346;1666336193.5265195;46.9771979;7.1788823;67.79100036621094;1666336193.6982965;-16.497678756713867;1.8531213998794556;44.29332733154297
347;1666336193.7305052;46.9772081;7.1788965;67.9070053100586;1666336193.9052088;-10.174510955810547;1.6829240322113037;44.49969482421875
348;1666336193.9413195;46.977216999999996;7.178909399999999;68.0050048828125;1666336194.1091928;-4.528163909912109;1.539512038230896;44.60714340209961
349;1666336194.1482322;46.977224799999995;7.1789206;68.09900665283203;1666336194.315129;0.32911941409111023;1.3913991451263428;44.7579345703125
350;1666336194.348312;46.9772313;7.178929999999999;68.18800354003906;1666336194.5181427;3.884803056716919;1.2057708501815796;44.89516067504883
351;1666336194.5532722;46.9772365;7.1789378;68.26900482177734;1666336194.7133408;5.964656352996826;0.7777199745178223;44.997859954833984
352;1666336194.7514021;46.977240599999995;7.178943899999999;68.33900451660156;1666336194.9261045;6.441622734069824;0.5620896816253662;45.00527572631836
353;1666336194.963193;46.977243699999995;7.1789486;68.40299987792969;1666336195.120334;5.5339555740356445;0.39264464378356934;44.90818786621094
354;1666336195.1554654;46.9772459;7.178952;68.46100616455078;1666336195.3311465;3.503793954849243;0.21314552426338196;44.83425521850586
355;1666336195.3653057;46.9772476;7.178954699999999;68.50800323486328;1666336195.5341544;0.871093213558197;-0.0031018778681755066;44.727806091308594
356;1666336195.5702655;46.9772489;7.1789567;68.55599975585938;1666336195.7371626;-2.1926562786102295;0.047759637236595154;44.646419525146484
357;1666336195.772297;46.9772499;7.1789581;68.60400390625;1666336195.9421213;-4.538562774658203;-0.0398440882563591;44.7650146484375
358;1666336195.9801884;46.9772508;7.1789593;68.6510009765625;1666336196.1480606;-6.547794818878174;-0.35179126262664795;44.78810501098633
359;1666336196.1822178;46.9772517;7.1789606;68.69200134277344;1666336196.3442361;-7.457284450531006;0.23220194876194;44.73802947998047
360;1666336196.3803465;46.9772526;7.1789619;68.72600555419922;1666336196.548219;-6.627223491668701;0.5927589535713196;45.044158935546875
361;1666336196.5853088;46.9772536;7.1789632999999995;68.7540054321289;1666336196.7502518;-4.757905006408691;0.4444728493690491;45.299869537353516
362;1666336196.787338;46.977254599999995;7.178964799999999;68.77799987792969;1666336196.9581387;-2.4528799057006836;0.49415913224220276;45.40180587768555
363;1666336196.9962044;46.9772555;7.1789662;68.79700469970703;1666336197.1591966;-0.7260184288024902;0.5766571760177612;45.3082160949707
364;1666336197.1943314;46.977256399999995;7.178967399999999;68.81300354003906;1666336197.361227;0.8192394375801086;0.37751853466033936;45.287960052490234
365;1666336197.3963652;46.977257099999996;7.1789685;68.8270034790039;1666336197.570091;1.6604244709014893;1.6554075479507446;46.13145446777344
366;1666336197.6062074;46.9772578;7.1789695;68.83900451660156;1666336197.777006;5.110677719116211;11.655981063842773;54.561851501464844
367;1666336197.8140938;46.9772581;7.178970499999999;68.8479995727539;1666336197.9809904;0.008667510002851486;27.10319709777832;67.35985565185547
368;1666336198.0180764;46.9772575;7.178971799999999;68.87000274658203;1666336198.1791205;-16.637908935546875;40.800086975097656;79.51468658447266
369;1666336198.2201092;46.9772556;7.1789741;68.90800476074219;1666336198.3948143;-34.050777435302734;32.44730758666992;94.56877899169922
370;1666336198.4338548;46.9772515;7.1789784;68.97700500488281;1666336198.6026998;-43.271400451660156;16.884441375732422;108.67729949951172
371;1666336198.6368625;46.977245599999996;7.178984799999999;69.0530014038086;1666336198.8008306;-45.604095458984375;11.51086711883545;111.31110382080078
372;1666336198.8427966;46.9772386;7.1789935;69.12700653076172;1666336199.006766;-45.183738708496094;4.560660362243652;118.27111053466797
373;1666336199.0428772;46.9772308;7.1790045;69.1820068359375;1666336199.211727;-46.165924072265625;3.1113736629486084;114.40325927734375
374;1666336199.2478364;46.977222499999996;7.179017699999999;69.24000549316406;1666336199.406926;-43.75271224975586;12.77624797821045;98.55457305908203
375;1666336199.4410865;46.9772142;7.1790327;69.2820053100586;1666336199.6148162;-39.1854248046875;17.96958351135254;91.55455017089844
376;1666336199.6577573;46.977205999999995;7.179049;69.3030014038086;1666336199.836365;-38.373321533203125;28.29229736328125;81.57424926757812
377;1666336199.8695507;46.9771977;7.1790666;69.33600616455078;1666336200.0354705;-42.162193298339844;32.93510437011719;94.20830535888672
378;1666336200.0667036;46.977188999999996;7.179085;69.34700012207031;1666336200.2355506;-39.4424934387207;30.289058685302734;105.43880462646484
379;1666336200.2736142;46.977178699999996;7.179104499999999;69.35200500488281;1666336200.4420323;-38.53049087524414;12.06402587890625;124.94076538085938
380;1666336200.4800966;46.9771682;7.1791221;69.36400604248047;1666336200.6509118;-38.68151092529297;3.694791078567505;123.68887329101562
381;1666336200.6899388;46.9771566;7.1791408;69.37300109863281;1666336200.8573742;-36.51167297363281;1.9926990270614624;127.89813995361328
382;1666336200.8983686;46.977146;7.179157999999999;69.38600158691406;1666336201.0642877;-37.833614349365234;0.012489945627748966;130.00442504882812
383;1666336201.1023529;46.9771351;7.1791759;69.41300201416016;1666336201.275103;-40.232269287109375;-5.703244686126709;135.91619873046875
384;1666336201.3063345;46.9771244;7.179193799999999;69.41699981689453;1666336201.457616;-43.78440475463867;-3.3570144176483154;130.8273468017578
385;1666336201.4908006;46.977113499999994;7.1792126;69.40800476074219;1666336201.6567185;-46.70389175415039;0.6121718883514404;126.77388763427734
386;1666336201.6938097;46.9771035;7.1792305;69.40900421142578;1666336201.8636343;-47.084171295166016;-0.9905284643173218;129.60482788085938
387;1666336201.8987665;46.977092899999995;7.179249899999999;69.4050064086914;1666336202.0637136;-42.62165451049805;3.018449068069458;127.91680145263672
388;1666336202.0988467;46.977081999999996;7.1792697;69.4010009765625;1666336202.2589123;-44.655487060546875;2.940019130706787;126.88581085205078
389;1666336202.2960021;46.977070999999995;7.1792897;69.41400146484375;1666336202.4541125;-45.22861099243164;2.0924463272094727;127.2579574584961
390;1666336202.4902246;46.977059399999995;7.1793106;69.40400695800781;1666336202.6659043;-41.71802520751953;3.090833902359009;128.7184600830078
391;1666336202.703969;46.977048599999996;7.1793302;69.4010009765625;1666336202.865984;-44.09061813354492;2.7062854766845703;126.89930725097656
392;1666336202.906978;46.9770372;7.1793505;69.40299987792969;1666336203.0728958;-45.47486877441406;2.7721519470214844;127.43001556396484
393;1666336203.1080313;46.9770257;7.1793708999999994;69.39600372314453;1666336203.2700522;-44.562686920166016;2.104890823364258;129.49777221679688
394;1666336203.3042111;46.977014;7.1793914;69.38300323486328;1666336203.473056;-44.26538848876953;3.4065887928009033;127.32102966308594
395;1666336203.5130727;46.9770022;7.179411999999999;69.37000274658203;1666336203.6789918;-41.14955139160156;2.9737765789031982;128.76611328125
396;1666336203.7131548;46.9769899;7.1794332;69.33500671386719;1666336203.8839533;-37.86371612548828;-0.9209040999412537;130.49913024902344
397;1666336203.9210424;46.976978599999995;7.1794525;69.31300354003906;1666336204.0947692;-36.5506591796875;1.6364593505859375;128.13270568847656
398;1666336204.1289284;46.9769673;7.179472;69.27799987792969;1666336204.307537;-34.32703399658203;1.1686711311340332;128.1173858642578
399;1666336204.3426726;46.9769563;7.179490899999999;69.23800659179688;1666336204.5007846;-31.396188735961914;1.4529439210891724;128.6404266357422
400;1666336204.5427532;46.9769453;7.179509899999999;69.19200134277344;1666336204.706722;-27.850502014160156;1.8655803203582764;128.79583740234375
401;1666336204.7516189;46.9769357;7.179526399999999;69.14600372314453;1666336204.9146106;-23.315746307373047;1.7571547031402588;128.82835388183594
402;1666336204.9477947;46.976926399999996;7.1795425999999996;69.0979995727539;1666336205.10981;-17.251060485839844;1.4840284585952759;129.31080627441406
403;1666336205.1556833;46.976917799999995;7.179557399999999;69.05000305175781;1666336205.3176987;-10.96703815460205;1.4188952445983887;129.64242553710938
404;1666336205.3538113;46.9769101;7.1795706;69.0060043334961;1666336205.524611;-4.7630934715271;1.3388066291809082;129.58767700195312
405;1666336205.5607219;46.976903;7.1795826;68.96500396728516;1666336205.7188342;0.48816847801208496;0.9749470353126526;129.87918090820312
406;1666336205.7559242;46.9768975;7.179591899999999;68.9320068359375;1666336205.911107;4.163787364959717;0.9373281598091125;130.23207092285156
407;1666336205.9452682;46.976892899999996;7.1795997;68.9010009765625;1666336206.0984993;6.281569480895996;0.2693585753440857;130.16212463378906
408;1666336206.13266;46.976889199999995;7.1796058;68.87300109863281;1666336206.311268;6.661430835723877;0.04690194129943848;129.83465576171875
409;1666336206.3522606;46.9768864;7.1796102;68.85600280761719;1666336206.5103703;5.9140777587890625;-0.5310776233673096;129.44369506835938
410;1666336206.5474584;46.976884299999995;7.179613499999999;68.84200286865234;1666336206.7084987;2.991905927658081;-0.3519800901412964;129.1483917236328
411;1666336206.7436385;46.9768829;7.1796158;68.83600616455078;1666336206.9085793;-0.7771210074424744;-1.020176887512207;128.8636016845703
412;1666336206.9485974;46.9768818;7.1796175;68.83900451660156;1666336207.11257;-3.4538633823394775;-0.06274553388357162;128.62840270996094
413;1666336207.1496532;46.976881;7.179619;68.84500122070312;1666336207.3175235;-5.206031799316406;0.14321638643741608;128.7156982421875
414;1666336207.3565652;46.9768802;7.179620399999999;68.8530044555664;1666336207.510772;-5.51747465133667;0.04823201149702072;128.98475646972656
415;1666336207.5468845;46.976879499999995;7.1796218;68.86300659179688;1666336207.7128057;-4.437956809997559;0.146324023604393;129.10220336914062
416;1666336207.749892;46.9768787;7.1796232;68.87300109863281;1666336207.915814;-3.6298890113830566;0.15915435552597046;129.21519470214844
417;1666336207.9480221;46.9768779;7.1796247;68.88200378417969;1666336208.110037;-1.7323991060256958;0.5748692750930786;129.41983032226562
418;1666336208.1481016;46.976876999999995;7.1796263;68.88800048828125;1666336208.310118;-0.23852038383483887;0.5778239965438843;129.55386352539062
