;pos_time;latitude;longitude;altitude;alt_time;pitch;roll;yaw
0;1666337489.7149825;46.9755343;7.1803555999999995;-0.17600001394748688;1666337489.7188902;-0.3931155800819397;0.12785883247852325;90.84252166748047
1;1666337489.937511;46.9755342;7.1803557;-0.18300001323223114;1666337489.941416;-0.34870439767837524;0.1661214977502823;90.87953186035156
2;1666337490.133689;46.9755342;7.1803557;-0.18300001323223114;1666337490.137593;-0.2862693965435028;0.18362809717655182;90.66546630859375
3;1666337490.3337677;46.9755342;7.1803557;-0.18000000715255737;1666337490.3484106;-0.50052809715271;0.23889337480068207;90.76292419433594
4;1666337490.5436099;46.9755342;7.1803557;-0.17500001192092896;1666337490.568984;-0.45000314712524414;0.30369558930397034;90.76483917236328
5;1666337490.7930157;46.9755342;7.1803557;-0.17400000989437103;1666337490.7978966;-0.4734652638435364;0.1538667231798172;90.80768585205078
6;1666337490.9970026;46.9755341;7.1803557;-0.1720000058412552;1666337491.002857;-0.3421345055103302;0.010279950685799122;90.86585235595703
7;1666337491.2058642;46.9755341;7.1803557;-0.17100000381469727;1666337491.2097685;-0.41926857829093933;0.13159839808940887;90.75988006591797
8;1666337491.407896;46.9755341;7.1803555999999995;-0.1770000010728836;1666337491.4098496;-0.46164190769195557;0.16274917125701904;90.71549224853516
9;1666337491.6128578;46.9755341;7.1803557;-0.17900000512599945;1666337491.6167622;-0.4803655743598938;0.2134857177734375;90.69989776611328
10;1666337491.8324556;46.9755341;7.1803557;-0.1770000010728836;1666337491.836362;-0.5249552726745605;0.13400697708129883;90.84893035888672
11;1666337492.1346514;46.9755341;7.1803555999999995;-0.1730000078678131;1666337492.1473393;-0.4958701729774475;0.14623944461345673;90.75338745117188
12;1666337492.3532753;46.9755341;7.1803555;-0.1730000078678131;1666337492.3659635;-0.4444082975387573;0.2015874683856964;90.75465393066406
13;1666337492.5660453;46.9755341;7.1803555999999995;-0.1730000078678131;1666337492.573853;-0.4661283791065216;0.1734917014837265;90.76210021972656
14;1666337492.788575;46.9755341;7.1803555999999995;-0.0020000000949949026;1666337492.7914999;-0.2830931544303894;0.13936851918697357;90.78641510009766
15;1666337492.9964595;46.9755341;7.1803557;-0.003000000026077032;1666337492.9993882;-0.4972897171974182;0.18976067006587982;90.75802612304688
16;1666337493.2072759;46.9755341;7.1803557;-0.0020000000949949026;1666337493.210208;-0.350858211517334;0.18923717737197876;90.881103515625
17;1666337493.417117;46.9755341;7.1803557;0.0;1666337493.4210207;-0.4873882830142975;0.20258037745952606;90.69085693359375
18;1666337493.6464787;46.9755341;7.1803557;0.0;1666337493.6503818;-0.3627611994743347;0.08919522166252136;90.82096862792969
19;1666337493.851438;46.9755342;7.1803557;0.0;1666337493.8572927;-0.28389889001846313;0.17941322922706604;90.75712585449219
20;1666337494.0554206;46.9755342;7.1803557;0.003000000026077032;1666337494.058349;-0.4231732487678528;0.1691252589225769;90.66883087158203
21;1666337494.257455;46.9755342;7.1803557;0.0010000000474974513;1666337494.2613587;-0.3772062063217163;0.01027434691786766;90.82981872558594
22;1666337494.457428;46.9755341;7.1803557;0.004000000189989805;1666337494.4593797;-0.3151813745498657;0.10573875159025192;90.9092025756836
23;1666337494.6590328;46.9755342;7.1803558;0.01100000087171793;1666337494.660986;0.09265516698360443;0.3991774320602417;91.15602111816406
24;1666337494.8686194;46.9755342;7.1803557;0.04000000283122063;1666337494.873503;1.1601115465164185;-1.6447705030441284;91.24083709716797
25;1666337495.0872452;46.9755343;7.1803555999999995;0.07800000160932541;1666337495.091149;0.501277506351471;-3.121910572052002;91.47899627685547
26;1666337495.2922049;46.975534499999995;7.1803555;0.1900000125169754;1666337495.2961082;-0.1669648438692093;3.6287312507629395;91.41287231445312
27;1666337495.4854543;46.9755343;7.1803554;0.3100000023841858;1666337495.4903371;-0.1564742773771286;8.11103630065918;90.37785339355469
28;1666337495.6777284;46.9755341;7.1803552999999996;0.42000001668930054;1666337495.6835809;0.9424041509628296;-3.360710382461548;91.81422424316406
29;1666337495.8904927;46.975533899999995;7.1803551;0.6200000047683716;1666337495.8943975;3.0357680320739746;-2.7542433738708496;90.40272521972656
30;1666337496.0808125;46.9755336;7.180354599999999;0.8230000138282776;1666337496.0925252;1.1621137857437134;-0.9840015172958374;87.31914520263672
31;1666337496.2999568;46.9755336;7.1803541;1.0450000762939453;1666337496.302884;-1.1458131074905396;-2.523775339126587;90.31126403808594
32;1666337496.4936042;46.9755336;7.1803536999999995;1.3450000286102295;1666337496.4975095;-1.8601933717727661;1.478624939918518;88.5063705444336
33;1666337496.7112544;46.9755337;7.1803536;1.5980000495910645;1666337496.7151577;-3.122955322265625;7.0738630294799805;92.90867614746094
34;1666337496.9469953;46.9755337;7.1803536999999995;1.8850001096725464;1666337496.9489458;-1.6984460353851318;-6.309281349182129;93.4244384765625
35;1666337497.1529298;46.975533999999996;7.1803539;2.248000144958496;1666337497.157812;-1.1668404340744019;-2.7299070358276367;90.15286254882812
36;1666337497.3735082;46.9755344;7.1803542;2.6070001125335693;1666337497.3764334;-1.5601425170898438;0.4846898913383484;87.69608306884766
37;1666337497.5735884;46.9755348;7.1803544;2.9780001640319824;1666337497.5774922;-0.6254758834838867;2.983043909072876;89.39897155761719
38;1666337497.809779;46.9755349;7.1803547;3.3940000534057617;1666337497.8117306;-0.6067990660667419;-1.793634295463562;89.3956527709961
39;1666337498.0069304;46.975535099999995;7.180355;3.7950000762939453;1666337498.0098588;-0.15756756067276;-0.4862135648727417;86.18690490722656
40;1666337498.2314112;46.975535199999996;7.1803552999999996;4.246000289916992;1666337498.2343388;0.8558241724967957;1.5626230239868164;90.62764739990234
41;1666337498.4607706;46.975535199999996;7.1803554;4.690999984741211;1666337498.466628;0.32002729177474976;0.36963722109794617;90.72511291503906
42;1666337498.653043;46.975535199999996;7.1803555;5.116000175476074;1666337498.6618278;0.3637247085571289;-0.20889131724834442;88.10542297363281
43;1666337498.8706915;46.975535199999996;7.1803555;5.584000110626221;1666337498.8921638;0.34133654832839966;1.338451623916626;89.55144500732422
44;1666337499.092244;46.975535099999995;7.1803555;6.019000053405762;1666337499.0961492;-0.2363555133342743;0.3542245626449585;91.1334228515625
45;1666337499.3069637;46.975535;7.1803554;6.468000411987305;1666337499.309894;-0.07501336932182312;-0.7204009294509888;88.48970794677734
46;1666337499.5168033;46.975535;7.1803554;6.9150004386901855;1666337499.5187557;-0.3625170588493347;1.5044606924057007;89.02965545654297
47;1666337499.7188387;46.9755349;7.1803554;7.335000514984131;1666337499.7227404;-0.28098446130752563;1.9008395671844482;91.07710266113281
48;1666337499.9374604;46.9755348;7.1803555;7.785000324249268;1666337499.9394205;0.1553359031677246;-0.5041099190711975;89.33265686035156
49;1666337500.1268046;46.9755348;7.1803555;8.237000465393066;1666337500.1297321;-0.011374078691005707;0.7785141468048096;88.54833984375
50;1666337500.320053;46.9755347;7.1803555;8.66100025177002;1666337500.3259103;-0.047385454177856445;0.7042993903160095;91.15416717529297
51;1666337500.5240366;46.975534599999996;7.1803555;9.107000350952148;1666337500.5298932;-0.14449629187583923;-0.63422691822052;89.26270294189453
52;1666337500.7241166;46.975534599999996;7.1803555;9.51400089263916;1666337500.730949;-0.2853817939758301;0.08460243046283722;87.40408325195312
53;1666337500.9261518;46.975534599999996;7.1803554;9.944000244140625;1666337500.9339597;0.24963563680648804;0.7690666317939758;91.24042510986328
54;1666337501.1350152;46.975534599999996;7.1803554;10.405000686645508;1666337501.1379445;-0.3089694678783417;-0.5857101082801819;90.66124725341797
55;1666337501.335095;46.975534499999995;7.1803554;10.939000129699707;1666337501.337046;-0.7235460877418518;-0.09242178499698639;85.8336410522461
56;1666337501.5273662;46.975534499999995;7.1803554;11.570000648498535;1666337501.5322478;0.35224589705467224;-0.09716522693634033;90.94409942626953
57;1666337501.7333035;46.9755344;7.1803555;12.202000617980957;1666337501.7391589;0.011402293108403683;-0.4463304579257965;90.4644546508789
58;1666337501.9411907;46.9755343;7.1803554;12.797000885009766;1666337501.9450977;0.00982067734003067;0.3173238933086395;88.21846771240234
59;1666337502.1402972;46.9755343;7.1803552999999996;13.428000450134277;1666337502.147126;-0.038973119109869;-0.0030358294025063515;89.80136108398438
60;1666337502.3384233;46.9755343;7.1803552999999996;14.032000541687012;1666337502.3433022;-0.27901187539100647;-0.21246977150440216;91.26060485839844
61;1666337502.5580251;46.9755343;7.180355199999999;14.618000984191895;1666337502.5590003;-0.027755914255976677;0.8006550073623657;89.57978057861328
62;1666337502.762983;46.9755342;7.1803551;15.220000267028809;1666337502.764935;-0.4967834949493408;0.018710698932409286;88.66584014892578
63;1666337502.9747753;46.9755342;7.1803551;15.806000709533691;1666337502.9806335;-0.08093081414699554;-0.31345272064208984;91.36407470703125
64;1666337503.191447;46.9755342;7.180355;16.4320011138916;1666337503.1943755;0.1992349475622177;0.937808096408844;89.6146011352539
65;1666337503.3954308;46.9755341;7.180355;17.006000518798828;1666337503.4012883;-0.3515379726886749;0.27977561950683594;88.00943756103516
66;1666337503.6033218;46.9755341;7.180355;17.595001220703125;1666337503.6072252;-0.15683116018772125;-0.3718491792678833;90.26126098632812
67;1666337503.819016;46.9755341;7.180355;18.20800018310547;1666337503.8209703;-0.3538030683994293;0.5953194499015808;90.61766815185547
68;1666337504.0405684;46.9755341;7.180355;18.793001174926758;1666337504.0444736;-0.10236390680074692;0.7005529403686523;88.49144744873047
69;1666337504.2465062;46.9755341;7.1803551;19.410001754760742;1666337504.249436;-0.302501380443573;-0.46738165616989136;89.5440673828125
70;1666337504.4543927;46.975533999999996;7.1803551;19.986000061035156;1666337504.4573202;-0.27196991443634033;0.03315453976392746;91.83951568603516
71;1666337504.6593544;46.975533999999996;7.1803551;20.604000091552734;1666337504.6652083;0.025885537266731262;0.6111798286437988;89.00336456298828
72;1666337504.8662674;46.975533999999996;7.180355199999999;21.205001831054688;1666337504.8682172;-0.4189165532588959;-0.16033466160297394;88.96296691894531
73;1666337505.0634167;46.9755341;7.180355199999999;21.791000366210938;1666337505.0653708;-0.0800284668803215;0.06149434298276901;90.86297607421875
74;1666337505.2674017;46.9755341;7.180355199999999;22.385000228881836;1666337505.2713056;-0.32405829429626465;0.4670772850513458;90.65066528320312
75;1666337505.4606519;46.975533999999996;7.1803552999999996;22.957000732421875;1666337505.465531;-0.21627061069011688;-0.021485833451151848;88.75599670410156
76;1666337505.6782975;46.975533999999996;7.1803552999999996;23.565000534057617;1666337505.6792731;-0.11829493194818497;-0.4922136664390564;89.8443832397461
77;1666337505.8705723;46.975533999999996;7.1803552999999996;24.148000717163086;1666337505.876426;-0.29261279106140137;0.9839609265327454;91.73237609863281
78;1666337506.0774832;46.975533899999995;7.1803552999999996;24.76700210571289;1666337506.0784576;0.1847475916147232;0.966289222240448;88.73060607910156
79;1666337506.2814674;46.9755338;7.1803552999999996;25.365001678466797;1666337506.2853713;-0.48984429240226746;-1.4699991941452026;88.8831787109375
80;1666337506.4805763;46.975533899999995;7.1803554;25.939001083374023;1666337506.483498;-0.08890071511268616;-0.42652302980422974;91.0904769897461
81;1666337506.6767476;46.975533899999995;7.1803554;26.547000885009766;1666337506.680651;0.036769576370716095;1.905061960220337;89.57298278808594
82;1666337506.8787808;46.9755338;7.1803554;27.130001068115234;1666337506.8826873;-0.4105790853500366;0.031081534922122955;88.50709533691406
83;1666337507.0895994;46.9755338;7.1803554;27.73000144958496;1666337507.0925238;-0.25488701462745667;-1.7980079650878906;90.07657623291016
84;1666337507.2828493;46.9755338;7.1803554;28.305002212524414;1666337507.2857733;-0.46432462334632874;0.6417031288146973;90.78801727294922
85;1666337507.4878035;46.9755338;7.1803554;28.88500213623047;1666337507.491711;-0.2965261936187744;2.0391287803649902;89.09078979492188
86;1666337507.6859338;46.9755337;7.1803554;29.481000900268555;1666337507.6888628;-0.5516102910041809;-2.729614496231079;89.66697692871094
87;1666337507.8869874;46.9755338;7.1803555;30.06300163269043;1666337507.8889399;-0.26415902376174927;0.5556164383888245;90.32041931152344
88;1666337508.0929239;46.9755338;7.1803555;30.65300178527832;1666337508.0968277;-0.312480628490448;-0.0333283506333828;89.79521942138672
89;1666337508.29398;46.975533999999996;7.1803555;31.244001388549805;1666337508.2988615;-0.23844124376773834;1.0599526166915894;89.57359313964844
90;1666337508.4950361;46.9755341;7.1803555;31.828001022338867;1666337508.4969904;-0.1832408308982849;2.5084025859832764;90.0886001586914
91;1666337508.7185426;46.975533999999996;7.1803555999999995;32.41400146484375;1666337508.72147;-0.11049992591142654;-3.2347500324249268;89.84026336669922
92;1666337508.9225242;46.975533899999995;7.1803555999999995;33.00300216674805;1666337508.9254522;0.06470388919115067;4.724527359008789;89.6679458618164
93;1666337509.1157744;46.975533899999995;7.1803555999999995;33.595001220703125;1666337509.1196775;-0.183963343501091;-4.838691234588623;90.13902282714844
94;1666337509.3217115;46.975533899999995;7.1803555999999995;34.1870002746582;1666337509.3256147;-0.21170954406261444;1.5392165184020996;89.60246276855469
95;1666337509.5295975;46.9755341;7.1803555999999995;34.7760009765625;1666337509.5364294;-0.004528201650828123;2.060663938522339;89.94267272949219
96;1666337509.7208939;46.9755342;7.1803555999999995;35.37000274658203;1666337509.7277277;-0.06599228084087372;-1.054652452468872;89.74028015136719
97;1666337509.9307337;46.9755342;7.1803555999999995;35.96200180053711;1666337509.9336622;-0.2780696451663971;1.1598178148269653;89.91166687011719
98;1666337510.1298373;46.9755341;7.1803555;36.55500030517578;1666337510.1327653;-0.22679756581783295;-0.7642661333084106;89.77346801757812
99;1666337510.3299198;46.975533999999996;7.1803555;37.14500045776367;1666337510.33285;-0.1057608351111412;3.622267723083496;89.75662994384766
100;1666337510.538784;46.975533899999995;7.1803555;37.74100112915039;1666337510.5407364;-0.25324544310569763;-4.589442253112793;89.91156005859375
101;1666337510.7486234;46.975533999999996;7.1803555;38.336002349853516;1666337510.7525291;-0.22343812882900238;3.5321412086486816;89.61548614501953
102;1666337510.9750557;46.9755341;7.1803555;38.932003021240234;1666337510.9789596;-0.24811458587646484;-1.6058502197265625;89.93111419677734
103;1666337511.1770875;46.9755342;7.1803555999999995;39.51900100708008;1666337511.1819696;-0.24549266695976257;1.0784459114074707;89.78105926513672
104;1666337511.382052;46.9755341;7.1803555999999995;40.11800003051758;1666337511.3859534;-0.16096705198287964;-2.4741692543029785;90.00991821289062
105;1666337511.5889592;46.9755341;7.1803555999999995;40.71600341796875;1666337511.5938394;0.004090216010808945;2.9369561672210693;89.65267181396484
106;1666337511.7880642;46.975533999999996;7.1803555999999995;41.31700134277344;1666337511.7919674;-0.08001790195703506;-0.8725440502166748;89.93640899658203
107;1666337511.9930258;46.975533999999996;7.1803555999999995;41.910003662109375;1666337511.9979033;-0.26931798458099365;-2.7931413650512695;89.75123596191406
108;1666337512.195058;46.9755342;7.1803555999999995;42.50200271606445;1666337512.1989603;-0.11047837138175964;3.081486940383911;89.71424102783203
109;1666337512.4029446;46.9755343;7.1803557;43.10000228881836;1666337512.408801;-0.07560182362794876;0.22794228792190552;89.6775894165039
110;1666337512.602048;46.9755343;7.1803557;43.69200134277344;1666337512.6069286;-0.13257035613059998;-1.4868934154510498;90.10890197753906
111;1666337512.8021288;46.9755343;7.1803557;44.285003662109375;1666337512.80408;-0.16362616419792175;0.21685302257537842;89.65211486816406
112;1666337513.003187;46.9755344;7.1803557;44.871002197265625;1666337513.0070913;0.000342683371854946;2.981391668319702;89.92395782470703
113;1666337513.2052207;46.9755344;7.1803555999999995;45.46000289916992;1666337513.208149;-0.22563181817531586;-2.8171215057373047;89.89421081542969
114;1666337513.4062726;46.9755343;7.1803557;46.05500030517578;1666337513.410179;-0.27099159359931946;1.891990065574646;89.86254119873047
115;1666337513.6161141;46.9755344;7.1803557;46.64800262451172;1666337513.6190422;-0.03751304745674133;0.0782182589173317;89.7997817993164
116;1666337513.8103373;46.975534599999996;7.1803557;47.24100112915039;1666337513.8161948;-0.08697523176670074;3.073038339614868;89.65886688232422
117;1666337514.013348;46.9755347;7.1803557;47.8390007019043;1666337514.0182261;-0.16081295907497406;-2.3808183670043945;90.12047576904297
118;1666337514.2144063;46.9755348;7.1803557;48.439002990722656;1666337514.2173312;-0.07896746695041656;3.209437370300293;89.56807708740234
119;1666337514.4193642;46.9755348;7.1803557;49.038002014160156;1666337514.420339;-0.1048944741487503;1.573838710784912;89.97809600830078
120;1666337514.6282291;46.9755347;7.1803557;49.630001068115234;1666337514.6321378;-0.1537402719259262;-1.4401754140853882;89.81263732910156
121;1666337514.8341634;46.975534499999995;7.1803557;50.22600173950195;1666337514.8380687;-0.16774111986160278;0.7328181862831116;89.89759826660156
122;1666337515.0381482;46.975534499999995;7.1803557;50.82100296020508;1666337515.0391243;-0.0786220133304596;1.4115097522735596;89.7137222290039
123;1666337515.2392027;46.975534499999995;7.1803557;51.4170036315918;1666337515.2401803;-0.1641448736190796;1.2978646755218506;89.86541748046875
124;1666337515.4402583;46.975534499999995;7.1803557;52.01400375366211;1666337515.4441624;-0.36060890555381775;-2.4473559856414795;89.99041748046875
125;1666337515.654003;46.975534499999995;7.1803557;52.608001708984375;1666337515.657907;-0.2835313677787781;2.736422538757324;89.6961669921875
126;1666337515.8667753;46.975534499999995;7.1803558;53.20500183105469;1666337515.870678;-0.03349004685878754;0.6890872716903687;89.84734344482422
127;1666337516.0707552;46.9755344;7.1803558;53.7920036315918;1666337516.0766127;-0.31318333745002747;-0.2668066620826721;89.86271667480469
128;1666337516.2854757;46.9755342;7.1803558;54.38600158691406;1666337516.2932837;-0.16902807354927063;-0.9532628655433655;89.83560943603516
129;1666337516.5040998;46.975533999999996;7.1803558;54.97900390625;1666337516.511909;-0.11224290728569031;2.793971300125122;89.62601470947266
130;1666337516.717846;46.975533899999995;7.1803558;55.56900405883789;1666337516.7217507;-0.240646630525589;-3.2060415744781494;90.03065490722656
131;1666337516.9237802;46.975533899999995;7.1803558;56.09400177001953;1666337516.9306116;-0.3610129654407501;-0.36521029472351074;89.7533950805664
132;1666337517.1150773;46.975533999999996;7.1803558999999995;56.55600357055664;1666337517.1180043;-0.09840668737888336;1.7413256168365479;89.80638885498047
133;1666337517.4020226;46.9755341;7.1803558999999995;56.952003479003906;1666337517.4049506;0.06634852290153503;0.697353720664978;89.77610778808594
134;1666337517.6001484;46.975533999999996;7.180356;57.28700256347656;1666337517.6040564;-0.011787518858909607;-1.9259217977523804;89.94833374023438
135;1666337517.8148694;46.975533999999996;7.180356;57.5680046081543;1666337517.8187733;0.020937036722898483;1.1136671304702759;89.85506439208984
136;1666337518.0325174;46.975533999999996;7.1803558999999995;57.802001953125;1666337518.0344696;0.04907800629734993;1.244651198387146;89.93016052246094
137;1666337518.2267408;46.975533999999996;7.1803558999999995;57.99900436401367;1666337518.2306445;-0.046549879014492035;-1.626906394958496;89.91952514648438
138;1666337518.4287732;46.9755341;7.1803558999999995;58.16400146484375;1666337518.4346309;-0.06550364196300507;0.17815852165222168;89.81210327148438
139;1666337518.6269038;46.9755342;7.1803558999999995;58.297000885009766;1666337518.6308074;0.7955189943313599;-0.7352624535560608;89.83135223388672
140;1666337518.824053;46.975534499999995;7.1803557;58.439002990722656;1666337518.8279574;10.774145126342773;-14.670173645019531;84.03997039794922
141;1666337519.025111;46.9755356;7.1803544;58.58700180053711;1666337519.029018;25.652507781982422;-33.42454147338867;78.52886962890625
142;1666337519.2271423;46.9755385;7.1803503;58.74700164794922;1666337519.2339756;26.992158889770508;-51.291507720947266;64.91615295410156
143;1666337519.4350314;46.975543599999995;7.1803425;58.8900032043457;1666337519.4399133;15.267051696777344;-58.20212173461914;52.059486389160156
144;1666337519.633159;46.9755505;7.180331;58.98100280761719;1666337519.6390176;-1.8597805500030518;-57.961856842041016;41.72728729248047
145;1666337519.8351922;46.975558799999995;7.1803162;59.05000305175781;1666337519.8361685;-18.943323135375977;-50.77845001220703;28.810638427734375
146;1666337520.0303931;46.9755681;7.1802988;59.130001068115234;1666337520.0362475;-32.653751373291016;-32.511436462402344;11.736907005310059
147;1666337520.2373102;46.9755779;7.1802809;59.1660041809082;1666337520.2402334;-36.58116149902344;-24.120149612426758;-1.2105357646942139
148;1666337520.446167;46.9755883;7.1802627;59.20500183105469;1666337520.4520252;-37.84512710571289;-14.825803756713867;-8.848282814025879
149;1666337520.649179;46.9755993;7.180245299999999;59.25800323486328;1666337520.6540585;-36.02088165283203;-12.462759017944336;-9.955671310424805
150;1666337520.85609;46.9756108;7.1802285999999995;59.294002532958984;1666337520.8590195;-34.654876708984375;-12.562063217163086;-10.823810577392578
151;1666337521.0659277;46.9756224;7.1802123;59.29700469970703;1666337521.0669038;-33.807884216308594;-16.17463493347168;-10.14407730102539
152;1666337521.2591782;46.975634199999995;7.1801962999999995;59.329002380371094;1666337521.263082;-33.80197525024414;-20.869264602661133;-6.562542915344238
153;1666337521.463161;46.9756461;7.180180399999999;59.368003845214844;1666337521.468042;-34.173648834228516;-23.23944091796875;-2.7927651405334473
154;1666337521.66324;46.975657999999996;7.1801647;59.37700271606445;1666337521.6661687;-34.21277618408203;-21.827356338500977;0.029353026300668716
155;1666337521.861369;46.97567;7.1801490999999995;59.400001525878906;1666337521.8662512;-35.264442443847656;-23.99561309814453;5.3299102783203125
156;1666337522.0653527;46.9756824;7.1801338999999995;59.43700408935547;1666337522.0702348;-34.27920913696289;-19.318681716918945;7.246679306030273
157;1666337522.2634814;46.975694999999995;7.180119599999999;59.44200134277344;1666337522.267385;-31.620868682861328;-15.415079116821289;5.889349460601807
158;1666337522.4723446;46.975707799999995;7.180105999999999;59.44200134277344;1666337522.4762495;-31.05620574951172;-16.15702247619629;4.777726650238037
159;1666337522.6763303;46.9757204;7.180093299999999;59.439002990722656;1666337522.6860912;-26.971107482910156;-4.537222862243652;0.18759484589099884
160;1666337522.880313;46.9757325;7.1800821;59.387001037597656;1666337522.8871467;-15.450056076049805;7.0802226066589355;-1.2510384321212769
161;1666337523.0774674;46.9757432;7.1800733;59.3380012512207;1666337523.0872269;5.263213634490967;23.118953704833984;11.540679931640625
162;1666337523.285354;46.9757518;7.1800676999999995;59.2910041809082;1666337523.2892573;15.70225715637207;31.19399070739746;31.427047729492188
163;1666337523.496171;46.9757578;7.1800641;59.220001220703125;1666337523.5010498;26.49858856201172;16.47382926940918;37.2623291015625
164;1666337523.7050383;46.975760699999995;7.1800615;59.230003356933594;1666337523.7099135;30.980010986328125;-4.922492027282715;25.96955108642578
165;1666337523.9119496;46.9757618;7.180058799999999;59.19600296020508;1666337523.9158497;28.420717239379883;-3.9520654678344727;22.504261016845703
166;1666337524.1139805;46.9757611;7.1800554;59.19200134277344;1666337524.12081;11.213528633117676;-11.610566139221191;16.365392684936523
167;1666337524.325773;46.975760099999995;7.1800513;59.204002380371094;1666337524.3287034;-18.921161651611328;-13.601835250854492;11.826272010803223
168;1666337524.5278034;46.97576;7.180047399999999;59.220001220703125;1666337524.5326848;-32.659423828125;4.1815876960754395;9.76026725769043
169;1666337524.7288587;46.9757615;7.1800445999999996;59.23600387573242;1666337524.7327657;-36.293758392333984;6.319169521331787;22.13234519958496
170;1666337524.949435;46.975764399999996;7.1800438;59.26100158691406;1666337524.957244;-34.63474655151367;0.5483028888702393;37.22956848144531
171;1666337525.1563468;46.9757682;7.1800448;59.24500274658203;1666337525.1592777;-31.250715255737305;4.757817268371582;51.20641326904297
172;1666337525.3720453;46.9757725;7.1800479;59.256004333496094;1666337525.3788774;-24.706689834594727;7.656712532043457;53.85660934448242
173;1666337525.5613914;46.9757768;7.1800524;59.256004333496094;1666337525.5643187;-14.496946334838867;3.0409128665924072;49.38936996459961
174;1666337525.7497556;46.975780799999995;7.180057199999999;59.237003326416016;1666337525.7565897;-4.382837295532227;-3.7378199100494385;41.6700325012207
175;1666337525.959598;46.9757846;7.1800612;59.195003509521484;1666337525.9635026;7.298128604888916;-19.52459716796875;29.759750366210938
176;1666337526.1713903;46.975787999999994;7.1800631;59.19000244140625;1666337526.1733403;15.457152366638184;-24.48812484741211;13.372823715209961
177;1666337526.3812287;46.9757902;7.180062899999999;59.17200469970703;1666337526.385133;27.610572814941406;-9.004194259643555;2.161729574203491
178;1666337526.5764306;46.975790599999996;7.1800612;59.173004150390625;1666337526.5822854;31.34588050842285;-19.610109329223633;-8.528477668762207
179;1666337526.7813914;46.9757891;7.1800583;59.20100402832031;1666337526.7833438;18.567806243896484;-30.64654541015625;-11.492798805236816
180;1666337526.9775681;46.9757864;7.180053399999999;59.20100402832031;1666337526.984398;5.830499649047852;-34.923221588134766;-16.687240600585938
181;1666337527.1874058;46.975783199999995;7.1800467999999995;59.18000411987305;1666337527.1903334;-9.384703636169434;-21.522253036499023;-24.693016052246094
182;1666337527.3865116;46.9757805;7.1800391;59.19900131225586;1666337527.3894374;-23.21853256225586;5.769992351531982;-38.035736083984375
183;1666337527.5904968;46.9757793;7.1800315999999995;59.22200393676758;1666337527.5973299;-29.788434982299805;17.34148597717285;-37.91941833496094
184;1666337527.7954538;46.97578;7.180024899999999;59.21800231933594;1666337527.8003383;-31.44823455810547;22.111604690551758;-37.15791702270508
185;1666337528.008222;46.975783;7.1800193;59.24700164794922;1666337528.013105;-30.086957931518555;20.593534469604492;-22.609725952148438
186;1666337528.2073336;46.9757873;7.180015099999999;59.228004455566406;1666337528.212208;-26.120878219604492;15.830245018005371;-12.203773498535156
187;1666337528.4093597;46.9757927;7.1800128;59.20500183105469;1666337528.4113111;-21.057483673095703;15.734500885009766;-2.3318135738372803
188;1666337528.6065102;46.975798399999995;7.1800121;59.18400192260742;1666337528.610414;-12.358997344970703;24.1600341796875;3.559062957763672
189;1666337528.809518;46.975803899999995;7.1800133;59.17100143432617;1666337528.8124483;-5.012048244476318;20.2584228515625;8.45263671875
190;1666337529.0242405;46.9758089;7.1800159;59.1510009765625;1666337529.0271683;-2.7891557216644287;8.336344718933105;4.921754837036133
191;1666337529.2418873;46.9758132;7.1800188;59.14800262451172;1666337529.2438393;-1.7327932119369507;-6.270879745483398;-2.4238901138305664
192;1666337529.4341645;46.9758169;7.1800206;59.11300277709961;1666337529.4409926;-2.159496784210205;-29.176790237426758;-10.883818626403809
193;1666337529.636194;46.9758198;7.180019799999999;59.108001708984375;1666337529.6400979;-4.014816761016846;-30.87298011779785;-28.689258575439453
194;1666337529.8577442;46.975821499999995;7.1800168;59.10900115966797;1666337529.8596964;1.9985677003860474;-29.776453018188477;-48.66819381713867
195;1666337530.0539238;46.975821499999995;7.180012199999999;59.096004486083984;1666337530.0588026;-6.940464019775391;-37.53217315673828;-60.03004455566406
196;1666337530.250096;46.9758198;7.180006;59.1150016784668;1666337530.2530239;-19.632522583007812;-21.092145919799805;-72.13145446777344
197;1666337530.461889;46.9758176;7.179999;59.10100173950195;1666337530.4638407;-17.28045654296875;2.543898820877075;-74.5979995727539
198;1666337530.6551363;46.975815999999995;7.1799915;59.09300231933594;1666337530.658066;-16.22696304321289;15.449697494506836;-66.14763641357422
199;1666337530.863026;46.9758157;7.1799842;59.14600372314453;1666337530.8649771;-22.877613067626953;27.595359802246094;-53.29963684082031
200;1666337531.066033;46.9758174;7.179977999999999;59.16100311279297;1666337531.071889;-25.677074432373047;27.976367950439453;-31.480907440185547
201;1666337531.292468;46.9758207;7.1799738;59.14400100708008;1666337531.2983234;-21.35525894165039;31.91936492919922;-21.565855026245117
202;1666337531.499377;46.9758253;7.1799722;59.169002532958984;1666337531.5023048;-15.171350479125977;26.092378616333008;-8.170055389404297
203;1666337531.6926281;46.9758302;7.1799731;59.18400192260742;1666337531.696531;-9.488829612731934;30.477283477783203;0.05528438091278076
204;1666337531.9024673;46.975835;7.179976099999999;59.173004150390625;1666337531.9063697;-10.70642375946045;25.177936553955078;1.5347214937210083
205;1666337532.1201136;46.975839699999995;7.1799808;59.182003021240234;1666337532.1210907;-10.639183044433594;11.062216758728027;-4.211386680603027
206;1666337532.304583;46.975844099999996;7.1799857;59.16200256347656;1666337532.3084857;-4.337962627410889;1.1838709115982056;-12.479690551757812
207;1666337532.506611;46.9758481;7.179989699999999;59.12600326538086;1666337532.5095417;0.38528957962989807;-20.70102310180664;-20.934083938598633
208;1666337532.7214615;46.9758509;7.1799915;59.12700271606445;1666337532.7248695;4.53278112411499;-37.61869430541992;-41.15205001831055
209;1666337533.0308726;46.9758517;7.1799909;59.13500213623047;1666337533.036728;1.6174447536468506;-36.0345458984375;-53.77837371826172
210;1666337533.2280247;46.9758502;7.1799878999999995;59.1400032043457;1666337533.232907;-7.419910907745361;-41.42654037475586;-61.43839645385742
211;1666337533.4339638;46.9758469;7.1799829;59.16400146484375;1666337533.4368894;-16.63877296447754;-23.339319229125977;-75.98680114746094
212;1666337533.635016;46.9758431;7.179977;59.14400100708008;1666337533.639897;-21.085453033447266;-7.855263710021973;-86.39600372314453
213;1666337533.846037;46.9758394;7.1799702;59.12200164794922;1666337533.8489645;-19.98853874206543;12.341985702514648;-85.8775634765625
214;1666337534.044165;46.9758371;7.1799626;59.14200210571289;1666337534.0509963;-18.807884216308594;29.66403579711914;-72.07969665527344
215;1666337534.2530267;46.9758369;7.179955499999999;59.16100311279297;1666337534.2569296;-24.352371215820312;29.179454803466797;-51.918853759765625
216;1666337534.455057;46.9758387;7.1799497;59.13900375366211;1666337534.462867;-24.167980194091797;32.73284912109375;-39.876888275146484
217;1666337534.6580653;46.975842799999995;7.1799459;59.15700149536133;1666337534.664897;-19.2762393951416;28.43010139465332;-26.348682403564453
218;1666337534.8679068;46.975847699999996;7.179944;59.14400100708008;1666337534.8718138;-13.668781280517578;24.41221809387207;-17.864360809326172
219;1666337535.079698;46.975853;7.1799444;59.12700271606445;1666337535.0855553;-0.31184789538383484;29.685611724853516;-12.785308837890625
220;1666337535.2866127;46.975858099999996;7.179946999999999;59.138004302978516;1666337535.293442;3.423227548599243;24.174863815307617;-19.490800857543945
221;1666337535.5062132;46.975862799999994;7.1799509;59.125003814697266;1666337535.5101166;1.5976150035858154;13.115159034729004;-29.082592010498047
222;1666337535.7101963;46.975867;7.1799553;59.09300231933594;1666337535.7170274;0.6762160062789917;0.45029571652412415;-38.823402404785156
223;1666337535.9122324;46.9758705;7.179958999999999;59.05400466918945;1666337535.9171066;-4.4257893562316895;-16.778614044189453;-44.788516998291016
224;1666337536.1181967;46.9758728;7.179961;59.01900100708008;1666337536.121091;-5.224654674530029;-34.02356719970703;-53.18772888183594
225;1666337536.3201964;46.9758729;7.1799602;59.01400375366211;1666337536.3270278;-9.538378715515137;-51.80706787109375;-64.82939910888672
226;1666337536.5329692;46.9758705;7.179956499999999;59.00100326538086;1666337536.537845;-24.47113037109375;-15.249289512634277;-75.79581451416016
227;1666337536.7379231;46.9758673;7.179951;59.00700378417969;1666337536.7408516;-31.509122848510742;-16.856077194213867;-81.30721282958984
228;1666337536.9350762;46.975864;7.1799436;59.02300262451172;1666337536.942883;-24.57177734375;-1.0580391883850098;-82.69689178466797
229;1666337537.1458936;46.9758613;7.1799352999999995;59.02100372314453;1666337537.1507738;-16.19132423400879;25.388057708740234;-74.68667602539062
230;1666337537.3537815;46.975860499999996;7.1799273999999995;59.02400207519531;1666337537.3547573;-21.045177459716797;34.40366744995117;-56.36227798461914
231;1666337537.556788;46.975862199999995;7.1799209;59.05800247192383;1666337537.5606925;-20.290714263916016;30.34107780456543;-36.803707122802734
232;1666337537.7763884;46.9758656;7.1799167;59.06300354003906;1666337537.7812731;-17.02581214904785;31.86431312561035;-24.536766052246094
233;1666337537.9940367;46.9758699;7.1799149;59.05000305175781;1666337537.9969652;-7.468835353851318;34.80365753173828;-19.12807273864746
234;1666337538.1872876;46.975874499999996;7.1799162;59.060001373291016;1666337538.1902132;-1.1291180849075317;34.16728591918945;-11.018174171447754
235;1666337538.4010313;46.9758789;7.1799199;59.066001892089844;1666337538.402983;-7.130080223083496;23.672197341918945;-10.981647491455078
236;1666337538.598182;46.9758833;7.179925;59.05900192260742;1666337538.6001356;-11.20373821258545;14.194640159606934;-17.144174575805664
237;1666337538.8080227;46.9758876;7.179930199999999;59.05000305175781;1666337538.8129017;-9.997243881225586;-2.5578415393829346;-23.200056076049805
238;1666337538.9944396;46.9758917;7.1799341;59.02400207519531;1666337538.997366;-12.174853324890137;-24.3325252532959;-30.940860748291016
239;1666337539.2003744;46.9758949;7.1799348;59.02800369262695;1666337539.2062294;-14.780434608459473;-38.14509582519531;-50.77406692504883
240;1666337539.3955739;46.9758962;7.1799326;59.03900146484375;1666337539.3994784;-9.914253234863281;-43.521690368652344;-66.57374572753906
241;1666337539.6181033;46.9758953;7.1799287;59.02400207519531;1666337539.6249352;-14.6528959274292;-35.92469024658203;-75.89976501464844
242;1666337539.8142803;46.975892599999995;7.179923199999999;59.03600311279297;1666337539.822093;-19.938091278076172;-21.970623016357422;-86.2183837890625
243;1666337540.0153399;46.9758892;7.179916899999999;59.03300094604492;1666337540.0202153;-19.355144500732422;-6.431007385253906;-88.94551086425781
244;1666337540.2261548;46.975885899999994;7.179909599999999;59.02400207519531;1666337540.2310343;-16.211206436157227;13.64827823638916;-84.0256576538086
245;1666337540.4447775;46.9758839;7.179902299999999;59.03700256347656;1666337540.4496577;-15.786439895629883;29.740083694458008;-70.02469635009766
246;1666337540.6565685;46.975884;7.1798955;59.04700469970703;1666337540.6575458;-21.011775970458984;33.359439849853516;-49.45157241821289
247;1666337540.8722641;46.9758861;7.179890599999999;59.03600311279297;1666337540.8771467;-16.684398651123047;36.707054138183594;-37.793365478515625
248;1666337541.088936;46.9758899;7.1798883;59.0420036315918;1666337541.0928438;-8.161528587341309;35.259315490722656;-26.297624588012695
249;1666337541.2978008;46.9758942;7.179888399999999;59.012001037597656;1666337541.3017051;-1.7278996706008911;35.36835861206055;-17.628507614135742
250;1666337541.503737;46.9758986;7.1798915;59.00200271606445;1666337541.5095954;-1.6388988494873047;28.388277053833008;-16.872589111328125
251;1666337541.718458;46.975902999999995;7.1798962;58.9890022277832;1666337541.7213836;-6.857043743133545;20.718719482421875;-21.73297119140625
252;1666337541.9165843;46.9759074;7.1799016;58.99400329589844;1666337541.9224396;-9.042891502380371;7.344940185546875;-29.004919052124023
253;1666337542.13033;46.975911599999996;7.1799064999999995;58.993003845214844;1666337542.1342325;-10.893107414245605;-10.141411781311035;-36.13901901245117
254;1666337542.3313847;46.975915199999996;7.1799094;58.983001708984375;1666337542.3333387;-11.509428977966309;-33.45027542114258;-47.9449462890625
255;1666337542.5285418;46.975916999999995;7.179909299999999;59.01900100708008;1666337542.5334177;-8.173372268676758;-43.179561614990234;-60.73855209350586
256;1666337542.7452083;46.9759168;7.179907099999999;59.01400375366211;1666337542.748137;-11.918583869934082;-39.88690948486328;-66.38590240478516
257;1666337542.9443154;46.9759144;7.1799025;59.02800369262695;1666337542.9618812;-20.819143295288086;-28.05414390563965;-79.70951843261719
258;1666337543.1600118;46.9759111;7.179896599999999;59.031002044677734;1666337543.1658652;-24.894895553588867;-10.655534744262695;-90.90585327148438
259;1666337543.371803;46.9759076;7.1798893999999995;59.02100372314453;1666337543.3757074;-19.8621826171875;9.574758529663086;-92.15069580078125
260;1666337543.5738344;46.9759052;7.1798815;59.0160026550293;1666337543.5816445;-14.540461540222168;30.467477798461914;-81.66475677490234
261;1666337543.7953863;46.975905;7.179873799999999;59.044002532958984;1666337543.799292;-17.53566551208496;33.211246490478516;-59.90174102783203
262;1666337544.0872104;46.975906599999995;7.1798674;59.03000259399414;1666337544.0950215;-14.614970207214355;34.49538803100586;-45.492733001708984
263;1666337544.3087628;46.9759101;7.1798635;59.025001525878906;1666337544.3136418;-1.3152436017990112;39.05537414550781;-38.46690368652344
264;1666337544.5195782;46.9759144;7.179863;59.03400421142578;1666337544.5234852;9.68124771118164;38.54469680786133;-31.659950256347656
265;1666337544.7235622;46.975918899999996;7.179865899999999;59.02900314331055;1666337544.72942;3.007683277130127;32.26460266113281;-25.67222785949707
266;1666337544.929499;46.9759234;7.1798708;59.035003662109375;1666337544.933404;-5.057854652404785;23.456127166748047;-30.281362533569336
267;1666337545.132507;46.975927899999995;7.1798763;59.02800369262695;1666337545.1373875;-5.133046627044678;8.78689956665039;-35.64380645751953
268;1666337545.3335662;46.9759321;7.1798812;58.9890022277832;1666337545.3384447;-10.085867881774902;-6.405160427093506;-40.55929946899414
269;1666337545.539502;46.9759357;7.1798845;58.970001220703125;1666337545.5443797;-10.937246322631836;-25.43714714050293;-49.82579040527344
270;1666337545.7464123;46.9759378;7.1798854;58.94900131225586;1666337545.751293;-9.659274101257324;-43.41334533691406;-59.127716064453125
271;1666337545.9425883;46.9759375;7.1798831;58.9630012512207;1666337545.948444;-17.986881256103516;-35.71589279174805;-73.18711853027344
272;1666337546.2529564;46.9759355;7.179879;58.967002868652344;1666337546.2588124;-23.100875854492188;-24.159610748291016;-82.75171661376953
273;1666337546.4530368;46.9759324;7.179873199999999;58.974002838134766;1666337546.4530368;-25.59590721130371;-11.569707870483398;-93.42797088623047
274;1666337546.6550684;46.975929199999996;7.179866;58.980003356933594;1666337546.6579971;-21.88541030883789;8.176836967468262;-96.48945617675781
275;1666337546.8590543;46.975926699999995;7.1798581;58.96800231933594;1666337546.8629587;-14.113495826721191;30.131032943725586;-87.01668548583984
276;1666337547.063038;46.9759265;7.1798500999999995;58.99800109863281;1666337547.068893;-15.386856079101562;38.23887252807617;-67.13713073730469
277;1666337547.2738554;46.975928599999996;7.1798435;59.02100372314453;1666337547.277757;-26.053146362304688;32.06447219848633;-50.02227783203125
278;1666337547.4758906;46.975932799999995;7.1798386;59.031002044677734;1666337547.4817433;-24.96202850341797;33.553306579589844;-40.878604888916016
279;1666337547.680848;46.9759386;7.1798354;59.02700424194336;1666337547.6847513;-19.520341873168945;30.78608512878418;-32.23048400878906
280;1666337547.886783;46.9759452;7.179834;59.02900314331055;1666337547.8906884;-12.77758502960205;18.418066024780273;-27.58774757385254
281;1666337548.0995514;46.9759518;7.1798334;58.99100112915039;1666337548.101504;-6.4363112449646;-0.27982524037361145;-27.873247146606445
282;1666337548.2918236;46.975957699999995;7.179832599999999;58.98600387573242;1666337548.2976797;-7.163612365722656;-20.373882293701172;-32.90836715698242
283;1666337548.4928803;46.9759625;7.1798305;58.98100280761719;1666337548.496785;-15.683740615844727;-28.965106964111328;-38.54842758178711
284;1666337548.6939373;46.975966;7.1798258;59.00200271606445;1666337548.6968622;-33.82926940917969;-27.93479347229004;-43.596134185791016
285;1666337548.897921;46.9759691;7.1798174999999995;59.07100296020508;1666337548.901825;-47.0752067565918;-18.347387313842773;-44.05815505981445
286;1666337549.099953;46.975972899999995;7.1798062;59.12700271606445;1666337549.1009269;-52.84010696411133;-8.80614185333252;-42.91165542602539
287;1666337549.294176;46.9759781;7.1797926;59.15300369262695;1666337549.300033;-56.36662673950195;2.0168533325195312;-47.76048278808594
288;1666337549.4981594;46.975985699999995;7.179776599999999;59.19700241088867;1666337549.5020635;-57.63762664794922;2.7567667961120605;-44.86417770385742
289;1666337549.7060544;46.9759951;7.1797593;59.2030029296875;1666337549.7109292;-57.396629333496094;-0.0342257134616375;-39.47295379638672
290;1666337549.9207678;46.9760066;7.179740799999999;59.23800277709961;1666337549.924676;-54.36903762817383;3.4550812244415283;-37.352909088134766
291;1666337550.1286561;46.976019699999995;7.1797223;59.26700210571289;1666337550.1296315;-50.834434509277344;-5.63808536529541;-24.792879104614258
292;1666337550.3375227;46.976033799999996;7.1797040999999995;59.28900146484375;1666337550.3404481;-48.668888092041016;-12.147595405578613;-18.77256202697754
293;1666337550.5434566;46.9760487;7.179685999999999;59.29600143432617;1666337550.547363;-47.75861740112305;-11.492506980895996;-15.411811828613281
294;1666337550.7445142;46.9760643;7.1796682999999994;59.316001892089844;1666337550.7493923;-44.23287582397461;-14.269542694091797;-9.416901588439941
295;1666337550.9514258;46.9760801;7.1796513;59.31700134277344;1666337550.9533782;-41.60927200317383;-13.04314136505127;-7.416045665740967
296;1666337551.1427255;46.9760961;7.1796352;59.302001953125;1666337551.1485791;-40.410926818847656;-9.746614456176758;-7.630520343780518
297;1666337551.3506117;46.976112;7.179620099999999;59.285003662109375;1666337551.3554902;-37.3825798034668;-11.980229377746582;-6.1904191970825195
298;1666337551.5663073;46.9761278;7.1796058;59.2760009765625;1666337551.5731387;-34.60466003417969;-16.72392463684082;-4.325460910797119
299;1666337551.7741935;46.976143199999996;7.1795921;59.263004302978516;1666337551.7790732;-35.47578430175781;-16.393165588378906;-4.044050693511963
300;1666337551.9879377;46.976158399999996;7.1795785;59.28600311279297;1666337551.9889143;-41.74684143066406;-17.722335815429688;-7.126440525054932
301;1666337552.1870437;46.976173599999996;7.179564699999999;59.307003021240234;1666337552.1929002;-46.102657318115234;-19.196748733520508;-13.355854034423828
302;1666337552.384194;46.976188799999996;7.1795503;59.29300308227539;1666337552.3861468;-48.671268463134766;-18.65679359436035;-23.436920166015625
303;1666337552.6906583;46.976203999999996;7.1795342;59.30400466918945;1666337552.6926103;-52.599056243896484;-18.16958999633789;-31.598249435424805
304;1666337552.8946426;46.976219;7.179516;59.31500244140625;1666337552.897572;-55.642120361328125;-10.764840126037598;-42.452430725097656
305;1666337553.0976517;46.9762339;7.1794956999999995;59.31900405883789;1666337553.101555;-58.40678024291992;2.444729804992676;-49.27606964111328
306;1666337553.2967548;46.976249499999994;7.1794739;59.32500457763672;1666337553.2996829;-60.58695602416992;7.5199432373046875;-47.957305908203125
307;1666337553.501715;46.9762661;7.1794514;59.33200454711914;1666337553.504643;-59.01462936401367;5.981098175048828;-41.24906921386719
308;1666337553.700821;46.976283699999996;7.179428799999999;59.30900192260742;1666337553.704726;-52.53277587890625;-0.9014748930931091;-39.9112434387207
309;1666337553.89895;46.9763017;7.179405999999999;59.323001861572266;1666337553.9018757;-47.81582260131836;0.919256329536438;-44.2525520324707
310;1666337554.105864;46.976319499999995;7.179383499999999;59.329002380371094;1666337554.1097655;-42.83571243286133;-0.19308920204639435;-43.4005012512207
311;1666337554.3127723;46.976336599999996;7.1793615;59.314002990722656;1666337554.3166776;-36.31196975708008;-9.872151374816895;-37.37335968017578
312;1666337554.5411556;46.976352899999995;7.179339799999999;59.29700469970703;1666337554.5450613;-39.53789520263672;-12.980215072631836;-33.946353912353516
313;1666337554.7431908;46.9763685;7.1793184;59.290000915527344;1666337554.7490456;-40.67134094238281;13.88969898223877;-46.92616271972656
314;1666337554.949124;46.976383899999995;7.179298299999999;59.250003814697266;1666337554.9530282;-40.79829025268555;3.2784512042999268;-38.392173767089844
315;1666337555.1570127;46.976399099999995;7.1792791;59.21800231933594;1666337555.1618922;-38.455596923828125;-9.213203430175781;-32.959354400634766
316;1666337555.3678296;46.976413699999995;7.1792606;59.17200469970703;1666337555.3688066;-34.336307525634766;-1.1036933660507202;-37.69705581665039
317;1666337555.5659566;46.9764275;7.1792428;59.12200164794922;1666337555.5688858;-29.596799850463867;-2.9422590732574463;-36.21220779418945
318;1666337555.767015;46.976440499999995;7.179226;59.07600402832031;1666337555.7709184;-24.269750595092773;-2.389958381652832;-35.915306091308594
319;1666337555.9719737;46.976452599999995;7.1792105;59.035003662109375;1666337555.9768546;-17.89667320251465;-1.330210566520691;-35.8243293762207
320;1666337556.1818132;46.9764634;7.1791963999999995;58.993003845214844;1666337556.1827898;-10.770540237426758;-0.23841819167137146;-36.30209732055664
321;1666337556.3897035;46.976473;7.179183999999999;58.961002349853516;1666337556.390678;-4.3423919677734375;-0.15224264562129974;-37.57506561279297
322;1666337556.5936894;46.976481199999995;7.1791735999999995;58.93000411987305;1666337556.5985694;0.9933010339736938;0.4135224521160126;-40.6606559753418
323;1666337556.8113353;46.976487899999995;7.1791648;58.893001556396484;1666337556.813287;3.007021188735962;-0.2946426570415497;-42.82183074951172
324;1666337557.0202005;46.9764932;7.1791578;58.85600280761719;1666337557.023129;4.750664710998535;1.0459213256835938;-42.943973541259766
325;1666337557.226138;46.9764973;7.1791523999999995;58.83100128173828;1666337557.2329667;5.256967067718506;2.033806324005127;-42.65867233276367
326;1666337557.4418302;46.9765004;7.179148199999999;58.816001892089844;1666337557.4496381;4.110450267791748;2.7222952842712402;-42.025516510009766
327;1666337557.636055;46.9765029;7.1791453;58.80600357055664;1666337557.6428866;1.8022445440292358;2.3112871646881104;-41.332679748535156
328;1666337557.841018;46.9765048;7.1791431999999995;58.801002502441406;1666337557.8449244;-0.8406041860580444;1.3553663492202759;-40.973628997802734
329;1666337558.0420716;46.9765064;7.1791415999999995;58.801002502441406;1666337558.0489075;-2.8858511447906494;0.2838782072067261;-40.98597717285156
330;1666337558.2558186;46.9765078;7.1791402;58.810001373291016;1666337558.2567918;-4.021749496459961;-0.2370896190404892;-41.452232360839844
331;1666337558.4637039;46.976509;7.1791388;58.8280029296875;1666337558.468586;-3.861906051635742;-0.3091742992401123;-41.955772399902344
332;1666337558.669643;46.9765101;7.1791374999999995;58.84800338745117;1666337558.674521;-4.89866828918457;-0.1397411972284317;-42.161800384521484
333;1666337558.8707004;46.9765112;7.1791361;58.8650016784668;1666337558.8746011;-6.67060661315918;-0.03622237965464592;-42.11891174316406
334;1666337559.075659;46.976512299999996;7.1791347;58.87300109863281;1666337559.0776098;-6.8976922035217285;0.08996099978685379;-42.12946701049805
335;1666337559.2708566;46.976513499999996;7.1791332;58.87800216674805;1666337559.273786;-5.036288261413574;-0.1399480104446411;-42.11577224731445
336;1666337559.4728882;46.976514599999994;7.1791317;58.88500213623047;1666337559.4738657;-2.8029534816741943;-0.07108840346336365;-42.14461898803711
337;1666337559.6788247;46.9765156;7.1791303;58.88900375366211;1666337559.6817534;0.14730799198150635;0.07289598137140274;-41.91582489013672
338;1666337559.8857367;46.976516499999995;7.1791291;58.89500427246094;1666337559.888664;1.3019940853118896;0.31703057885169983;-41.601531982421875
339;1666337560.0897214;46.976517199999996;7.1791281;58.90400314331055;1666337560.0965557;-4.625358581542969;0.2864116132259369;-42.045143127441406
340;1666337560.2927313;46.976518;7.1791268;58.93800354003906;1666337560.2956586;-22.611175537109375;0.4414118528366089;-45.954620361328125
341;1666337560.4918354;46.9765197;7.1791243;59.013004302978516;1666337560.494765;-41.68526077270508;0.35377541184425354;-47.58763122558594
342;1666337560.6909373;46.9765228;7.179119399999999;59.08700180053711;1666337560.6928897;-50.9641227722168;1.4137614965438843;-52.99191665649414
343;1666337560.8919933;46.9765276;7.1791111999999995;59.16400146484375;1666337560.8968742;-53.6901969909668;-1.8623054027557373;-50.5428466796875
344;1666337561.1057382;46.9765339;7.1791;59.208003997802734;1666337561.1086717;-54.194339752197266;-2.4759113788604736;-47.536861419677734
345;1666337561.3116753;46.9765418;7.179086099999999;59.24700164794922;1666337561.3155775;-53.660003662109375;3.369819164276123;-51.098419189453125
346;1666337561.5176122;46.976551;7.1790702;59.2760009765625;1666337561.5205383;-51.46531295776367;1.9337852001190186;-50.15216827392578
347;1666337561.7450185;46.9765611;7.179053;59.285003662109375;1666337561.7479482;-48.45685577392578;-2.5988593101501465;-44.71665573120117
348;1666337561.947051;46.976571899999996;7.179034799999999;59.30600357055664;1666337561.950958;-46.007179260253906;-1.071401834487915;-48.995567321777344
349;1666337562.1607947;46.976583;7.179016;59.32600402832031;1666337562.163723;-45.61876678466797;-1.4099327325820923;-49.40873336791992
350;1666337562.3628275;46.9765942;7.178996799999999;59.320003509521484;1666337562.3638039;-46.29844665527344;0.9926709532737732;-50.938899993896484
351;1666337562.5726674;46.9766057;7.178977;59.32400131225586;1666337562.5765727;-49.4129753112793;0.36369606852531433;-49.45475387573242
352;1666337562.785436;46.976617499999996;7.1789567;59.32500457763672;1666337562.7893393;-51.27607727050781;-0.08791748434305191;-49.49108123779297
353;1666337562.990396;46.976629599999995;7.1789359;59.30400466918945;1666337563.0001566;-51.557952880859375;1.1630345582962036;-50.28956985473633
354;1666337563.1875474;46.9766421;7.1789143;59.31200408935547;1666337563.1914518;-52.10770797729492;0.7215616703033447;-50.006717681884766
355;1666337563.4051979;46.976655;7.178892299999999;59.30800247192383;1666337563.406173;-51.3763542175293;0.0657494068145752;-49.64105987548828
356;1666337563.590638;46.9766681;7.1788699;59.28300094604492;1666337563.5945413;-51.16741180419922;0.8361557722091675;-50.02482604980469
357;1666337563.7916925;46.9766815;7.1788469;59.275001525878906;1666337563.7946203;-52.232810974121094;0.48215246200561523;-50.109519958496094
358;1666337563.9995835;46.976695199999995;7.1788235;59.272003173828125;1666337564.004461;-51.66154861450195;-0.3489519953727722;-49.46596145629883
359;1666337564.2103958;46.976709;7.1787999;59.24900436401367;1666337564.2162519;-50.8358039855957;1.140552043914795;-50.36585235595703
360;1666337564.4143822;46.976723;7.1787757999999995;59.24700164794922;1666337564.4192643;-51.71052932739258;0.4093949496746063;-49.830162048339844
361;1666337564.632031;46.9767371;7.178751699999999;59.2400016784668;1666337564.637885;-50.40049743652344;-0.5435099005699158;-49.03116989135742
362;1666337564.8389423;46.9767513;7.1787274;59.224002838134766;1666337564.8438218;-50.08384704589844;1.1714705228805542;-50.35429000854492
363;1666337565.0468295;46.9767655;7.178702899999999;59.22700119018555;1666337565.0487819;-51.43523025512695;0.3061881959438324;-49.97909164428711
364;1666337565.2722886;46.9767799;7.1786783;59.21900177001953;1666337565.2752147;-48.28837966918945;-1.376970648765564;-48.820980072021484
365;1666337565.480176;46.9767941;7.1786539;59.18400192260742;1666337565.4821315;-40.19437789916992;6.385965347290039;-52.18821716308594
366;1666337565.692945;46.976808;7.178630399999999;59.15300369262695;1666337565.699774;-34.484012603759766;-1.6046948432922363;-45.72107696533203
367;1666337565.9174523;46.976821099999995;7.178608199999999;59.11900329589844;1666337565.9203799;-30.09479522705078;-5.481449604034424;-43.42852783203125
368;1666337566.1058278;46.9768335;7.1785872;59.08200454711914;1666337566.1077716;-25.685258865356445;-2.76206374168396;-44.48427200317383
369;1666337566.3137093;46.976844799999995;7.1785676;59.04500198364258;1666337566.3166356;-21.005813598632812;-2.8314895629882812;-43.711090087890625
370;1666337566.5284321;46.976855199999996;7.178549599999999;59.009002685546875;1666337566.5323312;-15.10251235961914;-1.5949410200119019;-43.79509353637695
371;1666337566.8446546;46.976864299999995;7.1785334999999995;58.980003356933594;1666337566.8466036;-8.810979843139648;-0.36822840571403503;-44.6577033996582
372;1666337567.043758;46.9768724;7.178519499999999;58.954002380371094;1666337567.0457106;-2.795027732849121;0.2674574851989746;-46.59321594238281
373;1666337567.2428613;46.9768791;7.1785076;58.923004150390625;1666337567.2457886;0.8424575328826904;-0.059781406074762344;-48.61389923095703
374;1666337567.4507568;46.9768845;7.1784981;58.8900032043457;1666337567.4556286;2.7346818447113037;0.4102400839328766;-49.33953094482422
375;1666337567.664495;46.9768888;7.1784905;58.862003326416016;1666337567.6703522;3.816981792449951;0.9527549743652344;-49.39228820800781
376;1666337567.8694525;46.976892199999995;7.1784845;58.836002349853516;1666337567.8753095;3.9096808433532715;1.4793264865875244;-49.1602897644043
377;1666337568.0939338;46.9768948;7.1784799999999995;58.81900405883789;1666337568.0958853;2.7390148639678955;2.2413594722747803;-48.8421630859375
378;1666337568.2871835;46.9768968;7.1784764999999995;58.803001403808594;1666337568.2910852;0.6412212252616882;1.310322642326355;-48.390464782714844
379;1666337568.5038574;46.9768985;7.1784738;58.7920036315918;1666337568.510687;-2.4146275520324707;1.6145970821380615;-48.322105407714844
380;1666337568.7127185;46.976900099999995;7.1784716;58.790000915527344;1666337568.7195506;-5.413873195648193;0.82145756483078;-48.35383605957031
381;1666337568.9088957;46.9769015;7.178469499999999;58.79700469970703;1666337568.9147515;-6.94882345199585;-0.27957940101623535;-48.637271881103516
382;1666337569.1128795;46.9769029;7.1784675;58.80400466918945;1666337569.117768;-4.205201625823975;-0.2771866023540497;-49.17986297607422
383;1666337569.3080797;46.9769041;7.1784655;58.811004638671875;1666337569.31491;-2.060554027557373;-0.04038885235786438;-49.525733947753906
384;1666337569.510112;46.976905099999996;7.178463799999999;58.816001892089844;1666337569.5130382;-1.6236443519592285;-0.14524362981319427;-49.86833953857422
385;1666337569.7140944;46.9769061;7.1784621;58.82100296020508;1666337569.717026;-1.7932814359664917;0.3216498792171478;-50.08985900878906
386;1666337569.9200308;46.976906899999996;7.178460599999999;58.82500457763672;1666337569.9229608;-2.3179144859313965;0.6709790229797363;-49.96670150756836
387;1666337570.125005;46.9769077;7.1784590999999995;58.829002380371094;1666337570.1308494;-3.1578867435455322;0.7354001402854919;-49.42786407470703
388;1666337570.3309286;46.9769085;7.1784577;58.83100128173828;1666337570.3397107;-2.5767030715942383;0.5327351689338684;-49.08171463012695
389;1666337570.5368657;46.976909199999994;7.178456499999999;58.83100128173828;1666337570.5397923;-1.051660180091858;1.5567010641098022;-49.06235122680664
390;1666337570.756463;46.976909899999995;7.1784557;58.92200469970703;1666337570.759395;9.43248176574707;7.121332168579102;-43.80827331542969
391;1666337570.9623995;46.976910499999995;7.178456;59.09300231933594;1666337570.97216;4.56905460357666;16.099285125732422;-36.456398010253906
392;1666337571.1683373;46.9769115;7.178458099999999;59.3650016784668;1666337571.17029;-3.9034063816070557;40.6024169921875;-24.428865432739258
393;1666337571.373297;46.9769139;7.1784636;59.69200134277344;1666337571.3772008;-21.04683494567871;46.29287338256836;-9.834283828735352
394;1666337571.5880163;46.9769181;7.1784735;60.073001861572266;1666337571.59192;-40.38740921020508;32.158119201660156;4.77603816986084
395;1666337571.7998092;46.976924399999994;7.1784868;60.52300262451172;1666337571.8046904;-49.042720794677734;20.08949851989746;18.413484573364258
396;1666337572.0067205;46.9769326;7.1785022;60.95700454711914;1666337572.010624;-50.96053695678711;12.413475036621094;28.358951568603516
397;1666337572.2136326;46.976942799999996;7.178519499999999;61.40400314331055;1666337572.2175379;-48.6356315612793;13.151017189025879;17.497882843017578
398;1666337572.4098105;46.9769547;7.1785372;61.85400390625;1666337572.412738;-44.44417190551758;20.370683670043945;4.620687961578369
399;1666337572.6225784;46.976967699999996;7.1785549;62.28400421142578;1666337572.6255064;-39.31374740600586;30.654098510742188;-4.995397090911865
400;1666337572.8255877;46.9769818;7.1785729;62.72500228881836;1666337572.8294895;-29.394424438476562;34.429779052734375;-13.103455543518066
401;1666337573.0344503;46.976996199999995;7.178591099999999;63.18700408935547;1666337573.0412831;-23.549013137817383;39.59048080444336;-20.52794647216797
402;1666337573.2452655;46.9770107;7.178609499999999;63.566001892089844;1666337573.24917;-18.2895565032959;49.36581039428711;-20.008777618408203
403;1666337573.4785297;46.9770251;7.1786294999999996;63.919002532958984;1666337573.4814591;-23.794897079467773;37.128204345703125;-4.34046745300293
404;1666337573.6864185;46.977039;7.1786505;64.3030014038086;1666337573.689348;-29.420246124267578;28.091821670532227;11.5699462890625
405;1666337573.9138258;46.977052199999996;7.1786715999999995;64.6550064086914;1666337573.9177303;-33.081424713134766;18.795141220092773;29.859663009643555
406;1666337574.1187894;46.9770647;7.178692799999999;65.02300262451172;1666337574.12367;-33.305667877197266;0.6079593300819397;43.3102912902832
407;1666337574.3217957;46.9770768;7.1787133;65.406005859375;1666337574.3237474;-38.02724838256836;-0.33740776777267456;43.68878173828125
408;1666337574.5111387;46.9770888;7.178732999999999;65.77200317382812;1666337574.5179737;-43.33513641357422;-2.3024415969848633;46.27080154418945
409;1666337574.7258594;46.9771011;7.1787525;66.09200286865234;1666337574.7287874;-47.36870193481445;-4.572641372680664;47.66733932495117
410;1666337574.9405818;46.977114;7.1787721;66.39500427246094;1666337574.9435086;-47.907379150390625;-6.408426761627197;44.07264709472656
411;1666337575.1523712;46.977127499999995;7.1787912;66.66900634765625;1666337575.1562748;-43.83525848388672;-2.342712640762329;40.52779769897461
412;1666337575.3446434;46.9771412;7.1788099;66.90900421142578;1666337575.3495262;-39.91142654418945;-0.8620115518569946;41.725032806396484
413;1666337575.5398438;46.9771548;7.1788281;67.13300323486328;1666337575.5427752;-36.682804107666016;-1.1282023191452026;43.34417724609375
414;1666337575.7574947;46.9771681;7.1788456;67.33700561523438;1666337575.76042;-32.826904296875;-0.1297488659620285;43.35149002075195
415;1666337575.9692857;46.9771808;7.1788623;67.51300048828125;1666337575.9722123;-28.254989624023438;0.849982500076294;43.350677490234375
416;1666337576.1957169;46.977192699999996;7.1788779;67.66300201416016;1666337576.199621;-22.66136360168457;1.4783426523208618;43.77680587768555
