;pos_time;latitude;longitude;altitude;alt_time;pitch;roll;yaw
0;1666352435.7032695;46.9755343;7.1803558;0.026000000536441803;1666352435.8545494;-0.41319599747657776;-0.5018083453178406;91.46846008300781
1;1666352435.92482;46.9755343;7.1803558999999995;0.0;1666352436.066341;-0.6318957209587097;-0.780957043170929;91.5201187133789
2;1666352436.1249018;46.9755343;7.1803558999999995;-0.004000000189989805;1666352436.2634933;-0.21182744204998016;-0.8572685122489929;91.47857666015625
3;1666352436.3259556;46.9755343;7.1803558999999995;-0.004000000189989805;1666352436.4664996;-0.37132781744003296;-1.0637896060943604;91.49368286132812
4;1666352436.526037;46.9755343;7.180356;-0.0020000000949949026;1666352436.668533;-0.6152214407920837;-0.7723832130432129;91.46538543701172
5;1666352436.7376535;46.9755343;7.180356;-0.0020000000949949026;1666352436.8865173;-0.557891309261322;-0.7274052500724792;91.36939239501953
6;1666352436.9480052;46.9755343;7.1803561;-0.006000000052154064;1666352437.0812545;-0.5327311158180237;-0.858790397644043;91.46324157714844
7;1666352437.1461842;46.9755343;7.1803561;-0.015000000596046448;1666352437.278461;-0.4670298993587494;-0.7489606142044067;91.42338562011719
8;1666352437.3428762;46.9755343;7.180356;-0.024000000208616257;1666352437.5029404;-0.37079015374183655;-0.5207434296607971;91.30586242675781
9;1666352437.5634537;46.9755343;7.180356;-0.007000000216066837;1666352437.733278;-0.4971587061882019;-0.46693336963653564;91.28665924072266
10;1666352437.8015964;46.9755343;7.1803558999999995;-0.012000000104308128;1666352437.9304285;-0.5983741879463196;-0.1970646232366562;91.39111328125
11;1666352437.99582;46.9755343;7.1803558999999995;-0.014000000432133675;1666352438.1441736;-0.43927937746047974;-0.2971334755420685;91.32308959960938
12;1666352438.2124927;46.9755343;7.180356;-0.01600000075995922;1666352438.3374228;0.043486546725034714;-0.34615954756736755;91.34889221191406
13;1666352438.4034386;46.9755343;7.180356;-0.017000000923871994;1666352438.533524;-0.4357697665691376;-0.25533708930015564;91.35945129394531
14;1666352438.5920844;46.9755344;7.1803558999999995;0.0;1666352438.7677658;-0.31071197986602783;-0.2749740779399872;91.27448272705078
15;1666352438.8458447;46.9755344;7.1803558999999995;0.003000000026077032;1666352438.9913006;-0.09027736634016037;-0.11284460127353668;91.41363525390625
16;1666352439.052627;46.9755343;7.1803558;0.013000000268220901;1666352439.2034626;-0.21222765743732452;-0.5041265487670898;91.65217590332031
17;1666352439.2854478;46.9755343;7.1803558;0.04100000113248825;1666352439.4474652;0.3336893320083618;1.7261170148849487;91.2528076171875
18;1666352439.5099275;46.9755343;7.1803558;0.09700000286102295;1666352439.663158;-0.5553301572799683;3.3706037998199463;90.77288055419922
19;1666352439.724646;46.9755342;7.1803557;0.2110000103712082;1666352439.8593366;-2.0728819370269775;-2.8397490978240967;91.19853210449219
20;1666352440.0369666;46.975533999999996;7.1803555999999995;0.37300002574920654;1666352440.1706789;-4.213434219360352;-0.5453771948814392;90.9044418334961
21;1666352440.2317042;46.9755337;7.1803555;0.5890000462532043;1666352440.3757145;-3.5982677936553955;-3.460513114929199;91.44957733154297
22;1666352440.4346244;46.9755335;7.1803552999999996;0.8600000143051147;1666352440.5795865;-3.6448986530303955;-3.0596137046813965;91.6273193359375
23;1666352440.6332664;46.975533399999996;7.180355;1.183000087738037;1666352440.761986;-3.3646132946014404;-2.833087921142578;91.55923461914062
24;1666352440.8381114;46.975533399999996;7.1803548;1.559000015258789;1666352440.984757;-3.8581581115722656;-5.591390132904053;98.30369567871094
25;1666352441.0481982;46.9755335;7.180354899999999;1.9790000915527344;1666352441.1985013;-0.9947075247764587;-5.310797691345215;96.76964569091797
26;1666352441.2609646;46.9755338;7.1803557;2.4280002117156982;1666352441.3946772;2.1485378742218018;-2.431086301803589;95.83740234375
27;1666352441.4483604;46.9755343;7.180356799999999;2.9000000953674316;1666352441.6011267;3.4848856925964355;-2.241973638534546;95.33975982666016
28;1666352441.6728897;46.9755347;7.1803577999999995;3.3970000743865967;1666352441.809529;6.31295108795166;-1.3151365518569946;95.18748474121094
29;1666352441.8924885;46.975535099999995;7.1803585;3.92900013923645;1666352442.039866;10.306304931640625;-0.187367245554924;95.33592987060547
30;1666352442.099402;46.9755353;7.180358399999999;4.50600004196167;1666352442.2731283;12.765655517578125;-3.9045581817626953;95.3317642211914
31;1666352442.3316908;46.9755356;7.1803573;5.127000331878662;1666352442.473209;11.288179397583008;-2.7238082885742188;95.22833251953125
32;1666352442.543482;46.9755362;7.1803552999999996;5.777000427246094;1666352442.6820736;4.80798864364624;3.3342220783233643;95.28007507324219
33;1666352442.7523477;46.975536899999994;7.1803531;6.450000286102295;1666352442.8899615;-2.9669854640960693;3.1831204891204834;95.22903442382812
34;1666352442.9514537;46.9755374;7.1803512;7.141000270843506;1666352443.0968769;-8.53466510772705;3.9757676124572754;95.73556518554688
35;1666352443.158363;46.975537599999996;7.1803501999999995;7.847000598907471;1666352443.3184273;-9.346063613891602;6.278244495391846;95.84835815429688
36;1666352443.3760128;46.975537599999996;7.1803501999999995;8.559000015258789;1666352443.539003;-7.754349231719971;5.826371669769287;95.58942413330078
37;1666352443.604396;46.9755372;7.1803509;9.276000022888184;1666352443.8493714;-5.94395637512207;0.9572664499282837;95.99960327148438
38;1666352443.9089088;46.9755366;7.1803522;9.994000434875488;1666352444.0523791;-2.172593832015991;-0.09587175399065018;96.13603973388672
39;1666352444.1372945;46.9755359;7.180353299999999;10.7160005569458;1666352444.2680752;0.29235053062438965;-2.1003215312957764;96.9021224975586
40;1666352444.3315136;46.975535099999995;7.1803539999999995;11.443000793457031;1666352444.4662044;2.950752019882202;-7.875284671783447;98.25132751464844
41;1666352444.5276904;46.975534599999996;7.1803542;12.17400074005127;1666352444.6711621;1.899829387664795;-0.5074567198753357;97.45353698730469
42;1666352444.7336264;46.9755343;7.1803541;12.91300106048584;1666352444.878075;-1.2177659273147583;-3.672698736190796;96.59752655029297
43;1666352444.9405382;46.975533899999995;7.1803539;13.680000305175781;1666352445.101579;-0.4141627848148346;-12.298911094665527;96.46034240722656
44;1666352445.1611223;46.975533999999996;7.1803542;14.472001075744629;1666352445.3026347;2.421445846557617;8.465373039245605;95.57758331298828
45;1666352445.35827;46.9755344;7.1803548;15.28800106048584;1666352445.5027149;3.1044294834136963;-0.4727267026901245;95.63443756103516
46;1666352445.5661583;46.9755344;7.1803552999999996;16.121000289916992;1666352445.8023474;2.5828375816345215;-5.252377986907959;95.97221374511719
47;1666352445.8628592;46.9755347;7.1803558999999995;16.972000122070312;1666352446.013681;3.348010540008545;11.828754425048828;95.36036682128906
48;1666352446.0751696;46.975535;7.180356199999999;17.847000122070312;1666352446.221568;1.4108328819274902;4.0063862800598145;95.92939758300781
49;1666352446.2811043;46.9755347;7.180356199999999;18.72300148010254;1666352446.4460485;-0.6473632454872131;-8.424638748168945;97.31684112548828
50;1666352446.505587;46.975534599999996;7.180356;19.612001419067383;1666352446.6451542;-1.2698415517807007;9.950093269348145;95.05118560791016
51;1666352446.7085931;46.975534599999996;7.1803558;20.53900146484375;1666352446.86378;-3.5426273345947266;0.7562347650527954;96.2270736694336
52;1666352446.9242914;46.975533999999996;7.1803552999999996;21.475000381469727;1666352447.0716648;-3.2123851776123047;-12.749366760253906;97.47412109375
53;1666352447.1438987;46.9755336;7.180354899999999;22.413002014160156;1666352447.2756493;-2.6868317127227783;7.496410369873047;95.19873809814453
54;1666352447.3478742;46.975533399999996;7.1803545;23.382001876831055;1666352447.4835389;-2.070333957672119;-8.252140045166016;96.55877685546875
55;1666352447.5430756;46.9755329;7.180354299999999;24.36400032043457;1666352447.6806915;-0.7272570729255676;-7.188462734222412;95.9210205078125
56;1666352447.755841;46.9755329;7.1803544;25.339000701904297;1666352447.9080997;1.6126126050949097;5.630498886108398;95.61680603027344
57;1666352447.9705632;46.9755329;7.1803547;26.36800193786621;1666352448.1198907;1.6370609998703003;-3.376697540283203;95.1942367553711
58;1666352448.1794262;46.975532799999996;7.180355199999999;27.39200210571289;1666352448.3131397;1.4730753898620605;2.20003604888916;94.65385437011719
59;1666352448.3736498;46.975533;7.1803558;28.387001037597656;1666352448.5151715;2.950690269470215;7.897584438323975;95.17927551269531
60;1666352448.5747077;46.975533;7.1803563;29.356000900268555;1666352448.7367227;3.0565736293792725;-7.53725004196167;97.07784271240234
61;1666352448.7962618;46.9755331;7.1803563;30.309001922607422;1666352448.9387546;0.9226735830307007;3.82480788230896;96.06365966796875
62;1666352449.0178134;46.9755335;7.1803561;31.27800178527832;1666352449.2618122;-1.8728941679000854;5.715066432952881;95.90824890136719
63;1666352449.3389165;46.9755335;7.1803555999999995;32.272003173828125;1666352449.479459;-6.223531723022461;-9.421278953552246;96.58554077148438
64;1666352449.546805;46.9755332;7.1803551;33.246002197265625;1666352449.680517;-7.864129066467285;3.1713950634002686;95.26427459716797
65;1666352449.7498121;46.9755331;7.1803551;34.220001220703125;1666352449.8893793;-4.925907135009766;-0.8579013347625732;96.32267761230469
66;1666352449.9489179;46.975532699999995;7.1803555;35.19600296020508;1666352450.096291;1.5977907180786133;-10.418302536010742;96.43977355957031
67;1666352450.1977956;46.9755325;7.1803561;36.16400146484375;1666352450.359812;6.985823631286621;3.469024181365967;95.2956771850586
68;1666352450.4222777;46.9755325;7.1803563;37.11600112915039;1666352450.5755103;5.891061305999756;-6.899162292480469;96.12116241455078
69;1666352450.6340675;46.9755325;7.180356199999999;38.052001953125;1666352450.7726605;3.3147664070129395;-2.979675054550171;95.63892364501953
70;1666352450.8302455;46.975533;7.1803558;38.97100067138672;1666352450.9844527;0.516887903213501;10.131279945373535;96.15084838867188
71;1666352451.0449646;46.9755335;7.1803554;39.88800048828125;1666352451.1835556;-2.6854546070098877;-9.242660522460938;96.51786804199219
72;1666352451.2450466;46.975533899999995;7.1803551;40.816001892089844;1666352451.3924224;-2.4345171451568604;4.007021903991699;95.37007904052734
73;1666352451.4558625;46.9755347;7.180355;41.75300216674805;1666352451.6003096;-3.2401342391967773;9.34259033203125;95.06158447265625
74;1666352451.6647255;46.975535;7.180354899999999;42.71200180053711;1666352451.821863;-4.650801658630371;-4.543317794799805;97.09014892578125
75;1666352451.8882296;46.975535099999995;7.180354899999999;43.656002044677734;1666352452.0404859;-3.567082405090332;1.4552679061889648;96.6710433959961
76;1666352452.1029487;46.975535099999995;7.1803551;44.582000732421875;1666352452.2552054;-2.7479937076568604;3.7485463619232178;96.80915069580078
77;1666352452.320597;46.9755347;7.1803555999999995;45.50200271606445;1666352452.4650462;2.056339740753174;-12.577982902526855;96.88590240478516
78;1666352452.534342;46.9755342;7.1803564;46.41400146484375;1666352452.6758633;5.296616077423096;4.491370677947998;95.90415954589844
79;1666352452.7402792;46.9755341;7.180357099999999;47.35200119018555;1666352452.9061968;5.606196880340576;6.358870029449463;96.53142547607422
80;1666352452.9676857;46.9755337;7.1803574;48.2910041809082;1666352453.11116;3.937270402908325;-10.346312522888184;96.37152099609375
81;1666352453.1853337;46.975533399999996;7.1803574;49.21800231933594;1666352453.4400713;0.9991873502731323;5.9419121742248535;95.85570526123047
82;1666352453.508391;46.975533399999996;7.1803571999999996;50.150001525878906;1666352453.6362474;-2.1566219329833984;4.547568321228027;96.19146728515625
83;1666352453.7016394;46.9755331;7.180356799999999;51.083003997802734;1666352453.8490152;-2.981520175933838;-14.83655834197998;97.46952056884766
84;1666352453.9095278;46.975533;7.180356199999999;52.01000213623047;1666352454.048118;-3.4189741611480713;6.9340901374816895;94.47186279296875
85;1666352454.1105828;46.9755332;7.1803558;52.98400115966797;1666352454.2540538;-2.7469325065612793;-2.2598536014556885;95.5812759399414
86;1666352454.3213983;46.9755331;7.1803552999999996;54.02800369262695;1666352454.473654;-1.0283448696136475;-1.3766121864318848;95.1867904663086
87;1666352454.539049;46.975533;7.1803548;54.98200225830078;1666352454.67276;-1.9616338014602661;-1.5886223316192627;95.47269439697266
88;1666352454.8328235;46.9755329;7.1803545;55.7760009765625;1666352455.090487;-1.979570746421814;-1.1161999702453613;95.35305786132812
89;1666352455.1461215;46.975532799999996;7.1803544;56.41100311279297;1666352455.298376;-1.5767847299575806;-2.3838202953338623;95.4223861694336
90;1666352455.3647447;46.975532799999996;7.1803545;56.93100357055664;1666352455.5023603;-0.9508606791496277;-4.028458595275879;95.53387451171875
91;1666352455.5667756;46.9755329;7.1803547;57.36000442504883;1666352455.711224;-0.6264340877532959;-4.482798099517822;95.44538116455078
92;1666352455.783447;46.975533;7.180354899999999;57.70600128173828;1666352455.9161847;-0.42862823605537415;4.42641544342041;94.50093841552734
93;1666352455.976696;46.9755332;7.1803551;57.98100280761719;1666352456.1260245;-0.4328779876232147;-4.198558807373047;95.46366119384766
94;1666352456.1855633;46.9755335;7.1803552999999996;58.19900131225586;1666352456.3192728;-0.20195607841014862;2.5782296657562256;95.4683837890625
95;1666352456.3885686;46.975533999999996;7.1803555;58.37400436401367;1666352456.5359454;8.083773612976074;-19.046653747558594;94.13337707519531
96;1666352456.6052415;46.975534599999996;7.1803554;58.5150032043457;1666352456.7409053;23.25299835205078;-25.54604148864746;84.12271881103516
97;1666352456.8121538;46.9755361;7.1803542;58.64500427246094;1666352456.9419618;31.13568115234375;-35.543067932128906;80.09485626220703
98;1666352457.0122335;46.975539;7.180350499999999;58.72600173950195;1666352457.153754;28.33460235595703;-25.106407165527344;84.03498077392578
99;1666352457.2240272;46.9755433;7.1803441999999995;58.737003326416016;1666352457.3704267;18.3587703704834;-10.32121753692627;83.41228485107422
100;1666352457.4436278;46.9755482;7.1803357;58.743003845214844;1666352457.5714803;13.02556324005127;-32.984588623046875;81.53123474121094
101;1666352457.650537;46.975553399999995;7.180326099999999;58.78200149536133;1666352457.7930343;14.976835250854492;-40.186279296875;78.05508422851562
102;1666352457.8603776;46.9755599;7.1803159;58.80600357055664;1666352457.993178;15.115636825561523;-35.14164733886719;76.0611343383789
103;1666352458.0624735;46.975567399999996;7.180305;58.823001861572266;1666352458.2215617;13.219426155090332;-37.89520263671875;73.96206665039062
104;1666352458.292809;46.9755757;7.180293499999999;58.85000228881836;1666352458.4304256;12.454239845275879;-41.41341018676758;71.74613952636719
105;1666352458.4938664;46.975584999999995;7.1802816;58.884002685546875;1666352458.644168;11.980440139770508;-44.91361618041992;68.3404541015625
106;1666352458.7076101;46.975595299999995;7.180269;58.91400146484375;1666352458.8403454;12.47197437286377;-43.11052322387695;63.67781448364258
107;1666352458.9037898;46.9756066;7.1802556;58.939002990722656;1666352459.0462806;11.068824768066406;-44.6337776184082;59.11564636230469
108;1666352459.1233854;46.9756188;7.1802411;58.974002838134766;1666352459.275642;8.948143005371094;-50.89326095581055;54.520931243896484
109;1666352459.3468904;46.975631799999995;7.1802252;59.00700378417969;1666352459.4981692;6.635378360748291;-51.912498474121094;50.41697311401367
110;1666352459.5655136;46.9756456;7.1802076999999995;59.038002014160156;1666352459.705083;0.6947701573371887;-50.791748046875;48.60439682006836
111;1666352459.7665696;46.9756603;7.1801886999999995;59.07500457763672;1666352459.9158971;-6.74878454208374;-53.4809684753418;47.174381256103516
112;1666352460.0056906;46.9756757;7.1801686;59.108001708984375;1666352460.1204195;-12.466985702514648;-51.81431198120117;41.727718353271484
113;1666352460.1926453;46.9756919;7.1801474999999995;59.1140022277832;1666352460.343923;-15.816497802734375;-45.226280212402344;34.65998458862305
114;1666352460.409318;46.9757087;7.180126;59.105003356933594;1666352460.5508351;-19.701663970947266;-44.44179153442383;30.180217742919922
115;1666352460.6123257;46.9757258;7.1801039;59.099002838134766;1666352460.7645793;-24.850765228271484;-44.059879302978516;26.310562133789062
116;1666352460.822168;46.9757433;7.1800812;59.095001220703125;1666352460.9627085;-29.161828994750977;-40.566383361816406;20.685117721557617
117;1666352461.029078;46.9757611;7.1800581;59.08100128173828;1666352461.1815884;-32.24192428588867;-35.75419235229492;13.301011085510254
118;1666352461.2450268;46.9757792;7.1800348;59.05900192260742;1666352461.37386;-34.83027267456055;-30.20114517211914;4.498763561248779
119;1666352461.4480355;46.9757975;7.1800112;59.03200149536133;1666352461.5827231;-37.26272964477539;-23.83927345275879;-6.053377628326416
120;1666352461.6490922;46.9758158;7.179987499999999;59.00700378417969;1666352461.80135;-39.80780029296875;-15.658455848693848;-18.445392608642578
121;1666352461.8618622;46.9758339;7.1799636;58.978004455566406;1666352462.0033813;-44.244991302490234;-3.854722499847412;-30.740951538085938
122;1666352462.1722293;46.975851999999996;7.1799398;58.970001220703125;1666352462.324484;-47.08405303955078;4.416463851928711;-32.924320220947266
123;1666352462.3889;46.9758703;7.1799164;58.95500183105469;1666352462.5450609;-44.842681884765625;7.475268363952637;-27.611413955688477
124;1666352462.6075242;46.9758892;7.1798939;58.913002014160156;1666352462.7578294;-33.8443489074707;4.424106121063232;-16.811872482299805
125;1666352462.8212683;46.9759083;7.179873;58.85700225830078;1666352462.9559581;-11.722180366516113;-1.7858158349990845;-9.146885871887207
126;1666352463.0330603;46.975926699999995;7.1798543;58.84300231933594;1666352463.192149;0.4684673249721527;-6.752045154571533;-12.867758750915527
127;1666352463.2643743;46.975943099999995;7.179837399999999;58.86700439453125;1666352463.4098012;3.371680498123169;-14.458572387695312;-15.593372344970703
128;1666352463.4683568;46.9759576;7.1798218;58.89800262451172;1666352463.6176844;2.631777763366699;-37.31476593017578;-11.578953742980957
129;1666352463.6762457;46.9759701;7.1798063999999995;58.928001403808594;1666352463.8216772;-12.636797904968262;-33.31098175048828;-8.052481651306152
130;1666352463.8812065;46.975981;7.1797901;58.967002868652344;1666352464.0324843;-34.52859878540039;-36.704559326171875;-0.054285041987895966
131;1666352464.1066616;46.9759915;7.179772799999999;59.01400375366211;1666352464.2462287;-51.24341583251953;-33.85057067871094;-0.3629753887653351
132;1666352464.3213837;46.976002799999996;7.1797539;59.0260009765625;1666352464.4599733;-51.94338607788086;-14.120957374572754;-19.95956039428711
133;1666352464.522439;46.9760157;7.179733799999999;58.99700164794922;1666352464.68543;-48.28058624267578;-1.537124752998352;-29.946109771728516
134;1666352464.745942;46.9760299;7.179712899999999;59.00400161743164;1666352464.9099092;-50.70033264160156;-0.7422072887420654;-27.087615966796875
135;1666352464.969447;46.976045199999994;7.1796922;59.03900146484375;1666352465.1056252;-53.00825119018555;-1.3588831424713135;-22.921131134033203
136;1666352465.1632102;46.9760618;7.1796717999999995;59.0780029296875;1666352465.3066807;-53.69740676879883;-4.572595119476318;-16.093700408935547
137;1666352465.3652399;46.9760796;7.179652;59.105003356933594;1666352465.5389686;-51.54680633544922;-7.345325946807861;-6.261231422424316
138;1666352465.6033854;46.976098699999994;7.179633;59.10900115966797;1666352465.7361217;-45.237361907958984;-10.811426162719727;5.677310943603516
139;1666352465.8054173;46.976118799999995;7.1796152;59.090003967285156;1666352465.9332728;-43.545108795166016;-20.563343048095703;11.639404296875
140;1666352465.9967124;46.9761394;7.179598599999999;59.061004638671875;1666352466.1528718;-44.004005432128906;-20.0312442779541;1.7300697565078735
141;1666352466.2114336;46.9761606;7.1795824999999995;59.02400207519531;1666352466.3549042;-41.941802978515625;-18.380104064941406;-12.104803085327148
142;1666352466.4320104;46.976181999999994;7.1795659999999994;58.98100280761719;1666352466.568648;-39.40103530883789;-19.352073669433594;-22.23383331298828
143;1666352466.6359942;46.976203;7.1795485;58.93100357055664;1666352466.772635;-34.21686553955078;-6.158914089202881;-35.81605529785156
144;1666352466.8370588;46.9762232;7.1795301;58.88500213623047;1666352466.9756405;-11.120509147644043;-11.101231575012207;-42.973304748535156
145;1666352467.1405857;46.9762419;7.179511799999999;58.87900161743164;1666352467.2713711;14.826226234436035;-28.970590591430664;-52.52267837524414
146;1666352467.3465228;46.9762576;7.1794945;58.88300323486328;1666352467.5017056;19.060626983642578;-25.0213623046875;-59.51258087158203
147;1666352467.5641692;46.976270299999996;7.179479;58.75700378417969;1666352467.7144742;17.317996978759766;-16.874879837036133;-61.26272201538086
148;1666352467.7769387;46.9762804;7.1794655;58.51400375366211;1666352467.9223619;11.922078132629395;-15.549857139587402;-60.5918083190918
149;1666352467.9906821;46.9762882;7.1794538;58.19000244140625;1666352468.147819;8.756112098693848;-14.996292114257812;-60.30187225341797
150;1666352468.201498;46.976293899999995;7.1794436;57.81300354003906;1666352468.337162;6.121694087982178;-13.765230178833008;-61.31462478637695
151;1666352468.412319;46.9762979;7.1794348999999995;57.39900207519531;1666352468.5528612;4.372806072235107;-14.078681945800781;-63.05323028564453
152;1666352468.6241074;46.9763004;7.1794275;56.96400451660156;1666352468.760747;2.817394971847534;-14.076531410217285;-65.68736267089844
153;1666352468.838827;46.9763017;7.179421199999999;56.525001525878906;1666352468.9901068;0.1252768486738205;-15.193739891052246;-68.74491119384766
154;1666352469.055503;46.9763022;7.1794157;56.103004455566406;1666352469.2106838;-4.537158012390137;-15.751267433166504;-71.5187759399414
155;1666352469.2731466;46.976302;7.1794107;55.711002349853516;1666352469.4273553;-10.914990425109863;-4.586723804473877;-73.59464263916016
156;1666352469.4829888;46.9763015;7.179405699999999;55.35400390625;1666352469.6098676;-10.558334350585938;6.391005992889404;-76.1968994140625
157;1666352469.6713545;46.9763011;7.179400299999999;55.03700256347656;1666352469.8245883;-8.95588493347168;6.500209331512451;-78.60598754882812
158;1666352469.8938842;46.9763014;7.1793947;54.755001068115234;1666352470.0344284;-5.731228828430176;6.405783176422119;-80.30428314208984
159;1666352470.1134858;46.9763021;7.179389;54.5150032043457;1666352470.255004;-5.3433308601379395;4.494270324707031;-81.62310791015625
160;1666352470.3096614;46.9763029;7.1793833;54.32500076293945;1666352470.465819;-6.277485370635986;6.487416744232178;-80.82685089111328
161;1666352470.5360913;46.9763039;7.179377499999999;54.18700408935547;1666352470.6707792;-7.809820652008057;7.176778316497803;-77.13445281982422
162;1666352470.7439802;46.976304999999996;7.1793717;54.10900115966797;1666352470.8796437;-8.795540809631348;6.5713887214660645;-73.46993255615234
163;1666352470.9430835;46.9763065;7.179365799999999;54.092002868652344;1666352471.1109555;-10.561573028564453;6.828353404998779;-71.38314819335938
164;1666352471.1636617;46.9763084;7.1793596;54.125003814697266;1666352471.28371;-10.683815002441406;6.888739585876465;-69.39496612548828
165;1666352471.3520281;46.9763106;7.1793533;54.204002380371094;1666352471.479885;-10.945712089538574;6.340206623077393;-67.29521942138672
166;1666352471.545279;46.9763132;7.1793469;54.33100128173828;1666352471.6975336;-11.039159774780273;6.769938945770264;-64.63011169433594
167;1666352471.7639;46.976316;7.1793403;54.505001068115234;1666352472.0049725;-10.788175582885742;5.814601898193359;-62.39299011230469
168;1666352472.077197;46.9763193;7.179333499999999;54.72200393676758;1666352472.2089622;-11.093812942504883;6.106316566467285;-59.236061096191406
169;1666352472.2655716;46.9763229;7.1793266;54.97600173950195;1666352472.405139;-12.357340812683105;4.508293151855469;-54.34748077392578
170;1666352472.457845;46.9763269;7.1793195;55.25700378417969;1666352472.6930583;-12.864850997924805;4.464540004730225;-50.560665130615234
171;1666352472.7564995;46.9763312;7.1793125;55.55800247192383;1666352472.9175398;-12.765530586242676;3.9558277130126953;-46.29465866088867
172;1666352472.9741483;46.9763358;7.1793055;55.880001068115234;1666352473.1127396;-12.506903648376465;3.5214219093322754;-41.89387130737305
173;1666352473.183989;46.976340699999994;7.1792985;56.22600173950195;1666352473.3108697;-12.685445785522461;1.8544683456420898;-36.84181594848633
174;1666352473.3674781;46.9763459;7.1792916;56.59400177001953;1666352473.5109494;-21.966358184814453;-0.7364689111709595;-30.905935287475586
175;1666352473.5753655;46.9763516;7.179284699999999;56.97300338745117;1666352473.7266445;-38.641517639160156;-0.4261768162250519;-27.49109649658203
176;1666352473.788134;46.9763581;7.179277099999999;57.33100128173828;1666352473.9257479;-48.82052993774414;2.839470148086548;-23.649789810180664
177;1666352473.9960213;46.976366299999995;7.1792685999999994;57.6150016784668;1666352474.135589;-45.960933685302734;-0.720986545085907;-14.793671607971191
178;1666352474.19903;46.9763764;7.179259699999999;57.816001892089844;1666352474.3473816;-37.75734329223633;-8.126032829284668;-3.856339931488037
179;1666352474.4157023;46.976388;7.1792506;57.99200439453125;1666352474.5611248;-35.3203239440918;-17.34592628479004;6.0422444343566895
180;1666352474.6362789;46.9764006;7.1792413999999996;58.177001953125;1666352474.7797494;-36.221004486083984;-18.054317474365234;14.756429672241211
181;1666352474.8441672;46.976414299999995;7.1792321999999995;58.362003326416016;1666352474.9895918;-30.524656295776367;-3.4452967643737793;17.847270965576172
182;1666352475.1525834;46.9764286;7.1792238;58.512001037597656;1666352475.2931247;-13.095507621765137;-7.967113018035889;23.603797912597656
183;1666352475.3760877;46.9764427;7.1792168;58.62400436401367;1666352475.5146778;7.756799697875977;-3.360893487930298;28.644880294799805
184;1666352475.5888546;46.9764554;7.179210599999999;58.702003479003906;1666352475.7264733;19.782546997070312;2.0067033767700195;28.118427276611328
185;1666352475.786005;46.976465999999995;7.179204599999999;58.75200271606445;1666352475.9392376;27.134540557861328;-6.779544353485107;29.985187530517578
186;1666352475.996827;46.9764742;7.1791982;58.75800323486328;1666352476.1354141;20.113439559936523;-20.273815155029297;35.59529495239258
187;1666352476.2105668;46.9764805;7.1791905;58.75700378417969;1666352476.3511114;3.2416746616363525;-19.818801879882812;39.52498245239258
188;1666352476.4135752;46.9764859;7.179181499999999;58.78600311279297;1666352476.565831;-1.02817702293396;-12.481588363647461;37.59135437011719
189;1666352476.628294;46.9764911;7.1791722;58.83400344848633;1666352476.7746952;-0.24495422840118408;1.2129216194152832;35.76245880126953
190;1666352476.835207;46.976495899999996;7.179163399999999;58.881004333496094;1666352476.9864874;-1.0684195756912231;0.9445183277130127;35.96657180786133
191;1666352477.0499275;46.976499999999994;7.1791559;58.913002014160156;1666352477.1894958;2.021415948867798;-1.4237403869628906;34.75364303588867
192;1666352477.2461028;46.9765039;7.1791494;58.94200134277344;1666352477.4051943;8.503914833068848;5.956455230712891;35.26768112182617
193;1666352477.4657044;46.9765072;7.179143799999999;58.974002838134766;1666352477.737031;-5.033049583435059;8.584376335144043;34.13528823852539
194;1666352477.7965667;46.97651;7.1791393999999995;59.00200271606445;1666352477.9400396;0.3399556577205658;2.3424181938171387;35.96332931518555
195;1666352478.0034785;46.9765124;7.1791358999999995;59.02700424194336;1666352478.1518312;-1.2146919965744019;11.05967903137207;36.659908294677734
196;1666352478.2162478;46.9765142;7.1791331;59.04900360107422;1666352478.377287;-3.314847946166992;6.4072136878967285;40.72294998168945
197;1666352478.4358466;46.9765156;7.179131099999999;59.061004638671875;1666352478.6076276;-6.85899019241333;2.5554516315460205;44.770816802978516
198;1666352478.677895;46.9765166;7.179129499999999;59.07400131225586;1666352478.8067274;-2.5471537113189697;-0.4578666687011719;48.499046325683594
199;1666352478.8721213;46.9765173;7.1791282;59.08700180053711;1666352479.0038803;-1.180293083190918;-1.843745470046997;51.74058151245117
200;1666352479.0985522;46.976517799999996;7.179126999999999;59.099002838134766;1666352479.232263;-3.519096851348877;-47.653263092041016;58.247684478759766
201;1666352479.2947288;46.9765192;7.179125;59.09800338745117;1666352479.4225848;1.0847876071929932;-53.057674407958984;48.74786376953125
202;1666352479.4850483;46.976522499999994;7.1791208;59.01000213623047;1666352479.6470652;4.416400909423828;-26.795297622680664;40.87643814086914
203;1666352479.7192883;46.9765272;7.1791139;58.87800216674805;1666352479.866666;3.201378583908081;-18.262117385864258;40.97633361816406
204;1666352479.943769;46.9765322;7.1791059;58.80900192260742;1666352480.0677226;-2.4756481647491455;-30.45017433166504;45.038238525390625
205;1666352480.155562;46.9765373;7.1790971;58.80900192260742;1666352480.3039143;-3.9278550148010254;-46.429988861083984;47.6812629699707
206;1666352480.366378;46.976543199999995;7.179087;58.836002349853516;1666352480.515709;-2.7837369441986084;-44.619564056396484;43.21525192260742
207;1666352480.5771954;46.9765504;7.1790750999999995;58.849002838134766;1666352480.7216403;-1.5590925216674805;-30.588228225708008;36.997074127197266
208;1666352480.7899618;46.9765583;7.1790616;58.868003845214844;1666352480.951977;-4.120402812957764;-35.69498062133789;37.044647216796875
209;1666352481.0124888;46.976566399999996;7.1790471;58.90300369262695;1666352481.1540086;-5.747447490692139;-47.372901916503906;39.1314697265625
210;1666352481.216473;46.9765752;7.1790316;58.94000244140625;1666352481.369705;-7.435992240905762;-46.93986129760742;34.36299514770508
211;1666352481.4321709;46.9765848;7.1790147;58.96000289916992;1666352481.591257;-4.46885871887207;-30.35002326965332;24.053430557250977
212;1666352481.655673;46.976594299999995;7.178996799999999;59.05000305175781;1666352481.790361;-4.715243816375732;-7.084399223327637;13.544933319091797
213;1666352481.869419;46.976603999999995;7.1789787;59.07200241088867;1666352482.0060592;-9.011475563049316;-24.73736000061035;15.71844482421875
214;1666352482.0958498;46.976613;7.1789613;59.12600326538086;1666352482.2432268;-15.43882942199707;-55.89418411254883;22.720890045166016
215;1666352482.3037398;46.9766222;7.1789426999999995;59.156002044677734;1666352482.4530673;-22.3684024810791;-44.04290771484375;13.69044017791748
216;1666352482.5155306;46.976632099999996;7.1789217999999995;59.134002685546875;1666352482.6570506;-26.11858367919922;-31.59925079345703;2.3446600437164307
217;1666352482.726348;46.9766427;7.1788998;59.12700271606445;1666352482.870795;-29.165483474731445;-26.243576049804688;-7.171693325042725
218;1666352482.9303324;46.9766536;7.1788772;59.156002044677734;1666352483.0874662;-32.84659194946289;-16.363868713378906;-16.995454788208008
219;1666352483.1509094;46.976665;7.178854299999999;59.21000289916992;1666352483.3012123;-33.69406509399414;-8.04263687133789;-27.1480655670166
220;1666352483.3626983;46.976676499999996;7.1788313;59.262001037597656;1666352483.5091002;-29.422035217285156;2.990102529525757;-35.921451568603516
221;1666352483.5764449;46.9766883;7.1788091;59.2920036315918;1666352483.7257712;-15.164323806762695;9.662933349609375;-32.90468215942383
222;1666352483.7882426;46.9766999;7.1787886;59.301002502441406;1666352483.9356184;5.221518039703369;18.490036010742188;-23.571657180786133
223;1666352484.007843;46.976711099999996;7.178770999999999;59.28700256347656;1666352484.1405792;21.536211013793945;27.691585540771484;-14.257658958435059
224;1666352484.2157342;46.976720799999995;7.1787569;59.17900466918945;1666352484.3601792;14.73730754852295;11.88867473602295;-8.822689056396484
225;1666352484.4231513;46.9767289;7.1787461;58.9630012512207;1666352484.5724826;12.561446189880371;16.99439239501953;-8.25745964050293
226;1666352484.6378715;46.9767353;7.1787377999999995;58.68000411987305;1666352484.7715836;9.687255859375;17.123218536376953;-8.6822509765625
227;1666352484.8447838;46.976740299999996;7.1787319;58.358001708984375;1666352484.9814239;6.8802642822265625;9.38308334350586;-10.87006664276123
228;1666352485.0448658;46.9767442;7.178727899999999;58.02800369262695;1666352485.279103;1.4319841861724854;1.1056370735168457;-15.524447441101074
229;1666352485.3405921;46.9767477;7.178725;57.737003326416016;1666352485.4889424;-2.8017611503601074;-13.337413787841797;-21.539705276489258
230;1666352485.5494566;46.9767509;7.178722199999999;57.51100158691406;1666352485.680239;-4.2125444412231445;-16.332605361938477;-27.51975440979004
231;1666352485.7466073;46.976753699999996;7.178718399999999;57.35400390625;1666352485.8910582;-5.4658026695251465;-13.1292085647583;-33.978111267089844
232;1666352485.9515676;46.976755999999995;7.1787136;57.281002044677734;1666352486.097968;-6.229544639587402;-9.496623039245605;-39.386863708496094
233;1666352486.1614091;46.976758;7.1787079;57.288002014160156;1666352486.4102886;-7.377624988555908;-5.909167766571045;-43.38932418823242
234;1666352486.4727557;46.9767596;7.1787016999999995;57.35900115966797;1666352486.6191535;-6.54822301864624;-3.6328086853027344;-47.205039978027344
235;1666352486.689424;46.9767611;7.1786951;57.47900390625;1666352486.8163068;-6.059485912322998;-4.298257827758789;-50.59455490112305
236;1666352486.8738985;46.9767624;7.1786886;57.66400146484375;1666352487.0495691;-11.62264633178711;-0.07496245950460434;-51.13848876953125
237;1666352487.1091046;46.9767635;7.1786819;57.91200256347656;1666352487.2555068;-30.655160903930664;6.386462688446045;-50.71623992919922
238;1666352487.3384666;46.9767653;7.1786745;58.19000244140625;1666352487.4780347;-44.25662612915039;10.093340873718262;-52.02381134033203
239;1666352487.5444007;46.9767687;7.1786657;58.44200134277344;1666352487.6937308;-48.911460876464844;6.974690914154053;-49.03762435913086
240;1666352487.753266;46.9767741;7.1786552;58.62200164794922;1666352487.8947842;-45.23085021972656;1.6340417861938477;-42.49872589111328
241;1666352487.9611554;46.9767813;7.1786433;58.72300338745117;1666352488.0938883;-37.25642776489258;-4.042932987213135;-36.147544860839844
242;1666352488.1544027;46.9767897;7.1786305;58.802001953125;1666352488.3056915;-33.887577056884766;-12.08514404296875;-30.22910499572754
243;1666352488.3730352;46.9767988;7.178617;58.897003173828125;1666352488.5155318;-35.13523483276367;-18.171173095703125;-24.783994674682617
244;1666352488.5731153;46.976808299999995;7.1786026;59.012001037597656;1666352488.7136612;-35.11217498779297;-18.51544189453125;-20.48919105529785
245;1666352488.784909;46.976818099999996;7.1785872;59.12400436401367;1666352488.9274037;-28.479799270629883;-15.253918647766113;-17.164234161376953
246;1666352488.9869409;46.9768283;7.1785711;59.204002380371094;1666352489.1343176;-12.933207511901855;-1.862183928489685;-16.77338218688965
247;1666352489.1977592;46.9768383;7.178555599999999;59.24900436401367;1666352489.3470883;14.007953643798828;19.128358840942383;-12.366600036621094
248;1666352489.407597;46.976847199999995;7.1785423999999995;59.22500228881836;1666352489.551068;22.342565536499023;21.492464065551758;-2.460284471511841
249;1666352489.6271975;46.9768544;7.178531899999999;59.08100128173828;1666352489.765788;20.715957641601562;23.135210037231445;-0.4414202570915222
250;1666352489.8321595;46.976859999999995;7.1785238;58.83900451660156;1666352489.9902682;15.933672904968262;19.33161163330078;-0.6166192293167114
251;1666352490.0605419;46.9768641;7.1785181;58.5420036315918;1666352490.199134;13.089226722717285;17.569427490234375;-1.2269213199615479
252;1666352490.2625816;46.9768669;7.1785146;58.2390022277832;1666352490.4089742;12.406890869140625;13.59248161315918;-1.6497759819030762
253;1666352490.4694884;46.9768689;7.1785128;57.96400451660156;1666352490.6129582;10.154468536376953;10.126002311706543;-3.3498706817626953
254;1666352490.6695652;46.9768701;7.1785124;57.74900436401367;1666352490.8130383;6.700056552886963;8.033020973205566;-3.4280123710632324
255;1666352490.8745291;46.9768706;7.178513;57.605003356933594;1666352491.0287354;5.70711612701416;6.599267959594727;-1.6820553541183472
256;1666352491.089247;46.9768707;7.1785141999999995;57.525001525878906;1666352491.2229583;2.5853428840637207;7.620410919189453;-1.298397421836853
257;1666352491.2854228;46.976870299999995;7.1785158;57.50800323486328;1666352491.4552467;0.1715245246887207;7.619319915771484;0.6475332379341125
258;1666352491.51771;46.976869699999995;7.1785179;57.55400085449219;1666352491.65728;-0.031937357038259506;6.44783878326416;2.3110270500183105
259;1666352491.7334085;46.976869099999995;7.1785203;57.66800308227539;1666352491.8641891;-1.1116677522659302;7.006839752197266;3.7183361053466797
260;1666352491.9256785;46.976868499999995;7.1785229;57.84700393676758;1666352492.0730534;1.1108932495117188;17.977144241333008;5.053218364715576
261;1666352492.1413763;46.9768678;7.1785261;58.06700134277344;1666352492.275087;-1.5382657051086426;9.215105056762695;6.0580153465271
262;1666352492.3336494;46.9768669;7.1785301;58.294002532958984;1666352492.4732153;-11.422673225402832;6.564779281616211;5.936551094055176
263;1666352492.5317745;46.976866099999995;7.1785343;58.49100112915039;1666352492.6625888;-15.392348289489746;-6.218626022338867;7.150298118591309
264;1666352492.725056;46.9768657;7.1785384;58.65300369262695;1666352492.8704836;-21.479339599609375;-29.945453643798828;8.591497421264648
265;1666352492.9300141;46.976866099999995;7.1785410999999995;58.78400421142578;1666352493.0744622;-21.124908447265625;-45.42854690551758;10.101428985595703
266;1666352493.137902;46.9768676;7.1785407999999995;58.86000442504883;1666352493.2852788;-16.98473358154297;-33.340877532958984;6.0070109367370605
267;1666352493.3477461;46.9768701;7.1785369;58.87200164794922;1666352493.4716933;-12.655584335327148;-27.636491775512695;3.9883172512054443
268;1666352493.5419686;46.9768733;7.1785307;58.89900207519531;1666352493.675679;-16.428733825683594;-36.678794860839844;5.7324910163879395
269;1666352493.765471;46.976877099999996;7.178522399999999;58.95900344848633;1666352493.9050379;-18.5550479888916;-27.574453353881836;4.143794059753418
270;1666352493.98312;46.9768815;7.1785121;59.031002044677734;1666352494.118783;-15.015918731689453;-14.444609642028809;-0.2328518033027649
271;1666352494.1871042;46.976886099999994;7.178501;59.10400390625;1666352494.324718;-11.298298835754395;9.61087703704834;-3.609900712966919
272;1666352494.38133;46.9768909;7.178490399999999;59.16400146484375;1666352494.5199206;8.630250930786133;5.640820503234863;-0.6567602753639221
273;1666352494.5872672;46.9768954;7.1784813;59.204002380371094;1666352494.733663;12.14220905303955;7.641289710998535;-3.4732484817504883
274;1666352494.7971053;46.9768991;7.1784738;59.22900390625;1666352494.9327683;9.154138565063477;6.176425457000732;-8.28167724609375
275;1666352495.0001135;46.9769018;7.1784678;59.24900436401367;1666352495.1387026;4.499882698059082;7.411489009857178;-11.262118339538574
276;1666352495.1982405;46.976903799999995;7.1784631;59.27300262451172;1666352495.338783;-1.3481323719024658;6.629036903381348;-14.057668685913086
277;1666352495.4032023;46.9769054;7.1784596;59.29700469970703;1666352495.5456955;0.7858306765556335;5.4097089767456055;-15.621946334838867
278;1666352495.61792;46.9769066;7.1784569;59.320003509521484;1666352495.754559;-1.2597455978393555;3.8122646808624268;-17.522411346435547
279;1666352495.8228796;46.976907399999995;7.178455;59.33900451660156;1666352495.9702566;-3.078394651412964;3.262009620666504;-19.703746795654297
280;1666352496.024913;46.976908099999996;7.1784536999999995;59.342002868652344;1666352496.1566725;2.8421456813812256;4.94488525390625;-22.794448852539062
281;1666352496.2220654;46.9769088;7.1784528;59.358001708984375;1666352496.3635852;1.0046672821044922;9.713132858276367;-25.963783264160156
282;1666352496.425174;46.9769094;7.1784529;59.46200180053711;1666352496.569621;-2.291630744934082;9.217646598815918;-27.95163345336914
283;1666352496.6359904;46.9769101;7.1784539999999994;59.65700149536133;1666352496.7853172;-3.3688793182373047;10.427485466003418;-30.612546920776367
284;1666352496.8565674;46.9769109;7.1784557;59.928001403808594;1666352496.9961314;-4.822150707244873;19.22065544128418;-34.1845703125
285;1666352497.0673838;46.976912;7.1784583;60.26400375366211;1666352497.2167094;-4.651031494140625;27.946096420288086;-36.165035247802734
286;1666352497.2801483;46.9769139;7.1784623;60.62800216674805;1666352497.4187412;-5.323061466217041;29.69595718383789;-37.71733093261719
287;1666352497.5046287;46.9769168;7.1784678;61.02000427246094;1666352497.6539598;-7.764469623565674;33.293270111083984;-38.51710891723633
288;1666352497.7213001;46.976920799999995;7.1784747;61.427001953125;1666352497.866725;-7.367775917053223;43.04835510253906;-38.91971969604492
289;1666352497.9448078;46.9769259;7.178483399999999;61.83000183105469;1666352498.0775454;-9.027549743652344;46.27047348022461;-37.32640838623047
290;1666352498.142933;46.9769322;7.1784943;62.195003509521484;1666352498.2776256;-12.625408172607422;40.51518630981445;-32.51387405395508
291;1666352498.3586292;46.9769398;7.178507;62.52400207519531;1666352498.5225968;-18.279638290405273;41.27794647216797;-28.308027267456055
292;1666352498.5840852;46.9769485;7.1785212;62.83900451660156;1666352498.7304854;-25.33871078491211;41.63051223754883;-19.782135009765625
293;1666352498.7958784;46.9769583;7.1785369;63.13500213623047;1666352498.9569213;-32.025936126708984;34.69096755981445;-6.732394218444824
294;1666352499.016455;46.9769692;7.1785539;63.426002502441406;1666352499.1696854;-34.83884048461914;26.626989364624023;7.8391828536987305
295;1666352499.2321496;46.9769809;7.178572099999999;63.73200225830078;1666352499.38831;-35.655094146728516;15.370786666870117;23.094350814819336
296;1666352499.4546788;46.976993;7.1785912;64.0570068359375;1666352499.6030297;-33.435447692871094;1.0772291421890259;36.379451751708984
297;1666352499.6733015;46.9770055;7.1786105;64.40900421142578;1666352499.817752;-30.913772583007812;1.277448296546936;32.27577209472656
298;1666352499.880214;46.977018199999996;7.1786293;64.79600524902344;1666352500.0305185;-22.07529640197754;-0.03420518711209297;26.445268630981445
299;1666352500.1037214;46.9770308;7.1786471;65.19499969482422;1666352500.2423131;-6.346307754516602;-1.2575156688690186;18.984189987182617
300;1666352500.304775;46.9770429;7.1786632;65.61500549316406;1666352500.4414144;-1.9291325807571411;1.479490041732788;18.287052154541016
301;1666352500.515591;46.977053999999995;7.1786777;66.052001953125;1666352500.6512563;-6.493603706359863;7.457433223724365;19.430967330932617
302;1666352500.7117674;46.977064;7.178690899999999;66.49400329589844;1666352500.8757358;-18.097007751464844;14.627742767333984;19.409931182861328
303;1666352500.9313676;46.977073;7.1787034;66.93099975585938;1666352501.0650797;-31.818628311157227;21.534536361694336;18.544408798217773
304;1666352501.1226625;46.977081899999995;7.178716199999999;67.34500122070312;1666352501.2758975;-44.22246551513672;24.461519241333008;20.142492294311523
305;1666352501.3364072;46.977091099999996;7.1787303;67.7020034790039;1666352501.4720707;-51.832271575927734;9.768306732177734;35.53705596923828
306;1666352501.543319;46.9771012;7.178746299999999;67.98100280761719;1666352501.6838639;-53.71748352050781;-0.4864761531352997;44.60875701904297
307;1666352501.7482798;46.9771125;7.1787642;68.19600677490234;1666352501.889802;-50.17813491821289;-3.8082823753356934;47.465049743652344
308;1666352501.966906;46.9771248;7.1787833;68.3530044555664;1666352502.2021213;-46.41679382324219;-3.8937668800354004;47.03718948364258
309;1666352502.2694643;46.977138;7.1788031;68.46600341796875;1666352502.4285529;-38.597251892089844;-4.433213233947754;47.134281158447266
310;1666352502.4949203;46.9771516;7.1788232;68.53900146484375;1666352502.629611;-25.265947341918945;-3.199964761734009;45.78134536743164
311;1666352502.6930478;46.9771651;7.1788427;68.59700012207031;1666352502.8394501;-18.76924705505371;-2.1453700065612793;45.650272369384766
312;1666352502.90484;46.9771782;7.1788609;68.6550064086914;1666352503.0580757;-14.177653312683105;-0.983079195022583;45.209468841552734
313;1666352503.1195602;46.9771905;7.1788779;68.70600128173828;1666352503.2727926;-2.974216938018799;0.14175838232040405;45.4388542175293
314;1666352503.3352563;46.9772019;7.178893599999999;68.76100158691406;1666352503.4894648;9.811278343200684;1.3478574752807617;45.664669036865234
315;1666352503.5519285;46.977211999999994;7.178907499999999;68.80900573730469;1666352503.6807601;15.446846008300781;0.8401341438293457;45.4102897644043
316;1666352503.742252;46.9772204;7.178919;68.83000183105469;1666352503.8896255;10.122239112854004;0.5580682158470154;45.4478759765625
317;1666352503.9530656;46.9772269;7.178928;68.83700561523438;1666352504.1004434;2.9544878005981445;-0.48458999395370483;47.201026916503906
318;1666352504.1609545;46.977232;7.178935;68.86100006103516;1666352504.3200426;-1.9331598281860352;0.3566127121448517;49.7835693359375
319;1666352504.3815293;46.9772361;7.1789404999999995;68.90400695800781;1666352504.5250049;-2.318612813949585;0.3089611232280731;51.56755447387695
320;1666352504.5884414;46.9772397;7.1789454;68.94700622558594;1666352504.7348425;-4.233013153076172;0.629930853843689;50.866634368896484
321;1666352504.7943773;46.9772429;7.1789499;68.98400115966797;1666352504.9417548;1.0717039108276367;0.26396405696868896;50.874778747558594
322;1666352505.0022655;46.9772458;7.178954;69.01500701904297;1666352505.150618;-4.0397868156433105;0.5340128540992737;50.70124816894531
323;1666352505.2179615;46.9772484;7.1789575;69.04100036621094;1666352505.3487475;1.4802639484405518;0.3045392334461212;50.527099609375
324;1666352505.419996;46.9772506;7.178960699999999;69.06200408935547;1666352505.5790837;6.870464324951172;0.5837684273719788;49.504127502441406
325;1666352505.6454546;46.9772526;7.1789632;69.08000183105469;1666352505.7742825;5.634511947631836;0.7901328802108765;50.251609802246094
326;1666352505.8338203;46.9772542;7.1789653;69.10000610351562;1666352505.9919305;6.12652587890625;-0.06418940424919128;50.973388671875
327;1666352506.0465887;46.9772556;7.178967;69.11800384521484;1666352506.2027478;3.9560112953186035;1.0944862365722656;51.758338928222656
328;1666352506.2613082;46.9772568;7.1789684;69.13400268554688;1666352506.4223468;5.120277404785156;0.8294418454170227;52.80693054199219
329;1666352506.4857862;46.977257699999996;7.178969599999999;69.14600372314453;1666352506.6234047;3.487959384918213;1.8199821710586548;53.382991790771484
330;1666352506.678058;46.9772585;7.1789704;69.156005859375;1666352506.8410518;5.863643646240234;14.685030937194824;54.00404739379883
331;1666352506.9054668;46.9772588;7.1789713;69.16699981689453;1666352507.0460124;-1.190905213356018;15.656874656677246;53.31583023071289
332;1666352507.1201892;46.9772584;7.1789723;69.17000579833984;1666352507.257805;-6.269622325897217;36.50527572631836;52.92708969116211
333;1666352507.3183153;46.9772568;7.1789742;69.17500305175781;1666352507.4832594;-11.307343482971191;49.80778884887695;50.903717041015625
334;1666352507.543774;46.977253399999995;7.1789779;69.156005859375;1666352507.6833396;-15.371784210205078;40.18631362915039;52.4539794921875
335;1666352507.748731;46.9772484;7.178984;69.10700225830078;1666352507.9107485;-18.25570297241211;32.83786392211914;59.212852478027344
336;1666352507.9732118;46.9772423;7.1789922;69.07600402832031;1666352508.1147327;-22.66006851196289;36.00666046142578;63.978179931640625
337;1666352508.1762214;46.9772355;7.179002199999999;69.06800079345703;1666352508.30798;-25.649917602539062;40.22979736328125;70.56175994873047
338;1666352508.365566;46.9772278;7.179014199999999;69.06400299072266;1666352508.528557;-29.64000701904297;37.84252166748047;76.47537231445312
339;1666352508.5910208;46.977218799999996;7.1790278;69.06700134277344;1666352508.7364452;-34.810420989990234;32.48853302001953;85.10304260253906
340;1666352508.7989097;46.9772087;7.1790426;69.08700561523438;1666352508.9472601;-43.52137756347656;21.75446128845215;97.82858276367188
341;1666352509.0067968;46.9771977;7.1790591;69.13400268554688;1666352509.1502702;-46.30258560180664;10.00346851348877;109.32312774658203
342;1666352509.2166364;46.9771862;7.179077299999999;69.19600677490234;1666352509.350348;-47.507171630859375;8.990059852600098;107.13365936279297
343;1666352509.435263;46.9771746;7.1790971;69.23600006103516;1666352509.5826368;-41.954185485839844;10.554272651672363;101.3372802734375
344;1666352509.6470542;46.977163;7.1791183;69.24300384521484;1666352509.7885728;-27.963878631591797;2.0711495876312256;95.94341278076172
345;1666352509.8627508;46.9771521;7.1791401;69.21900177001953;1666352510.0111008;-11.105687141418457;-14.779579162597656;86.35779571533203
346;1666352510.0755212;46.9771424;7.179161499999999;69.19000244140625;1666352510.2072804;-10.623549461364746;-16.079978942871094;81.85118103027344
347;1666352510.2873118;46.9771346;7.1791811;69.16500091552734;1666352510.4366376;-11.133889198303223;-5.793478012084961;82.00208282470703
348;1666352510.5088627;46.9771285;7.1791988;69.1570053100586;1666352510.6425738;-20.5924129486084;4.706439971923828;84.28617858886719
349;1666352510.7187035;46.977123399999996;7.1792152;69.17300415039062;1666352510.852416;-26.307802200317383;26.515548706054688;83.0888442993164
350;1666352510.9187822;46.977118499999996;7.1792313;69.19900512695312;1666352511.0573733;-30.310871124267578;46.023380279541016;85.04430389404297
351;1666352511.1247182;46.977112299999995;7.1792478;69.2030029296875;1666352511.2642868;-32.61187744140625;38.17605972290039;96.78446960449219
352;1666352511.3238232;46.9771043;7.1792644;69.17400360107422;1666352511.457535;-32.26350784301758;28.576824188232422;108.73345947265625
353;1666352511.533663;46.9770946;7.1792807;69.1760025024414;1666352511.6673756;-35.12060546875;23.679288864135742;117.66967010498047
354;1666352511.7278883;46.9770836;7.1792964999999995;69.22100067138672;1666352511.8635502;-39.02854537963867;13.676437377929688;130.2856903076172
355;1666352511.9387026;46.9770715;7.1793119999999995;69.26399993896484;1666352512.0821755;-41.75403594970703;-7.689301013946533;145.23374938964844
356;1666352512.1514745;46.977058799999995;7.179327799999999;69.29500579833984;1666352512.2871356;-43.120338439941406;-11.048373222351074;140.92120361328125
357;1666352512.3437455;46.9770459;7.1793447;69.31700134277344;1666352512.496976;-48.396141052246094;-9.919685363769531;134.44200134277344
358;1666352512.5672488;46.977033;7.1793631;69.33100128173828;1666352512.716576;-50.60635757446289;-5.961209297180176;133.046875
359;1666352512.77904;46.977019999999996;7.179383199999999;69.32500457763672;1666352512.9342256;-51.070858001708984;-3.2006120681762695;133.43858337402344
360;1666352513.0064473;46.977006599999996;7.1794049;69.31700134277344;1666352513.256303;-48.297264099121094;-2.874135732650757;133.92274475097656
361;1666352513.3187695;46.9769928;7.1794277;69.302001953125;1666352513.4750109;-41.63322830200195;0.4306690990924835;133.35194396972656
362;1666352513.541379;46.9769788;7.1794511;69.27300262451172;1666352513.678995;-32.020511627197266;-1.5766311883926392;135.529296875
363;1666352513.7453625;46.9769648;7.1794742;69.23200225830078;1666352513.883956;-21.90911865234375;-4.327315807342529;133.77249145507812
364;1666352513.9415398;46.9769516;7.179496599999999;69.17900085449219;1666352514.0928206;-14.84922981262207;-2.7033512592315674;131.6064453125
365;1666352514.1611376;46.9769392;7.1795177;69.12700653076172;1666352514.3007061;-6.70604944229126;-1.6994504928588867;131.51071166992188
366;1666352514.3612194;46.976928;7.1795371999999995;69.08399963378906;1666352514.4978588;4.1598711013793945;-4.0659074783325195;132.77923583984375
367;1666352514.5700817;46.976918;7.1795545;69.052001953125;1666352514.6998916;26.823028564453125;0.6550639867782593;131.19784545898438
368;1666352514.7604058;46.9769098;7.179569099999999;69.0050048828125;1666352514.8989952;27.12574577331543;0.24828742444515228;130.7030487060547
369;1666352514.9526744;46.9769033;7.1795804;68.927001953125;1666352515.1059072;16.497812271118164;2.3423168659210205;128.1308135986328
370;1666352515.1712987;46.9768987;7.1795886;68.84200286865234;1666352515.30306;4.0902276039123535;2.6918716430664062;125.62638092041016
371;1666352515.3567388;46.976895299999995;7.1795944;68.78400421142578;1666352515.4963083;-5.775662422180176;2.338548421859741;123.61107635498047
372;1666352515.556822;46.9768926;7.179598599999999;68.7770004272461;1666352515.694437;-11.276037216186523;1.8502477407455444;122.76701354980469
373;1666352515.7695875;46.9768902;7.1796022;68.81700134277344;1666352515.9218478;-10.482970237731934;0.6065005660057068;121.68923950195312
374;1666352515.9843073;46.9768879;7.1796055999999995;68.87000274658203;1666352516.1287575;-11.598611831665039;-0.22974279522895813;122.06651306152344
375;1666352516.1961012;46.9768857;7.179608999999999;68.91800689697266;1666352516.3337178;-8.632254600524902;-0.3810008764266968;122.82891082763672
376;1666352516.3961806;46.9768836;7.1796126;68.95600128173828;1666352516.5328212;-3.4865572452545166;-0.18721985816955566;122.54630279541016
377;1666352516.5943077;46.9768816;7.1796162;68.98200225830078;1666352516.7475398;1.3549220561981201;0.08842042088508606;122.0164566040039
378;1666352516.8080528;46.9768797;7.179619799999999;69.0040054321289;1666352516.945668;4.987542152404785;-0.16843654215335846;121.37051391601562
379;1666352517.0217988;46.976878;7.179622999999999;69.0250015258789;1666352517.1664183;3.7049577236175537;-0.31867045164108276;121.19792938232422
380;1666352517.227903;46.9768766;7.1796259;69.04600524902344;1666352517.3694239;7.9130988121032715;-0.13921917974948883;120.99803924560547
381;1666352517.4426262;46.9768754;7.1796283;69.06500244140625;1666352517.604639;6.438384056091309;0.1828751266002655;120.46096801757812
382;1666352517.6846757;46.9768745;7.1796302;69.08200073242188;1666352517.8398564;7.930108547210693;0.14770181477069855;119.9105224609375
383;1666352517.8984153;46.9768739;7.1796316;69.08800506591797;1666352518.039936;2.7918972969055176;7.009667873382568;118.51792907714844
384;1666352518.11704;46.976873399999995;7.1796324;69.01200103759766;1666352518.254657;6.094613552093506;8.49804973602295;116.89952850341797
385;1666352518.3083355;46.976873;7.1796326;68.81600189208984;1666352518.4547365;5.1829962730407715;21.776222229003906;118.26248168945312
386;1666352518.5132964;46.976872199999995;7.1796321;68.56900024414062;1666352518.6832106;6.6177449226379395;38.45494079589844;123.04714965820312
387;1666352518.7486026;46.9768706;7.1796301;68.30000305175781;1666352518.8813386;9.49394416809082;47.864051818847656;124.24346923828125
388;1666352518.9457555;46.9768676;7.179625799999999;68.01100158691406;1666352519.0823953;9.060811042785645;51.394020080566406;123.33784484863281
389;1666352519.139004;46.976862999999994;7.179619;67.68700408935547;1666352519.2941868;6.517848491668701;53.219085693359375;121.25736999511719
390;1666352519.3634844;46.9768565;7.1796099;67.3270034790039;1666352519.5108607;5.23508882522583;49.244659423828125;122.4116439819336
391;1666352519.573327;46.976848499999996;7.1795988;66.94900512695312;1666352519.708019;3.3190722465515137;45.190040588378906;124.3748550415039
392;1666352519.7665727;46.9768392;7.179586199999999;66.5780029296875;1666352519.9080942;2.1168344020843506;47.32061004638672;125.91259002685547
393;1666352519.967629;46.9768289;7.179572299999999;66.22400665283203;1666352520.1120753;2.342371702194214;45.530086517333984;129.18260192871094
394;1666352520.171614;46.9768177;7.1795572;65.88300323486328;1666352520.31899;0.8055977821350098;43.339107513427734;130.05494689941406
395;1666352520.3804758;46.9768058;7.1795409999999995;65.56400299072266;1666352520.5327342;-1.7553342580795288;46.76102828979492;128.91592407226562
396;1666352520.6109173;46.9767934;7.179524;65.26200103759766;1666352520.7436533;-3.0205626487731934;57.51594924926758;130.0083770751953
397;1666352520.802214;46.9767801;7.1795062;64.95500183105469;1666352520.9652054;-4.468896389007568;59.68745040893555;140.73565673828125
398;1666352521.0247438;46.9767656;7.179486799999999;64.60900115966797;1666352521.1604064;-8.092277526855469;50.10845947265625;153.4342498779297
399;1666352521.2238445;46.976750599999995;7.1794657;64.24700164794922;1666352521.3673189;-13.131065368652344;47.56314468383789;160.27122497558594
400;1666352521.4258788;46.9767357;7.1794433;63.89500427246094;1666352521.5664222;-20.017364501953125;49.04563903808594;163.03831481933594
401;1666352521.637671;46.9767209;7.179419599999999;63.55400466918945;1666352521.7733352;-28.50263786315918;46.68809127807617;166.6110076904297
402;1666352521.8289654;46.9767059;7.1793947;63.220001220703125;1666352521.9743903;-35.56391525268555;38.021202087402344;173.2142791748047
403;1666352522.0329509;46.9766907;7.1793691;62.881004333496094;1666352522.1695902;-39.40078353881836;28.87335205078125;-179.78367614746094
404;1666352522.2418144;46.9766751;7.1793432;62.52800369262695;1666352522.381381;-37.92012023925781;19.48753547668457;-172.48187255859375
405;1666352522.443848;46.9766592;7.1793175;62.16400146484375;1666352522.594154;-30.82801628112793;7.47096061706543;-165.1051025390625
406;1666352522.653686;46.9766431;7.179292599999999;61.801002502441406;1666352522.7952063;-23.362903594970703;2.4688212871551514;-161.9945831298828
407;1666352522.8645017;46.9766273;7.1792691;61.4530029296875;1666352522.995288;-14.774053573608398;-0.9619480967521667;-159.54591369628906
408;1666352523.0636096;46.9766121;7.1792473999999995;61.12700271606445;1666352523.1904879;-4.432051658630371;-3.3376352787017822;-156.96670532226562
409;1666352523.3661685;46.976597999999996;7.1792281;60.833003997802734;1666352523.521352;5.259079456329346;-3.899709939956665;-149.2364044189453
410;1666352523.5867443;46.9765854;7.1792111;60.552001953125;1666352523.7311919;20.467288970947266;-0.08172835409641266;-139.95875549316406
411;1666352523.791703;46.9765747;7.1791968;60.24800109863281;1666352523.9341996;25.2192325592041;2.953277111053467;-135.5046844482422
412;1666352523.9947124;46.976566;7.1791854;59.90900421142578;1666352524.1313508;22.444156646728516;-2.2461819648742676;-133.30416870117188
413;1666352524.1908872;46.9765592;7.1791766;59.54300308227539;1666352524.3363116;16.31048583984375;-6.27899694442749;-132.30062866210938
414;1666352524.4075596;46.9765537;7.17917;59.182003021240234;1666352524.5276096;6.322442054748535;-8.76855754852295;-130.90313720703125
415;1666352524.5881228;46.976549299999995;7.179165299999999;58.8640022277832;1666352524.7394006;-6.050580024719238;-7.500588893890381;-129.3039093017578
416;1666352524.8047926;46.9765453;7.1791621999999995;58.62600326538086;1666352524.946313;-14.054086685180664;-1.6684616804122925;-127.33407592773438
417;1666352525.00585;46.9765418;7.1791598;58.49400329589844;1666352525.1590824;-18.09096336364746;2.3246209621429443;-125.91999816894531
418;1666352525.2137363;46.9765385;7.1791572;58.47500228881836;1666352525.4548104;-19.01573944091797;4.749048709869385;-125.59221649169922
419;1666352525.5143454;46.976535399999996;7.1791538;58.53700256347656;1666352525.6587925;-11.19062328338623;5.433311939239502;-123.58221435546875
420;1666352525.716377;46.9765325;7.1791497;58.62300109863281;1666352525.867659;-8.658799171447754;6.033681869506836;-121.71941375732422
421;1666352525.9262173;46.97653;7.1791455;58.70100402832031;1666352526.0657864;3.7077343463897705;5.911818504333496;-119.31331634521484
422;1666352526.1575286;46.9765279;7.1791412999999995;58.76000213623047;1666352526.2814822;6.018887519836426;4.584975242614746;-117.79756164550781
