;pos_time;latitude;longitude;altitude;alt_time;pitch;roll;yaw
0;1666353160.7174857;46.975534499999995;7.1803555;-0.02800000086426735;1666353160.7926369;-0.18052934110164642;-0.5358150005340576;91.05686950683594
1;1666353160.9078093;46.975534499999995;7.1803555999999995;-0.027000000700354576;1666353160.9897895;-0.003417468862608075;-0.5572365522384644;91.02433013916016
2;1666353161.1039813;46.975534499999995;7.1803558;-0.026000000536441803;1666353161.1947484;-0.5266996026039124;-0.461163192987442;91.22230529785156
3;1666353161.3284605;46.975534499999995;7.1803558999999995;-0.02500000037252903;1666353161.4065409;-0.5650323033332825;-0.6007633209228516;91.15767669677734
4;1666353161.5548935;46.975534499999995;7.180356;-0.021000001579523087;1666353161.6378546;-0.5846291780471802;-0.6705645322799683;91.21574401855469
5;1666353161.7579024;46.975534499999995;7.180356;-0.020000001415610313;1666353161.8359814;-0.41233015060424805;-0.8441674113273621;91.17827606201172
6;1666353161.9540775;46.975534499999995;7.180356;-0.023000001907348633;1666353162.034109;-0.616230309009552;-0.6910392045974731;91.21903228759766
7;1666353162.1541576;46.975534499999995;7.180356;0.0;1666353162.237274;-0.5031396150588989;-0.840154230594635;91.29753112792969
8;1666353162.353417;46.975534499999995;7.180356;0.0020000000949949026;1666353162.4471138;-0.4741956293582916;-0.7368388175964355;91.08901977539062
9;1666353162.5769236;46.9755344;7.180356;0.005000000353902578;1666353162.662811;-0.44422224164009094;-0.6065590381622314;91.09127807617188
10;1666353162.7843556;46.9755344;7.1803558999999995;0.009000000543892384;1666353162.8712177;-0.562779426574707;-0.5924368500709534;91.21210479736328
11;1666353163.0791025;46.975534499999995;7.1803558999999995;0.01100000087171793;1666353163.166944;-0.5126503705978394;-0.7894371747970581;91.35008239746094
12;1666353163.2791858;46.9755344;7.180356;0.01100000087171793;1666353163.3738546;-0.47756636142730713;-0.7053627371788025;91.23114013671875
13;1666353163.523185;46.9755344;7.180356;0.01600000075995922;1666353163.6012635;-0.2711876332759857;-0.08495768904685974;90.98527526855469
14;1666353163.7310746;46.9755344;7.180356;0.023000001907348633;1666353163.8081775;-0.1582699716091156;-0.6178101897239685;91.1112289428711
15;1666353163.933104;46.9755344;7.180356;0.029000001028180122;1666353164.0131364;-0.4578932821750641;-0.3616911470890045;91.12008666992188
16;1666353164.140993;46.9755344;7.180356;0.004000000189989805;1666353164.2229776;-0.503574013710022;-0.13582372665405273;91.28543090820312
17;1666353164.3566892;46.9755344;7.1803561;0.009000000543892384;1666353164.437698;-0.35519281029701233;-0.520408034324646;91.1018295288086
18;1666353164.5461304;46.9755344;7.180356;0.00800000037997961;1666353164.6417782;-0.4088934659957886;-0.20970098674297333;90.9666976928711
19;1666353164.7650905;46.9755344;7.1803558999999995;0.007000000216066837;1666353164.862344;-0.1835927665233612;0.07667841762304306;91.06970977783203
20;1666353164.9995112;46.9755344;7.1803558;0.00800000037997961;1666353165.074661;-0.1370507925748825;-0.5546634197235107;91.10975646972656
21;1666353165.1927567;46.9755344;7.1803557;0.005000000353902578;1666353165.2843497;-0.06423376500606537;-0.40336230397224426;91.11328887939453
22;1666353165.4273605;46.9755344;7.1803557;0.003000000026077032;1666353165.5311983;-0.10863747447729111;-1.4580178260803223;91.10558319091797
23;1666353165.6455975;46.9755344;7.1803557;0.00800000037997961;1666353165.7530193;-0.35588425397872925;1.6534039974212646;91.13121032714844
24;1666353165.8808744;46.9755344;7.1803557;0.015000000596046448;1666353165.989813;-0.152795672416687;2.6213574409484863;89.51686096191406
25;1666353166.1230593;46.9755344;7.1803557;0.02800000086426735;1666353166.207601;0.9827389717102051;1.3178530931472778;87.33870697021484
26;1666353166.3319623;46.9755344;7.1803557;0.039000000804662704;1666353166.412969;2.732161521911621;1.1873416900634766;87.7364730834961
27;1666353166.539904;46.975534499999995;7.1803555;0.058000002056360245;1666353166.6282804;5.015318870544434;-0.9353393912315369;87.62648010253906
28;1666353166.746869;46.975534499999995;7.180355199999999;0.09800000488758087;1666353166.831779;1.036869764328003;-0.329143762588501;86.99073028564453
29;1666353166.9518332;46.975534599999996;7.180354899999999;0.15700000524520874;1666353167.052356;0.09730122238397598;-0.5383256673812866;86.41629791259766
30;1666353167.1899726;46.975534599999996;7.1803548;0.22800001502037048;1666353167.2719557;-2.101940393447876;-1.5087119340896606;85.92557525634766
31;1666353167.4095738;46.975534499999995;7.1803551;0.31200000643730164;1666353167.4857013;-3.617382764816284;-1.0585087537765503;85.51957702636719
32;1666353167.606725;46.9755344;7.1803555;0.40700000524520874;1666353167.6877344;-3.152068614959717;-1.0282070636749268;84.94609832763672
33;1666353167.8175426;46.9755342;7.1803558999999995;0.51500004529953;1666353167.9044065;-3.4006922245025635;-0.7809147238731384;84.4652328491211
34;1666353168.0322602;46.9755341;7.180356199999999;0.6380000114440918;1666353168.1171722;-2.8906209468841553;-0.5878791213035583;83.69343566894531
35;1666353168.2479563;46.9755341;7.1803564;0.7750000357627869;1666353168.3279881;-0.9921084046363831;-0.770626962184906;82.9482421875
36;1666353168.44999;46.9755341;7.1803566;0.9230000376701355;1666353168.5388093;0.6371212005615234;0.5872403979301453;82.31624603271484
37;1666353168.6598353;46.9755341;7.1803566;1.0830000638961792;1666353168.7433095;2.368774890899658;0.48463860154151917;81.72378540039062
38;1666353168.8643317;46.9755341;7.180356199999999;1.2590000629425049;1666353168.9497728;2.5048625469207764;-0.2886914908885956;81.1922607421875
39;1666353169.0610402;46.9755342;7.1803555;1.446000099182129;1666353169.1420422;2.2550902366638184;0.5308363437652588;81.00562286376953
40;1666353169.2581887;46.9755343;7.180354899999999;1.6380001306533813;1666353169.3470042;2.4324848651885986;-0.05085047706961632;83.34334564208984
41;1666353169.4621727;46.9755344;7.180354299999999;1.8340001106262207;1666353169.5456462;0.17301172018051147;-0.7008461952209473;82.1609115600586
42;1666353169.8120923;46.975534499999995;7.1803539999999995;2.0290000438690186;1666353169.8960311;-1.7479617595672607;-1.495368242263794;81.43360900878906
43;1666353170.013664;46.975534499999995;7.1803539;2.2210001945495605;1666353170.107371;-1.4892454147338867;-1.8635344505310059;80.49333190917969
44;1666353170.2332726;46.9755344;7.1803542;2.4120001792907715;1666353170.3256078;-3.606714963912964;-1.4912391901016235;79.4294204711914
45;1666353170.443705;46.9755344;7.1803547;2.6050000190734863;1666353170.5227726;-3.7005908489227295;-0.5617724061012268;78.5499267578125
46;1666353170.6593978;46.9755344;7.1803554;2.8000001907348633;1666353170.7433362;-2.5556371212005615;-0.38659030199050903;78.45272827148438
47;1666353170.8692393;46.9755343;7.1803558999999995;2.999000072479248;1666353170.9551294;-1.5036768913269043;-0.1882854402065277;78.3006362915039
48;1666353171.070296;46.9755343;7.180356199999999;3.196000099182129;1666353171.1678958;0.9305354356765747;0.8335225582122803;78.20372009277344
49;1666353171.2850149;46.9755343;7.1803564;3.392000198364258;1666353171.3913994;0.9603568911552429;0.45735204219818115;78.13069152832031
50;1666353171.5164025;46.9755344;7.180356199999999;3.5940001010894775;1666353171.6003373;2.373711585998535;0.1180480569601059;78.19540405273438
51;1666353171.7252667;46.975534499999995;7.1803557;3.7930002212524414;1666353171.8111546;2.858516216278076;0.5938902497291565;78.17879486083984
52;1666353171.9331641;46.975534599999996;7.180355199999999;3.992000102996826;1666353172.033687;1.8750008344650269;0.5018047094345093;78.317626953125
53;1666353172.163489;46.975534599999996;7.1803548;4.192000389099121;1666353172.254258;0.9300675392150879;0.6874744892120361;78.62860870361328
54;1666353172.368451;46.975534599999996;7.180354599999999;4.390000343322754;1666353172.4514117;-0.08758231997489929;-1.2153719663619995;78.73259735107422
55;1666353172.5695064;46.975534599999996;7.1803545;4.586000442504883;1666353172.6544228;-1.4332765340805054;-1.3920377492904663;79.06111907958984
56;1666353172.8017948;46.975534599999996;7.180354599999999;4.7820000648498535;1666353172.8847563;-2.4647579193115234;-0.9245959520339966;78.77532958984375
57;1666353173.01066;46.975534499999995;7.1803548;4.9830002784729;1666353173.0828848;-4.031583786010742;-1.3142644166946411;78.73810577392578
58;1666353173.2009823;46.975534499999995;7.1803551;5.187000274658203;1666353173.289795;-4.227353572845459;-0.4564107060432434;78.2484359741211
59;1666353173.42741;46.9755344;7.1803555999999995;5.395000457763672;1666353173.515251;-2.8981401920318604;0.07353140413761139;77.89627838134766
60;1666353173.6372523;46.9755344;7.180356;5.604000091552734;1666353173.7270422;-1.0338882207870483;0.20139285922050476;77.76715850830078
61;1666353173.8588047;46.9755343;7.180356199999999;5.813000202178955;1666353173.9427397;0.391000360250473;0.3799499273300171;77.88571166992188
62;1666353174.0842614;46.9755343;7.1803564;6.01800012588501;1666353174.1779566;2.5303258895874023;0.4166664779186249;78.05765533447266
63;1666353174.2853572;46.9755343;7.180356199999999;6.2260003089904785;1666353174.3702667;2.2019615173339844;-0.37528350949287415;78.19717407226562
64;1666353174.503982;46.9755343;7.1803558;6.434000492095947;1666353174.597675;3.3877546787261963;-0.0013948355335742235;78.35073852539062
65;1666353174.714805;46.9755344;7.1803552999999996;6.64300012588501;1666353174.8280933;3.089881420135498;-0.9585909843444824;78.63031005859375
66;1666353174.952567;46.975534499999995;7.1803548;6.854000091552734;1666353175.0423596;-0.9842771887779236;-0.9684019684791565;78.79462432861328
67;1666353175.1853735;46.975534499999995;7.1803545;7.067000389099121;1666353175.2900674;-1.840917706489563;-0.5576750636100769;78.45026397705078
68;1666353175.432566;46.975534499999995;7.1803544;7.276000499725342;1666353175.517228;-2.9815399646759033;-1.4021368026733398;78.49170684814453
69;1666353175.6512725;46.975534499999995;7.1803548;7.485000133514404;1666353175.7400885;-2.9043571949005127;-0.9946607351303101;77.96324157714844
70;1666353175.8494024;46.975534499999995;7.1803554;7.697000503540039;1666353175.9509082;-2.7094569206237793;-1.1243870258331299;77.71136474609375
71;1666353176.0816908;46.975534499999995;7.180356;7.913000583648682;1666353176.1734324;-1.4670466184616089;0.385749489068985;77.62989044189453
72;1666353176.3032439;46.9755344;7.1803564;8.134000778198242;1666353176.3910801;-1.5986560583114624;-0.1274430751800537;77.90145111083984
73;1666353176.5179617;46.9755343;7.1803567;8.348000526428223;1666353176.603853;0.3890843391418457;1.085429072380066;77.95378112792969
74;1666353176.716154;46.9755342;7.1803564;8.563000679016113;1666353176.7981343;1.6663434505462646;-0.3285372853279114;78.07968139648438
75;1666353176.9269667;46.9755341;7.1803558999999995;8.782999992370605;1666353177.010908;2.643002986907959;-1.2797831296920776;78.09872436523438
76;1666353177.2281113;46.9755341;7.1803552999999996;9.006000518798828;1666353177.3110726;1.7714341878890991;0.10450690984725952;77.934814453125
77;1666353177.4438066;46.9755341;7.1803548;9.231000900268555;1666353177.5423813;1.3188976049423218;-0.631746232509613;77.87234497070312
78;1666353177.6926901;46.9755341;7.1803544;9.456000328063965;1666353177.776625;-1.1905337572097778;-1.631451964378357;78.07115173339844
79;1666353177.9161937;46.9755341;7.1803542;9.681000709533691;1666353178.0089128;-2.4616198539733887;-1.4675863981246948;78.24654388427734
80;1666353178.1231034;46.9755342;7.1803544;9.898000717163086;1666353178.1933782;-3.093069076538086;-1.0509625673294067;78.48112487792969
81;1666353178.3251362;46.9755342;7.180354899999999;10.122000694274902;1666353178.42664;-4.531832695007324;-0.802316427230835;78.51055145263672
82;1666353178.5613303;46.9755342;7.1803555999999995;10.372000694274902;1666353178.640385;-3.9211320877075195;-2.1299185752868652;78.70236206054688
83;1666353178.7877595;46.9755342;7.1803564;10.667000770568848;1666353178.868769;-1.3924109935760498;1.4394230842590332;77.61690521240234
84;1666353178.9878466;46.9755342;7.180357099999999;10.993000984191895;1666353179.0815406;1.019134283065796;1.3215067386627197;77.5762939453125
85;1666353179.2025664;46.975533999999996;7.1803574999999995;11.339000701904297;1666353179.2904005;2.0094525814056396;0.8960917592048645;77.5661392211914
86;1666353179.4114256;46.975533899999995;7.1803574;11.688000679016113;1666353179.5939367;1.9038214683532715;0.7949998378753662;77.7976303100586
87;1666353179.7178917;46.9755338;7.1803569;12.038000106811523;1666353179.802805;2.1180014610290527;0.38680028915405273;77.79891967773438
88;1666353179.9208987;46.9755336;7.1803563;12.385000228881836;1666353180.0048335;1.6373732089996338;-0.5227177739143372;78.1372299194336
89;1666353180.1365952;46.9755335;7.1803555999999995;12.72800064086914;1666353180.233219;1.4913350343704224;-1.1648749113082886;78.23697662353516
90;1666353180.3669312;46.9755335;7.180355;13.065000534057617;1666353180.550418;-1.2598212957382202;-3.077852487564087;78.31130981445312
91;1666353180.6573205;46.9755335;7.1803547;13.397000312805176;1666353180.747112;-1.9848729372024536;-3.1341538429260254;78.52924346923828
92;1666353180.8827758;46.9755336;7.1803547;13.717000961303711;1666353180.9803777;-3.146768093109131;-2.0081610679626465;78.09203338623047
93;1666353181.1355617;46.9755337;7.1803551;14.03700065612793;1666353181.2302337;-2.9784862995147705;-1.2750804424285889;77.67073822021484
94;1666353181.3434472;46.9755338;7.1803557;14.357000350952148;1666353181.4293365;-2.742605209350586;-2.01861310005188;77.96163177490234
95;1666353181.5493858;46.975533899999995;7.180356199999999;14.67400074005127;1666353181.646012;-2.07110333442688;-0.18610815703868866;77.7683334350586
96;1666353181.7689834;46.975533999999996;7.1803567;14.993000984191895;1666353181.8822012;-0.8946288824081421;0.595318078994751;77.67144775390625
97;1666353181.9993198;46.9755341;7.180356799999999;15.31100082397461;1666353182.0813062;0.7451828122138977;0.707511305809021;77.90372467041016
98;1666353182.1993997;46.9755341;7.180356799999999;15.630001068115234;1666353182.2813861;0.953703761100769;0.6725557446479797;78.03453063964844
99;1666353182.4024093;46.9755341;7.1803567;15.941000938415527;1666353182.501961;1.2641160488128662;0.36132022738456726;78.2773666381836
100;1666353182.635675;46.9755342;7.1803564;16.256999969482422;1666353182.7205863;2.1041688919067383;0.7201219797134399;78.42708587646484
101;1666353182.8464885;46.9755342;7.180356;16.578001022338867;1666353182.9216435;1.5633336305618286;-0.48120707273483276;78.63246154785156
102;1666353183.0494983;46.9755343;7.1803555999999995;16.9010009765625;1666353183.146122;1.977613091468811;0.05740629509091377;78.40499877929688
103;1666353183.2681205;46.9755343;7.1803552999999996;17.22100067138672;1666353183.3530338;2.057821273803711;-1.6068693399429321;78.46184539794922
104;1666353183.482845;46.9755343;7.180355199999999;17.542001724243164;1666353183.5911782;-0.8676118850708008;-2.279926300048828;78.16239166259766
105;1666353183.709273;46.9755343;7.1803551;17.856000900268555;1666353183.790283;-2.4325621128082275;-2.260373830795288;77.93264770507812
106;1666353183.9122844;46.9755343;7.1803554;18.17300033569336;1666353183.999146;-2.972486734390259;-0.936872124671936;77.35108947753906
107;1666353184.1504276;46.9755343;7.180356;18.494001388549805;1666353184.235338;-2.1728405952453613;-1.8754987716674805;78.08206176757812
108;1666353184.3661222;46.9755343;7.180356499999999;18.814001083374023;1666353184.4500582;-1.4735954999923706;0.45587635040283203;77.699951171875
109;1666353184.5886495;46.9755343;7.180356799999999;19.134000778198242;1666353184.699915;-1.0597562789916992;0.29683783650398254;77.79051971435547
110;1666353184.8170354;46.9755342;7.180357;19.455001831054688;1666353184.89609;0.30252623558044434;0.7213014960289001;78.0521469116211
111;1666353185.0171185;46.9755342;7.180357;19.770000457763672;1666353185.1010497;1.386667251586914;0.8732506632804871;78.27934265136719
112;1666353185.2337866;46.9755342;7.1803566;20.09000015258789;1666353185.319676;1.5947916507720947;-0.1177932471036911;78.14437866210938
113;1666353185.5363486;46.9755342;7.1803561;20.41400146484375;1666353185.6300483;1.6969040632247925;-0.3763561248779297;78.03951263427734
114;1666353185.7510684;46.9755343;7.1803555999999995;20.73900032043457;1666353185.938461;1.9508872032165527;0.06927651911973953;78.10963439941406
115;1666353186.070221;46.9755344;7.1803552999999996;21.065000534057617;1666353186.151229;1.7030903100967407;-0.8839025497436523;78.1821060180664
116;1666353186.2624938;46.975534499999995;7.1803551;21.392000198364258;1666353186.351309;0.21757394075393677;-1.3866314888000488;78.13713073730469
117;1666353186.565174;46.975534499999995;7.180355;21.716001510620117;1666353186.6471584;-0.3581520915031433;-1.0876829624176025;78.04280090332031
118;1666353186.7652543;46.975534499999995;7.180355;22.027000427246094;1666353186.847244;-3.2863070964813232;-0.817406952381134;77.96955871582031
119;1666353186.977046;46.9755344;7.180355199999999;22.34200096130371;1666353187.077577;-3.77191162109375;-0.9962143898010254;78.15742492675781
120;1666353187.1966493;46.9755344;7.1803555999999995;22.66200065612793;1666353187.2747273;-3.0970895290374756;-0.029438957571983337;78.00248718261719
121;1666353187.4047987;46.9755343;7.1803561;22.983001708984375;1666353187.4926405;-2.559943675994873;-0.2874603569507599;78.1904067993164
122;1666353187.698576;46.9755342;7.1803564;23.303001403808594;1666353187.784465;-1.3697469234466553;0.2201305329799652;78.11470031738281
123;1666353187.8957286;46.9755342;7.1803567;23.625001907348633;1666353187.9786887;-0.33660271763801575;0.590787410736084;78.01129913330078
124;1666353188.121183;46.9755342;7.180356799999999;23.93600082397461;1666353188.2060964;0.7318494915962219;0.1242305263876915;78.06368255615234
125;1666353188.3290727;46.9755341;7.1803567;24.25400161743164;1666353188.4091036;2.545283317565918;0.14931367337703705;78.39351654052734
126;1666353188.5320818;46.9755342;7.1803564;24.57900047302246;1666353188.6394415;3.0555343627929688;0.12150013446807861;78.47601318359375
127;1666353188.7741294;46.9755343;7.1803561;24.907001495361328;1666353188.851233;2.9901647567749023;-0.6607954502105713;78.70427703857422
128;1666353188.9771397;46.9755343;7.1803558;25.235000610351562;1666353189.0727887;1.9549452066421509;-0.8566863536834717;78.7776870727539
129;1666353189.186978;46.9755344;7.1803555;25.564001083374023;1666353189.274815;0.915751576423645;-1.3880056142807007;78.64773559570312
130;1666353189.404626;46.975534499999995;7.1803552999999996;25.891000747680664;1666353189.4914896;-0.881697416305542;-1.5703611373901367;78.50809478759766
131;1666353189.6242259;46.975534499999995;7.180355199999999;26.203001022338867;1666353189.707187;-2.267601728439331;-1.3891310691833496;78.22946166992188
132;1666353189.819424;46.975534499999995;7.1803555;26.5210018157959;1666353189.913123;-2.922114372253418;-0.7116588354110718;77.8241195678711
133;1666353190.0429335;46.975534499999995;7.1803558999999995;26.847002029418945;1666353190.1239388;-2.218311071395874;-0.6961171627044678;77.71128845214844
134;1666353190.2381313;46.975534499999995;7.1803564;27.17500114440918;1666353190.3279247;-1.8639308214187622;-0.12339377403259277;77.50342559814453
135;1666353190.4450438;46.9755344;7.1803567;27.501001358032227;1666353190.5387368;-1.2751710414886475;0.02854338474571705;77.50414276123047
136;1666353190.7446766;46.9755344;7.180356799999999;27.81100082397461;1666353190.8295875;0.4499850571155548;0.9900214672088623;77.56092834472656
137;1666353190.9662278;46.9755344;7.180356499999999;28.132001876831055;1666353191.055044;1.7906582355499268;0.7951355576515198;77.61073303222656
138;1666353191.1819222;46.9755344;7.180356;28.459001541137695;1666353191.2531705;2.832397699356079;0.10709303617477417;77.99510955810547
139;1666353191.4034758;46.9755344;7.1803554;28.78900146484375;1666353191.4756975;1.5741380453109741;-0.5770412683486938;78.41535186767578
140;1666353191.5859907;46.9755344;7.180354899999999;29.11800193786621;1666353191.6748028;0.38660377264022827;-0.8580676913261414;78.66805267333984
141;1666353191.7850919;46.975534499999995;7.1803547;29.44500160217285;1666353191.8807397;-0.0273244921118021;-0.41993919014930725;78.73689270019531
142;1666353192.0124981;46.975534499999995;7.180354599999999;29.768001556396484;1666353192.097412;-0.5480437278747559;-1.339574933052063;78.79528045654297
143;1666353192.2145305;46.975534499999995;7.1803547;30.073001861572266;1666353192.3023715;-3.2645907402038574;-1.6929974555969238;78.7982406616211
144;1666353192.433154;46.975534499999995;7.1803551;30.381000518798828;1666353192.5170896;-3.9127414226531982;-0.8833248019218445;78.54849243164062
145;1666353192.6488507;46.975534499999995;7.1803555999999995;30.698001861572266;1666353192.724003;-2.493100881576538;-0.5492620468139648;78.32508850097656
146;1666353192.8538134;46.975534499999995;7.1803561;31.0210018157959;1666353192.94458;-0.7188521027565002;0.10720234364271164;77.92548370361328
147;1666353193.0617006;46.9755344;7.1803564;31.34600067138672;1666353193.156372;-1.6540101766586304;0.011006847023963928;77.72344970703125
148;1666353193.2734904;46.9755343;7.1803564;31.671001434326172;1666353193.3554778;-0.38254034519195557;1.062838077545166;77.65794372558594
149;1666353193.479429;46.9755343;7.1803564;31.98000144958496;1666353193.5555563;0.6429107785224915;0.29697978496551514;77.8707046508789
150;1666353193.6990285;46.9755344;7.1803561;32.29600143432617;1666353193.774181;1.3815467357635498;0.812536895275116;78.00988006591797
151;1666353193.917652;46.975534499999995;7.1803558;32.62000274658203;1666353194.0123303;3.0503034591674805;0.6094711422920227;78.02308654785156
152;1666353194.1509163;46.975534599999996;7.1803555;32.948001861572266;1666353194.224117;2.557774305343628;0.4270262122154236;78.22532653808594
153;1666353194.3402593;46.975534599999996;7.180355199999999;33.2760009765625;1666353194.4339554;1.88127601146698;0.008865880779922009;78.1922378540039
154;1666353194.5598636;46.9755347;7.180355;33.60000228881836;1666353194.6359887;-0.03207096830010414;-0.8388453722000122;78.38941955566406
155;1666353194.766775;46.9755347;7.180354899999999;33.92300033569336;1666353194.8477798;-1.8166842460632324;-0.9827356934547424;78.35696411132812
156;1666353194.9659088;46.975534599999996;7.180354899999999;34.22700119018555;1666353195.06543;-2.619114875793457;-1.2043437957763672;78.49864196777344
157;1666353195.1864522;46.975534599999996;7.180355199999999;34.53499984741211;1666353195.282103;-2.6674747467041016;-0.7368014454841614;78.27544403076172
158;1666353195.3943398;46.975534499999995;7.1803557;34.849002838134766;1666353195.4899886;-3.162182331085205;-0.9948455095291138;78.22309112548828
159;1666353195.6100378;46.9755344;7.1803561;35.16699981689453;1666353195.6861644;-2.299607515335083;-0.10262945294380188;77.98515319824219
160;1666353195.8062127;46.9755343;7.180356499999999;35.4890022277832;1666353195.9106467;-1.858497142791748;0.24962939321994781;77.83457946777344
161;1666353196.0160525;46.9755342;7.1803567;35.81300354003906;1666353196.0951133;-0.053880736231803894;0.47691816091537476;77.72708892822266
162;1666353196.2151568;46.9755341;7.1803567;36.11900329589844;1666353196.3264225;2.2364578247070312;0.0037241154350340366;77.92454528808594
163;1666353196.4552553;46.9755342;7.1803563;36.43600082397461;1666353196.5401654;1.634672999382019;0.8522658944129944;77.99652099609375
164;1666353196.6650949;46.9755342;7.1803558;36.7650032043457;1666353196.7695253;1.1892991065979004;0.232134610414505;78.1280517578125
165;1666353196.8807898;46.9755343;7.1803554;37.09600067138672;1666353197.0672064;1.3557273149490356;0.14704416692256927;78.04525756835938
166;1666353197.1813974;46.9755344;7.1803551;37.426002502441406;1666353197.2614326;1.2012659311294556;-0.815789520740509;78.20040130615234
167;1666353197.4068544;46.975534499999995;7.180354899999999;37.755001068115234;1666353197.4985979;0.18251794576644897;-1.2849894762039185;78.36548614501953
168;1666353197.6284091;46.975534499999995;7.180354899999999;38.08100128173828;1666353197.7172222;-1.5229480266571045;-1.014177918434143;78.27335357666016
169;1666353197.8304393;46.975534599999996;7.180355;38.384002685546875;1666353197.9173048;-2.583177328109741;-1.2068829536437988;78.55314636230469
170;1666353198.05004;46.975534599999996;7.1803552999999996;38.69300079345703;1666353198.133974;-2.5566084384918213;-1.300041675567627;78.41532135009766
171;1666353198.2481692;46.975534599999996;7.1803558;39.01000213623047;1666353198.344792;-2.7216269969940186;-0.6654367446899414;78.20689392089844
172;1666353198.4550815;46.975534599999996;7.1803563;39.329002380371094;1666353198.530234;-2.191704750061035;0.21593822538852692;77.89855194091797
173;1666353198.6493053;46.975534599999996;7.1803567;39.652000427246094;1666353198.7342162;-1.2785829305648804;1.1695162057876587;77.65154266357422
174;1666353198.8581674;46.975534599999996;7.180356799999999;39.95600128173828;1666353198.9401572;-0.7182968854904175;1.1488711833953857;77.52203369140625
175;1666353199.0582495;46.975534599999996;7.180356499999999;40.27300262451172;1666353199.1392548;-0.4175305664539337;1.418933391571045;77.73406219482422
176;1666353199.2690632;46.975534499999995;7.180356;40.599002838134766;1666353199.3608074;-0.6238327026367188;1.3428869247436523;77.7651596069336
177;1666353199.4798796;46.975534499999995;7.1803555;40.928001403808594;1666353199.560888;0.5498501062393188;1.0138709545135498;78.08546447753906
178;1666353199.6877708;46.975534499999995;7.180355;41.259002685546875;1666353199.7775626;2.4493584632873535;-0.4531311094760895;78.28645324707031
179;1666353199.8927279;46.975534499999995;7.1803547;41.58400344848633;1666353199.9756908;0.9231942296028137;-0.3998089134693146;78.62630462646484
180;1666353200.10452;46.975534499999995;7.1803545;41.90700149536133;1666353200.184553;0.3182835280895233;-1.0287327766418457;78.55821990966797
181;1666353200.3163137;46.975534499999995;7.1803545;42.20600128173828;1666353200.3982959;0.7212028503417969;-1.8080570697784424;78.55061340332031
182;1666353200.5251768;46.975534599999996;7.180354899999999;42.51100158691406;1666353200.6178985;-1.2483716011047363;-1.5124828815460205;78.0556411743164
183;1666353200.7457538;46.9755347;7.1803555;42.823001861572266;1666353200.8560417;-1.4080389738082886;-1.6784780025482178;77.78221130371094
184;1666353200.9770663;46.9755348;7.1803561;43.143001556396484;1666353201.0678341;-1.9192970991134644;-1.7861031293869019;77.93473815917969
185;1666353201.1947134;46.975535;7.1803567;43.467002868652344;1666353201.2825532;-1.3817769289016724;0.7443274259567261;77.53306579589844
186;1666353201.3928401;46.975535099999995;7.180357099999999;43.7920036315918;1666353201.4933727;-0.6990613341331482;-0.4108128547668457;77.831298828125
187;1666353201.6065853;46.975535;7.1803573;44.095001220703125;1666353201.6924725;-2.1870033740997314;0.7350207567214966;77.7056655883789
188;1666353201.914027;46.9755349;7.180357;44.41200256347656;1666353202.0028424;-1.7658271789550781;0.5277014374732971;77.70278930664062
189;1666353202.1150806;46.9755348;7.1803564;44.73800277709961;1666353202.2029223;-2.0909624099731445;1.1207956075668335;77.4371109008789
190;1666353202.3317552;46.975534599999996;7.1803558;45.070003509521484;1666353202.4088588;1.0449485778808594;0.7591466307640076;77.5943603515625
191;1666353202.525983;46.9755344;7.1803552999999996;45.400001525878906;1666353202.6118665;0.11369891464710236;0.3911909759044647;77.9103775024414
192;1666353202.7397223;46.9755343;7.180354899999999;45.72600173950195;1666353202.8548918;-0.44018977880477905;-0.10635516792535782;78.291015625
193;1666353202.9729905;46.9755342;7.180354599999999;46.04900360107422;1666353203.05302;0.47615915536880493;-0.35442471504211426;78.62782287597656
194;1666353203.1857545;46.9755342;7.180354599999999;46.345001220703125;1666353203.26969;0.6173137426376343;-1.0064034461975098;78.56453704833984
195;1666353203.3829062;46.9755343;7.180354899999999;46.64900207519531;1666353203.4717247;2.1309361457824707;-0.15449640154838562;78.43163299560547
196;1666353203.590796;46.9755344;7.1803554;46.9630012512207;1666353203.7811172;2.463071584701538;-0.8448546528816223;78.1976089477539
197;1666353203.8982365;46.975534599999996;7.1803558999999995;47.281002044677734;1666353203.9938834;2.6859984397888184;-1.031003475189209;78.18717956542969
198;1666353204.1227167;46.9755348;7.180356199999999;47.60400390625;1666353204.2007945;1.4562697410583496;-1.4434353113174438;78.34122467041016
199;1666353204.3267;46.9755349;7.1803563;47.927001953125;1666353204.4291792;-0.14546823501586914;-0.9557836651802063;78.40958404541016
200;1666353204.573627;46.9755349;7.1803563;48.22600173950195;1666353204.6624446;-1.3872536420822144;-0.890231728553772;78.75218963623047
201;1666353204.7951794;46.9755349;7.1803563;48.5420036315918;1666353204.8771632;-3.1477503776550293;-0.715374767780304;78.70050048828125
202;1666353205.093836;46.9755347;7.1803564;48.86900329589844;1666353205.168987;-3.1709558963775635;-0.596058189868927;78.68653106689453
203;1666353205.2870831;46.975534599999996;7.180356499999999;49.20100402832031;1666353205.3622363;-3.341918706893921;-0.5868585705757141;78.44776916503906
204;1666353205.495948;46.9755344;7.1803566;49.53200149536133;1666353205.5759814;-4.350988864898682;-0.5863032341003418;78.24761199951172
205;1666353205.6950533;46.9755343;7.1803567;49.85900115966797;1666353205.7750847;-0.902362048625946;-0.19476233422756195;78.06624603271484
206;1666353205.9117248;46.9755342;7.180356799999999;50.18600082397461;1666353205.991761;1.6052790880203247;0.07212801277637482;78.05006408691406
207;1666353206.1098523;46.9755342;7.1803567;50.487003326416016;1666353206.2025728;2.249129056930542;0.1939128190279007;77.88794708251953
208;1666353206.3206706;46.9755343;7.1803563;50.79900360107422;1666353206.414366;1.9008384943008423;-0.0481293760240078;78.04369354248047
209;1666353206.5422204;46.9755344;7.1803558999999995;51.125003814697266;1666353206.6261578;2.982954978942871;-0.1977073699235916;78.11272430419922
210;1666353206.7413254;46.975534499999995;7.1803554;51.45500183105469;1666353206.828192;1.8340142965316772;-0.5331656336784363;78.3594970703125
211;1666353206.9462843;46.975534599999996;7.180354899999999;51.78600311279297;1666353207.0312018;0.33116814494132996;-0.4493478834629059;78.6584701538086
212;1666353207.1561246;46.9755347;7.180354599999999;52.1140022277832;1666353207.2527502;-0.7481468915939331;-0.7244912981987;78.59207916259766
213;1666353207.3718262;46.9755347;7.1803545;52.41200256347656;1666353207.4528325;-3.4430391788482666;-0.8155032992362976;78.5055923461914
214;1666353207.5797086;46.9755348;7.1803548;52.72500228881836;1666353207.6597407;-4.025274753570557;0.13907672464847565;78.26636505126953
215;1666353207.7807667;46.9755348;7.1803552999999996;53.044002532958984;1666353207.8568938;-3.147252321243286;-0.48369738459587097;78.32669830322266
216;1666353207.9808471;46.9755348;7.1803558;53.362003326416016;1666353208.0608778;-2.9358878135681152;0.20706473290920258;78.41561889648438
217;1666353208.178974;46.9755347;7.180356199999999;53.68300247192383;1666353208.2609584;-1.7321689128875732;0.6950600147247314;78.14280700683594
218;1666353208.3829596;46.9755347;7.1803564;54.00400161743164;1666353208.4668927;-0.958432137966156;0.9504768252372742;78.09823608398438
219;1666353208.5791335;46.975534599999996;7.180356499999999;54.32400131225586;1666353208.6689293;0.9369903802871704;1.215322494506836;78.06224822998047
220;1666353208.7821417;46.975534499999995;7.1803566;54.621002197265625;1666353208.8660803;1.527400255203247;0.07663694769144058;78.21595001220703
221;1666353209.0027187;46.975534499999995;7.1803564;54.93100357055664;1666353209.0905619;2.748487710952759;-0.43194469809532166;78.383056640625
222;1666353209.2145104;46.975534499999995;7.180356;55.25400161743164;1666353209.2945435;2.797121047973633;0.083803191781044;78.68082427978516
223;1666353209.421425;46.975534499999995;7.1803557;55.583003997802734;1666353209.5073109;2.372422456741333;-0.24734202027320862;78.734619140625
224;1666353209.631264;46.975534499999995;7.1803552999999996;55.910003662109375;1666353209.7308145;1.5978798866271973;-1.0358484983444214;78.76204681396484
225;1666353209.8420804;46.975534499999995;7.180355;56.23600387573242;1666353209.9308975;-0.4288956820964813;-1.2817463874816895;78.7657241821289
226;1666353210.0587525;46.975534499999995;7.1803548;56.53700256347656;1666353210.232481;-3.761850595474243;-1.9380637407302856;78.69905090332031
227;1666353210.3710747;46.975534499999995;7.180355;56.84800338745117;1666353210.4540324;-3.3004331588745117;-0.2236751914024353;78.0317153930664
228;1666353210.5623684;46.9755344;7.1803552999999996;57.16800308227539;1666353210.640448;-2.9036664962768555;-0.16931571066379547;77.82852935791016
229;1666353210.7653766;46.9755343;7.1803557;57.49100112915039;1666353210.8463895;-2.681586503982544;0.11872340738773346;77.5125503540039
230;1666353210.9703374;46.9755342;7.1803558999999995;57.814002990722656;1666353211.067942;-2.050035238265991;0.3453065752983093;77.40547180175781
231;1666353211.1782246;46.9755341;7.1803561;58.118003845214844;1666353211.2602084;-1.8230655193328857;-0.3129884898662567;77.89966583251953
232;1666353211.3724484;46.975533999999996;7.180356199999999;58.380001068115234;1666353211.4778569;5.120887756347656;-10.120123863220215;73.29815673828125
233;1666353211.5920525;46.9755342;7.1803558;58.590003967285156;1666353211.680865;15.27154541015625;-36.76002883911133;63.31779098510742
234;1666353211.8077452;46.975535699999995;7.1803535;58.7760009765625;1666353211.9024186;17.744338989257812;-52.61239242553711;52.685813903808594
235;1666353212.0234432;46.9755389;7.1803482999999995;58.871002197265625;1666353212.1181169;6.533633708953857;-37.57049560546875;41.960453033447266
236;1666353212.2459702;46.9755432;7.1803406;58.89500427246094;1666353212.331857;-1.105167031288147;-23.376846313476562;31.348039627075195
237;1666353212.455811;46.9755481;7.1803313;58.941001892089844;1666353212.5553637;-11.466333389282227;-29.40191078186035;17.455121994018555
238;1666353212.6759312;46.975553399999995;7.1803208;59.01400375366211;1666353212.7627964;-22.484275817871094;-26.0806941986084;4.728111267089844
239;1666353212.8896744;46.975559499999996;7.1803094;59.083003997802734;1666353212.972635;-33.463035583496094;-24.19354248046875;-6.872276306152344
240;1666353213.1092749;46.9755666;7.1802968;59.16400146484375;1666353213.2185903;-38.768436431884766;-19.01694679260254;-14.32822322845459
241;1666353213.3513238;46.975574699999996;7.180282999999999;59.24700164794922;1666353213.4625874;-41.80312728881836;-16.858844757080078;-6.864545822143555
242;1666353213.5787332;46.975584;7.1802684;59.33500289916992;1666353213.7005882;-43.829002380371094;-21.402936935424805;7.544412136077881
243;1666353213.8260558;46.975594799999996;7.1802534;59.41400146484375;1666353214.0193014;-43.16275405883789;-30.021636962890625;20.298173904418945
244;1666353214.1295905;46.9756074;7.1802382;59.474002838134766;1666353214.2349992;-36.4146614074707;-43.235389709472656;38.09816360473633
245;1666353214.3491902;46.9756219;7.1802231999999995;59.493003845214844;1666353214.4292214;-23.912349700927734;-51.647056579589844;53.935874938964844
246;1666353214.5419877;46.9756383;7.1802079;59.50100326538086;1666353214.6464226;-14.193997383117676;-50.24248123168945;58.589473724365234
247;1666353214.7660162;46.9756564;7.1801923;59.5160026550293;1666353214.8480012;-13.999317169189453;-52.82062911987305;47.213565826416016
248;1666353214.970001;46.975675599999995;7.1801759;59.535003662109375;1666353215.0676029;-18.96636199951172;-54.58131790161133;23.394180297851562
249;1666353215.1876485;46.975695099999996;7.1801575;59.52300262451172;1666353215.276466;-21.685701370239258;-45.93393325805664;1.4966133832931519
250;1666353215.393584;46.9757138;7.1801371;59.48800277709961;1666353215.4853315;-26.582622528076172;-37.03654098510742;-11.778002738952637
251;1666353215.6044006;46.9757312;7.180115;59.46000289916992;1666353215.6883368;-35.37908172607422;-24.855056762695312;-20.66094398498535
252;1666353215.8152192;46.9757475;7.1800922;59.44600296020508;1666353215.9001305;-43.25310516357422;-12.982165336608887;-26.530601501464844
253;1666353216.0143209;46.9757635;7.180068599999999;59.448001861572266;1666353216.1002095;-50.39586639404297;-6.405760288238525;-30.98398780822754
254;1666353216.2144005;46.97578;7.180044499999999;59.45600128173828;1666353216.3071244;-55.896148681640625;-2.1044921875;-34.75719451904297
255;1666353216.4271693;46.975797199999995;7.18002;59.4530029296875;1666353216.521842;-58.68589782714844;2.1506197452545166;-39.27862548828125
256;1666353216.6477478;46.9758153;7.179995099999999;59.426002502441406;1666353216.7307062;-57.02640914916992;5.0568647384643555;-43.83003616333008
257;1666353216.8448994;46.975834299999995;7.1799696;59.37400436401367;1666353216.9424973;-52.215694427490234;6.34555721282959;-43.978981018066406
258;1666353217.059618;46.975853799999996;7.1799444999999995;59.31500244140625;1666353217.1396515;-49.75654220581055;7.406753063201904;-42.47288513183594
259;1666353217.2714143;46.975873899999996;7.1799193;59.263004302978516;1666353217.3621783;-49.77204513549805;4.792146682739258;-39.080657958984375
260;1666353217.6110587;46.975894499999995;7.179894399999999;59.21600341796875;1666353217.6940196;-48.84495162963867;4.66106653213501;-40.76650619506836
261;1666353217.8140674;46.9759153;7.1798696;59.17500305175781;1666353217.8946192;-48.55182647705078;1.7146822214126587;-38.6865119934082
262;1666353218.0376518;46.9759363;7.179844999999999;59.143001556396484;1666353218.1303709;-48.46065902709961;1.2132776975631714;-39.41508483886719
263;1666353218.2435863;46.9759573;7.179820299999999;59.1150016784668;1666353218.340218;-48.58091735839844;0.7312246561050415;-39.927547454833984
264;1666353218.494421;46.9759782;7.1797961;59.099002838134766;1666353218.5744524;-49.26015090942383;-0.49138545989990234;-38.80919647216797
265;1666353218.6847408;46.975999099999996;7.179771499999999;59.09100341796875;1666353218.7921;-49.88090133666992;0.5338736772537231;-40.865394592285156
266;1666353218.909219;46.97602;7.1797466;59.08200454711914;1666353218.9882746;-49.99003601074219;-0.6641546487808228;-39.3480339050293
267;1666353219.1171112;46.9760409;7.179721499999999;59.07400131225586;1666353219.202022;-49.73855209350586;0.21935155987739563;-40.29787826538086
268;1666353219.3191404;46.9760618;7.179696099999999;59.064002990722656;1666353219.4264994;-49.37976837158203;0.4295974373817444;-40.83147048950195
269;1666353219.5504577;46.9760827;7.1796706;59.052001953125;1666353219.6412191;-49.15816116333008;-0.33363738656044006;-39.462154388427734
270;1666353219.7807872;46.9761033;7.1796454;59.05000305175781;1666353219.8598447;-49.232357025146484;0.941295325756073;-41.39320373535156
271;1666353219.9730618;46.976124;7.1796199;59.044002532958984;1666353220.0804217;-49.59990692138672;-0.3371768593788147;-39.62138366699219
272;1666353220.2024202;46.9761447;7.1795941999999995;59.03700256347656;1666353220.285382;-49.71150207519531;0.708541214466095;-40.72058868408203
273;1666353220.4366608;46.9761654;7.1795684;59.025001525878906;1666353220.5206006;-49.42475128173828;0.4634988009929657;-40.640647888183594
274;1666353220.6406438;46.9761861;7.1795424;59.01100158691406;1666353220.715797;-48.98687744140625;0.1856617033481598;-39.815673828125
275;1666353220.8553655;46.9762068;7.1795165999999995;58.99700164794922;1666353220.934421;-48.57830047607422;1.208659052848816;-41.42948913574219
276;1666353221.0515432;46.9762273;7.179491;58.99800109863281;1666353221.1520693;-48.90226364135742;-0.272645503282547;-39.49348449707031
277;1666353221.262358;46.9762479;7.1794652;58.993003845214844;1666353221.3541012;-49.38542556762695;0.9032230973243713;-40.95561599731445
278;1666353221.4897654;46.976268399999995;7.1794394;58.983001708984375;1666353221.5785832;-49.4730339050293;0.5121558904647827;-40.429710388183594
279;1666353221.7054605;46.9762889;7.1794135;58.97300338745117;1666353221.780614;-49.43329620361328;-0.21601544320583344;-39.650150299072266
280;1666353221.904566;46.9763095;7.1793876;58.961002349853516;1666353221.983623;-48.960113525390625;0.7988186478614807;-41.36612319946289
281;1666353222.0997684;46.97633;7.1793616;58.948001861572266;1666353222.2871583;-48.630943298339844;0.7761979103088379;-39.537105560302734
282;1666353222.4101353;46.9763504;7.1793359;58.95500183105469;1666353222.4921198;-47.313941955566406;1.6584839820861816;-40.704978942871094
283;1666353222.6307144;46.9763708;7.1793100999999995;58.96400451660156;1666353222.7117195;-40.51511764526367;2.629945993423462;-40.94374465942383
284;1666353222.8249342;46.9763911;7.1792848;58.965003967285156;1666353222.9352229;-27.60879898071289;1.6840370893478394;-39.19866180419922
285;1666353223.06015;46.9764106;7.1792606;58.952003479003906;1666353223.1372554;-12.081094741821289;0.7525190711021423;-39.875099182128906
286;1666353223.2690136;46.9764287;7.1792381999999995;58.93100357055664;1666353223.3617332;2.7017736434936523;0.9404473304748535;-40.49267578125
287;1666353223.5139909;46.976444799999996;7.1792183;58.91200256347656;1666353223.5949974;21.32372283935547;-3.8972253799438477;-37.7928352355957
288;1666353223.715051;46.9764584;7.1792015;58.855003356933594;1666353223.7989857;26.88161849975586;2.45756196975708;-36.62199020385742
289;1666353223.927815;46.976469099999996;7.179188;58.70900344848633;1666353224.0185866;16.394502639770508;-2.7167742252349854;-37.9059944152832
290;1666353224.145465;46.976478;7.1791772;58.48400115966797;1666353224.2235444;8.493550300598145;-2.0383083820343018;-37.84967041015625
291;1666353224.3338313;46.9764854;7.179168499999999;58.220001220703125;1666353224.4480267;5.000375270843506;-2.9306225776672363;-39.61591720581055
292;1666353224.5612411;46.9764913;7.1791614;57.94000244140625;1666353224.6481056;3.9203643798828125;-2.024203062057495;-40.677066802978516
293;1666353224.7788918;46.976495899999996;7.1791556;57.66100311279297;1666353224.8618464;5.232943058013916;1.2472875118255615;-43.320274353027344
294;1666353224.9760406;46.976499499999996;7.1791509;57.3910026550293;1666353225.0697367;2.8011527061462402;-0.9526315331459045;-44.01294708251953
295;1666353225.1858819;46.9765022;7.1791469;57.15300369262695;1666353225.2639616;3.7009975910186768;2.0260210037231445;-44.19413375854492
296;1666353225.3869355;46.9765042;7.1791434;56.94600296020508;1666353225.4767299;3.395993709564209;5.363842010498047;-43.69804000854492
297;1666353225.5879934;46.9765058;7.1791405;56.788002014160156;1666353225.6807132;1.7725838422775269;4.39655876159668;-42.6189079284668
298;1666353225.805645;46.976507299999994;7.179138099999999;56.677001953125;1666353225.8895786;1.3521829843521118;5.696202754974365;-41.32777786254883
299;1666353225.9988916;46.9765087;7.1791361;56.631004333496094;1666353226.0916078;1.885798454284668;5.973900318145752;-40.43837356567383
300;1666353226.219466;46.9765103;7.1791348;56.647003173828125;1666353226.3112094;-0.26495835185050964;3.436677932739258;-41.43474578857422
301;1666353226.4312599;46.9765119;7.1791338;56.73200225830078;1666353226.5171459;2.565058708190918;0.34279143810272217;-42.471920013427734
302;1666353226.6459782;46.9765137;7.1791328;56.871002197265625;1666353226.7289386;7.4553704261779785;-0.27980923652648926;-45.2108268737793
303;1666353226.8402002;46.976515199999994;7.1791319;57.05600357055664;1666353226.9163306;12.250452041625977;1.8197962045669556;-47.72897720336914
304;1666353227.0354009;46.9765163;7.1791316;57.28700256347656;1666353227.1330016;10.828829765319824;-1.0234878063201904;-47.497066497802734
305;1666353227.2510986;46.9765168;7.1791317999999995;57.54900360107422;1666353227.331135;7.106996059417725;-1.215356469154358;-46.359344482421875
306;1666353227.4697235;46.9765169;7.179132399999999;57.80000305175781;1666353227.5526826;-1.7771130800247192;-7.549993991851807;-45.067970275878906
307;1666353227.6698024;46.9765169;7.1791328;58.012001037597656;1666353227.7478812;-8.13341999053955;-0.8012118935585022;-42.495872497558594
308;1666353227.8708575;46.976517;7.1791326;58.189002990722656;1666353227.9635808;-7.810666561126709;-2.500027894973755;-42.4470100402832
309;1666353228.0875292;46.9765173;7.1791319;58.32400131225586;1666353228.1841602;-13.296380043029785;-2.8251330852508545;-39.65823745727539
310;1666353228.3022504;46.976517699999995;7.1791306;58.43800354003906;1666353228.3930194;-5.8133225440979;-7.585150241851807;-39.188011169433594
311;1666353228.5072107;46.976518;7.179129;58.53400421142578;1666353228.6184783;-0.4272230863571167;2.053725242614746;-41.49266052246094
312;1666353228.732671;46.976518299999995;7.179127299999999;58.618003845214844;1666353228.8185549;-21.853008270263672;-2.6879847049713135;-48.5180549621582
313;1666353228.9366627;46.976518899999995;7.1791252;58.7030029296875;1666353229.02353;-38.052005767822266;-1.3205091953277588;-49.33165740966797
314;1666353229.1406453;46.9765205;7.1791217;58.77800369262695;1666353229.2411916;-46.9311637878418;1.3426852226257324;-48.83277893066406
315;1666353229.4578633;46.9765235;7.1791161;58.81300354003906;1666353229.5496051;-45.92788314819336;-1.530159592628479;-50.0620002746582
316;1666353229.6540375;46.976528099999996;7.1791081;58.79300308227539;1666353229.7467587;-36.078102111816406;-7.016170501708984;-49.692344665527344
317;1666353229.8678107;46.976533499999995;7.1790981;58.75700378417969;1666353229.9409838;-27.57684898376465;-6.848799705505371;-51.37837600708008
318;1666353230.0561519;46.9765393;7.1790867;58.737003326416016;1666353230.1498477;-27.54728889465332;-2.9926507472991943;-51.45096206665039
319;1666353230.2659903;46.9765453;7.179074699999999;58.75100326538086;1666353230.3489518;-29.40047264099121;-1.1233538389205933;-51.07735061645508
320;1666353230.4914458;46.976552;7.1790619;58.7920036315918;1666353230.5759013;-34.289817810058594;-1.015737771987915;-50.633426666259766
321;1666353230.6998506;46.9765594;7.179048099999999;58.845001220703125;1666353230.79648;-37.9239616394043;-0.7757642269134521;-50.53600311279297
322;1666353230.9067633;46.9765674;7.1790332999999995;58.893001556396484;1666353230.9858234;-38.27223587036133;1.4277563095092773;-51.18920135498047
323;1666353231.1195312;46.976576099999996;7.179017399999999;58.93800354003906;1666353231.2005398;-37.59774398803711;0.13195614516735077;-50.63833236694336
324;1666353231.3362033;46.9765855;7.1790007;58.99700164794922;1666353231.4142842;-36.52830123901367;2.960891008377075;-52.86970520019531
325;1666353231.5558026;46.9765952;7.178983199999999;59.05500411987305;1666353231.6387637;-39.686195373535156;6.691646575927734;-51.85111618041992
326;1666353231.767595;46.976605299999996;7.1789653;59.10200119018555;1666353231.8564136;-42.853389739990234;2.0221645832061768;-45.34763717651367
327;1666353231.9657228;46.976616199999995;7.178947099999999;59.137001037597656;1666353232.0662518;-43.58345031738281;-4.497726917266846;-41.96084976196289
328;1666353232.1833718;46.976627799999996;7.178928399999999;59.15900421142578;1666353232.2819526;-43.22816467285156;-4.563919544219971;-42.77600860595703
329;1666353232.4069347;46.9766398;7.1789089;59.173004150390625;1666353232.499655;-43.09566116333008;-0.8794301152229309;-45.14029312133789
330;1666353232.6314137;46.976652099999995;7.1788887;59.17900466918945;1666353232.7231586;-42.47018051147461;2.2768402099609375;-48.876861572265625
331;1666353232.8549194;46.976664799999995;7.1788681;59.18300247192383;1666353232.9476378;-43.029144287109375;-0.40634214878082275;-47.08002471923828
332;1666353233.0750506;46.976677699999996;7.1788472;59.185001373291016;1666353233.156055;-42.938987731933594;-4.670466423034668;-45.34395980834961
333;1666353233.2692695;46.9766908;7.178825799999999;59.18400192260742;1666353233.3600414;-42.79373550415039;-4.538219928741455;-45.48653030395508
334;1666353233.4810662;46.9767041;7.1788039999999995;59.178001403808594;1666353233.5640404;-42.59099578857422;-0.6600022315979004;-47.3178596496582
335;1666353233.7933993;46.9767175;7.178781799999999;59.17100143432617;1666353233.8822167;-42.72015380859375;1.1227039098739624;-48.03866195678711
336;1666353233.9973834;46.9767309;7.178759299999999;59.16100311279297;1666353234.1086533;-43.151145935058594;0.2881125807762146;-48.58209991455078
337;1666353234.2199116;46.976744499999995;7.178736499999999;59.15300369262695;1666353234.3019962;-43.26239776611328;-2.8182482719421387;-47.417816162109375
338;1666353234.4318035;46.9767582;7.1787135;59.14400100708008;1666353234.5128129;-43.50279998779297;-2.8854730129241943;-47.340248107910156
339;1666353234.6357894;46.9767721;7.1786904;59.134002685546875;1666353234.7177706;-41.86421585083008;-0.641644299030304;-46.872642517089844
340;1666353234.8309877;46.976785899999996;7.178667;59.10700225830078;1666353235.0452604;-35.526222229003906;3.328963279724121;-49.19911575317383
341;1666353235.2720838;46.9767996;7.1786439;59.07500457763672;1666353235.3511364;-30.418996810913086;0.24695228040218353;-51.0680046081543
342;1666353235.4809468;46.9768129;7.1786213;59.0410041809082;1666353235.5717132;-25.70847511291504;-1.3842411041259766;-51.31619644165039
343;1666353235.6868818;46.9768257;7.1785996;59.00700378417969;1666353235.76789;-19.760147094726562;-6.965494632720947;-47.62546157836914
344;1666353235.8947706;46.9768377;7.1785789;58.96800231933594;1666353235.9748013;-12.531227111816406;-3.2861013412475586;-46.92127990722656
345;1666353236.0997298;46.9768487;7.1785599;58.935001373291016;1666353236.1885474;-3.7787985801696777;-1.2058058977127075;-46.29683303833008
346;1666353236.3183546;46.9768587;7.1785425;58.90900421142578;1666353236.404247;8.582592010498047;4.353996753692627;-51.82068634033203
347;1666353236.52234;46.976867399999996;7.178527099999999;58.87600326538086;1666353236.614086;17.300657272338867;-0.015222941525280476;-49.45804977416992
348;1666353236.733157;46.976874599999995;7.1785141999999995;58.82500457763672;1666353236.8141625;15.36918830871582;-1.4415087699890137;-48.684078216552734
349;1666353236.9361634;46.9768805;7.1785039;58.74900436401367;1666353237.020099;9.000433921813965;-4.430332183837891;-48.896400451660156
350;1666353237.1303864;46.9768851;7.1784954999999995;58.669002532958984;1666353237.2309144;0.9484713673591614;5.255946636199951;-51.80622863769531
351;1666353237.3382745;46.9768888;7.178489;58.603004455566406;1666353237.4270914;-3.46759033203125;6.368239879608154;-52.65000915527344
352;1666353237.5529947;46.976892;7.1784840999999995;58.57400131225586;1666353237.6554773;-5.631720542907715;0.3009953498840332;-51.874210357666016
353;1666353237.7696662;46.976894699999995;7.1784801;58.5880012512207;1666353237.8477466;-7.046474456787109;6.625566482543945;-53.740543365478516
354;1666353237.9726799;46.9768973;7.1784767;58.638004302978516;1666353238.054661;-0.3040618896484375;3.5410587787628174;-52.88285446166992
355;1666353238.170805;46.9768997;7.1784738;58.69200134277344;1666353238.251813;-2.677774667739868;-3.9578371047973633;-54.227325439453125
356;1666353238.3757627;46.976901899999994;7.178471;58.74200439453125;1666353238.479222;-0.7911494970321655;1.55999755859375;-54.20170211791992
357;1666353238.5904853;46.976903899999996;7.178468199999999;58.78400421142578;1666353238.6880856;5.341824531555176;-2.7484817504882812;-55.99379348754883
358;1666353238.8120353;46.976905599999995;7.178465399999999;58.8180046081543;1666353238.890115;2.124842405319214;-1.756210207939148;-57.801795959472656
359;1666353239.0169961;46.976906899999996;7.1784627;58.84800338745117;1666353239.1009321;4.533363342285156;-1.8058099746704102;-57.489898681640625
360;1666353239.2190309;46.9769079;7.178460299999999;58.87700271606445;1666353239.3039403;6.391927242279053;-2.21317720413208;-57.46531677246094
361;1666353239.433748;46.976908699999996;7.1784582;58.89800262451172;1666353239.611379;2.7549126148223877;-0.556796669960022;-57.818634033203125
362;1666353239.7402117;46.976909199999994;7.1784566;58.919002532958984;1666353239.8251243;2.5934183597564697;2.658215045928955;-56.97544860839844
363;1666353239.948104;46.9769096;7.1784555;58.94700241088867;1666353240.0291092;1.7228963375091553;7.407660007476807;-51.59575653076172
364;1666353240.136469;46.9769101;7.178455199999999;59.01700210571289;1666353240.2438338;3.332698106765747;7.7793192863464355;-41.68599319458008
365;1666353240.3677802;46.976911;7.1784557;59.14400100708008;1666353240.4526925;-0.0740373432636261;9.248773574829102;-31.417146682739258
366;1666353240.5795758;46.976912;7.178457099999999;59.32200241088867;1666353240.6532907;-3.4388973712921143;10.848621368408203;-21.956846237182617
367;1666353240.7879796;46.9769134;7.1784592;59.55000305175781;1666353240.8709385;-12.290718078613281;24.860963821411133;-11.978758811950684
368;1666353240.9880586;46.976915399999996;7.178462799999999;59.810001373291016;1666353241.0739465;-21.438465118408203;26.808425903320312;-1.2337799072265625
369;1666353241.1910644;46.976918399999995;7.1784685999999995;60.07400131225586;1666353241.2896411;-25.941404342651367;20.20179557800293;8.949858665466309
370;1666353241.4243293;46.9769224;7.178476099999999;60.346004486083984;1666353241.508268;-28.65399742126465;15.379716873168945;21.11521339416504
371;1666353241.6624742;46.9769272;7.1784854;60.6400032043457;1666353241.7464135;-34.70840835571289;9.630515098571777;33.233367919921875
372;1666353241.8566968;46.9769328;7.178496399999999;60.94600296020508;1666353241.932826;-40.264244079589844;-0.20136237144470215;42.512393951416016
373;1666353242.0645847;46.9769392;7.1785087999999995;61.23800277709961;1666353242.1563292;-41.21891403198242;-6.744295597076416;49.218528747558594
374;1666353242.2793071;46.976946899999994;7.1785223;61.519004821777344;1666353242.3690987;-38.796756744384766;-8.224874496459961;44.70463180541992
375;1666353242.502812;46.976955499999995;7.1785364;61.77700424194336;1666353242.593581;-30.209104537963867;-1.5599106550216675;31.5497989654541
376;1666353242.703867;46.9769649;7.1785502;62.01100158691406;1666353242.7946339;-10.891155242919922;-3.6876227855682373;20.346973419189453
377;1666353242.9039478;46.9769741;7.1785624;62.22700119018555;1666353242.991787;23.748830795288086;-29.3753604888916;7.977313041687012
378;1666353243.1176922;46.9769819;7.178572;62.37900161743164;1666353243.1967483;29.120450973510742;-19.672954559326172;8.6205472946167
379;1666353243.3353395;46.9769876;7.1785787;62.3900032043457;1666353243.4192743;32.758567810058594;-16.491674423217773;21.542282104492188
380;1666353243.5510383;46.9769912;7.1785827;62.3280029296875;1666353243.6300902;30.9559383392334;-13.222894668579102;33.26407241821289
381;1666353243.7481873;46.9769931;7.1785839;62.250003814697266;1666353243.824317;11.778475761413574;10.782593727111816;45.36420822143555
382;1666353243.9716935;46.976993799999995;7.1785841999999995;62.21400451660156;1666353244.0770996;-0.49680984020233154;1.7677289247512817;47.51679611206055
383;1666353244.2010515;46.9769941;7.1785844;62.26400375366211;1666353244.3025558;-7.106542587280273;-1.865334153175354;46.86111068725586
384;1666353244.4187002;46.9769948;7.1785853;62.384002685546875;1666353244.5006852;-9.305201530456543;-2.936652660369873;45.65435791015625
385;1666353244.609999;46.9769961;7.1785868;62.5680046081543;1666353244.6880753;-9.99940299987793;-1.4138286113739014;44.8364143371582
386;1666353244.8237393;46.9769978;7.1785888;62.807003021240234;1666353244.899868;-17.41672706604004;1.0656183958053589;44.703182220458984
387;1666353245.016014;46.9770001;7.1785916;63.09700393676758;1666353245.1116643;-25.97136688232422;1.8754264116287231;44.868038177490234
388;1666353245.2385423;46.9770033;7.178596;63.41100311279297;1666353245.3175967;-29.843297958374023;0.9478131532669067;44.976627349853516
389;1666353245.4434993;46.9770076;7.1786018;63.721004486083984;1666353245.5450094;-29.5621337890625;0.6316750049591064;45.359615325927734
390;1666353245.6621244;46.9770131;7.1786093;64.04400634765625;1666353245.749966;-29.000490188598633;0.7583296895027161;45.25434875488281
391;1666353245.8700113;46.977019299999995;7.1786183;64.38899993896484;1666353245.9676151;-29.333776473999023;1.6161229610443115;45.39044952392578
392;1666353246.0915651;46.9770264;7.1786287;64.7750015258789;1666353246.1794045;-32.99759292602539;2.6603972911834717;45.127037048339844
393;1666353246.3033588;46.9770341;7.1786404;65.17400360107422;1666353246.3931491;-38.53940200805664;3.5292365550994873;42.932865142822266
394;1666353246.5200305;46.977042499999996;7.1786533;65.52899932861328;1666353246.5981097;-45.81266403198242;-2.875405788421631;47.348976135253906
395;1666353246.7142525;46.9770517;7.1786674999999995;65.84100341796875;1666353246.8099036;-48.580631256103516;-0.38532066345214844;44.414066314697266
396;1666353246.9260478;46.9770623;7.1786829;66.11300659179688;1666353247.014165;-48.78390121459961;1.3044682741165161;43.184165954589844
397;1666353247.1322606;46.9770739;7.1786999;66.35900115966797;1666353247.2240055;-47.73354721069336;-0.8797124028205872;46.715797424316406
398;1666353247.3586938;46.977086299999996;7.178718399999999;66.59300231933594;1666353247.455316;-46.542110443115234;1.2035491466522217;44.05952072143555
399;1666353247.565605;46.9770995;7.1787380999999995;66.81900024414062;1666353247.647587;-45.77739334106445;0.5940341949462891;44.12601852416992
400;1666353247.7608032;46.9771134;7.1787586999999995;67.04000091552734;1666353247.839866;-44.96061706542969;-0.48461902141571045;46.26836395263672
401;1666353247.9814978;46.9771277;7.17878;67.25900268554688;1666353248.0546997;-41.32066345214844;1.3635238409042358;42.58656692504883
402;1666353248.1757267;46.9771423;7.1788013;67.46500396728516;1666353248.2586844;-31.618276596069336;1.5622450113296509;43.58782958984375
403;1666353248.3709216;46.977156799999996;7.178822599999999;67.656005859375;1666353248.458764;-23.282907485961914;0.5310845375061035;46.20000076293945
404;1666353248.5768604;46.977170799999996;7.178843199999999;67.8290023803711;1666353248.6607943;-15.809114456176758;0.5944966077804565;45.08523178100586
405;1666353248.7818234;46.9771839;7.1788625999999995;67.98400115966797;1666353248.8686836;-8.226716041564941;0.7336030602455139;43.766197204589844
406;1666353248.9955654;46.977196;7.1788805;68.11800384521484;1666353249.0746205;-0.22619827091693878;1.0432227849960327;45.787322998046875
407;1666353249.1839323;46.9772068;7.178896399999999;68.23300170898438;1666353249.268843;14.0598783493042;1.3765009641647339;43.325462341308594
408;1666353249.4025567;46.977216;7.178909699999999;68.32300567626953;1666353249.4845395;20.53167724609375;-0.4872596859931946;40.92140579223633
409;1666353249.6036131;46.977223599999995;7.178920799999999;68.38300323486328;1666353249.7012131;15.119379043579102;-1.7876231670379639;42.45158004760742
410;1666353249.8193111;46.9772295;7.1789295;68.4260025024414;1666353249.9022715;4.897674560546875;-1.9273136854171753;43.30192184448242
411;1666353250.0125546;46.9772341;7.1789361;68.48800659179688;1666353250.1101613;-3.5029664039611816;-0.5911064147949219;43.6524543762207
412;1666353250.227275;46.9772378;7.178941399999999;68.57400512695312;1666353250.315116;-8.056060791015625;-0.17937156558036804;43.874053955078125
413;1666353250.4566412;46.977241;7.178946;68.656005859375;1666353250.5396004;-3.9813730716705322;-0.11815496534109116;43.632728576660156
414;1666353250.6479316;46.977244;7.1789499999999995;68.72500610351562;1666353250.7377248;0.007193122524768114;0.8486635088920593;43.850868225097656
415;1666353250.8567975;46.9772466;7.1789534999999995;68.78700256347656;1666353250.9378033;-1.5753676891326904;1.4082574844360352;44.77595520019531
416;1666353251.0744467;46.977249;7.1789567;68.84100341796875;1666353251.1593592;5.526625156402588;1.2032932043075562;44.64221954345703
417;1666353251.273549;46.977250999999995;7.1789594999999995;68.88400268554688;1666353251.3672442;1.7128173112869263;0.656624972820282;45.305030822753906
