;pos_time;latitude;longitude;altitude;alt_time;pitch;roll;yaw
0;1666334920.8747566;46.9755344;7.1803555;-0.03200000151991844;1666334920.9684508;-0.1876574456691742;-0.06048272177577019;90.53539276123047
1;1666334921.0806966;46.9755344;7.1803555;-0.03400000184774399;1666334921.167555;-0.306657612323761;-0.25571995973587036;90.56324005126953
2;1666334921.2934666;46.9755344;7.1803555;-0.04200000315904617;1666334921.3861816;-0.28043168783187866;-0.02770630083978176;90.439697265625
3;1666334921.5101984;46.9755344;7.1803555999999995;-0.04700000211596489;1666334921.588279;-0.2867913544178009;-0.16448572278022766;90.69085693359375
4;1666334921.721015;46.9755344;7.1803555;-0.052000001072883606;1666334921.7951896;-0.36370301246643066;-0.22575785219669342;90.6093978881836
5;1666334922.01479;46.9755344;7.1803555;-0.05700000375509262;1666334922.1036055;-0.16921038925647736;-0.2113732248544693;90.6620101928711
6;1666334922.2246315;46.9755344;7.1803555999999995;-0.06200000271201134;1666334922.308568;-0.37491387128829956;-0.21622420847415924;90.61333465576172
7;1666334922.4276397;46.9755343;7.1803555999999995;-0.06200000271201134;1666334922.5076725;-0.3797263205051422;-0.04451221600174904;90.56745910644531
8;1666334922.660904;46.9755343;7.1803555999999995;0.0;1666334922.750696;-0.34727007150650024;-0.1529259830713272;90.6790771484375
9;1666334922.8805056;46.9755343;7.1803555999999995;0.0;1666334922.9673681;-0.17921967804431915;-0.11212653666734695;90.70274353027344
10;1666334923.0932746;46.9755343;7.1803555999999995;-0.003000000026077032;1666334923.1723354;-0.2335340529680252;-0.17714624106884003;90.7385482788086
11;1666334923.2855449;46.9755343;7.1803555999999995;-0.004000000189989805;1666334923.3704553;-0.3632582128047943;-0.2097441703081131;90.60895538330078
12;1666334923.4875782;46.9755343;7.1803557;-0.0010000000474974513;1666334923.5637057;-0.3075682818889618;-0.041530441492795944;90.55553436279297
13;1666334923.6944892;46.9755343;7.1803557;0.0;1666334923.7891612;-0.3626025319099426;0.028548454865813255;90.55406951904297
14;1666334923.9189687;46.9755343;7.1803557;0.0;1666334924.0038807;-0.2778830826282501;-0.17312777042388916;90.67708587646484
15;1666334924.1293314;46.9755343;7.1803558;-0.0020000000949949026;1666334924.2064323;-0.2119162678718567;-0.0783700942993164;90.66389465332031
16;1666334924.3137934;46.9755343;7.1803558;0.0;1666334924.4026089;-0.27705690264701843;-0.05630882456898689;90.6538314819336
17;1666334924.5241702;46.9755343;7.1803557;-0.0020000000949949026;1666334924.6012743;-0.21780741214752197;-0.07167799025774002;90.76612091064453
18;1666334924.7238133;46.9755343;7.1803557;-0.0020000000949949026;1666334924.8190222;0.503424882888794;0.3419971764087677;90.66852569580078
19;1666334924.9493468;46.9755343;7.1803557;0.007000000216066837;1666334925.034257;-0.026470208540558815;-0.11709071695804596;90.70829772949219
20;1666334925.155283;46.9755343;7.1803557;0.05300000309944153;1666334925.2421474;0.002818626817315817;1.8702397346496582;90.76815032958984
21;1666334925.3631694;46.9755341;7.1803555999999995;0.12000000476837158;1666334925.446134;0.8067201375961304;-1.4852920770645142;92.1072006225586
22;1666334925.5710592;46.9755336;7.1803555999999995;0.24400001764297485;1666334925.6530414;1.4049532413482666;-7.813567638397217;88.75054168701172
23;1666334925.7643054;46.9755337;7.1803555;0.4000000059604645;1666334925.8501942;1.47520112991333;-11.912145614624023;97.94569396972656
24;1666334925.988786;46.9755342;7.1803552999999996;0.5720000267028809;1666334926.0629623;0.019041452556848526;-0.22995957732200623;91.66520690917969
25;1666334926.1761827;46.9755348;7.1803552999999996;0.7130000591278076;1666334926.2542598;0.6743279695510864;-0.4065603017807007;96.61473846435547
26;1666334926.374307;46.9755354;7.1803551;0.9170000553131104;1666334926.4514124;-0.369888037443161;0.7562683820724487;101.86943817138672
27;1666334926.5880508;46.975536;7.180355;1.152999997138977;1666334926.67618;-0.3317379355430603;3.8290927410125732;92.94458770751953
28;1666334926.8245828;46.975536299999995;7.180354899999999;1.377000093460083;1666334926.8987556;-1.5670026540756226;3.063633441925049;96.25479888916016
29;1666334927.0193214;46.9755365;7.180354899999999;1.6400001049041748;1666334927.0988946;-1.8539350032806396;0.9418726563453674;94.78321075439453
30;1666334927.2248063;46.9755365;7.1803551;1.9500000476837158;1666334927.305808;-1.0052824020385742;2.1762239933013916;85.58826446533203
31;1666334927.4209778;46.975536299999995;7.1803552999999996;2.254000186920166;1666334927.5117445;-0.15924157202243805;0.8280641436576843;93.93993377685547
32;1666334927.6308184;46.9755362;7.1803555;2.556000232696533;1666334927.716707;0.3630863130092621;0.6466884613037109;88.61653137207031
33;1666334927.9509504;46.9755359;7.1803557;2.9160001277923584;1666334928.0348823;-0.21233965456485748;0.35107430815696716;83.35640716552734
34;1666334928.1568913;46.975535699999995;7.1803558;3.2800002098083496;1666334928.2437468;0.37490370869636536;-0.5442938208580017;89.37834167480469
35;1666334928.365746;46.9755355;7.1803558999999995;3.644000291824341;1666334928.452714;0.736657977104187;-0.40944939851760864;83.26034545898438
36;1666334928.5737422;46.9755353;7.1803558;4.0370001792907715;1666334928.65377;-0.37389567494392395;0.00903223641216755;79.13385009765625
37;1666334928.771867;46.975535199999996;7.1803558;4.456000328063965;1666334928.8636115;-0.09808710962533951;-0.6051113605499268;85.40525817871094
38;1666334929.0841866;46.975535099999995;7.1803558;4.828000068664551;1666334929.1759295;0.3178138732910156;-0.047498829662799835;79.98733520507812
39;1666334929.3123581;46.975535099999995;7.1803557;5.234000205993652;1666334929.395319;-0.5307335257530212;0.41048645973205566;77.59844970703125
40;1666334929.53196;46.975535;7.1803557;5.633000373840332;1666334929.628584;-0.15935036540031433;-0.4139343202114105;86.92703247070312
41;1666334929.7535121;46.975535;7.1803557;6.019000053405762;1666334929.847208;0.162544846534729;0.41948792338371277;81.03640747070312
42;1666334929.9682324;46.975535;7.1803558;6.407000541687012;1666334930.0589983;-0.280191034078598;0.5488974452018738;78.23429107666016
43;1666334930.1927104;46.975535;7.1803558;6.826000213623047;1666334930.2737305;-0.40471526980400085;-0.13576655089855194;86.412109375
44;1666334930.3859599;46.975535;7.1803558;7.202000141143799;1666334930.4737992;0.38647639751434326;0.4853649139404297;78.8214111328125
45;1666334930.6006784;46.975535;7.1803558999999995;7.582000255584717;1666334930.711945;0.07818230241537094;0.5002201795578003;78.37161254882812
46;1666334930.8378484;46.975535;7.1803558999999995;7.9770002365112305;1666334930.9247148;-0.1393982172012329;-0.007706883363425732;84.50897216796875
47;1666334931.0408564;46.975535;7.1803558999999995;8.371000289916992;1666334931.134554;0.4152548909187317;0.5327040553092957;75.76873779296875
48;1666334931.2614312;46.975535;7.1803558999999995;8.735000610351562;1666334931.3414633;0.33261793851852417;0.42247864603996277;77.01252746582031
49;1666334931.4683456;46.975535;7.1803558999999995;9.147000312805176;1666334931.5483754;-0.12660008668899536;0.1179734319448471;83.4716796875
50;1666334931.676235;46.975535;7.1803558999999995;9.563000679016113;1666334931.7699296;-0.04699445515871048;0.5971928834915161;78.53002166748047
51;1666334931.8929057;46.9755349;7.1803558999999995;9.931000709533691;1666334931.965131;0.0692678838968277;0.1061321496963501;79.489013671875
52;1666334932.0939615;46.9755348;7.1803558999999995;10.336000442504883;1666334932.1739953;-0.20779693126678467;-0.023752011358737946;84.82941436767578
53;1666334932.2998974;46.9755347;7.1803558999999995;10.76200008392334;1666334932.3926184;0.64427250623703;0.04889604449272156;80.73741149902344
54;1666334932.5243769;46.9755347;7.1803558999999995;11.285000801086426;1666334932.6024566;-0.06922947615385056;0.6239440441131592;74.2435073852539
55;1666334932.7371466;46.975534599999996;7.1803558999999995;11.915000915527344;1666334932.8152246;0.20397841930389404;0.033958833664655685;83.82357788085938
56;1666334932.9518645;46.975534599999996;7.1803558999999995;12.52500057220459;1666334933.0328736;0.13766393065452576;-0.0855289027094841;84.43913269042969
57;1666334933.1548731;46.975534499999995;7.1803558999999995;13.179000854492188;1666334933.2485707;-0.07972905039787292;0.5170314908027649;78.59049987792969
58;1666334933.3842332;46.975534499999995;7.1803558999999995;13.78800106048584;1666334933.4632893;0.3082558810710907;0.25991758704185486;81.14797973632812
59;1666334933.5735776;46.975534499999995;7.1803558;14.41300106048584;1666334933.661418;-0.43616244196891785;-0.4647727310657501;84.64569854736328
60;1666334933.7785375;46.9755344;7.1803558;15.052000999450684;1666334933.865403;0.01107974722981453;0.13581697642803192;78.13609313964844
61;1666334933.9805715;46.9755344;7.1803558;15.653000831604004;1666334934.0732899;-0.08188002556562424;0.45177990198135376;78.20687866210938
62;1666334934.1894412;46.9755344;7.1803558;16.286001205444336;1666334934.2655642;-0.30855128169059753;-0.3282333016395569;84.24888610839844
63;1666334934.3895156;46.9755344;7.1803558;16.886001586914062;1666334934.487118;0.18622495234012604;0.004783712327480316;79.77040100097656
64;1666334934.6178982;46.9755344;7.1803558;17.4950008392334;1666334934.699882;-0.14808624982833862;0.3980996310710907;77.6848373413086
65;1666334934.829692;46.9755344;7.1803558;18.115001678466797;1666334934.9077728;0.09932151436805725;-0.13696517050266266;84.56498718261719
66;1666334935.039534;46.9755344;7.1803558;18.70800018310547;1666334935.1234667;0.09120523184537888;0.06314710527658463;81.03158569335938
67;1666334935.2415638;46.9755344;7.1803557;19.310001373291016;1666334935.3196437;-0.22521232068538666;0.5275483131408691;75.17434692382812
68;1666334935.446525;46.9755344;7.1803557;19.918001174926758;1666334935.523627;0.19466495513916016;-0.16426019370555878;80.95752716064453
69;1666334935.657342;46.9755344;7.1803557;20.49700164794922;1666334935.7422519;-0.24654202163219452;-0.051314014941453934;84.57998657226562
70;1666334935.8671813;46.975534499999995;7.1803557;21.111000061035156;1666334935.9638047;0.08057501912117004;0.6292645931243896;76.81925964355469
71;1666334936.097518;46.975534499999995;7.1803558;21.67500114440918;1666334936.180476;0.12400995194911957;0.32340332865715027;79.467529296875
72;1666334936.2917411;46.975534599999996;7.1803557;22.260000228881836;1666334936.38446;-0.39412617683410645;-0.16223424673080444;84.52630615234375
73;1666334936.5181718;46.975534599999996;7.1803557;22.8700008392334;1666334936.623582;0.1334521770477295;0.2752526104450226;79.19392395019531
74;1666334936.729967;46.975534599999996;7.1803557;23.44300079345703;1666334936.8109734;0.20644596219062805;0.25677239894866943;78.69505310058594
75;1666334936.940786;46.975534599999996;7.1803555999999995;24.065000534057617;1666334937.0335035;-0.16733664274215698;0.013577059842646122;83.6082992553711
76;1666334937.1437888;46.975534599999996;7.1803555999999995;24.641000747680664;1666334937.2248073;-0.13920165598392487;0.32657697796821594;81.33831787109375
77;1666334937.3477745;46.975534599999996;7.1803555999999995;25.255001068115234;1666334937.4404962;-0.5595941543579102;0.567876935005188;76.93174743652344
78;1666334937.5566378;46.975534599999996;7.1803555999999995;25.84800148010254;1666334937.6561904;-0.054423172026872635;-0.009645991958677769;83.16950988769531
79;1666334937.7684293;46.975534599999996;7.1803555999999995;26.41900062561035;1666334937.879693;-0.10619699209928513;0.1248064786195755;84.27709197998047
80;1666334937.9958398;46.975534599999996;7.1803555999999995;27.036001205444336;1666334938.0856292;-0.14697808027267456;0.5174237489700317;78.06532287597656
81;1666334938.198848;46.975534599999996;7.1803555999999995;27.625001907348633;1666334938.2847347;0.06456008553504944;0.03838103264570236;80.09296417236328
82;1666334938.4233265;46.9755347;7.1803555999999995;28.23200225830078;1666334938.5131207;-0.22329330444335938;0.02152782678604126;84.82471466064453
83;1666334938.6341422;46.975534599999996;7.1803555999999995;28.840002059936523;1666334938.7102723;0.24993571639060974;0.362082302570343;79.09220123291016
84;1666334938.8400874;46.975534599999996;7.1803557;29.418001174926758;1666334938.925969;0.1443125456571579;0.16574066877365112;78.86105346679688
85;1666334939.0450404;46.975534599999996;7.1803557;30.012001037597656;1666334939.137763;-0.011079753749072552;-0.255128413438797;85.18692016601562
86;1666334939.2558575;46.975534599999996;7.1803557;30.60300064086914;1666334939.4334872;0.1988031268119812;0.24776224792003632;80.82969665527344
87;1666334939.5486567;46.975534599999996;7.1803555999999995;31.190000534057617;1666334939.6521113;-0.22548013925552368;0.32347944378852844;76.43074035644531
88;1666334939.7809439;46.975534599999996;7.1803555999999995;31.801000595092773;1666334939.8844001;0.0003568156680557877;0.039258282631635666;83.02328491210938
89;1666334940.004448;46.975534599999996;7.1803555;32.36800003051758;1666334940.0854566;-0.30314627289772034;0.13614241778850555;83.36905670166016
90;1666334940.2055032;46.9755347;7.1803555;32.987003326416016;1666334940.3040805;-0.33841970562934875;0.5210450887680054;77.7352294921875
91;1666334940.4290097;46.9755347;7.1803555;33.57600021362305;1666334940.6212807;0.01907782442867756;0.19533519446849823;81.67140197753906
92;1666334940.742304;46.9755347;7.1803555;34.15500259399414;1666334940.8233168;-0.45111262798309326;0.14648117125034332;85.75369262695312
93;1666334940.956049;46.9755347;7.1803555;34.76700210571289;1666334941.0419364;-0.08543393015861511;0.4062166213989258;79.43370056152344
94;1666334941.172725;46.9755347;7.1803555;35.33700180053711;1666334941.264468;-0.03456998988986015;0.4459885358810425;80.12548065185547
95;1666334941.3845153;46.9755347;7.1803555;35.952003479003906;1666334941.4782104;-0.3303336799144745;0.024311499670147896;85.61652374267578
96;1666334941.5972807;46.9755348;7.1803555999999995;36.54600143432617;1666334941.6958587;0.08305765688419342;0.36309677362442017;80.04460144042969
97;1666334941.8188336;46.9755348;7.1803555;37.14900207519531;1666334941.9096017;-0.23617760837078094;0.4786801338195801;77.43734741210938
98;1666334942.0335557;46.9755347;7.1803555;37.74800109863281;1666334942.1165142;0.14502932131290436;0.23123003542423248;84.885009765625
99;1666334942.2268016;46.9755347;7.1803555;38.31700134277344;1666334942.3224528;0.2222699075937271;-0.14657968282699585;83.1340560913086
100;1666334942.4834902;46.9755347;7.1803554;38.93800354003906;1666334942.5801141;-0.5269491672515869;0.6874426603317261;77.74566650390625
101;1666334942.696259;46.9755347;7.1803554;39.531002044677734;1666334942.7987413;-0.12960700690746307;0.3677266240119934;82.55240631103516
102;1666334942.9178102;46.9755347;7.1803554;40.13800048828125;1666334943.0076022;-0.4440745711326599;-0.09415969252586365;84.37640380859375
103;1666334943.1579084;46.9755347;7.1803554;40.742000579833984;1666334943.2437968;-0.0549045167863369;0.2577032446861267;77.35395812988281
104;1666334943.363845;46.9755347;7.1803554;41.33400344848633;1666334943.4497318;-0.01884681172668934;0.5081889629364014;80.2821044921875
105;1666334943.5746593;46.9755347;7.1803554;41.94600296020508;1666334943.6595705;-0.28679242730140686;-0.16147977113723755;85.64520263671875
106;1666334943.7864547;46.9755347;7.1803554;42.54500198364258;1666334943.882099;0.011120707727968693;0.18597394227981567;80.60211944580078
107;1666334944.0041056;46.9755347;7.1803554;43.13600158691406;1666334944.0929153;-0.15513932704925537;0.7027662396430969;77.88803100585938
108;1666334944.205159;46.9755347;7.1803555;43.743003845214844;1666334944.2881176;0.13673575222492218;0.03775811567902565;84.31851196289062
109;1666334944.4189005;46.975534599999996;7.1803555;44.332000732421875;1666334944.5067391;-0.09311036765575409;-0.09014550596475601;84.25958251953125
110;1666334944.738052;46.975534599999996;7.1803554;44.95000076293945;1666334944.8288229;-0.2651244103908539;0.5888460874557495;77.69245147705078
111;1666334944.9654593;46.975534599999996;7.1803554;45.53700256347656;1666334945.1577327;0.04293971136212349;0.258199006319046;78.24939727783203
112;1666334945.2865677;46.975534599999996;7.1803554;46.13900375366211;1666334945.3724554;-0.3628455102443695;-0.18905405700206757;84.44692993164062
113;1666334945.488603;46.975534599999996;7.1803554;46.730003356933594;1666334945.5793645;-0.011385447345674038;0.12738721072673798;78.37457275390625
114;1666334945.6925883;46.975534499999995;7.1803554;47.31800079345703;1666334945.7901852;-0.26186293363571167;0.5198307037353516;78.23097229003906
115;1666334945.9141328;46.975534599999996;7.1803552999999996;47.92900085449219;1666334945.992213;-0.31540632247924805;0.1072426438331604;84.60293579101562
116;1666334946.1064048;46.975534599999996;7.1803554;48.52100372314453;1666334946.2030294;-0.13488920032978058;0.15216116607189178;80.90606689453125
117;1666334946.327959;46.975534599999996;7.1803554;49.1140022277832;1666334946.4118962;-0.29550647735595703;0.8389779925346375;76.58985137939453
118;1666334946.5202308;46.975534499999995;7.1803554;49.715003967285156;1666334946.6022139;-0.0523323118686676;0.22751273214817047;82.45344543457031
119;1666334946.7193344;46.975534499999995;7.1803554;50.2920036315918;1666334946.8052213;-0.1413983404636383;-0.11328764259815216;84.2761001586914
120;1666334946.940887;46.975534499999995;7.1803552999999996;50.90900421142578;1666334947.0277522;-0.20353807508945465;0.7458820939064026;78.35570526123047
121;1666334947.244422;46.975534499999995;7.1803552999999996;51.500003814697266;1666334947.3332384;-0.2867973744869232;0.3957437574863434;81.76568603515625
122;1666334947.4513378;46.975534499999995;7.1803552999999996;52.086002349853516;1666334947.5352716;-0.4510481655597687;0.06685972213745117;86.31824493408203
123;1666334947.6670318;46.975534499999995;7.1803552999999996;52.67400360107422;1666334947.7470646;0.08249392360448837;0.00966511107981205;80.38914489746094
124;1666334947.8719933;46.9755344;7.1803552999999996;53.272003173828125;1666334947.9559278;-0.2611328065395355;0.7434468269348145;77.27151489257812
125;1666334948.0730464;46.9755344;7.1803552999999996;53.89400100708008;1666334948.1647925;-0.28788942098617554;0.15475301444530487;83.90730285644531
126;1666334948.2858148;46.9755344;7.1803552999999996;54.47500228881836;1666334948.367803;-0.2706681489944458;-0.011964090168476105;82.29580688476562
127;1666334948.481991;46.9755344;7.1803554;55.06500244140625;1666334948.5688574;-0.14986269176006317;0.46655070781707764;76.58226776123047
128;1666334948.798215;46.9755343;7.1803554;55.62900161743164;1666334948.9075286;-0.13829760253429413;0.3112335801124573;80.1982192993164
129;1666334949.032458;46.9755343;7.1803554;56.13200378417969;1666334949.1290798;-0.39284107089042664;0.12254869937896729;83.38672637939453
130;1666334949.2462022;46.9755343;7.1803555;56.56700134277344;1666334949.3272092;-0.25608566403388977;0.22022472321987152;81.39122772216797
131;1666334949.4423773;46.9755342;7.1803555;56.95700454711914;1666334949.5399764;-0.3437877595424652;0.5134463310241699;78.16282653808594
132;1666334949.6512406;46.9755342;7.1803555999999995;57.28000259399414;1666334949.7361565;0.08259789645671844;0.13620635867118835;81.92888641357422
133;1666334949.8640084;46.9755342;7.1803555999999995;57.55800247192383;1666334949.9557562;-0.34016653895378113;0.11857064813375473;83.78482055664062
134;1666334950.1041048;46.9755342;7.1803555999999995;57.79300308227539;1666334950.1978052;-0.12222002446651459;0.26570266485214233;79.27999877929688
135;1666334950.3168738;46.9755342;7.1803555999999995;57.978004455566406;1666334950.4066694;-0.08968839049339294;0.5803604125976562;80.64202880859375
136;1666334950.5296412;46.9755342;7.1803555999999995;58.16100311279297;1666334950.638953;-0.3168613314628601;0.14090105891227722;85.10186767578125
137;1666334950.7521713;46.9755341;7.1803557;58.30000305175781;1666334950.8331785;1.343226432800293;-3.8377418518066406;78.73999786376953
138;1666334950.955179;46.9755342;7.1803555999999995;58.40800094604492;1666334951.0527778;5.584128379821777;-18.297134399414062;65.75579833984375
139;1666334951.1747773;46.9755349;7.1803548;58.52000427246094;1666334951.263595;13.652911186218262;-34.239192962646484;64.21389770507812
140;1666334951.3953536;46.9755368;7.1803523;58.62200164794922;1666334951.4792914;5.756701946258545;-38.75944519042969;49.02824401855469
141;1666334951.601291;46.9755398;7.1803478;58.70100402832031;1666334951.6852276;-2.737293243408203;-40.92683792114258;37.90792465209961
142;1666334951.807228;46.9755439;7.180341599999999;58.74800109863281;1666334951.899948;-10.760529518127441;-37.572444915771484;26.347366333007812
143;1666334952.0326846;46.9755487;7.1803339;58.74900436401367;1666334952.1195564;-17.933263778686523;-31.963104248046875;15.260614395141602
144;1666334952.228859;46.9755542;7.180324799999999;58.77100372314453;1666334952.3157346;-22.42936134338379;-26.96341323852539;6.173532962799072
145;1666334952.4445553;46.975560099999996;7.1803151;58.762001037597656;1666334952.5284922;-26.178422927856445;-22.307785034179688;-3.2480950355529785
146;1666334952.646587;46.9755664;7.1803048;58.74800109863281;1666334952.7285726;-29.463340759277344;-16.440393447875977;-12.783824920654297
147;1666334952.8574038;46.975573;7.180294;58.75400161743164;1666334952.9413395;-31.356304168701172;-12.52306079864502;-19.404470443725586
148;1666334953.058461;46.97558;7.180282999999999;58.75300216674805;1666334953.1541114;-33.157814025878906;-7.78995943069458;-27.39960479736328
149;1666334953.2624433;46.9755873;7.180271899999999;58.74800109863281;1666334953.348337;-34.52642822265625;-1.23406183719635;-38.255523681640625
150;1666334953.4713101;46.9755951;7.180260499999999;58.76900100708008;1666334953.5591478;-34.32828903198242;-3.0335614681243896;-27.615793228149414
151;1666334953.677244;46.9756031;7.1802491999999996;58.762001037597656;1666334953.7670374;-35.640743255615234;-6.418973922729492;-16.915090560913086
152;1666334953.8861117;46.975611699999995;7.1802383;58.76900100708008;1666334953.9778538;-35.17534637451172;-14.509004592895508;-3.1759049892425537
153;1666334954.097901;46.975620899999996;7.1802275;58.77100372314453;1666334954.1740334;-34.106956481933594;-17.674461364746094;3.6335763931274414
154;1666334954.2891963;46.9756309;7.180216799999999;58.78200149536133;1666334954.378012;-32.518699645996094;-23.729406356811523;13.694256782531738
155;1666334954.499039;46.9756413;7.180206399999999;58.802001953125;1666334954.5771163;-27.985078811645508;-31.538665771484375;24.365449905395508
156;1666334954.7030222;46.9756524;7.180195899999999;58.80400466918945;1666334954.7996454;-30.510408401489258;-26.01456642150879;7.883639335632324
157;1666334954.9148173;46.975663999999995;7.1801848999999995;58.836002349853516;1666334955.0065584;-28.57046127319336;-22.949697494506836;-5.447168827056885
158;1666334955.1334395;46.9756754;7.1801734999999995;58.849002838134766;1666334955.2144475;-30.64134979248047;-20.24608612060547;-18.544883728027344
159;1666334955.329615;46.9756863;7.1801613;58.85200119018555;1666334955.4155054;-31.75242042541504;-14.847752571105957;-29.41005516052246
160;1666334955.5306735;46.975696799999994;7.180148399999999;58.87200164794922;1666334955.6087518;-31.708728790283203;-12.159524917602539;-32.52260208129883
161;1666334955.7336779;46.9757069;7.180135099999999;58.87900161743164;1666334955.8156626;-33.2628059387207;-4.690792560577393;-42.4594612121582
162;1666334955.9347358;46.9757165;7.1801217;58.868003845214844;1666334956.0215979;-35.06602096557617;0.5342592597007751;-47.12330627441406
163;1666334956.143599;46.9757259;7.180108199999999;58.8640022277832;1666334956.2480307;-37.060523986816406;1.902928113937378;-44.06324005126953
164;1666334956.3680842;46.975735199999995;7.1800947;58.84700393676758;1666334956.4568946;-38.856082916259766;2.645569086074829;-42.97084045410156
165;1666334956.5720642;46.9757447;7.1800814;58.8280029296875;1666334956.6696668;-40.22903823852539;2.825775384902954;-41.853084564208984
166;1666334956.7867851;46.9757544;7.1800682;58.814002990722656;1666334956.8736482;-41.248634338378906;2.715364933013916;-41.1485595703125
167;1666334956.985889;46.9757645;7.180054999999999;58.79900360107422;1666334957.0698252;-41.89212417602539;2.3174641132354736;-40.827239990234375
168;1666334957.20256;46.975774799999996;7.1800418;58.788002014160156;1666334957.2894242;-42.273704528808594;2.1196999549865723;-40.65794372558594
169;1666334957.4036179;46.9757855;7.1800285;58.77800369262695;1666334957.4924326;-42.48322296142578;1.9715113639831543;-40.51742935180664
170;1666334957.6241934;46.9757965;7.180015;58.77100372314453;1666334957.7120316;-42.62360382080078;1.8185127973556519;-40.4501953125
171;1666334957.8252475;46.9758077;7.1800014;58.76700210571289;1666334957.915041;-42.7313232421875;1.6646158695220947;-40.40065002441406
172;1666334958.0370398;46.9758192;7.1799877;58.76400375366211;1666334958.1346412;-42.83818435668945;1.5351035594940186;-40.373985290527344
173;1666334958.2527359;46.9758308;7.179973899999999;58.76100158691406;1666334958.3425283;-42.95595169067383;1.4122638702392578;-40.346275329589844
174;1666334958.4645288;46.9758426;7.1799599;58.75800323486328;1666334958.5523694;-43.0842399597168;1.286451816558838;-40.31924057006836
175;1666334958.6626568;46.9758546;7.179945699999999;58.76000213623047;1666334958.750499;-43.20341873168945;1.1917452812194824;-40.33013153076172
176;1666334958.8685994;46.9758667;7.1799314;58.7660026550293;1666334958.9486265;-43.31964874267578;1.0856053829193115;-40.320621490478516
177;1666334959.0842893;46.9758789;7.179917;58.768001556396484;1666334959.1545663;-43.43785095214844;1.0037704706192017;-40.29987335205078
178;1666334959.2794902;46.9758911;7.1799025;58.775001525878906;1666334959.3683066;-43.54278564453125;0.9243524074554443;-40.2965202331543
179;1666334959.4903052;46.9759035;7.1798877;58.77900314331055;1666334959.5820513;-43.639217376708984;0.8534257411956787;-40.30546569824219
180;1666334959.696244;46.975916;7.1798728;58.788002014160156;1666334959.7909136;-43.736488342285156;0.7837379574775696;-40.30864715576172
181;1666334959.9246266;46.975928599999996;7.1798578;58.79500198364258;1666334960.006611;-43.80637741088867;0.7152767181396484;-40.31184768676758
182;1666334960.1237326;46.9759412;7.1798427;58.801002502441406;1666334960.2271888;-43.89720916748047;0.6794780492782593;-40.342037200927734
183;1666334960.356018;46.9759539;7.1798274;58.80800247192383;1666334960.4438577;-43.969139099121094;0.6178050637245178;-40.37617111206055
184;1666334960.5790715;46.9759667;7.179812;58.810001373291016;1666334960.6639855;-44.03105926513672;0.5626698732376099;-40.3812370300293
185;1666334960.7801273;46.9759794;7.1797965999999995;58.814002990722656;1666334960.8669906;-44.10490417480469;0.5225180387496948;-40.36967086791992
186;1666334960.985892;46.975992299999994;7.1797811;58.81900405883789;1666334961.0747101;-44.17411804199219;0.46281081438064575;-40.38371276855469
187;1666334961.1869512;46.976005199999996;7.1797654;58.82400131225586;1666334961.2806618;-44.23259735107422;0.4358087480068207;-40.3633918762207
188;1666334961.4055743;46.9760181;7.1797496999999995;58.83000183105469;1666334961.5197678;-44.28167724609375;0.41801539063453674;-40.37907791137695
189;1666334961.7408564;46.9760311;7.179733799999999;58.83400344848633;1666334961.8277278;-44.32294845581055;0.4132397770881653;-40.37942886352539
190;1666334961.9712005;46.976043999999995;7.1797179;58.83700180053711;1666334962.0541594;-44.37350082397461;0.377031534910202;-40.39200973510742
191;1666334962.1742096;46.976057;7.1797018999999995;58.84300231933594;1666334962.2542424;-44.412017822265625;0.38623929023742676;-40.385704040527344
192;1666334962.3860009;46.97607;7.1796859;58.849002838134766;1666334962.4699368;-44.45331573486328;0.31845635175704956;-40.390220642089844
193;1666334962.5899847;46.976082999999996;7.1796698;58.85600280761719;1666334962.6760325;-44.486087799072266;0.2875915467739105;-40.40953826904297
194;1666334962.8146489;46.9760961;7.179653699999999;58.862003326416016;1666334962.8995612;-44.52147674560547;0.3203675150871277;-40.41511154174805
195;1666334963.0205843;46.976109199999996;7.1796374;58.87000274658203;1666334963.1084251;-44.559730529785156;0.2966834604740143;-40.40964126586914
196;1666334963.2421381;46.9761224;7.179621099999999;58.87800216674805;1666334963.3377843;-44.5825309753418;0.24490922689437866;-40.39133834838867
197;1666334963.4539304;46.9761355;7.1796048;58.88200378417969;1666334963.5456743;-44.5948371887207;0.2398534119129181;-40.426544189453125
198;1666334963.6608422;46.976148699999996;7.1795884999999995;58.88600158691406;1666334963.7408729;-44.63056945800781;0.2504314184188843;-40.420143127441406
199;1666334963.8667765;46.9761618;7.1795721;58.88900375366211;1666334963.9643788;-44.65707778930664;0.23765020072460175;-40.41498947143555
200;1666334964.0893056;46.9761751;7.1795556;58.89500427246094;1666334964.1839836;-44.69854736328125;0.26686838269233704;-40.460716247558594
201;1666334964.3167145;46.9761883;7.1795390999999995;58.906002044677734;1666334964.3967476;-44.698997497558594;0.3875362277030945;-40.445804595947266
202;1666334964.5167928;46.976201599999996;7.1795225;58.915000915527344;1666334964.610489;-44.718441009521484;0.10067971050739288;-40.39947509765625
203;1666334964.7393231;46.9762148;7.1795059;58.91800308227539;1666334964.8242342;-44.73857498168945;-0.29370540380477905;-40.438167572021484
204;1666334964.9598997;46.976228;7.179489299999999;58.92100143432617;1666334965.0458007;-44.764556884765625;0.08977530896663666;-40.4526252746582
205;1666334965.1531475;46.9762413;7.1794727;58.928001403808594;1666334965.23513;-44.77744674682617;0.2470731884241104;-40.35844039916992
206;1666334965.366895;46.976254499999996;7.179456;58.932003021240234;1666334965.4547315;-44.78962707519531;0.18740390241146088;-40.37968444824219
207;1666334965.5611136;46.976267799999995;7.179439299999999;58.94000244140625;1666334965.7446039;-44.81939697265625;0.16661997139453888;-40.37013626098633
208;1666334965.8646529;46.9762811;7.1794226;58.94900131225586;1666334965.949562;-44.83308029174805;0.18281854689121246;-40.37965774536133
209;1666334966.062779;46.976294499999995;7.1794058;58.96000289916992;1666334966.1525714;-44.854042053222656;0.20534881949424744;-40.367958068847656
210;1666334966.2716436;46.9763078;7.1793891;58.965003967285156;1666334966.3643622;-44.862083435058594;0.262490451335907;-40.35624694824219
211;1666334966.4805093;46.9763211;7.1793724;58.96900177001953;1666334966.5615168;-44.885520935058594;0.40464550256729126;-40.299781799316406
212;1666334966.6864436;46.9763344;7.1793556;58.974002838134766;1666334966.785021;-44.891963958740234;0.6131427884101868;-40.253395080566406
213;1666334966.912876;46.9763478;7.1793388;58.97600173950195;1666334966.9919324;-44.8839225769043;0.6188411712646484;-40.20712661743164
214;1666334967.1119802;46.9763611;7.179322099999999;58.98200225830078;1666334967.1998236;-44.8893928527832;0.6089358329772949;-40.231544494628906
215;1666334967.3237715;46.9763745;7.1793054;58.98500442504883;1666334967.395023;-44.916316986083984;0.8852273225784302;-40.25845718383789
216;1666334967.518975;46.9763879;7.1792887;58.987003326416016;1666334967.594126;-43.79331970214844;0.8554390072822571;-40.294593811035156
217;1666334967.720028;46.9764013;7.1792722;58.980003356933594;1666334967.8098238;-39.60741424560547;0.8223963379859924;-40.15961837768555
218;1666334967.9210854;46.9764145;7.179255899999999;58.96600341796875;1666334968.005998;-33.77504348754883;0.9076517224311829;-40.327781677246094
219;1666334968.119214;46.976427199999996;7.1792402;58.952003479003906;1666334968.2119353;-27.961578369140625;0.8188310861587524;-40.17002868652344
220;1666334968.323197;46.976439299999996;7.1792254;58.935001373291016;1666334968.4120152;-21.97461700439453;0.90781170129776;-40.49186706542969
221;1666334968.531086;46.9764505;7.1792117;58.91800308227539;1666334968.6159985;-16.79628562927246;0.7901011109352112;-40.66504669189453
222;1666334968.743857;46.976460599999996;7.1791993;58.897003173828125;1666334968.8180294;-11.835875511169434;0.7210016846656799;-40.644065856933594
223;1666334968.9439378;46.9764694;7.179188399999999;58.87300109863281;1666334969.0356793;-7.6680216789245605;0.8733582496643066;-40.900634765625
224;1666334969.1567018;46.9764772;7.1791789999999995;58.855003356933594;1666334969.2416146;-4.574177265167236;1.0676922798156738;-41.25316619873047
225;1666334969.3645902;46.9764838;7.179170999999999;58.85400390625;1666334969.447555;-2.167027711868286;0.9539814591407776;-40.270774841308594
226;1666334969.569551;46.9764893;7.1791642;58.86300277709961;1666334969.6554384;-0.8573904037475586;1.0950583219528198;-39.970314025878906
227;1666334969.7803712;46.9764937;7.1791585;58.87600326538086;1666334969.859424;-1.042449951171875;2.0655345916748047;-39.632572174072266
228;1666334969.9736152;46.9764974;7.179153599999999;58.881004333496094;1666334970.0624335;-1.659956693649292;0.42577970027923584;-39.67673110961914
229;1666334970.1805308;46.9765003;7.1791496;58.884002685546875;1666334970.2722719;-2.410717725753784;1.3546205759048462;-39.95594787597656
230;1666334970.3903663;46.9765029;7.1791465;58.88900375366211;1666334970.4821112;-2.2444052696228027;3.452568531036377;-40.492652893066406
231;1666334970.6167986;46.9765052;7.1791439;58.893001556396484;1666334970.7046394;-2.170816421508789;1.4188687801361084;-40.735496520996094
232;1666334970.8227348;46.976507299999994;7.1791417;58.897003173828125;1666334970.89984;-2.5687754154205322;0.9250651001930237;-42.021236419677734
233;1666334971.016961;46.976509199999995;7.1791399;58.90300369262695;1666334971.0979712;-2.684434413909912;-4.37446928024292;-43.0468635559082
234;1666334971.2082548;46.9765108;7.179138099999999;58.897003173828125;1666334971.287314;-4.656073570251465;-2.109246015548706;-44.59987258911133
235;1666334971.407361;46.9765121;7.1791364;58.9010009765625;1666334971.4903207;-4.213953018188477;0.9827709794044495;-45.4003791809082
236;1666334971.60549;46.9765133;7.1791347;58.90800094604492;1666334971.6874745;-3.475947380065918;-4.025713920593262;-44.66642379760742
237;1666334971.824112;46.9765142;7.179132999999999;58.913002014160156;1666334971.9090273;-2.2927162647247314;2.807615041732788;-44.59293746948242
238;1666334972.0193117;46.9765151;7.179131399999999;58.91100311279297;1666334972.0993464;-0.5217538475990295;1.6250444650650024;-44.202571868896484
239;1666334972.233057;46.9765158;7.17913;58.913002014160156;1666334972.321874;1.0348964929580688;3.485546350479126;-43.968177795410156
240;1666334972.4360657;46.976516499999995;7.1791288;58.9170036315918;1666334972.518049;1.640324592590332;3.569105386734009;-44.19278335571289
241;1666334972.6576164;46.976517099999995;7.1791279999999995;58.92000198364258;1666334972.7405784;-7.239937782287598;0.19563354551792145;-49.610435485839844
242;1666334972.8557456;46.9765179;7.179126999999999;58.92900466918945;1666334972.9357765;-23.63811683654785;3.3337278366088867;-49.811561584472656
243;1666334973.0646122;46.9765191;7.1791255;58.96200180053711;1666334973.144643;-32.99273681640625;-0.39428597688674927;-49.28435516357422
244;1666334973.2666557;46.9765211;7.1791225999999995;58.99500274658203;1666334973.3476498;-37.794883728027344;1.9116451740264893;-49.98282241821289
245;1666334973.480387;46.976524;7.179118;59.01100158691406;1666334973.568226;-38.0113525390625;1.5569576025009155;-50.61384963989258
246;1666334973.686322;46.9765278;7.1791117;59.02400207519531;1666334973.7780685;-37.79304504394531;0.439754843711853;-50.594181060791016
247;1666334973.8961651;46.976532299999995;7.1791037;59.0420036315918;1666334973.9908354;-37.44413375854492;-0.4631127417087555;-49.9891357421875
248;1666334974.1206417;46.9765375;7.1790946;59.05500411987305;1666334974.213364;-37.273529052734375;-0.7305604815483093;-49.65176010131836
249;1666334974.3441482;46.976543199999995;7.1790845999999995;59.06500244140625;1666334974.4251583;-37.3759880065918;-0.8184285759925842;-49.46206283569336
250;1666334974.53642;46.976549299999995;7.1790736;59.07100296020508;1666334974.6340208;-37.829002380371094;-0.8102706074714661;-49.37057876586914
251;1666334974.7452838;46.9765558;7.1790620999999994;59.073001861572266;1666334974.8458123;-38.436195373535156;-0.3923766016960144;-49.35401153564453
252;1666334974.9570744;46.976562699999995;7.179049999999999;59.07600402832031;1666334975.043942;-38.99546432495117;0.4605782628059387;-49.274898529052734
253;1666334975.1649692;46.976569999999995;7.1790375;59.07500457763672;1666334975.240116;-39.54852294921875;0.33878293633461;-49.325069427490234
254;1666334975.3552828;46.9765776;7.1790245;59.07200241088867;1666334975.4411747;-40.060359954833984;0.20364998281002045;-49.40114212036133
255;1666334975.56415;46.9765854;7.179011099999999;59.06700134277344;1666334975.6529639;-40.4917106628418;0.23029832541942596;-49.43116760253906
256;1666334975.7788692;46.9765935;7.1789973;59.06500244140625;1666334975.8549955;-40.87428283691406;0.17513993382453918;-49.44755554199219
257;1666334975.9896832;46.9766019;7.178983;59.06200408935547;1666334976.086308;-41.23501205444336;0.1444615125656128;-49.41876220703125
258;1666334976.2151432;46.9766105;7.1789684;59.05900192260742;1666334976.3098128;-41.52193069458008;0.17034512758255005;-49.456756591796875
259;1666334976.4259589;46.976619199999995;7.1789533;59.057003021240234;1666334976.5001333;-41.77032470703125;0.29862016439437866;-49.41150665283203
260;1666334976.6299407;46.9766282;7.178937899999999;59.05500411987305;1666334976.7099738;-41.989070892333984;0.30616295337677;-49.40708923339844
261;1666334976.8329494;46.9766373;7.1789223;59.053001403808594;1666334976.9139564;-42.20307922363281;0.36010780930519104;-49.41551971435547
262;1666334977.0564566;46.9766465;7.1789062999999995;59.05400466918945;1666334977.1384385;-42.412193298339844;0.36130833625793457;-49.37712478637695
263;1666334977.2467742;46.976656;7.1788902;59.05500411987305;1666334977.3375418;-42.592323303222656;0.31115278601646423;-49.39212417602539
264;1666334977.4478302;46.9766656;7.1788738;59.05500411987305;1666334977.5385969;-42.76194763183594;0.2869030833244324;-49.38557815551758
265;1666334977.655717;46.9766753;7.1788571;59.05600357055664;1666334977.7386794;-42.9155387878418;0.31518134474754333;-49.38566970825195
266;1666334977.8548205;46.9766851;7.1788403;59.05600357055664;1666334977.9348545;-43.055946350097656;0.31302064657211304;-49.375614166259766
267;1666334978.059787;46.976695;7.1788232;59.061004638671875;1666334978.143722;-43.181705474853516;0.3646353483200073;-49.37968063354492
268;1666334978.2637708;46.976704999999995;7.178806;59.06500244140625;1666334978.3574636;-43.31311798095703;0.3546368479728699;-49.361576080322266
269;1666334978.471654;46.9767151;7.178788699999999;59.0680046081543;1666334978.5604708;-43.425071716308594;0.3822668194770813;-49.37864685058594
270;1666334978.680518;46.9767253;7.1787712;59.07100296020508;1666334978.7605603;-43.5196647644043;0.21039383113384247;-49.33389663696289
271;1666334978.890362;46.9767356;7.178753599999999;59.070003509521484;1666334978.9684396;-43.630672454833984;0.6819449663162231;-49.422645568847656
272;1666334979.0836093;46.976746;7.1787358999999995;59.066001892089844;1666334979.175352;-43.70884704589844;0.8681023716926575;-49.2348747253418
273;1666334979.2973504;46.9767565;7.178718099999999;59.066001892089844;1666334979.3959267;-43.79243469238281;0.31531694531440735;-49.39045333862305
274;1666334979.635047;46.976766999999995;7.1787003;59.064002990722656;1666334979.7209344;-43.875980377197266;0.5068899989128113;-49.430091857910156
275;1666334979.8341522;46.9767775;7.178682299999999;59.06300354003906;1666334979.9278493;-43.95053482055664;0.5547213554382324;-49.38115692138672
276;1666334980.050825;46.976788199999994;7.1786642;59.06300354003906;1666334980.1337833;-44.029964447021484;0.33850881457328796;-49.45980453491211
277;1666334980.2616389;46.9767989;7.1786461;59.06300354003906;1666334980.3416748;-44.09492492675781;0.23622483015060425;-49.51776885986328
278;1666334980.453915;46.9768097;7.1786278;59.06300354003906;1666334980.545656;-42.77736282348633;0.17235127091407776;-49.668113708496094
279;1666334980.6617994;46.9768204;7.178609499999999;59.057003021240234;1666334980.7554965;-38.335723876953125;0.3241307735443115;-49.64691162109375
280;1666334980.8677375;46.976831;7.178591399999999;59.04300308227539;1666334980.9653375;-32.507469177246094;0.45504653453826904;-49.61780548095703
281;1666334981.0941699;46.976841099999994;7.178573999999999;59.022003173828125;1666334981.1907952;-26.429677963256836;0.5367723703384399;-49.7775764465332
282;1666334981.303034;46.9768506;7.1785575999999995;58.99700164794922;1666334981.388925;-20.275711059570312;0.39522603154182434;-49.68751907348633
283;1666334981.5128727;46.976859499999996;7.1785425;58.967002868652344;1666334981.5938818;-14.643096923828125;0.6202726364135742;-49.729488372802734
284;1666334981.8183603;46.976867399999996;7.1785289;58.936004638671875;1666334981.8983953;-9.39745044708252;0.460781455039978;-49.90408706665039
285;1666334982.0174675;46.9768744;7.178516999999999;58.92000198364258;1666334982.1082342;-4.942314147949219;-1.0763732194900513;-49.255489349365234
286;1666334982.2253633;46.9768803;7.1785067;58.91800308227539;1666334982.3073406;-1.4869935512542725;-0.7896654605865479;-49.0048828125
287;1666334982.42837;46.9768852;7.1784982;58.919002532958984;1666334982.5064456;0.33986082673072815;-0.3654366135597229;-49.64680862426758
288;1666334982.6333237;46.976889199999995;7.1784911;58.919002532958984;1666334982.7201867;1.1190484762191772;0.7493463754653931;-48.734283447265625
289;1666334982.8363314;46.9768926;7.1784854;58.9160041809082;1666334982.9271004;0.5843809843063354;0.836029052734375;-49.15575408935547
290;1666334983.0520256;46.9768954;7.178480899999999;58.91400146484375;1666334983.1359634;-0.5799737572669983;2.4061598777770996;-50.0819206237793
291;1666334983.261866;46.976897699999995;7.1784772;58.913002014160156;1666334983.3389719;-1.7555274963378906;1.2611842155456543;-50.785491943359375
292;1666334983.4638996;46.976899599999996;7.1784741;58.910003662109375;1666334983.5585704;-3.953091621398926;0.08348245173692703;-50.51428985595703
293;1666334983.678619;46.9769011;7.178471399999999;58.90700149536133;1666334983.7586508;-5.18235969543457;-1.5021610260009766;-50.177486419677734
294;1666334983.878699;46.9769024;7.1784688;58.910003662109375;1666334983.9597065;-4.561168193817139;1.5765905380249023;-50.152164459228516
295;1666334984.0778027;46.9769036;7.1784665;58.91100311279297;1666334984.1607628;-4.104041576385498;1.449104905128479;-49.913753509521484
296;1666334984.288621;46.9769048;7.1784645;58.906002044677734;1666334984.3667011;-2.7554476261138916;3.093510627746582;-49.99365234375
297;1666334984.479918;46.9769059;7.1784627;58.900001525878906;1666334984.5628748;-1.7022701501846313;1.3237005472183228;-50.14105224609375
298;1666334984.685851;46.976907;7.1784611;58.89800262451172;1666334984.773693;-0.2363889068365097;1.51394522190094;-50.868099212646484
299;1666334984.8888614;46.9769079;7.178459699999999;58.89600372314453;1666334984.9776773;0.5194144248962402;0.6025692224502563;-51.07650375366211
300;1666334985.0967493;46.976908699999996;7.178458399999999;58.897003173828125;1666334985.1738532;0.01669100672006607;-1.4093470573425293;-50.98160171508789
301;1666334985.2899973;46.976909299999996;7.1784576;58.89900207519531;1666334985.3866215;-0.5056828260421753;-0.24102526903152466;-50.66024398803711
302;1666334985.496908;46.9769098;7.178457;58.92100143432617;1666334985.587684;0.31080541014671326;5.518206596374512;-43.293968200683594
303;1666334985.716515;46.9769103;7.1784569;59.031002044677734;1666334985.8033745;2.8428244590759277;4.915628433227539;-33.053123474121094
304;1666334985.9234226;46.9769106;7.1784574999999995;59.20900344848633;1666334986.005406;-2.6599843502044678;12.411588668823242;-22.66153335571289
305;1666334986.1225255;46.976911099999995;7.178458699999999;59.44000244140625;1666334986.2093916;-7.7364182472229;28.292388916015625;-9.80513858795166
306;1666334986.3274996;46.9769121;7.1784615;59.72500228881836;1666334986.422164;-18.794588088989258;26.93665313720703;2.1404433250427246
307;1666334986.5412288;46.976914099999995;7.1784666999999995;60.04000473022461;1666334986.6300454;-25.05569839477539;18.78476333618164;11.90066146850586
308;1666334986.7452185;46.976917;7.1784735;60.36700439453125;1666334986.8340287;-29.481035232543945;14.292427062988281;20.900312423706055
309;1666334986.953105;46.976920799999995;7.1784814;60.7030029296875;1666334987.0428948;-31.57246208190918;9.892206192016602;28.87308692932129
310;1666334987.174655;46.9769253;7.1784903;61.04000473022461;1666334987.2322385;-32.763492584228516;8.68847942352295;25.788455963134766
311;1666334987.3571677;46.9769307;7.1785;61.36100387573242;1666334987.4469588;-33.49528503417969;13.126897811889648;14.218446731567383
312;1666334987.5650573;46.9769368;7.1785099;61.647003173828125;1666334987.6548483;-33.04411315917969;20.115787506103516;2.469785451889038
313;1666334987.76611;46.9769438;7.1785201;61.906002044677734;1666334987.85883;-31.10527992248535;27.132659912109375;-8.571381568908691
314;1666334987.9749827;46.9769517;7.1785307;62.143001556396484;1666334988.0618403;-27.157060623168945;33.374786376953125;-19.46712875366211
315;1666334988.1789615;46.976960399999996;7.1785419;62.38500213623047;1666334988.2668002;-21.170833587646484;38.22686004638672;-30.205806732177734
316;1666334988.3839211;46.976970099999996;7.1785536;62.6400032043457;1666334988.4824965;-20.468338012695312;38.50707244873047;-23.70670509338379
317;1666334988.6074235;46.976980399999995;7.178566099999999;62.906002044677734;1666334988.6952655;-22.632118225097656;35.41717529296875;-8.119009017944336
318;1666334988.810431;46.9769909;7.1785798;63.19400405883789;1666334988.9148655;-25.384849548339844;29.29244613647461;5.199774265289307
319;1666334989.033935;46.977001099999995;7.1785945;63.50100326538086;1666334989.1159227;-28.010845184326172;24.195194244384766;15.489678382873535
320;1666334989.2296782;46.977010899999996;7.1786099;63.81900405883789;1666334989.338988;-31.37425994873047;17.72325897216797;24.106088638305664
321;1666334989.4639194;46.9770202;7.1786256999999996;64.13300323486328;1666334989.5439494;-34.60421371459961;11.621905326843262;31.6427001953125
322;1666334989.6776624;46.9770294;7.1786416;64.43800354003906;1666334989.7586715;-37.363407135009766;6.039831161499023;39.471771240234375
323;1666334989.8978941;46.9770385;7.1786575;64.73100280761719;1666334989.98183;-39.21970748901367;0.153516486287117;47.392738342285156
324;1666334990.0901666;46.9770478;7.1786734999999995;65.01000213623047;1666334990.175077;-40.52859878540039;-2.493435859680176;45.90864944458008
325;1666334990.2970784;46.9770574;7.178689599999999;65.28900146484375;1666334990.3927248;-41.816741943359375;0.15167395770549774;34.087650299072266
326;1666334990.5225332;46.9770677;7.1787053;65.56800079345703;1666334990.6133018;-42.3882942199707;7.1519455909729;22.270313262939453
327;1666334990.7167592;46.9770786;7.1787206;65.84300231933594;1666334990.8026524;-41.84939956665039;15.063377380371094;11.953651428222656
328;1666334990.9324536;46.9770902;7.1787357;66.12100219726562;1666334991.0310285;-40.4365348815918;21.36273193359375;5.998174667358398
329;1666334991.144245;46.9771024;7.1787509;66.4010009765625;1666334991.217445;-40.44337844848633;20.339189529418945;17.47230339050293
330;1666334991.3511574;46.9771149;7.178766599999999;66.66900634765625;1666334991.4390004;-40.008522033691406;13.593287467956543;30.249074935913086
331;1666334991.560022;46.9771272;7.1787829;66.91100311279297;1666334991.6429803;-39.730594635009766;8.73180103302002;40.053524017333984
332;1666334991.760103;46.977139099999995;7.178799499999999;67.09300231933594;1666334991.8411112;-39.84881591796875;0.9069082140922546;48.716590881347656
333;1666334991.953355;46.977150699999996;7.1788162;67.24400329589844;1666334992.0411968;-37.04696273803711;-3.2708351612091064;47.54213333129883
334;1666334992.157334;46.9771621;7.1788327999999995;67.37700653076172;1666334992.2315137;-34.25898361206055;-2.1546030044555664;46.30624771118164
335;1666334992.3457036;46.977173199999996;7.1788488;67.49600219726562;1666334992.4276884;-30.664249420166016;-1.7623273134231567;45.475799560546875
336;1666334992.54676;46.977184;7.178864;67.60900115966797;1666334992.6297202;-26.383821487426758;-1.3307968378067017;44.96510696411133
337;1666334992.7439191;46.9771942;7.1788783;67.71600341796875;1666334992.8317542;-21.26807403564453;-0.5990180373191833;44.86952590942383
338;1666334992.9654622;46.9772037;7.1788915;67.81800079345703;1666334993.0454943;-15.963114738464355;-0.1660495400428772;44.9293327331543
339;1666334993.1694477;46.9772123;7.1789035;67.91300201416016;1666334993.2563107;-10.845006942749023;0.507932722568512;44.9874382019043
340;1666334993.3724573;46.977219899999994;7.1789141;68.0040054321289;1666334993.4524882;-6.33876371383667;0.8876878023147583;45.153221130371094
341;1666334993.5754642;46.9772265;7.1789233;68.09200286865234;1666334993.6652553;-2.7855641841888428;1.1978627443313599;45.240535736083984
342;1666334993.7823782;46.977232;7.1789312;68.17500305175781;1666334993.867288;-0.3142649531364441;1.2385894060134888;45.40377426147461
343;1666334994.0868905;46.9772365;7.1789377;68.2509994506836;1666334994.1669192;0.971150815486908;1.3056035041809082;45.52188491821289
344;1666334994.2908769;46.977240099999996;7.178942999999999;68.31600189208984;1666334994.373834;0.9120838642120361;0.9868840575218201;45.590065002441406
345;1666334994.4909534;46.977243;7.1789473;68.37300109863281;1666334994.5739126;-0.06267662346363068;0.6658591628074646;45.57719802856445
346;1666334994.7007935;46.9772452;7.1789507;68.43000030517578;1666334994.7788713;-1.5519338846206665;0.36367109417915344;45.522586822509766
347;1666334994.8979478;46.9772471;7.1789534999999995;68.4780044555664;1666334994.9877405;-3.189042091369629;0.17728374898433685;45.42407989501953
348;1666334995.1058335;46.977248599999996;7.1789559;68.52000427246094;1666334995.1819618;-4.4518256187438965;-0.049703195691108704;45.296112060546875
349;1666334995.2981062;46.97725;7.178958;68.55900573730469;1666334995.4035158;-5.103639602661133;-0.41209155321121216;45.15409469604492
350;1666334995.519657;46.9772512;7.1789599;68.5979995727539;1666334995.598714;-4.987311840057373;-0.4959772527217865;45.045326232910156
351;1666334995.7080262;46.9772525;7.1789618;68.64000701904297;1666334995.8036728;-3.8405866622924805;-0.4874533414840698;45.0379524230957
352;1666334995.9139612;46.9772537;7.1789635;68.68000030517578;1666334995.9959452;-1.7855135202407837;0.17240659892559052;45.21161651611328
353;1666334996.131611;46.9772549;7.1789651;68.7229995727539;1666334996.2233546;0.23950056731700897;0.7398427128791809;45.52897644042969
354;1666334996.3463304;46.977255899999996;7.1789666;68.76500701904297;1666334996.4302676;0.2662010192871094;-0.36746808886528015;45.673675537109375
355;1666334996.5464134;46.9772567;7.178967699999999;68.8030014038086;1666334996.6459618;-0.6115859150886536;-0.3434264659881592;45.71320724487305
356;1666334996.7601552;46.9772573;7.1789686999999995;68.83600616455078;1666334996.840189;-2.047771453857422;-0.4491312801837921;45.716758728027344
357;1666334996.9699955;46.9772579;7.1789695;68.86100006103516;1666334997.0724769;-0.07448343932628632;6.343677997589111;51.71343231201172
358;1666334997.187645;46.977258299999995;7.1789704;68.8790054321289;1666334997.272556;1.1847656965255737;8.904542922973633;62.934173583984375
359;1666334997.3965094;46.9772582;7.1789713;68.88600158691406;1666334997.4823945;-3.1159002780914307;21.19747543334961;73.90757751464844
360;1666334997.6034205;46.9772573;7.1789726;68.90400695800781;1666334997.6932118;-14.78084945678711;28.114471435546875;86.67141723632812
361;1666334997.8103328;46.9772551;7.1789746;68.92500305175781;1666334997.8913443;-23.756868362426758;22.13276481628418;97.0291748046875
362;1666334998.0094388;46.9772519;7.1789777;68.94100189208984;1666334998.108013;-28.795211791992188;15.644549369812012;105.87437438964844
363;1666334998.236844;46.9772477;7.1789819999999995;68.96500396728516;1666334998.3129718;-32.085941314697266;10.489537239074707;114.13956451416016
364;1666334998.4369228;46.977243;7.178987599999999;68.9800033569336;1666334998.5120757;-33.76068878173828;5.218141555786133;122.27200317382812
365;1666334998.626269;46.977237699999996;7.1789942;68.98500061035156;1666334998.706304;-35.018341064453125;1.1710922718048096;126.62144470214844
366;1666334998.8253736;46.977232099999995;7.1790021;69.00300598144531;1666334998.9200466;-35.78630447387695;3.398345708847046;116.01034545898438
367;1666334999.0352125;46.9772263;7.1790109;69.00700378417969;1666334999.1230543;-36.22672653198242;9.314690589904785;104.12866973876953
368;1666334999.2391958;46.9772204;7.179021;69.01300048828125;1666334999.3348446;-35.993919372558594;16.071109771728516;93.46509552001953
369;1666334999.4529402;46.977214499999995;7.179032299999999;69.01700592041016;1666334999.539806;-34.867340087890625;22.33313751220703;83.30416107177734
370;1666334999.6569245;46.977208399999995;7.1790448;69.01900482177734;1666334999.7437925;-32.71469497680664;27.84904670715332;74.07420349121094
371;1666334999.8638387;46.9772022;7.1790585;69.02200317382812;1666334999.9438689;-33.189697265625;28.132545471191406;81.37272644042969
372;1666335000.069777;46.977195699999996;7.179073;69.02000427246094;1666335000.1624947;-33.860843658447266;24.34821128845215;94.62142944335938
373;1666335000.275711;46.9771886;7.179087999999999;69.02200317382812;1666335000.3635495;-34.570831298828125;19.257442474365234;106.36166381835938
374;1666335000.4835982;46.977180999999995;7.179102899999999;69.0250015258789;1666335000.5616786;-35.8055419921875;14.336591720581055;115.92359161376953
375;1666335000.7022219;46.977173;7.1791176;69.0300064086914;1666335000.7881093;-37.46742630004883;9.537252426147461;124.89791107177734
376;1666335000.902819;46.9771645;7.1791319;69.03600311279297;1666335000.9935849;-38.96419143676758;2.9363198280334473;132.93125915527344
377;1666335001.1126587;46.9771558;7.179145999999999;69.04000091552734;1666335001.206353;-40.21306610107422;-1.4418965578079224;134.93310546875
378;1666335001.3215215;46.9771467;7.1791602;69.04000091552734;1666335001.4093616;-41.21234130859375;-2.5180702209472656;133.25282287597656
379;1666335001.6289616;46.9771376;7.179174799999999;69.03700256347656;1666335001.7109468;-41.92469787597656;-2.3323991298675537;131.83755493164062
380;1666335001.823189;46.9771285;7.1791899;69.03400421142578;1666335001.9061453;-42.30332946777344;-2.2503244876861572;131.08383178710938
381;1666335002.0193636;46.9771193;7.1792054;69.0320053100586;1666335002.1091533;-42.52104949951172;-1.7936681509017944;130.41075134277344
382;1666335002.238961;46.9771101;7.179221399999999;69.03400421142578;1666335002.330706;-42.64809799194336;-1.0256993770599365;130.40699768066406
383;1666335002.4517322;46.977100799999995;7.1792378;69.03600311279297;1666335002.5376182;-42.725006103515625;-0.719515860080719;130.32083129882812
384;1666335002.6615684;46.9770914;7.1792544;69.03600311279297;1666335002.744532;-42.8132209777832;-0.502357006072998;130.33071899414062
385;1666335002.858721;46.977081999999996;7.179271399999999;69.03600311279297;1666335002.9436345;-42.934844970703125;-0.29051077365875244;130.37245178222656
386;1666335003.0627062;46.977072299999996;7.179288499999999;69.04100036621094;1666335003.1446888;-43.06976318359375;-0.18145982921123505;130.405029296875
387;1666335003.269618;46.9770626;7.1793058;69.04400634765625;1666335003.351602;-43.20087432861328;-0.17666073143482208;130.4796600341797
388;1666335003.4736018;46.977052799999996;7.1793233;69.04500579833984;1666335003.5692499;-43.3282470703125;-0.023109711706638336;130.40386962890625
389;1666335003.701993;46.9770429;7.179340799999999;69.04600524902344;1666335003.7995887;-43.417991638183594;0.6586022973060608;130.48304748535156
390;1666335003.9206102;46.977032799999996;7.179358499999999;69.0510025024414;1666335004.0035737;-43.52214813232422;0.20049066841602325;130.56829833984375
391;1666335004.121668;46.9770227;7.1793762999999995;69.05400085449219;1666335004.2017062;-43.618343353271484;0.07103783637285233;130.53231811523438
392;1666335004.316867;46.9770124;7.179394299999999;69.0530014038086;1666335004.4212985;-43.713008880615234;0.3120567500591278;130.60377502441406
393;1666335004.5393965;46.9770021;7.1794123999999995;69.05599975585938;1666335004.631146;-43.79816436767578;0.3542949855327606;130.68775939941406
394;1666335004.74631;46.9769917;7.1794306;69.0580062866211;1666335004.8253636;-43.875186920166016;0.2417217493057251;130.71014404296875
395;1666335004.949319;46.9769812;7.179448799999999;69.06000518798828;1666335005.037157;-43.91423416137695;0.12868382036685944;130.72323608398438
396;1666335005.156227;46.9769706;7.179467;69.05900573730469;1666335005.2401648;-41.557769775390625;0.3145100474357605;130.72303771972656
397;1666335005.349479;46.9769601;7.179485199999999;69.04900360107422;1666335005.4382937;-36.4963264465332;0.34415921568870544;130.7649383544922
398;1666335005.5690799;46.9769498;7.1795029999999995;69.03900146484375;1666335005.6588707;-30.455259323120117;0.27228841185569763;130.9146728515625
399;1666335005.7867374;46.9769398;7.1795200999999995;69.02200317382812;1666335005.873592;-24.190038681030273;0.36072561144828796;130.93121337890625
400;1666335005.9877799;46.976930499999995;7.179536199999999;69.0050048828125;1666335006.08343;-18.091020584106445;0.6350809335708618;130.78631591796875
401;1666335006.200552;46.976921999999995;7.1795507999999995;68.98200225830078;1666335006.28351;-12.26418399810791;0.5794209837913513;130.8900146484375
402;1666335006.4133189;46.9769145;7.1795637;68.9520034790039;1666335006.5001903;-7.587010383605957;0.6879292726516724;131.0067596435547
403;1666335006.621207;46.9769079;7.1795748999999995;68.92300415039062;1666335006.704167;-3.6716597080230713;0.6029905080795288;131.0526580810547
404;1666335006.8320227;46.9769023;7.1795843999999995;68.89700317382812;1666335006.9159582;-0.574035108089447;0.0572015754878521;131.06710815429688
405;1666335007.0389397;46.9768976;7.1795922;68.8800048828125;1666335007.1160462;1.062841534614563;0.0051040430553257465;131.03578186035156
406;1666335007.253657;46.9768937;7.179598599999999;68.86500549316406;1666335007.4361684;1.1910619735717773;0.02372007444500923;130.96844482421875
407;1666335007.5493896;46.9768906;7.1796036;68.85400390625;1666335007.634293;0.2037857323884964;-0.2810828387737274;130.82652282714844
408;1666335007.7611763;46.9768882;7.1796076;68.84700012207031;1666335007.8490171;-1.4630318880081177;-0.2919425964355469;130.7421112060547
409;1666335007.959302;46.9768863;7.179610899999999;68.84600067138672;1666335008.0461686;-3.39107608795166;0.046270281076431274;130.65972900390625
410;1666335008.171095;46.9768846;7.1796136;68.84600067138672;1666335008.2540553;-4.772207736968994;0.30210235714912415;130.51669311523438
411;1666335008.3721519;46.976883199999996;7.179615999999999;68.84900665283203;1666335008.4492652;-5.472055435180664;0.519040584564209;130.39791870117188
412;1666335008.5800433;46.9768818;7.1796183;68.85600280761719;1666335008.6717842;-5.0912017822265625;-0.4106694161891937;130.32069396972656
413;1666335008.793785;46.9768806;7.1796204999999995;68.86800384521484;1666335008.8747916;-4.2095441818237305;-0.9418110251426697;130.55564880371094
414;1666335008.994839;46.9768794;7.1796226;68.8800048828125;1666335009.073895;-2.8252289295196533;-1.6986463069915771;130.8789825439453
415;1666335009.2037039;46.976878199999994;7.1796247;68.89400482177734;1666335009.282762;-1.3547977209091187;1.2462257146835327;130.99913024902344
416;1666335009.4096408;46.9768773;7.1796264;68.91100311279297;1666335009.4857705;-1.6300413608551025;0.3163635730743408;131.332763671875
417;1666335009.6038647;46.976876399999995;7.1796278;68.91900634765625;1666335009.6936584;-2.1608800888061523;0.4353579878807068;131.32150268554688
