;pos_time;latitude;longitude;altitude;alt_time;pitch;roll;yaw
0;1666351676.3440115;46.975534499999995;7.1803557;-0.023000001907348633;1666351676.4826016;-0.11184164136648178;-0.7097268104553223;90.64515686035156
1;1666351676.544091;46.975534499999995;7.1803558;-0.02500000037252903;1666351676.69537;-0.6903395652770996;-0.645637035369873;90.81790924072266
2;1666351676.769548;46.975534499999995;7.1803558999999995;-0.027000000700354576;1666351676.916923;-0.5138745903968811;-0.593441367149353;90.71375274658203
3;1666351676.9871967;46.975534499999995;7.1803558;-0.030000001192092896;1666351677.1248121;-0.505031406879425;-0.7698983550071716;90.806640625
4;1666351677.1775188;46.975534499999995;7.1803558;-0.030000001192092896;1666351677.3239176;-0.4004304111003876;-0.5467527508735657;90.79407501220703
5;1666351677.3785713;46.9755344;7.1803558;-0.027000000700354576;1666351677.5327816;-0.27637067437171936;-0.6361689567565918;90.82245635986328
6;1666351677.59134;46.9755344;7.1803558;-0.026000000536441803;1666351677.7416463;-0.4970860779285431;-0.6473520398139954;90.80789947509766
7;1666351677.793373;46.9755344;7.1803558;-0.027000000700354576;1666351677.9651482;-0.6829234957695007;-0.5401551723480225;90.87287139892578
8;1666351678.0256648;46.9755344;7.1803558;-0.023000001907348633;1666351678.1749876;-0.7235668301582336;-0.5312497019767761;90.80674743652344
9;1666351678.2247648;46.9755344;7.1803558;-0.023000001907348633;1666351678.3614054;-0.47254523634910583;-0.5277713537216187;90.95561218261719
10;1666351678.4248507;46.9755344;7.1803557;-0.023000001907348633;1666351678.5673416;-0.46072638034820557;-0.6339433193206787;90.97051239013672
11;1666351678.6268783;46.9755344;7.1803558;-0.02200000174343586;1666351678.8045094;-0.31389477849006653;-0.6800265908241272;90.91338348388672
12;1666351678.85819;46.9755344;7.1803558;-0.017000000923871994;1666351678.9889722;-0.5886685848236084;-0.7103691697120667;90.94303131103516
13;1666351679.0680296;46.9755344;7.1803558999999995;-0.015000000596046448;1666351679.2134564;-0.38545358180999756;-0.671923816204071;90.99119567871094
14;1666351679.3803492;46.9755344;7.1803558999999995;0.0;1666351679.531632;-0.6975203156471252;-0.7273244857788086;90.8548355102539
15;1666351679.5950701;46.9755344;7.1803558999999995;-0.0020000000949949026;1666351679.7531822;-0.6583585739135742;-0.6589826941490173;90.88981628417969
16;1666351679.8078413;46.9755344;7.1803558999999995;-0.0020000000949949026;1666351680.066478;-0.5396519303321838;-0.426979124546051;90.8934097290039
17;1666351680.1182055;46.9755344;7.1803558;-0.0010000000474974513;1666351680.2616787;-0.46513304114341736;-0.6424426436424255;91.02300262451172
18;1666351680.3241427;46.9755344;7.1803558;0.0;1666351680.5916247;-0.5321817994117737;-0.5783851146697998;90.7906265258789
19;1666351680.6511612;46.975534499999995;7.1803557;0.0020000000949949026;1666351680.7922225;-0.3904740810394287;-0.33740392327308655;90.74720764160156
20;1666351680.8507836;46.975534499999995;7.1803557;0.004000000189989805;1666351681.0030923;-0.41091564297676086;-0.5286154747009277;90.92665100097656
21;1666351681.0577471;46.9755344;7.1803557;0.009000000543892384;1666351681.2080977;-0.4900447130203247;-0.5074455142021179;90.96989440917969
22;1666351681.2666578;46.9755344;7.1803557;0.007000000216066837;1666351681.4218402;-0.580974817276001;-0.37656816840171814;90.900390625
23;1666351681.48333;46.9755344;7.1803555999999995;0.005000000353902578;1666351681.6268036;-0.46537065505981445;-0.47476327419281006;90.84944915771484
24;1666351681.6824324;46.9755344;7.1803555999999995;-0.0010000000474974513;1666351681.8190737;-0.6124114990234375;-0.5159337520599365;90.89253234863281
25;1666351681.8952;46.9755344;7.1803557;-0.003000000026077032;1666351682.0552654;-0.4434054493904114;-0.6113907694816589;91.10404205322266
26;1666351682.109924;46.9755344;7.1803557;-0.005000000353902578;1666351682.253392;-0.5197824239730835;-0.5770414471626282;91.1259994506836
27;1666351682.3090265;46.9755344;7.1803558;-0.005000000353902578;1666351682.44957;-0.57022625207901;-0.8123677968978882;91.09738159179688
28;1666351682.5173278;46.9755344;7.1803558;-0.004000000189989805;1666351682.6886377;-0.4276772737503052;-0.7569491863250732;90.93372344970703
29;1666351682.7452478;46.9755344;7.1803558999999995;-0.004000000189989805;1666351682.887633;-0.45687875151634216;-0.7725213766098022;91.07685852050781
30;1666351682.946194;46.9755344;7.1803558999999995;-0.004000000189989805;1666351683.0857618;-0.3427235186100006;-0.7471845746040344;91.14160919189453
31;1666351683.1482253;46.975534499999995;7.180356;-0.003000000026077032;1666351683.2980645;-0.11394006013870239;-0.6878081560134888;91.06885528564453
32;1666351683.3615053;46.975534499999995;7.1803561;-0.004000000189989805;1666351683.5206492;1.169620156288147;-1.5988829135894775;92.8380126953125
33;1666351683.5782304;46.975534499999995;7.1803561;0.0;1666351683.7217598;2.2124452590942383;-3.7894089221954346;90.31258392333984
34;1666351683.7764142;46.975534499999995;7.1803558999999995;0.032999999821186066;1666351683.9218385;0.5277054309844971;0.8893165588378906;86.59140014648438
35;1666351683.9745421;46.975534599999996;7.1803557;0.09800000488758087;1666351684.1287482;-1.567806363105774;1.6655786037445068;88.45632934570312
36;1666351684.1892638;46.9755347;7.1803557;0.17900000512599945;1666351684.3434703;-2.2218406200408936;0.1872384250164032;89.03018951416016
37;1666351684.420575;46.9755348;7.1803555999999995;0.2710000276565552;1666351684.569904;-3.540844678878784;-0.41436755657196045;88.97753143310547
38;1666351684.6294377;46.9755348;7.1803554;0.3720000088214874;1666351684.7680302;-4.33271598815918;0.053612470626831055;90.6771240234375
39;1666351684.8217115;46.9755347;7.180355;0.4870000183582306;1666351684.970062;-5.2125935554504395;-2.864149808883667;91.648193359375
40;1666351685.0256934;46.975534599999996;7.180354599999999;0.6170000433921814;1666351685.1720963;-2.701651096343994;-3.843381881713867;92.1673812866211
41;1666351685.2287028;46.9755344;7.180354299999999;0.7620000243186951;1666351685.3975499;-1.6730517148971558;-3.054508924484253;93.54888153076172
42;1666351685.4492779;46.9755344;7.180354299999999;0.9160000681877136;1666351685.5956774;-0.2773391902446747;-4.186794281005859;92.93919372558594
43;1666351685.6532636;46.9755343;7.180354299999999;1.0880000591278076;1666351685.8103979;1.8048555850982666;-2.7573742866516113;92.20941162109375
44;1666351685.8757915;46.975534499999995;7.180354599999999;1.2690000534057617;1666351686.0153587;2.356046438217163;-0.1941048949956894;91.91755676269531
45;1666351686.089537;46.9755347;7.1803554;1.465000033378601;1666351686.2310565;3.7621798515319824;-1.1093213558197021;91.28319549560547
46;1666351686.2866895;46.9755349;7.1803563;1.6680001020431519;1666351686.4369931;5.1292619705200195;2.3941609859466553;92.57233428955078
47;1666351686.4955504;46.975535099999995;7.1803571999999996;1.8700001239776611;1666351686.642927;2.88606333732605;3.1225779056549072;91.76727294921875
48;1666351686.6995363;46.975535199999996;7.1803577999999995;2.073000192642212;1666351686.858623;0.6058070063591003;1.6182913780212402;91.9831314086914
49;1666351686.9230418;46.9755353;7.1803582;2.2740001678466797;1666351687.067489;2.4692935943603516;1.7423720359802246;91.68647003173828
50;1666351687.1260483;46.9755353;7.1803583;2.4760000705718994;1666351687.2783043;0.1177331879734993;0.8666549324989319;92.80636596679688
51;1666351687.3456495;46.9755353;7.180358099999999;2.6760001182556152;1666351687.4979053;-1.8095917701721191;0.3158937096595764;93.25837707519531
52;1666351687.5545115;46.975535099999995;7.1803573;2.880000114440918;1666351687.6940815;-2.9598186016082764;-1.1618597507476807;92.92459869384766
53;1666351687.7604504;46.975535;7.1803564;3.0900001525878906;1666351687.8922088;-5.674054145812988;-1.5926555395126343;92.64684295654297
54;1666351687.9517472;46.9755348;7.1803555;3.302000045776367;1666351688.0961936;-4.837714195251465;-3.2380757331848145;92.30490112304688
55;1666351688.1664646;46.9755347;7.180354899999999;3.5180001258850098;1666351688.3060327;-3.911496639251709;-2.432748556137085;93.69095611572266
56;1666351688.36069;46.975534599999996;7.1803544;3.7310001850128174;1666351688.510018;-3.2296531200408936;-2.3474113941192627;93.20528411865234
57;1666351688.5822427;46.975534599999996;7.1803544;3.936000108718872;1666351688.737427;-0.8511601686477661;-3.8267006874084473;93.36967468261719
58;1666351688.8018422;46.975534499999995;7.180354899999999;4.14300012588501;1666351688.949218;1.190654993057251;-2.4915030002593994;93.59358215332031
59;1666351689.006804;46.9755344;7.1803555999999995;4.353000164031982;1666351689.142465;1.3888616561889648;-2.8520710468292236;93.33843231201172
60;1666351689.2107868;46.9755343;7.1803563;4.565000057220459;1666351689.379634;4.038731575012207;-2.06658935546875;93.16109466552734
61;1666351689.4420974;46.9755343;7.180356799999999;4.778000354766846;1666351689.5963051;4.965273857116699;-1.7436197996139526;92.87918853759766
62;1666351689.6529138;46.9755342;7.180357099999999;4.993000030517578;1666351689.7954102;4.750431060791016;-1.8089724779129028;92.32512664794922
63;1666351689.861781;46.9755342;7.180357;5.203000068664551;1666351690.009155;3.9185898303985596;-0.31003186106681824;92.34529876708984
64;1666351690.0677142;46.9755342;7.180356799999999;5.410000324249268;1666351690.197524;2.771314859390259;-0.289523184299469;92.9387435913086
65;1666351690.2590103;46.9755344;7.1803567;5.624000072479248;1666351690.4220052;1.5188677310943604;0.3684570789337158;91.68905639648438
66;1666351690.481539;46.975534599999996;7.1803567;5.841000080108643;1666351690.629891;-0.30739134550094604;0.9215021729469299;92.34286499023438
67;1666351690.6894288;46.9755349;7.1803566;6.060000419616699;1666351690.8358285;-1.6596529483795166;2.2328925132751465;91.53899383544922
68;1666351690.901221;46.975535099999995;7.1803566;6.28000020980835;1666351691.0554266;-2.7793757915496826;0.9593509435653687;91.54822540283203
69;1666351691.1217947;46.975535099999995;7.1803566;6.499000072479248;1666351691.2701492;-2.7170069217681885;0.369999498128891;91.99787902832031
70;1666351691.323827;46.975535099999995;7.1803566;6.711000442504883;1666351691.4770608;-3.453169584274292;-0.3628535270690918;92.86905670166016
71;1666351691.5317156;46.975535099999995;7.1803563;6.927000522613525;1666351691.675189;-2.9853920936584473;-1.7891349792480469;93.25155639648438
72;1666351691.7366776;46.9755349;7.1803558;7.14300012588501;1666351691.8840535;-2.75561261177063;-2.45986270904541;92.74451446533203
73;1666351691.9631095;46.9755347;7.1803552999999996;7.360000133514404;1666351692.0948696;-2.7302517890930176;-4.2192888259887695;93.00475311279297
74;1666351692.1505024;46.975534599999996;7.180355;7.580000400543213;1666351692.2929966;-0.7450610995292664;-3.80928897857666;92.36021423339844
75;1666351692.354486;46.975534499999995;7.1803547;7.799000263214111;1666351692.5213804;-0.16620193421840668;-1.756093978881836;91.53227233886719
76;1666351692.5789654;46.975534499999995;7.1803547;8.020000457763672;1666351692.7204845;-0.4400889575481415;-2.3173468112945557;92.33504486083984
77;1666351692.7800205;46.975534499999995;7.180355;8.234000205993652;1666351692.9313037;2.215524435043335;-1.2033129930496216;90.95365905761719
78;1666351692.9918141;46.975534599999996;7.1803555999999995;8.451000213623047;1666351693.1284525;3.7521262168884277;0.8103083372116089;94.44890594482422
79;1666351693.1860402;46.9755347;7.180356499999999;8.670000076293945;1666351693.3382933;2.7873802185058594;2.9668235778808594;94.24659729003906
80;1666351693.4007585;46.9755348;7.1803571999999996;8.890000343322754;1666351693.6369495;2.024703025817871;0.5834188461303711;91.3756103515625
81;1666351693.708199;46.9755348;7.1803577;9.109000205993652;1666351693.8614292;2.2800707817077637;2.112321615219116;91.90361785888672
82;1666351693.9219415;46.9755349;7.180358;9.331000328063965;1666351694.0751743;-0.419010192155838;1.9208887815475464;91.2869873046875
83;1666351694.1308074;46.9755348;7.1803579;9.54800033569336;1666351694.2693996;-1.923383355140686;1.0736552476882935;91.41167449951172
84;1666351694.3357677;46.9755348;7.1803574;9.772000312805176;1666351694.486071;-2.3652327060699463;-0.9224094152450562;92.69268035888672
85;1666351694.5514655;46.9755347;7.1803567;9.997000694274902;1666351694.6871266;-4.723367214202881;0.2507619857788086;92.15848541259766
86;1666351694.7534976;46.975534599999996;7.1803558999999995;10.230000495910645;1666351694.8979442;-6.173313140869141;-0.21760928630828857;92.7572250366211
87;1666351694.9574797;46.975534499999995;7.1803554;10.495000839233398;1666351695.1087604;-7.346902847290039;-2.336581230163574;93.57405853271484
88;1666351695.1663451;46.9755344;7.1803551;10.78600025177002;1666351695.3010328;-6.602816581726074;-2.0469470024108887;92.2574462890625
89;1666351695.3595912;46.9755343;7.1803554;11.087000846862793;1666351695.5020893;-3.7563633918762207;-2.095611333847046;91.48889923095703
90;1666351695.5577192;46.9755341;7.180356199999999;11.406000137329102;1666351695.7099752;-0.5913440585136414;-2.450422763824463;90.91175842285156
91;1666351695.7792733;46.975533899999995;7.180357;11.74000072479248;1666351695.9227452;1.644667387008667;-2.709390640258789;89.68026733398438
92;1666351695.9744737;46.9755338;7.1803576;12.085000991821289;1666351696.1150174;3.5484566688537598;-2.5941672325134277;91.89715576171875
93;1666351696.1843128;46.9755337;7.1803579;12.440000534057617;1666351696.331689;5.061640739440918;-3.058140516281128;90.89749908447266
94;1666351696.4009843;46.9755337;7.1803579;12.804000854492188;1666351696.5434835;4.657521724700928;-3.360250473022461;92.22074127197266
95;1666351696.6039925;46.9755338;7.1803576;13.164000511169434;1666351696.7601523;4.13828706741333;-1.4514473676681519;91.69566345214844
96;1666351696.831402;46.975533899999995;7.1803571999999996;13.509000778198242;1666351696.989515;2.2128942012786865;0.27746254205703735;91.39241027832031
97;1666351697.0470967;46.9755342;7.180357;13.856000900268555;1666351697.1886163;1.5589447021484375;1.425065040588379;90.50251770019531
98;1666351697.255961;46.9755344;7.1803569;14.196001052856445;1666351697.416025;-0.12631307542324066;1.5641950368881226;90.75764465332031
99;1666351697.4648254;46.975534599999996;7.1803569;14.532000541687012;1666351697.6200092;-1.293851375579834;0.9952136874198914;91.3589859008789
100;1666351697.680523;46.9755347;7.1803569;14.86600112915039;1666351697.8230186;-2.319756031036377;0.8112536668777466;91.72447967529297
101;1666351697.878652;46.9755347;7.1803569;15.200000762939453;1666351698.0435946;-1.7647144794464111;0.863186240196228;91.85499572753906
102;1666351698.0982504;46.9755348;7.180356799999999;15.519001007080078;1666351698.2485557;-3.1830310821533203;-0.712876558303833;91.56916046142578
103;1666351698.3051643;46.9755347;7.1803564;15.842000961303711;1666351698.4701056;-4.280243396759033;-1.733755111694336;91.9920425415039
104;1666351698.5355046;46.975534599999996;7.180356;16.166000366210938;1666351698.6848261;-4.054567337036133;-3.233121633529663;92.4648666381836
105;1666351698.7453384;46.975534499999995;7.1803558;16.490001678466797;1666351698.8800275;-3.7563130855560303;-3.553119421005249;92.12958526611328
106;1666351698.9366355;46.9755344;7.1803557;16.81599998474121;1666351699.0810826;-1.3300772905349731;-3.2556886672973633;91.06291198730469
107;1666351699.1494048;46.9755343;7.1803557;17.13800048828125;1666351699.2977567;2.3520712852478027;-2.4021246433258057;91.69706726074219
108;1666351699.3660748;46.9755343;7.1803557;17.46000099182129;1666351699.5319953;1.6612552404403687;-1.2499110698699951;92.3485336303711
109;1666351699.5915318;46.9755344;7.1803558;17.773000717163086;1666351699.747697;2.494485378265381;-1.9050273895263672;92.38984680175781
110;1666351699.8101552;46.975534499999995;7.1803561;18.093000411987305;1666351699.9653387;3.933791399002075;0.8704131841659546;91.63587188720703
111;1666351700.0190217;46.975534599999996;7.1803566;18.418001174926758;1666351700.193723;3.8018789291381836;0.9656578302383423;90.81623840332031
112;1666351700.250332;46.9755347;7.180357099999999;18.744001388549805;1666351700.4025877;3.999119520187378;0.6538258790969849;91.14938354492188
113;1666351700.4679801;46.9755348;7.1803574;19.067001342773438;1666351700.6094992;2.5695338249206543;1.7338643074035645;91.77276611328125
114;1666351700.6651323;46.9755349;7.1803576;19.392000198364258;1666351700.8056774;1.5668026208877563;1.654997706413269;91.65547180175781
115;1666351700.8603315;46.9755349;7.1803574999999995;19.698001861572266;1666351701.0155172;-0.18130819499492645;1.066518783569336;91.45951080322266
116;1666351701.094575;46.975535;7.180357;20.010000228881836;1666351701.2273102;-1.9856632947921753;1.0576354265213013;91.76444244384766
117;1666351701.2907498;46.975535;7.1803563;20.326000213623047;1666351701.4293406;-2.964960813522339;0.8493400812149048;91.75575256347656
118;1666351701.4849722;46.975535;7.1803558;20.643001556396484;1666351701.6235642;-3.945363759994507;0.08007268607616425;91.78832244873047
119;1666351701.6791987;46.975535099999995;7.1803554;20.95800018310547;1666351701.820718;-3.8795814514160156;0.47197452187538147;92.20525360107422
120;1666351701.8743966;46.975535099999995;7.180355199999999;21.2760009765625;1666351702.0344608;-5.416231155395508;-0.6341317892074585;92.05055236816406
121;1666351702.0900934;46.975535099999995;7.1803552999999996;21.59600067138672;1666351702.2286866;-4.065784931182861;-0.8203463554382324;92.14127349853516
122;1666351702.3028636;46.975535099999995;7.1803554;21.897001266479492;1666351702.456095;-3.2014572620391846;-1.7189964056015015;91.87240600585938
123;1666351702.5078225;46.9755349;7.1803555999999995;22.20600128173828;1666351702.6815522;-1.6127158403396606;-2.027545928955078;91.75403594970703
124;1666351702.7537775;46.9755347;7.1803557;22.518001556396484;1666351702.897246;-0.24211490154266357;-3.0353593826293945;91.79865264892578
125;1666351702.9645908;46.975534499999995;7.1803555999999995;22.836000442504883;1666351703.1148956;0.336300790309906;-3.1603283882141113;92.11743927001953
126;1666351703.1744297;46.9755344;7.1803555;23.159000396728516;1666351703.320832;1.4690542221069336;-3.0264477729797363;92.3355941772461
127;1666351703.4037905;46.9755343;7.1803554;23.483001708984375;1666351703.5355525;1.7423354387283325;-2.9312524795532227;92.18726348876953
128;1666351703.5902085;46.9755343;7.1803552999999996;23.791000366210938;1666351703.7385583;3.0633599758148193;-1.3970612287521362;92.18712615966797
129;1666351703.8185902;46.9755344;7.1803555999999995;24.10900115966797;1666351703.9483998;3.3504228591918945;0.07678990066051483;91.42759704589844
130;1666351704.005007;46.975534499999995;7.1803558999999995;24.43000030517578;1666351704.1631193;1.929046392440796;1.7096476554870605;90.88965606689453
131;1666351704.216799;46.975534599999996;7.1803563;24.755001068115234;1666351704.3583186;0.6372981071472168;1.898594856262207;91.14131927490234
132;1666351704.424688;46.9755348;7.1803566;25.08100128173828;1666351704.583777;-1.5776430368423462;2.065539598464966;91.93907165527344
133;1666351704.647218;46.9755349;7.180356799999999;25.402000427246094;1666351704.7984996;-1.8610050678253174;0.5824366807937622;91.17385864257812
134;1666351704.9585598;46.9755349;7.180357;25.72300148010254;1666351705.1039863;-2.5656588077545166;0.7328583002090454;91.41087341308594
135;1666351705.1693757;46.9755349;7.180357;26.030000686645508;1666351705.326514;-2.7097575664520264;-0.2815370261669159;91.87339782714844
136;1666351705.395811;46.9755347;7.180356799999999;26.345001220703125;1666351705.5519679;-2.4297823905944824;-2.8674604892730713;92.52571868896484
137;1666351705.606624;46.975534499999995;7.1803564;26.66400146484375;1666351705.7803526;-1.288273811340332;-3.3195085525512695;92.96851348876953
138;1666351705.8320837;46.9755343;7.1803558999999995;26.98600196838379;1666351705.984337;-0.8785665035247803;-3.734774589538574;92.57564544677734
139;1666351706.0477786;46.9755341;7.1803554;27.309001922607422;1666351706.2019858;1.1731661558151245;-2.146933078765869;92.14411163330078
140;1666351706.2595713;46.9755341;7.1803551;27.630001068115234;1666351706.4010887;1.3545395135879517;-1.4717857837677002;92.87230682373047
141;1666351706.463554;46.9755341;7.180355;27.934001922607422;1666351706.6167865;1.3661973476409912;-1.9152401685714722;92.32524108886719
142;1666351706.6753476;46.9755342;7.1803552999999996;28.248001098632812;1666351706.930082;1.73366379737854;-0.3477363884449005;91.31655883789062
143;1666351706.9818099;46.9755344;7.1803557;28.567001342773438;1666351707.1243057;3.185141086578369;-0.4680410921573639;91.6214599609375
144;1666351707.182867;46.975534599999996;7.1803563;28.89000129699707;1666351707.3380508;3.8614799976348877;2.251873016357422;91.02072143554688
145;1666351707.3936822;46.9755348;7.1803567;29.220001220703125;1666351707.5361793;2.8394110202789307;2.5619139671325684;93.20545196533203
146;1666351707.6005957;46.975535;7.1803569;29.55000114440918;1666351707.7528512;-0.6647442579269409;2.401322603225708;92.15412139892578
147;1666351707.8143406;46.975535099999995;7.180357;29.875001907348633;1666351707.9587882;-1.4486544132232666;2.32833194732666;91.24847412109375
148;1666351708.0173466;46.975535099999995;7.180356799999999;30.179000854492188;1666351708.2642746;-0.5909854769706726;1.178553581237793;91.52294158935547
149;1666351708.3179572;46.975535099999995;7.1803563;30.492000579833984;1666351708.474116;-3.4777185916900635;1.9760140180587769;91.66405487060547
150;1666351708.5375552;46.975535;7.1803555999999995;30.81300163269043;1666351708.6820035;-5.368131637573242;-1.1464658975601196;92.19981384277344
151;1666351708.744469;46.9755348;7.180354899999999;31.132001876831055;1666351708.908437;-4.88348913192749;0.017385752871632576;91.64013671875
152;1666351708.9689493;46.9755348;7.1803545;31.452001571655273;1666351709.1231585;-4.723819255828857;0.3241765797138214;91.64483642578125
153;1666351709.174884;46.9755348;7.1803544;31.7710018157959;1666351709.3378751;-4.982115745544434;-0.12121965736150742;92.18211364746094
154;1666351709.396436;46.9755347;7.1803545;32.073001861572266;1666351709.5516198;-4.121819496154785;-0.21439458429813385;92.162353515625
155;1666351709.5945642;46.975534599999996;7.1803548;32.388999938964844;1666351709.752677;-3.8944387435913086;-1.39626944065094;91.87498474121094
156;1666351709.8005028;46.975534499999995;7.180355199999999;32.7130012512207;1666351709.9713006;-2.4223265647888184;-1.7700048685073853;91.76360321044922
157;1666351710.0132687;46.9755344;7.1803554;33.03900146484375;1666351710.1752853;-1.0568013191223145;-1.9732950925827026;91.53095245361328
158;1666351710.236773;46.9755344;7.1803555999999995;33.36300277709961;1666351710.3870766;-1.1858311891555786;-1.886988878250122;92.328369140625
159;1666351710.4378288;46.9755343;7.1803555999999995;33.691001892089844;1666351710.5891118;-0.9191076755523682;-2.8673973083496094;93.13345336914062
160;1666351710.6466942;46.9755343;7.1803555;34.03000259399414;1666351710.7950463;1.1598674058914185;-2.504504919052124;92.537841796875
161;1666351710.8389664;46.9755343;7.1803555999999995;34.323001861572266;1666351711.0136702;2.2742068767547607;-2.1189894676208496;91.6747055053711
162;1666351711.0605185;46.975534499999995;7.1803558;34.64200210571289;1666351711.2235096;2.8147170543670654;-1.1974323987960815;91.04485321044922
163;1666351711.2635276;46.9755347;7.180356199999999;34.970001220703125;1666351711.4460387;3.407015323638916;0.29246819019317627;90.98633575439453
164;1666351711.4841018;46.9755348;7.180356499999999;35.302001953125;1666351711.6490471;3.315211296081543;0.6029263138771057;91.34303283691406
165;1666351711.6978488;46.975535;7.180356799999999;35.634002685546875;1666351711.8608384;2.7494261264801025;1.0495659112930298;91.73258209228516
166;1666351711.8989067;46.975535099999995;7.180357;35.961002349853516;1666351712.0736058;2.0014965534210205;1.8502174615859985;91.33267211914062
167;1666351712.1194787;46.975535199999996;7.1803569;36.26300048828125;1666351712.2854;0.4220385253429413;3.596189498901367;90.84405517578125
168;1666351712.3283436;46.975535099999995;7.180356499999999;36.5780029296875;1666351712.485481;-2.5532994270324707;2.0420570373535156;91.14622497558594
169;1666351712.5293987;46.975535;7.1803561;36.89800262451172;1666351712.7031264;-3.128419876098633;0.38196295499801636;91.57849884033203
170;1666351712.7753515;46.9755349;7.1803555999999995;37.2140007019043;1666351712.9481056;-3.8856098651885986;0.43102267384529114;92.21615600585938
171;1666351712.978359;46.9755348;7.180355199999999;37.53200149536133;1666351713.1520872;-3.3078534603118896;-1.077170968055725;92.41452026367188
172;1666351713.1950321;46.9755348;7.180354899999999;37.855003356933594;1666351713.345336;-4.741897106170654;-0.6226425766944885;92.03156280517578
173;1666351713.3951135;46.9755349;7.180354599999999;38.182003021240234;1666351713.5415144;-4.836419105529785;-1.034624457359314;94.0582504272461
174;1666351713.5776267;46.9755349;7.180354599999999;38.48400115966797;1666351713.7552578;-1.7665183544158936;-0.5390357375144958;93.3117904663086
175;1666351713.7972255;46.9755348;7.180355;38.79500198364258;1666351713.9807134;-1.0966891050338745;-1.6524019241333008;93.36094665527344
176;1666351714.027562;46.9755347;7.1803555;39.11000061035156;1666351714.208123;0.23166590929031372;-1.7472410202026367;93.72920227050781
177;1666351714.2549727;46.975534599999996;7.1803558999999995;39.432003021240234;1666351714.4384563;0.5020762085914612;-2.9242947101593018;93.54707336425781
178;1666351714.4833527;46.975534499999995;7.180356199999999;39.75600051879883;1666351714.6443923;2.498734474182129;-2.431030511856079;92.68704223632812
179;1666351714.6795309;46.9755344;7.180356499999999;40.0780029296875;1666351714.8347127;4.861849308013916;-1.3896245956420898;91.26973724365234
180;1666351714.882539;46.9755344;7.1803567;40.37700271606445;1666351715.0494351;4.5004801750183105;-0.3462289571762085;91.00140380859375
181;1666351715.090425;46.975534599999996;7.1803567;40.691001892089844;1666351715.2612257;3.361915111541748;0.014117537066340446;91.74032592773438
182;1666351715.3051455;46.9755347;7.1803566;41.012001037597656;1666351715.466187;2.6687989234924316;0.7817922234535217;91.00556182861328
183;1666351715.5052254;46.9755348;7.1803566;41.33700180053711;1666351715.655531;2.831979513168335;1.7847234010696411;91.01812744140625
184;1666351715.694571;46.9755349;7.1803566;41.66100311279297;1666351715.854175;1.3011553287506104;0.9736844897270203;90.88578033447266
185;1666351715.8980942;46.9755349;7.1803566;41.98600387573242;1666351716.0786548;-0.06974542886018753;1.5031559467315674;91.03028106689453
186;1666351716.1245267;46.9755348;7.1803566;42.285003662109375;1666351716.2816644;-1.2036209106445312;1.4176249504089355;90.91069030761719
187;1666351716.3187518;46.9755347;7.1803563;42.595001220703125;1666351716.4993124;-3.1895458698272705;-0.24661706387996674;92.57682037353516
188;1666351716.5461602;46.975534599999996;7.1803558999999995;42.91400146484375;1666351716.709152;-4.340780735015869;-1.0526330471038818;93.12156677246094
189;1666351716.7462406;46.975534499999995;7.1803554;43.2400016784668;1666351716.9102108;-3.089749336242676;-2.5740504264831543;92.08786010742188
190;1666351716.9453447;46.9755344;7.180355;43.566001892089844;1666351717.1024804;-2.1754472255706787;-2.5397825241088867;92.03392791748047
191;1666351717.1424978;46.9755343;7.1803547;43.89400100708008;1666351717.3337913;-2.351835250854492;-2.54282283782959;93.10717010498047
192;1666351717.3767354;46.9755343;7.1803545;44.22500228881836;1666351717.529969;-0.011616016738116741;-1.3341606855392456;92.35629272460938
193;1666351717.5670578;46.9755344;7.180354599999999;44.527000427246094;1666351717.7280986;1.4741753339767456;-0.63890540599823;90.98847961425781
194;1666351717.8686402;46.975534499999995;7.180355;44.8390007019043;1666351718.0257769;3.875267744064331;0.6321263909339905;92.7926025390625
195;1666351718.0657945;46.9755347;7.1803555999999995;45.16100311279297;1666351718.2287867;2.6018173694610596;2.6714189052581787;92.84355163574219
196;1666351718.2736833;46.9755349;7.180356;45.48400115966797;1666351718.459121;1.3056553602218628;0.8992462158203125;91.56591796875
197;1666351718.4991367;46.975535;7.1803563;45.80500030517578;1666351718.6689606;1.8023182153701782;1.694269061088562;93.30094909667969
198;1666351718.7070272;46.975535;7.1803566;46.125003814697266;1666351718.9549313;-1.3961355686187744;1.6612036228179932;91.451416015625
199;1666351718.9959233;46.975535;7.1803566;46.422000885009766;1666351719.1472025;-2.1390507221221924;1.146391749382019;92.25042724609375
200;1666351719.1911216;46.9755349;7.1803563;46.73600387573242;1666351719.3677783;-4.525344371795654;-0.22673286497592926;90.99129486083984
201;1666351719.410724;46.9755347;7.1803558999999995;47.05800247192383;1666351719.5727391;-3.1860415935516357;-1.1204782724380493;90.62516784667969
202;1666351719.6186094;46.975534499999995;7.1803555999999995;47.38100051879883;1666351719.7767231;-2.2700278759002686;-1.0817642211914062;90.92340850830078
203;1666351719.8157632;46.9755344;7.180355199999999;47.70100402832031;1666351719.9992511;-3.234588384628296;0.23252171277999878;90.32682800292969
204;1666351720.03927;46.9755343;7.1803548;48.02100372314453;1666351720.1846912;-1.4201871156692505;0.47037556767463684;89.67314910888672
205;1666351720.2393486;46.9755343;7.180354599999999;48.34100341796875;1666351720.3994124;-0.04486537724733353;1.4500547647476196;88.8355484008789
206;1666351720.4404042;46.9755343;7.180354599999999;48.63300323486328;1666351720.6024215;1.0686079263687134;1.0277435779571533;89.46974182128906
207;1666351720.6473162;46.9755343;7.180355;48.94400405883789;1666351720.8122582;3.9742093086242676;0.5753029584884644;89.11505889892578
208;1666351720.8493485;46.9755343;7.1803555999999995;49.27000045776367;1666351721.0094116;3.8249313831329346;-1.0813124179840088;88.89788818359375
209;1666351721.045525;46.9755342;7.180356;49.59800338745117;1666351721.206563;3.2382261753082275;-1.3978676795959473;89.48322296142578
210;1666351721.2446268;46.9755342;7.1803564;49.928001403808594;1666351721.4037156;2.5918383598327637;-2.940730333328247;89.42230987548828
211;1666351721.4495885;46.9755342;7.1803566;50.25800323486328;1666351721.6223412;-0.1665850281715393;-2.383194923400879;90.37319946289062
212;1666351721.6604035;46.9755343;7.1803566;50.560001373291016;1666351721.8175406;-1.9937480688095093;-1.1393688917160034;89.22777557373047
213;1666351721.858534;46.975534499999995;7.180356199999999;50.87800216674805;1666351722.0176215;-3.4164159297943115;-0.8634152412414551;89.23270416259766
214;1666351722.0556836;46.975534599999996;7.1803557;51.20500183105469;1666351722.2294126;-4.807807445526123;0.15391340851783752;88.02706146240234
215;1666351722.2674754;46.9755347;7.180355199999999;51.53200149536133;1666351722.4285197;-4.070644378662109;2.2047414779663086;87.61693572998047
216;1666351722.4704843;46.9755348;7.1803548;51.86000061035156;1666351722.633484;-2.8994803428649902;1.7471407651901245;89.31132507324219
217;1666351722.6725166;46.9755348;7.180354599999999;52.18800354003906;1666351722.8355103;-4.383573532104492;1.601257562637329;88.77473449707031
218;1666351722.8745482;46.9755347;7.1803545;52.4890022277832;1666351723.0531569;-1.1507623195648193;2.322617769241333;89.05692291259766
219;1666351723.0931737;46.975534599999996;7.180355;52.803001403808594;1666351723.2551918;1.1469014883041382;0.7651427984237671;88.92141723632812
220;1666351723.295205;46.975534599999996;7.1803555;53.12300109863281;1666351723.455271;3.4078118801116943;2.11803936958313;88.2065200805664
221;1666351723.49431;46.9755347;7.1803561;53.445003509521484;1666351723.661206;4.4070611000061035;1.314794659614563;89.26872253417969
222;1666351723.705127;46.9755347;7.180356499999999;53.77400207519531;1666351723.9608383;4.629417419433594;-1.961207389831543;89.55348205566406
223;1666351724.0086617;46.9755347;7.1803567;54.099002838134766;1666351724.166774;3.539294958114624;-1.5887346267700195;89.08650970458984
224;1666351724.2126458;46.9755347;7.1803567;54.42000198364258;1666351724.3736875;1.7796227931976318;-0.6445269584655762;88.78192138671875
225;1666351724.4117513;46.9755347;7.1803566;54.71600341796875;1666351724.5747464;0.8398749828338623;-1.0949044227600098;89.33991241455078
226;1666351724.6137822;46.975534599999996;7.1803561;55.031002044677734;1666351724.767994;-2.0638201236724854;-2.297163486480713;89.82655334472656
227;1666351724.8109357;46.9755344;7.1803555;55.355003356933594;1666351724.9807599;-4.416045665740967;-2.5560505390167236;91.54902648925781
228;1666351725.0139418;46.9755343;7.180355;55.68400192260742;1666351725.1769364;-4.533169269561768;-1.613344669342041;91.1362533569336
229;1666351725.2208543;46.9755342;7.1803547;56.01100158691406;1666351725.3818984;-5.428654670715332;-1.473120093345642;91.39839935302734
230;1666351725.423863;46.9755342;7.1803545;56.33400344848633;1666351725.5927122;-4.528531551361084;-1.7673532962799072;90.0676040649414
231;1666351725.6385827;46.9755342;7.1803547;56.62900161743164;1666351725.8005989;-3.5564725399017334;0.7059587836265564;88.97266387939453
232;1666351725.8445194;46.9755344;7.1803551;56.93700408935547;1666351726.0133696;-2.618222951889038;1.9898711442947388;88.06558227539062
233;1666351726.049481;46.975534599999996;7.1803554;57.256004333496094;1666351726.2066185;-2.0244808197021484;1.2344341278076172;88.80744171142578
234;1666351726.2417529;46.9755348;7.1803557;57.58200454711914;1666351726.4076726;-1.2751741409301758;1.6775376796722412;89.50468444824219
235;1666351726.4535437;46.9755349;7.1803558999999995;57.91100311279297;1666351726.6077533;1.2620357275009155;2.290977954864502;91.92762756347656
236;1666351726.6487443;46.975535;7.1803558;58.208003997802734;1666351726.8136883;3.269441843032837;-0.2637692391872406;86.35054779052734
237;1666351726.8537061;46.975535;7.1803557;58.43400192260742;1666351727.017675;17.679704666137695;-23.9630126953125;79.27811431884766
238;1666351727.0586655;46.9755354;7.180355199999999;58.660003662109375;1666351727.2245848;30.4023380279541;-40.900978088378906;69.96898651123047
239;1666351727.2616742;46.9755371;7.1803528;58.85700225830078;1666351727.4285684;26.764205932617188;-52.21619415283203;59.34524917602539
240;1666351727.4676096;46.9755405;7.1803476999999996;58.971004486083984;1666351727.633529;14.204171180725098;-38.475975036621094;49.968955993652344
241;1666351727.6813555;46.975545399999994;7.1803398;59.00800323486328;1666351727.8550851;1.7759729623794556;-33.73190689086914;38.35454559326172
242;1666351727.897049;46.9755512;7.180329599999999;59.03700256347656;1666351728.051258;-11.867170333862305;-36.023921966552734;22.803348541259766
243;1666351728.0902994;46.9755578;7.180317499999999;59.092002868652344;1666351728.2571955;-28.0626220703125;-37.915164947509766;5.310779094696045
244;1666351728.300139;46.9755652;7.1803037;59.14600372314453;1666351728.4719138;-36.203651428222656;-29.985523223876953;-4.498836994171143
245;1666351728.529498;46.9755732;7.1802877;59.198001861572266;1666351728.6856582;-39.91419219970703;-21.32356071472168;-4.993200778961182
246;1666351728.7261887;46.9755822;7.1802703;59.259002685546875;1666351728.8862512;-40.62123489379883;-25.411788940429688;14.565061569213867
247;1666351728.9272435;46.9755925;7.180252899999999;59.333003997802734;1666351729.0834055;-40.50839614868164;-37.3034782409668;32.771793365478516
248;1666351729.1175642;46.9756046;7.180236;59.39500427246094;1666351729.2873886;-30.699615478515625;-50.31350326538086;50.36439895629883
249;1666351729.331307;46.9756188;7.1802193;59.435001373291016;1666351729.4855163;-18.062828063964844;-52.0284538269043;60.74376678466797
250;1666351729.534315;46.9756352;7.180203499999999;59.42500305175781;1666351729.6934028;-7.108589172363281;-49.595550537109375;63.28155517578125
251;1666351729.7392757;46.9756534;7.1801876;59.435001373291016;1666351729.9091017;2.173708200454712;-51.84794616699219;62.64549255371094
252;1666351729.948141;46.975672599999996;7.1801713;59.46200180053711;1666351730.1140618;-1.0550745725631714;-54.898067474365234;44.79125213623047
253;1666351730.1618843;46.975692599999995;7.1801539;59.46400451660156;1666351730.3209782;-14.617447853088379;-50.280879974365234;13.993781089782715
254;1666351730.363918;46.9757124;7.1801346;59.43300247192383;1666351730.5288594;-16.7756404876709;-40.95296859741211;-5.492398262023926
255;1666351730.5659497;46.9757311;7.1801134;59.38600158691406;1666351730.733822;-20.066133499145508;-32.68711853027344;-14.273693084716797
256;1666351730.7738395;46.975747899999995;7.180091099999999;59.33500289916992;1666351730.9387815;-30.313692092895508;-21.20203399658203;-22.33667755126953
257;1666351730.9768443;46.9757634;7.1800679999999995;59.32200241088867;1666351731.152525;-41.73348617553711;-9.972138404846191;-28.44417953491211
258;1666351731.1944938;46.9757785;7.1800447;59.353004455566406;1666351731.3731046;-51.27360534667969;-0.6810155510902405;-37.757999420166016
259;1666351731.4189727;46.9757938;7.180021;59.393001556396484;1666351731.5780609;-57.74085998535156;-0.16815102100372314;-35.40332794189453
260;1666351731.6252625;46.9758098;7.1799971;59.419002532958984;1666351731.7980146;-58.5369873046875;10.745685577392578;-47.88219451904297
261;1666351731.8399823;46.9758271;7.1799726999999995;59.40800094604492;1666351732.0254228;-52.647098541259766;7.178826332092285;-41.073951721191406
262;1666351732.071293;46.975845299999996;7.1799481;59.36600112915039;1666351732.2176926;-46.4166259765625;4.457007884979248;-27.550521850585938
263;1666351732.266495;46.975864099999995;7.1799243;59.29300308227539;1666351732.4177759;-42.01637268066406;4.904434680938721;-20.725229263305664
264;1666351732.4577904;46.975883499999995;7.1799016;59.21800231933594;1666351732.6188314;-40.255096435546875;1.236555576324463;-14.911956787109375
265;1666351732.6578696;46.9759033;7.179880499999999;59.15300369262695;1666351732.820863;-41.368927001953125;-10.223637580871582;-17.860509872436523
266;1666351732.8667347;46.975923099999996;7.1798606;59.118003845214844;1666351733.024848;-44.83872604370117;-13.890695571899414;-24.76401138305664
267;1666351733.0580301;46.9759429;7.1798405999999995;59.1150016784668;1666351733.2298057;-48.7884635925293;-13.03046703338623;-33.58054733276367
268;1666351733.2717764;46.9759624;7.1798199;59.130001068115234;1666351733.440622;-49.80401611328125;-13.669477462768555;-34.262306213378906
269;1666351733.4738064;46.975981499999996;7.179798;59.130001068115234;1666351733.7424207;-48.022403717041016;-1.1044723987579346;-41.07981872558594
270;1666351733.7834113;46.9760004;7.1797751;59.12900161743164;1666351733.9561636;-47.723838806152344;0.1968555748462677;-41.40135192871094
271;1666351733.9981349;46.9760194;7.1797517;59.1400032043457;1666351734.1660068;-48.918121337890625;-1.0118039846420288;-39.38215637207031
272;1666351734.210899;46.9760384;7.179728;59.156002044677734;1666351734.3797488;-50.05231857299805;3.119048595428467;-43.572139739990234
273;1666351734.435385;46.9760576;7.179704;59.18000411987305;1666351734.6032524;-50.5455207824707;-0.19445118308067322;-38.68288803100586
274;1666351734.6481478;46.976077;7.179679699999999;59.19600296020508;1666351734.8121188;-49.86845779418945;1.9130454063415527;-41.61810302734375
275;1666351734.8501797;46.9760965;7.1796554;59.198001861572266;1666351735.0151286;-48.55931091308594;1.0146931409835815;-41.3179931640625
276;1666351735.056117;46.9761162;7.179630899999999;59.198001861572266;1666351735.2171564;-47.56688690185547;-0.7096775770187378;-38.465858459472656
277;1666351735.2561984;46.976136;7.179606199999999;59.20100402832031;1666351735.4309013;-47.51280975341797;2.02290415763855;-43.14574432373047
278;1666351735.4718928;46.9761558;7.179581499999999;59.20600128173828;1666351735.6407433;-48.30727767944336;-0.9288457036018372;-38.71099090576172
279;1666351735.683685;46.9761756;7.1795567;59.20900344848633;1666351735.8603427;-48.899261474609375;1.0615148544311523;-41.23249053955078
280;1666351735.8945014;46.976195399999995;7.1795319;59.21000289916992;1666351736.0653038;-48.854896545410156;0.9888262748718262;-41.795169830322266
281;1666351736.1082451;46.9762153;7.179507;59.21000289916992;1666351736.280999;-48.51213836669922;-1.281506896018982;-38.01007080078125
282;1666351736.3239443;46.9762351;7.1794822;59.204002380371094;1666351736.497673;-48.02103805541992;1.9914019107818604;-43.0829963684082
283;1666351736.5435417;46.976254999999995;7.1794572;59.19700241088867;1666351736.709465;-47.762733459472656;-0.9702053666114807;-38.94352722167969
284;1666351736.7514317;46.9762749;7.1794322;59.18800354003906;1666351736.9114952;-47.6603889465332;0.7585305571556091;-40.762786865234375
285;1666351737.0539918;46.9762948;7.1794072;59.177001953125;1666351737.2345505;-47.645118713378906;0.15174469351768494;-41.954036712646484
286;1666351737.2862797;46.976314599999995;7.1793821;59.1670036315918;1666351737.4443934;-47.829532623291016;-0.9533399343490601;-38.35478210449219
287;1666351737.483431;46.9763345;7.1793569999999995;59.150001525878906;1666351737.642519;-47.695926666259766;2.426091432571411;-43.23466873168945
288;1666351737.7088869;46.976354199999996;7.1793321;59.138004302978516;1666351737.893353;-47.674015045166016;0.46528810262680054;-39.902374267578125
289;1666351737.9372725;46.9763739;7.179307199999999;59.12600326538086;1666351738.1227117;-43.569435119628906;1.5235005617141724;-40.05360412597656
290;1666351738.174442;46.976393699999996;7.1792824;59.12200164794922;1666351738.344263;-29.960695266723633;2.239849328994751;-43.552574157714844
291;1666351738.3764699;46.976413;7.1792582;59.131004333496094;1666351738.5501976;-11.360774040222168;0.18589018285274506;-39.32503128051758
292;1666351738.5882614;46.976431299999994;7.179235299999999;59.13900375366211;1666351738.8517826;5.757059097290039;-1.4954135417938232;-40.32762145996094
293;1666351738.8956997;46.976447799999995;7.1792146;59.15200424194336;1666351739.0733316;21.097614288330078;-1.660375714302063;-36.13496398925781
294;1666351739.1162758;46.976461699999994;7.1791971;59.125003814697266;1666351739.269507;20.55363655090332;2.36934757232666;-35.583560943603516
295;1666351739.3114748;46.9764732;7.1791823;58.99500274658203;1666351739.4861784;12.956136703491211;4.435868263244629;-37.94026184082031
296;1666351739.5281456;46.976482399999995;7.17917;58.790000915527344;1666351739.7008972;7.7889790534973145;1.2713367938995361;-41.16913604736328
297;1666351739.7379863;46.976489799999996;7.179159899999999;58.5420036315918;1666351740.0132167;6.61033296585083;5.051669597625732;-36.774532318115234
298;1666351740.0473757;46.9764957;7.1791518;58.27300262451172;1666351740.2064621;8.528048515319824;0.313326358795166;-36.706321716308594
299;1666351740.2494066;46.9765004;7.1791455;58.006004333496094;1666351740.428991;8.844133377075195;-0.28082218766212463;-35.98918533325195
300;1666351740.4729123;46.976504299999995;7.1791408;57.74500274658203;1666351740.6310213;8.392494201660156;2.2391040325164795;-35.30546951293945
301;1666351740.6690862;46.976507299999994;7.179137099999999;57.50800323486328;1666351740.834032;6.056331634521484;4.025674819946289;-35.41256332397461
302;1666351740.8711164;46.976509899999996;7.1791342;57.30400085449219;1666351741.0292296;4.046599388122559;2.9896469116210938;-34.755409240722656
303;1666351741.0790026;46.976512;7.1791319;57.137001037597656;1666351741.2332108;0.054520707577466965;4.521842002868652;-34.0360221862793
304;1666351741.273226;46.9765139;7.1791301999999995;57.013004302978516;1666351741.4440258;-2.8837666511535645;4.023500442504883;-33.78666687011719
305;1666351741.4820912;46.9765156;7.1791288;56.92900085449219;1666351741.6363006;-5.84743070602417;1.5539170503616333;-33.7379035949707
306;1666351741.6850975;46.976517199999996;7.179127599999999;56.8910026550293;1666351741.8519926;-6.434711456298828;1.1726900339126587;-33.67826843261719
307;1666351741.8900585;46.9765187;7.1791263;56.9010009765625;1666351742.0442634;-6.510180950164795;1.9104889631271362;-34.34909439086914
308;1666351742.0833035;46.976520199999996;7.1791253;56.95500183105469;1666351742.2697208;-6.525383949279785;1.274981141090393;-34.17384719848633
309;1666351742.3087604;46.9765215;7.1791244;57.05500411987305;1666351742.477609;-5.233449459075928;1.0669910907745361;-33.57219314575195
310;1666351742.5146997;46.976522599999996;7.179123499999999;57.19600296020508;1666351742.6698837;-1.3172253370285034;1.0436204671859741;-33.50105285644531
311;1666351742.7099009;46.9765235;7.1791228;57.37300109863281;1666351742.891436;4.651416301727295;1.0824024677276611;-33.80074691772461
312;1666351742.9421859;46.9765239;7.179122199999999;57.5880012512207;1666351743.0944433;9.735297203063965;2.270286798477173;-34.75186538696289
313;1666351743.1393373;46.976523799999995;7.1791221;57.827003479003906;1666351743.3072104;5.962137699127197;-4.316402435302734;-32.56037902832031
314;1666351743.3452718;46.976523;7.1791225;58.047000885009766;1666351743.5014331;7.076546669006348;1.9183554649353027;-32.70359802246094
315;1666351743.5424242;46.9765221;7.1791231;58.23100280761719;1666351743.7171316;-7.766033172607422;0.31882011890411377;-31.83641815185547
316;1666351743.7600727;46.9765211;7.179123799999999;58.38600158691406;1666351743.9133022;-5.501872539520264;-2.536837577819824;-31.067623138427734
317;1666351743.9562464;46.9765206;7.1791244;58.52000427246094;1666351744.1320045;-1.7483404874801636;-8.218904495239258;-30.800933837890625
318;1666351744.1751115;46.976520199999996;7.1791247;58.62700271606445;1666351744.322337;-19.730188369750977;-6.820395469665527;-38.66604995727539
319;1666351744.3623507;46.976520099999995;7.1791241999999995;58.71900177001953;1666351744.5311985;-34.89499282836914;2.85343861579895;-48.69125747680664
320;1666351744.571213;46.9765209;7.179122;58.78900146484375;1666351744.7342074;-46.10493469238281;0.48535674810409546;-51.33793640136719
321;1666351744.784955;46.976523199999995;7.1791176;58.82500457763672;1666351744.9489286;-41.40038299560547;-2.7662909030914307;-52.483428955078125
322;1666351744.9918666;46.976527;7.1791104;58.80400466918945;1666351745.1763318;-26.14929962158203;-1.8570090532302856;-54.01411437988281
323;1666351745.2202508;46.9765319;7.1791012;58.75800323486328;1666351745.3793373;-20.532419204711914;-2.0777273178100586;-55.11127853393555
324;1666351745.4252105;46.976537199999996;7.179090899999999;58.73800277709961;1666351745.625288;-24.061317443847656;0.6642720103263855;-54.620174407958984
325;1666351745.6623766;46.9765429;7.1790799;58.759002685546875;1666351745.8322005;-30.996564865112305;0.5517335534095764;-51.59136962890625
326;1666351745.8741689;46.9765491;7.179068099999999;58.80800247192383;1666351746.0537503;-36.73487091064453;1.0204006433486938;-50.444053649902344
327;1666351746.0918136;46.9765557;7.1790553;58.858001708984375;1666351746.2528567;-40.18054962158203;-2.2205111980438232;-45.65927505493164
328;1666351746.295799;46.9765629;7.1790411999999995;58.906002044677734;1666351746.4480538;-40.80791091918945;-0.14527836441993713;-46.30363082885742
329;1666351746.4880686;46.9765709;7.1790259;58.93400192260742;1666351746.6539893;-36.732444763183594;-0.8847120404243469;-43.834938049316406
330;1666351746.6949792;46.9765796;7.179009499999999;58.952003479003906;1666351746.862852;-34.42300796508789;-1.0985996723175049;-41.840187072753906
331;1666351746.8999388;46.976588799999995;7.1789926;58.98800277709961;1666351747.066837;-38.563629150390625;-1.605309009552002;-41.69746017456055
332;1666351747.1107545;46.976598599999996;7.1789751;59.05600357055664;1666351747.2825315;-41.92584228515625;-4.087847709655762;-40.25672149658203
333;1666351747.322545;46.9766088;7.1789571;59.12700271606445;1666351747.486513;-43.440216064453125;0.19235838949680328;-42.065731048583984
334;1666351747.5323877;46.9766195;7.1789385;59.189002990722656;1666351747.6904979;-39.204593658447266;-4.81592321395874;-46.943138122558594
335;1666351747.726609;46.976630799999995;7.1789193;59.23800277709961;1666351747.9081426;-40.83378219604492;6.815229892730713;-49.335174560546875
336;1666351747.9471831;46.976642399999996;7.1788997;59.28400421142578;1666351748.131648;-42.780616760253906;2.9399611949920654;-46.28010177612305
337;1666351748.1697118;46.9766544;7.1788798;59.316001892089844;1666351748.3531985;-42.84027099609375;1.256332278251648;-51.491844177246094
338;1666351748.3980925;46.9766669;7.1788596;59.33900451660156;1666351748.5649884;-42.44744873046875;-1.1374882459640503;-48.69881057739258
339;1666351748.5981722;46.9766797;7.178839099999999;59.34700393676758;1666351748.7435966;-42.71818542480469;-1.361225962638855;-45.679988861083984
340;1666351748.7933726;46.976692899999996;7.1788183;59.35200119018555;1666351748.9534366;-43.63261413574219;0.06472258269786835;-47.025550842285156
341;1666351749.0051625;46.9767063;7.1787972;59.353004455566406;1666351749.1603463;-43.61587905883789;-0.43990519642829895;-48.06632995605469
342;1666351749.2003613;46.9767199;7.1787754999999995;59.35100173950195;1666351749.375065;-43.969539642333984;-5.165999889373779;-45.389835357666016
343;1666351749.41801;46.976733599999996;7.1787532999999994;59.34800338745117;1666351749.5975928;-44.50699996948242;-5.95087194442749;-44.93010711669922
344;1666351749.6444392;46.9767474;7.1787306;59.34700393676758;1666351749.823048;-44.597835540771484;-3.030252456665039;-48.65045166015625
345;1666351749.8659906;46.9767612;7.1787076;59.333003997802734;1666351750.0289838;-44.13947677612305;-0.5814662575721741;-49.458396911621094
346;1666351750.0660706;46.9767752;7.1786841;59.31200408935547;1666351750.2251582;-39.54860305786133;2.6910295486450195;-49.941001892089844
347;1666351750.2632208;46.9767892;7.1786604;59.2910041809082;1666351750.4242616;-33.38724899291992;1.5072675943374634;-50.26887512207031
348;1666351750.4603732;46.9768031;7.1786368;59.268001556396484;1666351750.6204388;-27.425626754760742;0.48719993233680725;-49.186832427978516
349;1666351750.6604517;46.9768165;7.1786137;59.2400016784668;1666351750.8273478;-19.9376163482666;-5.1891584396362305;-47.91795349121094
350;1666351750.8712685;46.9768293;7.1785917999999995;59.20900344848633;1666351751.0469456;-12.446063041687012;-0.41897866129875183;-50.232784271240234
351;1666351751.0850122;46.976841199999996;7.1785711999999995;59.185001373291016;1666351751.2665484;-3.319767475128174;-3.4285173416137695;-42.85629653930664
352;1666351751.3075383;46.976852099999995;7.178552799999999;59.15900421142578;1666351751.4636974;4.12714958190918;1.5053678750991821;-46.37547302246094
353;1666351751.5281117;46.9768616;7.1785364;59.12700271606445;1666351751.6803684;6.57224178314209;0.9512072801589966;-49.700565338134766
354;1666351751.7301447;46.9768695;7.1785225;59.08700180053711;1666351751.88435;10.437481880187988;0.15836647152900696;-53.80669403076172
355;1666351751.9263196;46.976875899999996;7.1785109;59.03700256347656;1666351752.0854075;11.311541557312012;1.2356325387954712;-51.89120101928711
356;1666351752.129327;46.9768809;7.1785014;58.99200439453125;1666351752.293295;6.293517112731934;2.86715030670166;-49.25064468383789
357;1666351752.3430746;46.9768847;7.1784935999999995;58.974002838134766;1666351752.5148447;1.080303430557251;5.3383989334106445;-49.373897552490234
358;1666351752.5499816;46.976887999999995;7.178487199999999;58.98400115966797;1666351752.7090697;-2.0285117626190186;5.930864334106445;-50.10987091064453
359;1666351752.7529893;46.976891099999996;7.1784816;59.006004333496094;1666351752.9237876;0.782110333442688;3.0483264923095703;-46.40779113769531
360;1666351752.9667332;46.976893999999994;7.1784766;59.02700424194336;1666351753.1385052;-0.028906213119626045;1.9745713472366333;-44.339691162109375
361;1666351753.1824262;46.9768967;7.1784721;59.04500198364258;1666351753.3356702;1.037663459777832;0.7195219993591309;-44.81039810180664
362;1666351753.3766627;46.9768992;7.178468199999999;59.06200408935547;1666351753.5503893;1.9469363689422607;-1.3154418468475342;-44.54822540283203
363;1666351753.5933304;46.976901399999996;7.1784647999999995;59.0780029296875;1666351753.7641325;-0.10189016908407211;-0.595335841178894;-44.51435089111328
364;1666351753.8041458;46.976903199999995;7.178461899999999;59.09800338745117;1666351753.966164;0.2889080047607422;0.8936241269111633;-43.9522590637207
365;1666351754.0052016;46.9769047;7.1784596;59.10400390625;1666351754.1779537;-3.796400308609009;-0.6765297055244446;-41.97431945800781
366;1666351754.2189453;46.9769059;7.1784577999999994;59.11300277709961;1666351754.365351;-3.6945250034332275;0.95512455701828;-41.70368957519531
367;1666351754.416096;46.9769067;7.1784563;59.12400436401367;1666351754.5683522;-1.1756103038787842;3.3685693740844727;-42.84314727783203
368;1666351754.608367;46.976907399999995;7.1784551;59.13300323486328;1666351754.78247;-6.633073806762695;3.561326503753662;-40.854034423828125
369;1666351754.82639;46.9769079;7.1784544;59.14400100708008;1666351754.9932868;-5.8030195236206055;10.586615562438965;-32.472896575927734
370;1666351755.0323262;46.9769085;7.1784541;59.19600296020508;1666351755.1972687;-7.213362216949463;9.03321361541748;-23.167076110839844
371;1666351755.239236;46.9769095;7.178454299999999;59.302001953125;1666351755.3953953;-9.445216178894043;10.401789665222168;-12.12326717376709
372;1666351755.4305315;46.9769108;7.178455;59.470001220703125;1666351755.611094;-13.845736503601074;10.751940727233887;-2.6893932819366455
373;1666351755.6501303;46.9769125;7.1784563;59.69400405883789;1666351755.816051;-24.519126892089844;23.254932403564453;7.557679653167725
374;1666351755.860948;46.9769146;7.1784589;59.97600173950195;1666351756.033698;-36.07228469848633;18.581472396850586;19.91631317138672
375;1666351756.0824974;46.9769175;7.1784637;60.28000259399414;1666351756.2435367;-39.18108367919922;14.824811935424805;26.605480194091797
376;1666351756.3001442;46.9769213;7.1784706;60.573001861572266;1666351756.4582565;-39.90366744995117;8.25069522857666;38.005191802978516
377;1666351756.4972959;46.9769261;7.1784795;60.84400177001953;1666351756.672975;-38.790679931640625;2.0289242267608643;48.065101623535156
378;1666351756.7129908;46.976932;7.1784899;61.0880012512207;1666351756.8759818;-39.55672836303711;-2.756542682647705;49.71748352050781
379;1666351756.9179502;46.9769387;7.178502099999999;61.33900451660156;1666351757.085823;-40.04814147949219;-4.029589653015137;47.757259368896484
380;1666351757.1307175;46.976946299999994;7.178515399999999;61.60000228881836;1666351757.311276;-38.01490020751953;-2.065617799758911;44.10502624511719
381;1666351757.3571475;46.976954799999994;7.1785296;61.87300109863281;1666351757.5367305;-34.95909118652344;1.2852851152420044;41.417274475097656
382;1666351757.574795;46.9769639;7.1785444;62.14900207519531;1666351757.722171;-29.09271812438965;-2.468636989593506;44.483394622802734
383;1666351757.7651196;46.9769734;7.1785593;62.419002532958984;1666351757.914441;-30.802324295043945;-3.472759962081909;46.99748611450195
384;1666351757.953481;46.976983399999995;7.178573699999999;62.676002502441406;1666351758.13404;-30.59213638305664;0.03122757002711296;42.519866943359375
385;1666351758.1808884;46.9769935;7.1785885;62.93300247192383;1666351758.3575435;-29.868122100830078;3.469869613647461;34.62149429321289
386;1666351758.397561;46.9770037;7.1786034;63.19000244140625;1666351758.5634804;-29.20651626586914;5.7102251052856445;30.72040367126465
387;1666351758.6171582;46.977014;7.1786185;63.44200134277344;1666351758.781128;-29.258575439453125;6.196706771850586;30.251855850219727
388;1666351758.8250468;46.9770243;7.1786335;63.69400405883789;1666351758.9792552;-29.180034637451172;5.998748302459717;31.763134002685547
389;1666351759.0231755;46.977034599999996;7.1786486;63.954002380371094;1666351759.2144678;-29.02153968811035;4.726784706115723;34.169517517089844
390;1666351759.254486;46.977044899999996;7.1786638;64.21500396728516;1666351759.4213831;-29.613615036010742;2.490708589553833;41.17033767700195
391;1666351759.4584682;46.9770554;7.1786786;64.46500396728516;1666351759.6370752;-30.028696060180664;2.7075700759887695;42.95718765258789
392;1666351759.6839223;46.9770658;7.178693699999999;64.72100067138672;1666351759.836178;-30.128311157226562;1.7791779041290283;43.99833679199219
393;1666351759.8800998;46.9770761;7.178708899999999;64.97700500488281;1666351760.0274744;-30.293983459472656;-0.7594534158706665;48.385005950927734
394;1666351760.0792007;46.9770864;7.178724099999999;65.23900604248047;1666351760.2460973;-30.173847198486328;-0.3443896472454071;46.96158981323242
395;1666351760.2861133;46.9770967;7.1787393999999995;65.5;1666351760.4452019;-29.918176651000977;1.2015000581741333;44.60224914550781
396;1666351760.4852145;46.977107;7.1787547;65.76300048828125;1666351760.6618712;-29.448150634765625;-2.1171822547912598;51.74121856689453
397;1666351760.7009096;46.9771175;7.178769699999999;66.01600646972656;1666351760.8668303;-28.465208053588867;-3.283478260040283;54.56618118286133
398;1666351760.930272;46.977128;7.1787848;66.2770004272461;1666351761.0844765;-29.390649795532227;-1.6324058771133423;49.889434814453125
399;1666351761.1303477;46.9771384;7.178800099999999;66.53900146484375;1666351761.2982218;-29.557710647583008;0.35497140884399414;45.892940521240234
400;1666351761.3372617;46.977148799999995;7.178815299999999;66.80400085449219;1666351761.502203;-29.28194236755371;3.3248634338378906;38.76163101196289
401;1666351761.5392919;46.9771593;7.1788305999999995;67.06400299072266;1666351761.708137;-29.432546615600586;4.558112621307373;37.711143493652344
402;1666351761.8555133;46.9771698;7.1788457999999995;67.32100677490234;1666351762.025336;-24.468156814575195;2.3169662952423096;40.923309326171875
403;1666351762.069259;46.977180399999995;7.1788606999999995;67.5510025024414;1666351762.2410326;-16.255901336669922;0.7396119832992554;49.10407257080078
404;1666351762.2849507;46.9771907;7.1788753;67.76500701904297;1666351762.4537983;-11.252789497375488;2.2077090740203857;40.071048736572266
405;1666351762.523095;46.9772003;7.1788893;67.95700073242188;1666351762.6782787;-3.205040454864502;1.7758926153182983;47.648223876953125
406;1666351762.719272;46.977209099999996;7.178902099999999;68.12300109863281;1666351762.8969004;-3.238861322402954;-1.7207348346710205;36.15742111206055
407;1666351762.936916;46.977216999999996;7.1789136;68.26900482177734;1666351763.0969808;3.773360013961792;1.7482508420944214;39.33504867553711
408;1666351763.15359;46.9772238;7.1789236999999995;68.38300323486328;1666351763.3048687;2.8614041805267334;-1.7583048343658447;40.79790115356445
409;1666351763.351715;46.9772295;7.178932;68.48400115966797;1666351763.512756;-2.69169020652771;0.32989880442619324;40.799320220947266
410;1666351763.5625315;46.9772342;7.1789385;68.57300567626953;1666351763.7186904;-1.3090914487838745;1.1862941980361938;40.28626251220703
411;1666351763.764561;46.9772384;7.1789442;68.65400695800781;1666351763.9275532;-0.02815139666199684;0.9276747703552246;40.27351760864258
412;1666351763.968545;46.9772421;7.1789492;68.7229995727539;1666351764.1442263;1.4290302991867065;1.0924025774002075;40.4492301940918
413;1666351764.1871672;46.9772454;7.1789536;68.7820053100586;1666351764.3599207;3.9992854595184326;1.6341155767440796;39.867610931396484
414;1666351764.3989587;46.9772482;7.1789572999999995;68.83800506591797;1666351764.5658655;6.079698085784912;1.9837102890014648;39.959014892578125
415;1666351764.6039279;46.9772505;7.178960399999999;68.88700103759766;1666351764.7630162;5.720119476318359;1.5800065994262695;40.37042236328125
416;1666351764.8166962;46.9772524;7.1789628;68.92400360107422;1666351764.9787118;5.365169048309326;1.6922507286071777;40.474735260009766
417;1666351765.0197017;46.9772539;7.178964799999999;68.95800018310547;1666351765.1875749;2.1365702152252197;0.8907874822616577;40.8983154296875
418;1666351765.2295437;46.977255;7.1789663;68.99300384521484;1666351765.388629;3.5626614093780518;1.606406807899475;40.886966705322266
419;1666351765.4374294;46.977256;7.1789676;69.02400207519531;1666351765.5965166;0.8668113946914673;0.7661567330360413;41.04772186279297
