;pos_time;latitude;longitude;altitude;alt_time;pitch;roll;yaw
0;1666336466.2634616;46.9755343;7.1803555999999995;-0.10600000619888306;1666336466.4118118;-0.4096258282661438;0.08741976320743561;90.476806640625
1;1666336466.4742765;46.9755343;7.1803555999999995;-0.1080000028014183;1666336466.6343443;-0.21846985816955566;-0.05999571084976196;90.47261047363281
2;1666336466.6860695;46.9755343;7.1803557;-0.10900000482797623;1666336466.9417818;-0.4058656394481659;-0.03200876712799072;90.38618469238281
3;1666336467.0022948;46.9755343;7.1803557;-0.10900000482797623;1666336467.1408887;-0.412813663482666;-0.05212206020951271;90.47364044189453
4;1666336467.2043273;46.9755343;7.1803557;-0.11500000208616257;1666336467.3438926;-0.4176959991455078;0.011577637866139412;90.41542053222656
5;1666336467.4005039;46.9755343;7.1803557;-0.125;1666336467.535189;-0.4070921242237091;-0.012670253403484821;90.54049682617188
6;1666336467.612295;46.9755343;7.1803558;-0.1340000033378601;1666336467.7811437;-0.2517153024673462;-0.12952585518360138;90.58157348632812
7;1666336467.8328717;46.9755343;7.1803558;-0.14100000262260437;1666336467.9948866;-0.21945708990097046;0.01129205897450447;90.4988784790039
8;1666336468.070038;46.9755343;7.1803558;-0.14800000190734863;1666336468.2037523;-0.5055082440376282;-0.08017445355653763;90.60824584960938
9;1666336468.259384;46.9755343;7.1803558;-0.15400001406669617;1666336468.517048;-0.32315853238105774;-0.0036513006780296564;90.45366668701172
10;1666336468.573657;46.9755343;7.1803558;0.0;1666336468.7356722;-0.402008593082428;-0.07024218142032623;90.54097747802734
11;1666336468.799111;46.9755343;7.1803558999999995;0.0;1666336468.9377098;-0.37704527378082275;0.021915895864367485;90.5909423828125
12;1666336469.0021186;46.9755342;7.1803558;-0.005000000353902578;1666336469.1465702;-0.43041008710861206;-0.12905211746692657;90.6289291381836
13;1666336469.2061045;46.9755343;7.1803558;-0.007000000216066837;1666336469.3544557;-0.4596521854400635;0.12169235199689865;90.54464721679688
14;1666336469.4091134;46.9755343;7.1803558999999995;-0.006000000052154064;1666336469.5681996;-0.3450404405593872;-0.04812337085604668;90.72880554199219
15;1666336469.6277366;46.9755343;7.1803558999999995;-0.004000000189989805;1666336469.7663276;-0.1872093379497528;0.06954539567232132;90.69149017333984
16;1666336469.8268416;46.9755343;7.1803558;0.0;1666336469.9820914;0.7169618606567383;0.6538780927658081;90.60122680664062
17;1666336470.0465074;46.9755343;7.1803557;0.03800000250339508;1666336470.196872;0.4002425968647003;-1.0923409461975098;90.5911636352539
18;1666336470.2554345;46.9755343;7.1803555999999995;0.13100001215934753;1666336470.4067647;0.12925668060779572;-1.2892696857452393;90.9251708984375
19;1666336470.4614208;46.9755344;7.1803555;0.3100000023841858;1666336470.6132119;0.071946881711483;-2.669494867324829;91.98173522949219
20;1666336470.6815324;46.9755343;7.1803554;0.5450000166893005;1666336470.8211036;-0.03983451798558235;-3.083845615386963;89.89987182617188
21;1666336470.8864925;46.9755341;7.1803554;0.8690000176429749;1666336471.0338693;1.3766601085662842;-3.1137642860412598;90.64253234863281
22;1666336471.1890526;46.975534499999995;7.1803552999999996;1.2650001049041748;1666336471.3539972;0.4097106158733368;2.212193727493286;94.16059875488281
23;1666336471.4145088;46.9755349;7.180355199999999;1.7110000848770142;1666336471.5657907;-0.31239619851112366;1.9522254467010498;85.93943786621094
24;1666336471.627278;46.975535099999995;7.180355199999999;2.2170000076293945;1666336471.7814867;0.5002824664115906;1.7092094421386719;86.21261596679688
25;1666336471.847853;46.975535199999996;7.180355199999999;2.759000062942505;1666336471.9971836;-0.11195225268602371;1.2839807271957397;92.35444641113281
26;1666336472.0615988;46.975535199999996;7.1803551;3.3930001258850098;1666336472.2156382;-0.18393684923648834;0.022988228127360344;89.04942321777344
27;1666336472.2741988;46.975535199999996;7.180355;4.077000141143799;1666336472.4265053;-0.565461277961731;2.0413825511932373;82.4059066772461
28;1666336472.4860446;46.975535099999995;7.180355;4.843000411987305;1666336472.650009;-0.2351609766483307;-0.08418165892362595;83.5416259765625
29;1666336472.7066178;46.975535;7.180355;5.6570000648498535;1666336472.8744884;-0.2801167070865631;0.250888854265213;90.11923217773438
30;1666336472.9428082;46.9755348;7.1803551;6.545000076293945;1666336473.0989678;-0.03457208350300789;0.3455360531806946;85.75022888183594
31;1666336473.1555789;46.9755347;7.180355199999999;7.514000415802002;1666336473.308809;-0.4096285402774811;0.40883681178092957;79.23290252685547
32;1666336473.3624873;46.975534499999995;7.1803552999999996;8.553000450134277;1666336473.5186496;0.18028563261032104;-0.812066912651062;86.86650085449219
33;1666336473.5772083;46.9755343;7.1803554;9.60300064086914;1666336473.7118957;0.36858320236206055;-0.639833390712738;87.63607025146484
34;1666336473.7704566;46.9755343;7.1803555;10.660000801086426;1666336473.926618;-0.14471915364265442;0.6691688299179077;81.12934112548828
35;1666336473.9861565;46.9755343;7.1803555;11.795001029968262;1666336474.1491442;0.6416786909103394;-0.4014286696910858;88.29572296142578
36;1666336474.204779;46.9755343;7.1803555;13.16300106048584;1666336474.360938;0.23555806279182434;0.08790513873100281;86.19310760498047
37;1666336474.4204729;46.9755343;7.1803554;14.722001075744629;1666336474.579562;-0.4521820843219757;-0.7869259119033813;85.1312484741211
38;1666336474.6400764;46.9755344;7.1803552999999996;16.34200096130371;1666336474.7864785;-0.9091100692749023;0.7157683968544006;86.93869018554688
39;1666336474.8430836;46.975534499999995;7.1803552999999996;17.959001541137695;1666336475.0041227;-0.38031458854675293;0.038641951978206635;86.51571655273438
40;1666336475.0636578;46.975534499999995;7.1803554;19.55900001525879;1666336475.222748;-0.018617266789078712;-0.24506184458732605;87.04318237304688
41;1666336475.2793534;46.975534499999995;7.1803555;21.157001495361328;1666336475.4179451;-0.255638986825943;0.5020749568939209;87.73115539550781
42;1666336475.4755316;46.975534599999996;7.1803555999999995;22.751001358032227;1666336475.617051;-0.13070060312747955;-0.03258274495601654;86.93681335449219
43;1666336475.6814673;46.975534599999996;7.1803557;24.338001251220703;1666336475.8151798;-0.0015408212784677744;0.2272065281867981;87.82559204101562
44;1666336475.8717878;46.975534599999996;7.1803557;25.926000595092773;1666336476.0211148;-0.01066779438406229;0.2588980793952942;88.6959457397461
45;1666336476.0933414;46.975534599999996;7.1803557;27.51700210571289;1666336476.2543836;-0.19501811265945435;-0.29678621888160706;87.39745330810547
46;1666336476.3168428;46.975534499999995;7.1803558;29.102001190185547;1666336476.4583623;-0.023771338164806366;0.31595078110694885;87.75812530517578
47;1666336476.5130212;46.975534499999995;7.1803558;30.687002182006836;1666336476.6750362;0.14789429306983948;0.07836096733808517;89.4399185180664
48;1666336476.7335951;46.9755344;7.1803558;32.28000259399414;1666336476.9873567;-0.2597874701023102;0.04540838301181793;88.80766296386719
49;1666336477.0459151;46.9755344;7.1803558;33.84600067138672;1666336477.2010999;-0.28137773275375366;0.1893770545721054;87.76515197753906
50;1666336477.2586834;46.9755344;7.1803558;35.41699981689453;1666336477.4167962;-0.10315211117267609;0.02463345043361187;88.94639587402344
51;1666336477.4802384;46.9755344;7.1803557;37.005001068115234;1666336477.643229;-0.04115872085094452;0.3420727550983429;88.7386703491211
52;1666336477.6988604;46.9755343;7.1803557;38.59300231933594;1666336477.8569734;-0.24491003155708313;0.03029162809252739;86.97340393066406
53;1666336477.91456;46.9755343;7.1803557;40.18100357055664;1666336478.0590062;-0.175838440656662;-0.08677582442760468;89.1115493774414
54;1666336478.1302526;46.9755342;7.1803557;41.77400207519531;1666336478.2786088;0.011581292375922203;0.2837315797805786;89.79075622558594
55;1666336478.3381436;46.9755342;7.1803557;43.367000579833984;1666336478.4757566;-0.32692602276802063;-0.049458716064691544;87.85816955566406
56;1666336478.5313885;46.9755342;7.1803555999999995;44.94300079345703;1666336478.7060933;-0.3599395453929901;0.03301834687590599;88.10558319091797
57;1666336478.7548952;46.9755342;7.1803555999999995;46.53700256347656;1666336478.8934858;-0.06778884679079056;0.1736813485622406;89.23090362548828
58;1666336478.948141;46.9755342;7.1803555999999995;48.12200164794922;1666336479.087715;-0.2922341823577881;-0.05546422302722931;89.29814147949219
59;1666336479.1501741;46.9755341;7.1803555999999995;49.65200424194336;1666336479.3112125;-0.6215725541114807;-0.0493483804166317;87.78719329833984
60;1666336479.375629;46.9755341;7.1803555999999995;51.02700424194336;1666336479.5239823;-0.5675293803215027;-0.16200220584869385;87.22523498535156
61;1666336479.582543;46.9755341;7.1803555999999995;52.23800277709961;1666336479.7377286;-0.26611262559890747;0.02378947101533413;87.05500030517578
62;1666336479.7923822;46.9755341;7.1803557;53.28300094604492;1666336479.934879;-0.10981288552284241;-0.16450299322605133;86.9816665649414
63;1666336479.9924626;46.9755341;7.1803558;54.17400360107422;1666336480.1408162;-0.12125007063150406;-0.07731350511312485;86.96519470214844
64;1666336480.2091358;46.9755341;7.1803558;54.94200134277344;1666336480.3574858;-0.1472342163324356;-0.0015225234674289823;86.93391418457031
65;1666336480.4287343;46.9755342;7.1803558999999995;55.59700393676758;1666336480.5683048;-0.20076265931129456;0.0625816136598587;86.91234588623047
66;1666336480.6258876;46.9755342;7.1803558999999995;56.1510009765625;1666336480.7869267;-0.18659204244613647;-0.04349038377404213;86.87810516357422
67;1666336480.8484175;46.9755342;7.1803558999999995;56.61700439453125;1666336480.984085;-0.20491249859333038;-0.20676273107528687;86.886962890625
68;1666336481.044591;46.9755342;7.1803558999999995;57.009002685546875;1666336481.2027066;-0.2577570378780365;0.10855063796043396;86.86558532714844
69;1666336481.2563848;46.9755342;7.1803558999999995;57.336002349853516;1666336481.3959503;-0.26201096177101135;0.5025019645690918;86.81388854980469
70;1666336481.447681;46.9755342;7.1803558999999995;57.618003845214844;1666336481.6057925;-0.20589087903499603;-0.7171277403831482;86.87718963623047
71;1666336481.658496;46.9755342;7.180356;57.86000442504883;1666336481.8009918;-0.13541169464588165;0.10235181450843811;86.77339935302734
72;1666336481.8546734;46.9755343;7.180356;58.070003509521484;1666336481.9981453;0.03713604807853699;0.3729083836078644;86.71551513671875
73;1666336482.0576794;46.9755344;7.180356;58.24900436401367;1666336482.2079859;1.4874267578125;-1.3801871538162231;84.89634704589844
74;1666336482.2684968;46.975534599999996;7.180356;58.400001525878906;1666336482.4100168;11.094050407409668;-16.870573043823242;76.73062896728516
75;1666336482.4676006;46.975535099999995;7.1803554;58.54300308227539;1666336482.6286416;24.44719123840332;-38.17088317871094;77.4073715209961
76;1666336482.6920826;46.9755368;7.1803529;58.73400115966797;1666336482.8326273;20.642667770385742;-51.63250732421875;59.7685661315918
77;1666336482.891186;46.9755405;7.1803476999999996;58.89500427246094;1666336483.0317302;11.114185333251953;-55.65143966674805;52.23801040649414
78;1666336483.1020062;46.9755462;7.1803395;58.996002197265625;1666336483.2396185;-11.89871883392334;-54.93477249145508;34.31380844116211
79;1666336483.3118412;46.9755538;7.1803282;59.06900405883789;1666336483.4543395;-28.174707412719727;-46.22161865234375;15.301252365112305
80;1666336483.5148492;46.9755629;7.180314;59.1510009765625;1666336483.6671062;-34.56969451904297;-34.13727951049805;1.4179399013519287
81;1666336483.7237153;46.975572899999996;7.1802983;59.21900177001953;1666336483.8808496;-35.721763610839844;-25.22504997253418;-9.867241859436035
82;1666336483.9364839;46.975583199999996;7.180282;59.237003326416016;1666336484.078003;-39.84871292114258;-14.40341854095459;-25.540536880493164
83;1666336484.3307874;46.9755937;7.1802651;59.2390022277832;1666336484.4762115;-35.80277633666992;-7.753324031829834;-30.325328826904297
84;1666336484.5289147;46.975604399999995;7.180248;59.233001708984375;1666336484.6811714;-40.66358184814453;-8.898402214050293;-21.65756607055664
85;1666336484.7436352;46.9756152;7.180231099999999;59.22500228881836;1666336484.9993494;-41.247337341308594;-12.636098861694336;-7.042788505554199
86;1666336485.0549796;46.9756266;7.1802148;59.2130012512207;1666336485.2140677;-43.882408142089844;-23.610797882080078;4.816123008728027
87;1666336485.2648199;46.9756388;7.180199;59.2130012512207;1666336485.4073157;-42.0858154296875;-36.96156692504883;18.485048294067383
88;1666336485.4590466;46.9756521;7.1801835999999994;59.21400451660156;1666336485.604469;-35.0610237121582;-47.45457077026367;34.62643814086914
89;1666336485.6708355;46.9756666;7.1801680999999995;59.20700454711914;1666336485.8055246;-19.820850372314453;-53.80014419555664;51.5697021484375
90;1666336485.8582323;46.9756824;7.1801525999999996;59.198001861572266;1666336486.0095081;-8.541593551635742;-48.74795150756836;61.60440444946289
91;1666336486.0592847;46.9756992;7.180137299999999;59.19900131225586;1666336486.2086127;1.948027491569519;-43.220821380615234;60.277015686035156
92;1666336486.2603402;46.975716299999995;7.1801224999999995;59.20100402832031;1666336486.4018633;9.363007545471191;-43.352333068847656;56.223731994628906
93;1666336486.4604216;46.9757331;7.1801075;59.2030029296875;1666336486.6204863;10.487161636352539;-48.57211685180664;49.088233947753906
94;1666336486.6751451;46.9757495;7.1800915;59.21900177001953;1666336486.8195884;4.406208038330078;-52.25025939941406;38.99753189086914
95;1666336486.8801;46.9757655;7.1800741;59.23100280761719;1666336487.0333335;-7.829916000366211;-47.327110290527344;26.34258270263672
96;1666336487.0899434;46.9757809;7.1800551;59.23800277709961;1666336487.2275596;-17.125179290771484;-40.32323455810547;9.38272476196289
97;1666336487.2890465;46.9757957;7.180034999999999;59.237003326416016;1666336487.4295928;-26.243877410888672;-40.05327606201172;-8.379948616027832
98;1666336487.4881566;46.975809299999995;7.1800137;59.233001708984375;1666336487.6404054;-33.91054916381836;-17.400033950805664;-39.0638313293457
99;1666336487.701905;46.9758218;7.1799916999999995;59.21900177001953;1666336487.8414612;-31.587690353393555;4.064937114715576;-51.33964920043945
100;1666336487.9049056;46.9758333;7.1799702;59.198001861572266;1666336488.049349;-32.69044494628906;3.542842388153076;-46.19618225097656
101;1666336488.1049817;46.9758443;7.17995;59.19900131225586;1666336488.26407;-35.17203140258789;9.292337417602539;-50.001407623291016
102;1666336488.3177516;46.9758553;7.179930799999999;59.2030029296875;1666336488.4651287;-35.610591888427734;10.980655670166016;-38.90174865722656
103;1666336488.5178344;46.9758663;7.179912799999999;59.19900131225586;1666336488.7842782;-41.551124572753906;1.8045547008514404;-25.45279312133789
104;1666336488.8408875;46.9758779;7.1798964;59.20700454711914;1666336489.0038798;-46.41919708251953;0.7459821105003357;-27.00446128845215
105;1666336489.0653667;46.9758901;7.179881;59.22200393676758;1666336489.2195766;-43.951576232910156;-6.610633373260498;-12.135595321655273
106;1666336489.2810655;46.975902999999995;7.1798664;59.208003997802734;1666336489.4284377;-43.514060974121094;-12.711173057556152;-5.250904560089111
107;1666336489.4918804;46.975916299999994;7.179852599999999;59.1670036315918;1666336489.6490176;-34.59415054321289;-18.221187591552734;3.4777581691741943
108;1666336489.7085526;46.9759299;7.1798394;59.11300277709961;1666336489.8695915;-20.37476348876953;-9.934367179870605;12.420019149780273
109;1666336489.9330342;46.975943199999996;7.1798271;59.048004150390625;1666336490.094073;-2.785654306411743;9.191917419433594;25.22865867614746
110;1666336490.1516585;46.975955299999995;7.179816799999999;58.99400329589844;1666336490.281465;14.852025032043457;17.003602981567383;22.834331512451172
111;1666336490.3400245;46.975965099999996;7.1798088;58.94200134277344;1666336490.4893548;20.717449188232422;10.634682655334473;13.90046501159668
112;1666336490.5440102;46.9759719;7.179802899999999;58.90800094604492;1666336490.6796749;21.895233154296875;-19.483837127685547;7.095771312713623
113;1666336490.7450657;46.9759762;7.1797976;58.90800094604492;1666336490.8865836;9.484196662902832;-39.451473236083984;0.7945493459701538
114;1666336490.9451466;46.9759787;7.179791;58.90700149536133;1666336491.0944731;-16.226451873779297;-44.537845611572266;-1.3212770223617554
115;1666336491.1432726;46.9759806;7.1797819;58.92100143432617;1666336491.2799149;-45.53847122192383;-26.31400489807129;-18.0587100982666
116;1666336491.3453038;46.975983299999996;7.1797698;58.965003967285156;1666336491.493658;-55.894065856933594;-4.537283897399902;-23.279329299926758
117;1666336491.5483136;46.9759879;7.179755999999999;58.99700164794922;1666336491.700571;-56.46587371826172;-11.296392440795898;-4.964636325836182
118;1666336491.7532752;46.9759952;7.1797420999999995;59.00700378417969;1666336491.8977215;-53.319942474365234;-9.367646217346191;-3.1942811012268066
119;1666336491.9592116;46.9760053;7.1797287;59.0150032043457;1666336492.1065867;-48.27853775024414;-3.2401788234710693;-0.10049574077129364
120;1666336492.1641715;46.9760175;7.1797165;59.01700210571289;1666336492.3261855;-40.49761199951172;-6.333833694458008;13.807430267333984
121;1666336492.3808496;46.976030699999995;7.179706299999999;59.02800369262695;1666336492.5252898;-33.653350830078125;-9.58048152923584;29.70561408996582
122;1666336492.5838518;46.9760443;7.1796980999999995;59.02400207519531;1666336492.7322016;-26.875761032104492;-0.6583778262138367;41.627471923828125
123;1666336492.796619;46.976057399999995;7.179692299999999;58.99700164794922;1666336492.951804;-16.57878303527832;2.809053659439087;45.79438400268555
124;1666336493.0054815;46.9760694;7.1796885999999995;58.96200180053711;1666336493.151882;3.8665945529937744;4.793675899505615;35.92667007446289
125;1666336493.2045863;46.9760797;7.179686299999999;58.94000244140625;1666336493.338299;23.887340545654297;-15.749008178710938;19.32219886779785
126;1666336493.3939338;46.9760877;7.1796839;58.94600296020508;1666336493.5432591;29.362117767333984;-26.67635154724121;6.477863788604736
127;1666336493.5979176;46.976093399999996;7.179679999999999;58.948001861572266;1666336493.7579787;37.403934478759766;-20.32574462890625;1.488153338432312
128;1666336493.8145893;46.976096299999995;7.1796744;58.96600341796875;1666336493.9609873;36.38002014160156;-25.848995208740234;-5.78745698928833
129;1666336494.0166197;46.976096399999996;7.1796675;58.98800277709961;1666336494.1542358;30.745323181152344;-22.2216796875;-12.238399505615234
130;1666336494.2167034;46.9760942;7.1796596;59.00200271606445;1666336494.3591962;26.679140090942383;-19.58911895751953;-16.22178840637207
131;1666336494.4158063;46.976090299999996;7.1796517;59.01100158691406;1666336494.5729406;14.83791732788086;-19.93668556213379;-31.42105484008789
132;1666336494.6285741;46.976085399999995;7.179643899999999;59.00700378417969;1666336494.7759478;3.8288254737854004;-5.567549228668213;-37.2425651550293
133;1666336494.8306036;46.9760802;7.1796367;58.97700119018555;1666336494.9701738;-8.262458801269531;32.061363220214844;-23.639171600341797
134;1666336495.0326366;46.9760759;7.179631199999999;58.96600341796875;1666336495.2005084;-22.255428314208984;35.370723724365234;-7.778566360473633
135;1666336495.262004;46.9760734;7.179628999999999;58.954002380371094;1666336495.3937576;-27.2956485748291;24.096284866333008;-3.1234564781188965
136;1666336495.4474378;46.976073;7.1796301;58.978004455566406;1666336495.6026206;-32.470497131347656;18.57818603515625;12.18316650390625
137;1666336495.6621573;46.976074399999995;7.1796335;59.0150032043457;1666336495.8036776;-27.41547203063965;11.024110794067383;15.1560697555542
138;1666336495.8573587;46.9760771;7.179638499999999;59.035003662109375;1666336496.0008287;-20.58553695678711;6.8352179527282715;21.358051300048828
139;1666336496.063296;46.976080599999996;7.1796441;59.009002685546875;1666336496.1989572;-15.848640441894531;4.294743061065674;33.858577728271484
140;1666336496.2623968;46.9760844;7.1796501;58.97700119018555;1666336496.4078243;-16.020593643188477;-6.142282962799072;43.727569580078125
141;1666336496.4751658;46.9760882;7.179656;58.952003479003906;1666336496.6362052;-9.539040565490723;-17.348304748535156;40.544185638427734
142;1666336496.6869574;46.9760925;7.179661299999999;58.936004638671875;1666336496.8343406;3.530240297317505;-32.92597198486328;21.57909393310547
143;1666336496.8987544;46.976096899999995;7.1796644999999994;58.92400360107422;1666336497.0500317;2.588552474975586;-41.73403549194336;8.42650032043457
144;1666336497.1076152;46.976101;7.1796641;58.91100311279297;1666336497.2588956;-6.972780704498291;-45.5366325378418;4.173540115356445
145;1666336497.3164825;46.976104899999996;7.1796593;58.92200469970703;1666336497.464834;-30.798076629638672;-32.549015045166016;-16.099956512451172
146;1666336497.5146081;46.9761087;7.179651;58.95000457763672;1666336497.6717434;-41.085052490234375;-22.56217384338379;-20.83250617980957
147;1666336497.732258;46.976113299999994;7.179640099999999;59.005001068115234;1666336497.871824;-48.3997917175293;-5.924627304077148;-37.423789978027344
148;1666336497.9391668;46.976119;7.1796272;59.05800247192383;1666336498.0894701;-50.64238739013672;8.202301979064941;-49.334022521972656
149;1666336498.1509607;46.976126199999996;7.179612799999999;59.108001708984375;1666336498.3022392;-50.682132720947266;7.296903133392334;-45.78852462768555
150;1666336498.3549433;46.976135;7.1795975;59.14800262451172;1666336498.5032947;-48.644134521484375;10.318610191345215;-48.050689697265625
151;1666336498.5696664;46.9761453;7.179581499999999;59.176002502441406;1666336498.723871;-46.385189056396484;12.049294471740723;-52.635074615478516
152;1666336498.7765777;46.9761568;7.1795652;59.21000289916992;1666336498.9239516;-43.23490905761719;2.852102518081665;-41.4197883605957
153;1666336498.9737294;46.976169;7.1795487;59.2390022277832;1666336499.104515;-43.267333984375;1.6658105850219727;-40.95705795288086
154;1666336499.1640477;46.9761816;7.1795323;59.25300216674805;1666336499.3094738;-40.580780029296875;3.664865493774414;-46.090274810791016
155;1666336499.373889;46.9761944;7.1795158;59.2660026550293;1666336499.5222414;-42.04365539550781;4.601421356201172;-41.57790756225586
156;1666336499.5837297;46.976207599999995;7.1794994999999995;59.285003662109375;1666336499.7291539;-43.832420349121094;2.0911672115325928;-40.716487884521484
157;1666336499.7935708;46.9762209;7.179483299999999;59.294002532958984;1666336499.9419212;-42.211036682128906;-1.1734497547149658;-41.05085372924805
158;1666336500.0131695;46.9762342;7.1794671;59.29600143432617;1666336500.1585944;-47.06208038330078;0.5198159217834473;-40.79731369018555
159;1666336500.213252;46.976247699999995;7.1794506;59.30000305175781;1666336500.36453;-48.100772857666016;3.898641347885132;-44.30231857299805
160;1666336500.418208;46.9762616;7.1794337;59.298004150390625;1666336500.5685139;-45.11940002441406;1.668425440788269;-41.242610931396484
161;1666336500.6368325;46.976275799999996;7.1794164;59.2910041809082;1666336500.7695696;-47.88945388793945;2.2741358280181885;-40.03242492675781
162;1666336500.8310633;46.9762902;7.179399;59.29600143432617;1666336500.9833143;-48.80585479736328;3.6991970539093018;-44.463497161865234
163;1666336501.045779;46.976304899999995;7.1793814;59.2910041809082;1666336501.181442;-45.31595230102539;1.5592031478881836;-41.87346649169922
164;1666336501.2380502;46.9763197;7.1793635;59.275001525878906;1666336501.3844502;-47.1004638671875;2.8562746047973633;-41.507171630859375
165;1666336501.4371543;46.9763346;7.1793455999999995;59.26700210571289;1666336501.5816038;-47.86100769042969;4.345402240753174;-43.91819763183594
166;1666336501.634306;46.9763498;7.1793276;59.25400161743164;1666336501.779733;-45.90290069580078;3.1481869220733643;-41.78581237792969
167;1666336501.8392687;46.976365;7.1793096;59.22600173950195;1666336501.9788346;-42.64852523803711;1.261659026145935;-39.6207160949707
168;1666336502.0383713;46.9763801;7.179291699999999;59.195003509521484;1666336502.1974587;-40.34382629394531;2.5494978427886963;-42.18817901611328
169;1666336502.254067;46.9763951;7.1792742;59.1660041809082;1666336502.4199877;-36.823768615722656;1.8516377210617065;-42.74433517456055
170;1666336502.4736686;46.9764096;7.1792571999999995;59.121002197265625;1666336502.6278753;-33.302398681640625;2.0174665451049805;-41.783870697021484
171;1666336502.686436;46.976423499999996;7.1792408;59.07500457763672;1666336502.8338122;-29.800390243530273;1.1716148853302002;-41.86427307128906
172;1666336502.8952997;46.9764367;7.1792253;59.02400207519531;1666336503.0368183;-24.86038589477539;1.479489803314209;-41.771610260009766
173;1666336503.0914752;46.976449099999996;7.1792107;58.97500228881836;1666336503.237877;-19.034353256225586;0.6630260348320007;-41.70026779174805
174;1666336503.294485;46.976460499999995;7.1791972;58.923004150390625;1666336503.4389324;-12.968201637268066;-0.19040821492671967;-41.499359130859375
175;1666336503.493963;46.9764707;7.1791851;58.87200164794922;1666336503.6462185;-6.756164073944092;-0.4303518235683441;-41.17953109741211
176;1666336503.707707;46.976479399999995;7.1791746;58.82600402832031;1666336503.8689134;-1.5995995998382568;-2.4083008766174316;-40.912845611572266
177;1666336503.92357;46.976486799999996;7.1791656999999995;58.80000305175781;1666336504.082898;2.773646354675293;-3.0175344944000244;-40.15788650512695
178;1666336504.1404817;46.9764929;7.1791582;58.79300308227539;1666336504.2985966;5.066264629364014;-0.39179927110671997;-40.03723907470703
179;1666336504.3552027;46.976497699999996;7.1791521;58.7910041809082;1666336504.6138422;5.5819501876831055;-0.961499035358429;-39.789337158203125
180;1666336504.6684983;46.976501299999995;7.1791472999999995;58.794002532958984;1666336504.81685;3.784924030303955;1.9142205715179443;-40.301631927490234
181;1666336504.8744345;46.9765041;7.1791437;58.801002502441406;1666336505.0384035;0.9836620092391968;0.24394451081752777;-40.100013732910156
182;1666336505.0930603;46.9765063;7.1791412;58.80900192260742;1666336505.2316556;-0.8398874402046204;0.9138895273208618;-40.054542541503906
183;1666336505.292163;46.9765081;7.1791393;58.81300354003906;1666336505.435635;-2.2233214378356934;0.7514396905899048;-40.202110290527344
184;1666336505.4922433;46.9765096;7.1791377999999995;58.81700134277344;1666336505.6337638;-2.7530336380004883;1.5706617832183838;-41.05122756958008
185;1666336505.6952507;46.9765108;7.1791366;58.82400131225586;1666336505.9431596;-2.992069959640503;-1.5522798299789429;-42.05223846435547
186;1666336506.0114777;46.976512;7.1791355;58.829002380371094;1666336506.1656828;-3.609003782272339;-2.7372183799743652;-43.07304382324219
187;1666336506.2310815;46.976513;7.179134299999999;58.83100128173828;1666336506.3823566;-3.7085983753204346;1.003166913986206;-43.85041809082031
188;1666336506.4418926;46.9765139;7.1791331;58.8280029296875;1666336506.574633;-3.5525505542755127;-2.5640695095062256;-43.3919792175293
189;1666336506.630261;46.9765148;7.1791317999999995;58.83000183105469;1666336506.7825253;-3.649348020553589;-0.3561333119869232;-43.28276443481445
190;1666336506.8361955;46.9765156;7.1791304;58.83500289916992;1666336506.9767404;-1.1323405504226685;1.18436598777771;-43.295257568359375
191;1666336507.02847;46.9765164;7.1791291;58.8380012512207;1666336507.1826816;0.07390586286783218;1.404579997062683;-43.24351119995117
192;1666336507.2383096;46.976517099999995;7.1791279999999995;58.846004486083984;1666336507.3886135;-18.56401824951172;-1.007563829421997;-49.52942657470703
193;1666336507.4442472;46.9765179;7.179126699999999;58.88200378417969;1666336507.601381;-34.548213958740234;6.114692687988281;-49.43330764770508
194;1666336507.6618931;46.9765194;7.179124;58.945003509521484;1666336507.8034127;-47.75733947753906;0.043822020292282104;-48.81464385986328
195;1666336507.8639262;46.9765227;7.179119;59.04600143432617;1666336508.0015426;-54.432491302490234;-3.9773645401000977;-52.973388671875
196;1666336508.0571756;46.976527499999996;7.1791108999999995;59.13200378417969;1666336508.2162607;-55.898956298828125;0.25936105847358704;-52.75770568847656
197;1666336508.2709174;46.9765337;7.1790993;59.18100357055664;1666336508.4124393;-55.40976333618164;-3.030168056488037;-44.75490951538086
198;1666336508.4680707;46.976541399999995;7.1790851;59.2130012512207;1666336508.614472;-53.12350845336914;4.441251277923584;-51.66398239135742
199;1666336508.674007;46.9765503;7.1790689;59.22900390625;1666336508.8047898;-48.93354797363281;0.03638455271720886;-50.416404724121094
200;1666336508.8613987;46.9765604;7.1790512;59.24200439453125;1666336508.9999897;-42.8478889465332;-1.5835965871810913;-44.087669372558594
201;1666336509.0624545;46.9765711;7.179032599999999;59.27000427246094;1666336509.2186139;-40.4173469543457;-2.4987924098968506;-48.367855072021484
202;1666336509.2879128;46.976582;7.1790138;59.298004150390625;1666336509.446999;-38.678672790527344;0.6323491930961609;-52.036346435546875
203;1666336509.5026326;46.9765928;7.178995;59.30900192260742;1666336509.6617196;-37.50028991699219;-0.4277709424495697;-46.46249771118164
204;1666336509.7193031;46.976603499999996;7.178976199999999;59.329002380371094;1666336509.879369;-39.70279312133789;0.32562536001205444;-49.858699798583984
205;1666336509.9301198;46.9766143;7.1789575;59.353004455566406;1666336510.081406;-40.30350875854492;0.2697591185569763;-50.45405578613281
206;1666336510.1380086;46.9766249;7.178939;59.362003326416016;1666336510.2795286;-39.91082000732422;1.883575677871704;-49.02299880981445
207;1666336510.33516;46.976635599999994;7.1789204;59.3640022277832;1666336510.4844892;-40.74995422363281;3.5516357421875;-53.5555534362793
208;1666336510.5430477;46.9766464;7.1789019;59.37400436401367;1666336510.691402;-41.761741638183594;0.42805197834968567;-48.59797668457031
209;1666336510.7528872;46.9766572;7.178883399999999;59.380001068115234;1666336510.9041684;-42.74431228637695;-1.4790252447128296;-46.40458297729492
210;1666336510.9666321;46.9766681;7.1788649;59.375003814697266;1666336511.111081;-42.51396179199219;1.9258408546447754;-52.40065002441406
211;1666336511.1745372;46.9766791;7.1788462;59.375003814697266;1666336511.3170156;-42.652530670166016;-1.4057729244232178;-47.03382873535156
212;1666336511.3765538;46.9766903;7.1788272;59.381004333496094;1666336511.531737;-43.56272888183594;-0.7608022689819336;-47.996822357177734
213;1666336511.585419;46.9767015;7.1788080999999995;59.38200378417969;1666336511.7327929;-41.608055114746094;2.2054758071899414;-53.451297760009766
214;1666336511.7903776;46.9767127;7.1787889;59.381004333496094;1666336511.944586;-42.26268005371094;0.200583815574646;-47.590423583984375
215;1666336512.0031452;46.9767241;7.1787696;59.38900375366211;1666336512.1554022;-44.942020416259766;0.15639343857765198;-49.476318359375
216;1666336512.2149365;46.976735399999995;7.178750399999999;59.384002685546875;1666336512.360362;-44.9560546875;3.4511852264404297;-55.12834930419922
217;1666336512.4169703;46.976746899999995;7.1787309;59.37700271606445;1666336512.5604408;-43.92770004272461;0.09976917505264282;-47.345577239990234
218;1666336512.6248586;46.976758499999995;7.1787111999999995;59.37700271606445;1666336512.7663786;-44.7327995300293;0.9124197363853455;-51.13939666748047
219;1666336512.8190835;46.9767702;7.1786914;59.375003814697266;1666336512.974268;-44.350677490234375;4.857383728027344;-54.45594787597656
220;1666336513.0259936;46.9767818;7.1786715;59.34800338745117;1666336513.176301;-41.49435043334961;0.9865832924842834;-47.78805923461914
221;1666336513.2309592;46.9767936;7.1786517;59.31700134277344;1666336513.3822372;-39.66777038574219;1.0234631299972534;-50.29011917114258
222;1666336513.4398203;46.9768052;7.1786322;59.28300094604492;1666336513.5862193;-38.60696792602539;0.53202223777771;-50.98241424560547
223;1666336513.6398985;46.9768166;7.1786132;59.243003845214844;1666336513.7853239;-36.8940315246582;1.6238125562667847;-51.91752624511719
224;1666336513.8419313;46.9768276;7.178594599999999;59.19600296020508;1666336513.9922383;-34.48085403442383;1.5186070203781128;-51.1494026184082
225;1666336514.044939;46.9768383;7.178576499999999;59.14800262451172;1666336514.1835327;-30.149972915649414;1.3929697275161743;-50.9677619934082
226;1666336514.2430687;46.976848499999996;7.1785593;59.10100173950195;1666336514.391421;-24.268489837646484;1.4591221809387207;-50.89784622192383
227;1666336514.448028;46.9768581;7.1785429999999995;59.052001953125;1666336514.5944293;-17.118106842041016;0.5878651738166809;-50.445865631103516
228;1666336514.6529868;46.9768669;7.178528099999999;58.99800109863281;1666336514.7964597;-10.623940467834473;0.6099178194999695;-50.047142028808594
229;1666336514.8559966;46.976874699999996;7.1785149;58.948001861572266;1666336515.0014188;-4.633440971374512;0.5815290808677673;-49.78618621826172
230;1666336515.05803;46.9768815;7.178503399999999;58.90800094604492;1666336515.2034533;0.7781878709793091;0.45235389471054077;-49.6641845703125
231;1666336515.259084;46.9768872;7.1784938;58.87600326538086;1666336515.407437;4.145740509033203;0.9361482262611389;-49.28364944458008
232;1666336515.4699;46.9768918;7.1784859999999995;58.86000442504883;1666336515.6133733;5.463115215301514;0.20121780037879944;-49.29957580566406
233;1666336515.674866;46.9768955;7.1784801;58.855003356933594;1666336515.8368757;5.360523700714111;2.375640630722046;-49.8642463684082
234;1666336515.8925085;46.976898299999995;7.1784756;58.855003356933594;1666336516.046718;4.662853717803955;-0.6620362401008606;-50.254783630371094
235;1666336516.102349;46.9769003;7.178472299999999;58.85200119018555;1666336516.2507021;2.277440309524536;-0.9463364481925964;-50.26403045654297
236;1666336516.3278058;46.9769018;7.178469799999999;58.84700393676758;1666336516.4732335;-0.1390775591135025;-2.584489583969116;-50.13834762573242
237;1666336516.523983;46.9769029;7.1784678;58.84400177001953;1666336516.66648;-3.3264548778533936;1.6343848705291748;-50.31695556640625
238;1666336516.7191808;46.9769037;7.1784661;58.845001220703125;1666336516.875344;-5.1113057136535645;1.3776875734329224;-49.626625061035156
239;1666336516.9319513;46.976904399999995;7.1784646;58.846004486083984;1666336517.0793324;-5.231499671936035;0.12829728424549103;-48.76781463623047
240;1666336517.1456933;46.976905099999996;7.1784631999999995;58.849002838134766;1666336517.3067348;-4.209565162658691;0.39152976870536804;-48.20017623901367
241;1666336517.357488;46.9769059;7.1784618;58.85000228881836;1666336517.4990075;-3.0005621910095215;0.37429651618003845;-47.66895294189453
242;1666336517.5565903;46.9769066;7.178460599999999;58.85000228881836;1666336517.7039676;-2.216383218765259;1.25397789478302;-47.28182601928711
243;1666336517.7722862;46.9769072;7.1784593999999995;58.85200119018555;1666336517.9147835;-1.6395963430404663;1.2550712823867798;-47.27207565307617
244;1666336517.9704144;46.9769079;7.178458399999999;58.855003356933594;1666336518.1138883;-1.3783135414123535;0.9578843712806702;-47.2846794128418
245;1666336518.1792786;46.976908599999994;7.1784574;58.858001708984375;1666336518.3256814;-1.3134920597076416;4.656296730041504;-45.23239517211914
246;1666336518.3793588;46.976909299999996;7.1784566;58.893001556396484;1666336518.521857;6.7270708084106445;9.726109504699707;-35.45966720581055
247;1666336518.590178;46.97691;7.1784566;59.038002014160156;1666336518.7404816;-3.551347255706787;16.918357849121094;-24.799175262451172
248;1666336518.806853;46.9769108;7.1784577;59.263004302978516;1666336518.975697;-12.082242965698242;37.94049072265625;-8.052861213684082
249;1666336519.035231;46.976912399999996;7.1784608;59.56300354003906;1666336519.189958;-29.1010684967041;35.49812698364258;9.216556549072266
250;1666336519.2494957;46.9769151;7.178468;59.952003479003906;1666336519.4046805;-41.145755767822266;21.127960205078125;16.508747100830078
251;1666336519.4593356;46.9769193;7.1784789;60.393001556396484;1666336519.626229;-50.05074691772461;9.331912994384766;29.52695655822754
252;1666336519.6828384;46.9769253;7.1784913999999995;60.81200408935547;1666336519.8370488;-51.22404098510742;13.694610595703125;19.025346755981445
253;1666336519.8985481;46.9769337;7.1785058;61.250003814697266;1666336520.0449336;-47.08082962036133;24.660367965698242;3.1139442920684814
254;1666336520.1034958;46.9769443;7.178521399999999;61.68100357055664;1666336520.242089;-44.604557037353516;28.714656829833984;-0.8860556483268738
255;1666336520.2908885;46.976956699999995;7.1785381;62.138004302978516;1666336520.4431431;-34.49284744262695;39.4398307800293;-15.92558765411377
256;1666336520.4958477;46.9769705;7.1785559;62.625003814697266;1666336520.6500542;-23.30732536315918;44.86393356323242;-25.180316925048828
257;1666336520.7047117;46.9769854;7.1785745;63.1300048828125;1666336520.8354938;-24.266263961791992;43.98196792602539;-15.790196418762207
258;1666336520.8940556;46.977000399999994;7.1785939999999995;63.57500457763672;1666336521.042411;-27.194385528564453;37.689300537109375;4.5698041915893555
259;1666336521.095112;46.977015099999996;7.1786141;63.93000411987305;1666336521.2395642;-31.403446197509766;24.95065689086914;21.073579788208008
260;1666336521.3029985;46.9770287;7.1786351999999995;64.27400207519531;1666336521.4542816;-34.637081146240234;16.1674747467041;27.199684143066406
261;1666336521.5157678;46.9770417;7.1786563999999995;64.62200164794922;1666336521.6719286;-37.72439193725586;11.40733814239502;31.557491302490234
262;1666336521.7265844;46.9770542;7.1786774;64.96500396728516;1666336521.865176;-42.23721694946289;2.606191873550415;40.904537200927734
263;1666336521.9344716;46.9770666;7.1786981999999995;65.3080062866211;1666336522.0750148;-42.98514175415039;-0.2767849266529083;43.754703521728516
264;1666336522.129672;46.9770791;7.1787187;65.63600158691406;1666336522.2770488;-42.46128463745117;-1.2939778566360474;43.63372802734375
265;1666336522.340491;46.9770919;7.1787389;65.9530029296875;1666336522.4781044;-44.16457748413086;-7.6651177406311035;49.44456481933594
266;1666336522.5337355;46.977105099999996;7.1787588;66.2760009765625;1666336522.6879444;-42.96662521362305;-4.033612251281738;43.29001998901367
267;1666336522.742601;46.9771187;7.1787782;66.57100677490234;1666336522.8919291;-39.68660354614258;0.4907698333263397;40.218055725097656
268;1666336522.949513;46.9771322;7.178796999999999;66.8270034790039;1666336523.0881047;-37.80287170410156;-0.9968600869178772;43.3892822265625
269;1666336523.1417851;46.9771456;7.178815299999999;67.06300354003906;1666336523.3018515;-35.41751480102539;0.594131588935852;41.77893829345703
270;1666336523.3633358;46.9771587;7.178833099999999;67.2770004272461;1666336523.5058331;-32.483951568603516;0.983860433101654;42.128238677978516
271;1666336523.563418;46.977171399999996;7.1788501;67.46100616455078;1666336523.7156734;-29.330839157104492;1.1028683185577393;42.615570068359375
272;1666336523.7810652;46.9771833;7.178866299999999;67.61600494384766;1666336523.9177053;-25.26825523376465;1.3967607021331787;42.81644058227539
273;1666336523.9782186;46.9771946;7.178881499999999;67.74500274658203;1666336524.1109543;-19.79767608642578;1.5328933000564575;43.07872772216797
274;1666336524.1763465;46.9772049;7.1788956;67.84700012207031;1666336524.3256743;-13.925867080688477;1.5495558977127075;43.28185272216797
275;1666336524.3822815;46.9772142;7.1789084;67.94100189208984;1666336524.5413706;-7.921846866607666;1.328244686126709;43.37528991699219
276;1666336524.6028595;46.977222399999995;7.1789198;68.02900695800781;1666336524.7355952;-2.5086684226989746;1.136716365814209;43.400028228759766
277;1666336524.7931798;46.9772293;7.1789295;68.1050033569336;1666336524.9405544;1.7786756753921509;0.9181151390075684;43.41020584106445
278;1666336524.997163;46.9772349;7.1789375;68.17500305175781;1666336525.1406336;4.632071018218994;0.7675396203994751;43.421424865722656
279;1666336525.202125;46.977239399999995;7.178943899999999;68.23800659179688;1666336525.4578345;5.733001232147217;0.6102336049079895;43.44821548461914
280;1666336525.514444;46.9772428;7.1789488;68.29600524902344;1666336525.6559632;5.436062812805176;0.43574345111846924;43.441524505615234
281;1666336525.7145233;46.9772454;7.1789524;68.34900665283203;1666336525.8618996;3.8748342990875244;0.198826864361763;43.42913055419922
282;1666336525.9175303;46.9772472;7.1789551;68.39300537109375;1666336526.059051;1.4077130556106567;0.02959384396672249;43.36077880859375
283;1666336526.122497;46.977248599999996;7.178957;68.4330062866211;1666336526.2698674;-1.5995241403579712;0.048288457095623016;43.259952545166016
284;1666336526.3264773;46.9772496;7.178958499999999;68.47200012207031;1666336526.4943507;-4.148131370544434;0.18687687814235687;43.23063659667969
285;1666336526.549979;46.9772506;7.1789599;68.51100158691406;1666336526.7022376;-5.87308406829834;-0.07543177902698517;43.32179260253906
286;1666336526.7637236;46.977251599999995;7.1789612;68.54900360107422;1666336526.9071953;-6.97064208984375;0.04414387792348862;43.56098937988281
287;1666336526.967712;46.9772526;7.1789625;68.58500671386719;1666336527.1219196;-7.535497188568115;-0.05518362298607826;43.95846176147461
288;1666336527.1824276;46.9772537;7.1789638;68.61700439453125;1666336527.3356614;-6.854633331298828;0.29965969920158386;44.347206115722656
289;1666336527.3932436;46.9772548;7.1789651999999995;68.6510009765625;1666336527.5484316;-4.302826881408691;0.44636476039886475;45.1333122253418
290;1666336527.60894;46.977255899999996;7.178966699999999;68.68500518798828;1666336527.7611954;-1.1345460414886475;0.5598808526992798;45.1922721862793
291;1666336527.8236651;46.9772569;7.178967999999999;68.71700286865234;1666336527.958349;0.9830278754234314;0.6315308213233948;45.06889343261719
292;1666336528.0169106;46.977257699999996;7.1789692;68.74800109863281;1666336528.1711183;3.6435577869415283;3.7932589054107666;46.43109893798828
293;1666336528.2277248;46.977258299999995;7.17897;68.77900695800781;1666336528.368275;6.006227016448975;12.547223091125488;56.22225570678711
294;1666336528.4229262;46.977258299999995;7.1789707;68.8010025024414;1666336528.574206;-0.5625271201133728;30.49964714050293;70.2195816040039
295;1666336528.626909;46.9772572;7.178971799999999;68.83500671386719;1666336528.7703836;-22.513198852539062;39.67887878417969;85.23301696777344
296;1666336528.826013;46.9772544;7.1789741;68.906005859375;1666336528.97339;-39.19364929199219;29.987346649169922;95.68632507324219
297;1666336529.0309746;46.9772494;7.1789787;69.00100708007812;1666336529.1793246;-45.98745346069336;19.45870018005371;102.8266830444336
298;1666336529.2330055;46.9772429;7.1789857999999995;69.07600402832031;1666336529.3755016;-49.4466438293457;5.154720306396484;116.935302734375
299;1666336529.4428463;46.9772355;7.1789958;69.1520004272461;1666336529.5882747;-49.55425262451172;9.896028518676758;103.67410278320312
300;1666336529.6439013;46.9772276;7.1790084;69.21800231933594;1666336529.7854233;-47.33613204956055;17.19057273864746;90.28327178955078
301;1666336529.8420298;46.9772196;7.1790233;69.2540054321289;1666336529.9874547;-44.126182556152344;26.87139892578125;78.1216049194336
302;1666336530.0577278;46.9772117;7.179040199999999;69.27100372314453;1666336530.2070558;-40.38230514526367;34.36353302001953;70.3145751953125
303;1666336530.26464;46.9772038;7.1790591;69.29100036621094;1666336530.4012785;-41.0631103515625;38.025264739990234;86.7115478515625
304;1666336530.469599;46.9771952;7.1790793;69.3030014038086;1666336530.609168;-36.3114128112793;36.26087188720703;100.31674194335938
305;1666336530.6628468;46.977185299999995;7.1790997;69.30900573730469;1666336530.802417;-37.755165100097656;19.758747100830078;120.27985382080078
306;1666336530.8639033;46.9771742;7.179119;69.32100677490234;1666336531.0093272;-37.194156646728516;8.849272727966309;120.98922729492188
307;1666336531.0678887;46.9771627;7.1791376;69.33300018310547;1666336531.227953;-34.53818130493164;2.8344032764434814;127.993408203125
308;1666336531.2806551;46.977151299999996;7.1791557;69.33900451660156;1666336531.4182734;-37.2426872253418;-1.3410184383392334;131.83627319335938
309;1666336531.4748802;46.9771401;7.1791735;69.35400390625;1666336531.6251843;-44.3173713684082;-3.416546583175659;134.66453552246094
310;1666336531.68472;46.9771291;7.1791914;69.37000274658203;1666336531.8291674;-47.302330017089844;-4.912230014801025;133.9611053466797
311;1666336531.8867536;46.9771181;7.1792096;69.37300109863281;1666336532.0292492;-44.832454681396484;-2.047431707382202;126.83985900878906
312;1666336532.085856;46.9771071;7.1792286;69.36400604248047;1666336532.2361603;-42.198543548583984;-0.6550912261009216;130.51870727539062
313;1666336532.2937455;46.9770961;7.179247999999999;69.36600494384766;1666336532.4352648;-42.84415054321289;1.6300103664398193;126.98285675048828
314;1666336532.496754;46.9770851;7.1792677;69.37600708007812;1666336532.6548665;-43.290470123291016;1.1853442192077637;127.65420532226562
315;1666336532.7134259;46.977073999999995;7.1792875;69.3740005493164;1666336532.864706;-42.31001663208008;2.881693124771118;128.74082946777344
316;1666336532.923266;46.977063;7.1793074;69.36300659179688;1666336533.0686908;-43.29603576660156;3.8747401237487793;124.87149047851562
317;1666336533.134088;46.9770518;7.1793273;69.36400604248047;1666336533.2756014;-43.74330520629883;0.5727918744087219;130.66763305664062
318;1666336533.331233;46.9770404;7.1793473;69.36700439453125;1666336533.4854414;-44.08290481567383;1.4881188869476318;129.58480834960938
319;1666336533.5440035;46.977029099999996;7.179367399999999;69.36300659179688;1666336533.7089474;-42.24992370605469;2.5471444129943848;125.79318237304688
320;1666336533.7704341;46.977017599999996;7.1793875;69.3550033569336;1666336533.9197626;-42.286163330078125;2.7442922592163086;129.69561767578125
321;1666336533.9851544;46.9770062;7.179407599999999;69.35400390625;1666336534.1256988;-41.68661117553711;2.9965078830718994;128.050048828125
322;1666336534.1793795;46.9769946;7.1794274;69.33600616455078;1666336534.3257797;-39.294803619384766;2.8654184341430664;127.9506607055664
323;1666336534.3833623;46.9769832;7.179446899999999;69.302001953125;1666336534.5219557;-36.90120315551758;-0.8164290189743042;130.75302124023438
324;1666336534.5892985;46.9769721;7.179466;69.27200317382812;1666336534.7249656;-35.248374938964844;1.560774326324463;127.95101928710938
325;1666336534.7913315;46.9769612;7.1794847;69.23500061035156;1666336534.9357803;-32.570308685302734;1.462610125541687;128.1026153564453
326;1666336534.9923875;46.9769508;7.1795027;69.18800354003906;1666336535.1417162;-30.20820426940918;1.4900535345077515;129.42236328125
327;1666336535.1934428;46.9769408;7.1795199;69.13200378417969;1666336535.3417962;-26.95419692993164;1.3583590984344482;129.32351684570312
328;1666336535.4023159;46.9769313;7.1795361;69.07300567626953;1666336535.5535893;-22.894670486450195;1.5426222085952759;129.64695739746094
329;1666336535.6170292;46.9769225;7.1795512;69.01600646972656;1666336535.7536705;-17.514057159423828;1.4375908374786377;129.979248046875
330;1666336535.8112512;46.9769144;7.1795649;68.96000671386719;1666336535.9722915;-11.300695419311523;1.3085432052612305;130.03721618652344
331;1666336536.0269494;46.9769071;7.1795773;68.90900421142578;1666336536.1733482;-5.190159797668457;1.1947029829025269;130.3971405029297
332;1666336536.2328877;46.976900799999996;7.179588;68.86100006103516;1666336536.387092;0.26945945620536804;1.1443226337432861;130.50393676757812
333;1666336536.4534605;46.9768954;7.1795969;68.82300567626953;1666336536.611574;3.880242109298706;1.0041232109069824;130.8644256591797
334;1666336536.6672053;46.976891099999996;7.1796041;68.79500579833984;1666336536.8155575;5.158616065979004;1.5570861101150513;131.2457733154297
335;1666336536.8711903;46.9768877;7.1796095;68.7800064086914;1666336537.0049033;5.301260471343994;0.6365793347358704;131.23538208007812
336;1666336537.068341;46.9768852;7.179613499999999;68.7750015258789;1666336537.2196226;4.726332187652588;0.7415869235992432;131.18994140625
337;1666336537.2742794;46.9768833;7.1796165;68.77799987792969;1666336537.420679;3.61244535446167;-0.44616198539733887;131.2324676513672
338;1666336537.4782608;46.976881999999996;7.1796185999999995;68.78900146484375;1666336537.6471112;2.5455338954925537;-0.4391527473926544;131.0132293701172
339;1666336537.703719;46.976881;7.1796202;68.802001953125;1666336537.9477193;-0.33899760246276855;0.04654474928975105;130.83250427246094
340;1666336537.9994452;46.9768802;7.1796215;68.81300354003906;1666336538.1370647;-3.4124464988708496;0.0851980447769165;130.91297912597656
341;1666336538.2044063;46.9768796;7.1796226;68.82600402832031;1666336538.349831;-5.507130146026611;0.48746833205223083;131.22097778320312
342;1666336538.404486;46.976878899999996;7.179623899999999;68.83600616455078;1666336538.5508864;-5.975038528442383;0.37022635340690613;131.58941650390625
343;1666336538.6065178;46.9768781;7.1796253;68.84400177001953;1666336538.7490163;-5.858293533325195;0.07424473762512207;131.93618774414062
344;1666336538.815383;46.9768773;7.179626799999999;68.84500122070312;1666336538.966664;-4.67503547668457;0.38979780673980713;132.10342407226562
345;1666336539.0291276;46.976876399999995;7.1796283;68.84400177001953;1666336539.1706483;-2.8877434730529785;0.2969544231891632;132.1472625732422
346;1666336539.2272563;46.9768756;7.1796298;68.84100341796875;1666336539.3717113;-0.3306070566177368;0.29170331358909607;132.2022705078125
347;1666336539.4341764;46.9768749;7.1796311;68.84200286865234;1666336539.5756972;4.563029766082764;8.333534240722656;136.08656311035156
348;1666336539.6293771;46.9768742;7.1796321;68.76100158691406;1666336539.7777278;5.708545207977295;14.47048282623291;148.24539184570312
349;1666336539.8372624;46.976873499999996;7.1796323;68.59300231933594;1666336539.9826896;-4.269003391265869;37.669456481933594;163.05931091308594
350;1666336540.0373473;46.9768726;7.1796311;68.4020004272461;1666336540.1856978;-25.807964324951172;43.720130920410156;178.47845458984375
351;1666336540.2413285;46.9768711;7.1796272;68.19499969482422;1666336540.3916328;-37.48847198486328;35.53348159790039;-174.7421112060547
352;1666336540.4453135;46.976868499999995;7.1796203;67.96800231933594;1666336540.5946405;-47.58899688720703;17.92977523803711;-156.3208770751953
353;1666336540.6502724;46.9768646;7.1796111;67.72700500488281;1666336540.7956982;-48.2148323059082;12.285038948059082;-152.43324279785156
354;1666336540.8493783;46.9768592;7.1796003;67.46400451660156;1666336540.9977295;-46.757816314697266;12.403471946716309;-149.58010864257812
355;1666336541.15584;46.976852699999995;7.1795883;67.16500091552734;1666336541.2983375;-47.82258987426758;-2.4541850090026855;-136.2361602783203
356;1666336541.3598237;46.976845;7.179575;66.91000366210938;1666336541.5071995;-45.967803955078125;7.533479690551758;-158.2355499267578
357;1666336541.5589275;46.976836;7.179561199999999;66.67300415039062;1666336541.712163;-45.801307678222656;17.957752227783203;-171.779296875
358;1666336541.7658424;46.9768262;7.179547599999999;66.41000366210938;1666336541.910289;-41.81059265136719;24.484912872314453;-176.78204345703125
359;1666336541.9688506;46.976815699999996;7.1795339;66.09000396728516;1666336542.112322;-36.08841323852539;32.46815490722656;171.16856384277344
360;1666336542.1689303;46.976804699999995;7.1795200999999995;65.73600006103516;1666336542.3055692;-30.377004623413086;40.465145111083984;162.11465454101562
361;1666336542.3875532;46.976793199999996;7.1795059;65.35400390625;1666336542.520291;-35.092193603515625;37.747371673583984;175.58384704589844
362;1666336542.5778735;46.9767813;7.1794911;64.99500274658203;1666336542.8306587;-37.48026657104492;32.26042175292969;-169.6728515625
363;1666336542.887267;46.976769399999995;7.179475;64.71000671386719;1666336543.0385473;-41.420955657958984;21.584728240966797;-149.6727294921875
364;1666336543.0951622;46.9767576;7.1794578;64.43800354003906;1666336543.2366748;-42.531253814697266;12.343597412109375;-146.81678771972656
365;1666336543.2903533;46.9767462;7.17944;64.15800476074219;1666336543.4494443;-41.32219314575195;10.833636283874512;-147.39927673339844
366;1666336543.5050774;46.976735;7.1794221;63.86700439453125;1666336543.65538;-42.12725067138672;6.548686504364014;-143.44834899902344
367;1666336543.718819;46.976723799999995;7.179404399999999;63.55500411987305;1666336543.8720517;-42.892757415771484;-2.0659072399139404;-132.84890747070312
368;1666336543.928658;46.9767126;7.179386699999999;63.2650032043457;1666336544.0779877;-45.39949417114258;-3.074181079864502;-135.27268981933594
369;1666336544.1365492;46.9767012;7.179369299999999;62.97600173950195;1666336544.2868514;-47.48134994506836;-0.23597554862499237;-140.8206024169922
370;1666336544.3473647;46.9766896;7.1793521;62.669002532958984;1666336544.4869354;-46.1193733215332;-3.3716583251953125;-136.54844665527344
371;1666336544.541588;46.976677599999995;7.179335099999999;62.36600112915039;1666336544.7904675;-45.38709259033203;-0.8705241680145264;-139.83529663085938
372;1666336544.8539107;46.9766653;7.1793182;62.06200408935547;1666336544.9895744;-42.884159088134766;1.6753315925598145;-142.52935791015625
373;1666336545.0471554;46.976653;7.1793016;61.763004302978516;1666336545.1896527;-40.06911849975586;-0.80498868227005;-138.26011657714844
374;1666336545.2482138;46.976640499999995;7.1792853;61.49100112915039;1666336545.386805;-38.5860595703125;2.6131110191345215;-141.78570556640625
375;1666336545.4414592;46.9766282;7.179269199999999;61.237003326416016;1666336545.595672;-35.3292121887207;2.905381441116333;-140.83131408691406
376;1666336545.6532516;46.976616199999995;7.1792536;60.9900016784668;1666336545.7996585;-33.09169006347656;1.9939788579940796;-138.95997619628906
377;1666336545.8611405;46.976604599999995;7.179238499999999;60.75400161743164;1666336546.0124202;-31.089168548583984;2.5679497718811035;-139.7620391845703
378;1666336546.0641553;46.9765936;7.179224;60.52900314331055;1666336546.2095718;-27.942705154418945;2.2914035320281982;-138.91542053222656
379;1666336546.2622783;46.976583299999994;7.1792102;60.32100296020508;1666336546.4086778;-23.443960189819336;2.2564709186553955;-138.5039825439453
380;1666336546.463333;46.976573699999996;7.179197299999999;60.12200164794922;1666336546.6175425;-17.618913650512695;2.1453166007995605;-138.17234802246094
381;1666336546.6692708;46.9765649;7.179185299999999;59.93400192260742;1666336546.8146954;-10.879426956176758;1.855473518371582;-137.87062072753906
382;1666336546.8791118;46.9765571;7.179174499999999;59.759002685546875;1666336547.0245345;-4.174133777618408;1.35863196849823;-137.71685791015625
383;1666336547.075291;46.9765504;7.1791652;59.605003356933594;1666336547.2304704;1.1895374059677124;1.1020320653915405;-137.64317321777344
384;1666336547.2831738;46.976544999999994;7.179157399999999;59.474002838134766;1666336547.4295754;4.659986972808838;0.6626735329627991;-137.7491912841797
385;1666336547.488137;46.9765406;7.1791510999999995;59.3650016784668;1666336547.632583;6.702292442321777;0.04961719736456871;-137.9024200439453
386;1666336547.691142;46.9765374;7.179146299999999;59.27100372314453;1666336547.8404717;6.941371917724609;-0.32282522320747375;-138.2133026123047
387;1666336547.8980541;46.976535;7.179142799999999;59.189002990722656;1666336548.0346954;6.000200271606445;-0.29120707511901855;-138.6103057861328
388;1666336548.0903263;46.9765334;7.1791404;59.12400436401367;1666336548.245513;3.9128406047821045;-0.7153429388999939;-138.99171447753906
389;1666336548.3021204;46.976532299999995;7.1791388;59.07400131225586;1666336548.4533997;1.3944365978240967;-0.7644830346107483;-139.29856872558594
390;1666336548.5119586;46.9765316;7.1791377;59.0420036315918;1666336548.6593354;-2.527738571166992;-0.38784193992614746;-139.36231994628906
391;1666336548.7149665;46.9765309;7.1791369;59.0260009765625;1666336548.863321;-7.5246901512146;-0.18865428864955902;-139.3672637939453
392;1666336548.9160237;46.9765303;7.179136199999999;59.0160026550293;1666336549.0594974;-8.259072303771973;0.06116069108247757;-139.17733764648438
393;1666336549.1112244;46.9765296;7.1791352999999996;59.005001068115234;1666336549.2644563;-6.8617377281188965;0.0721580758690834;-138.92697143554688
394;1666336549.3230147;46.976528699999996;7.1791342;58.99700164794922;1666336549.4742954;-5.291373252868652;0.42604804039001465;-138.67970275878906
395;1666336549.54164;46.9765277;7.179132999999999;58.99100112915039;1666336549.6870666;-3.033295154571533;0.1537230908870697;-138.3371124267578
396;1666336549.7505038;46.9765267;7.1791317999999995;58.987003326416016;1666336549.900811;-1.442556381225586;0.36210086941719055;-138.2998046875
397;1666336549.9593678;46.976525699999996;7.1791306;58.983001708984375;1666336550.1047935;-1.0174109935760498;0.20590996742248535;-138.3489990234375
398;1666336550.167259;46.9765249;7.1791295999999996;58.97900390625;1666336550.315608;-1.587706446647644;-0.44016164541244507;-138.8292694091797
399;1666336550.3800254;46.9765241;7.1791287;58.980003356933594;1666336550.5156906;2.718111276626587;-11.583999633789062;-146.61676025390625
400;1666336550.5849872;46.9765234;7.1791282999999995;58.98600387573242;1666336550.726506;-3.3495543003082275;-28.018007278442383;-156.6304473876953
401;1666336550.7831137;46.9765224;7.179129199999999;59.01400375366211;1666336550.927562;-16.417531967163086;-41.40851974487305;-177.17376708984375
402;1666336550.995883;46.976520799999996;7.1791325;59.057003021240234;1666336551.1334982;-30.59981918334961;-36.02449035644531;174.1398162841797
403;1666336551.1920586;46.9765182;7.1791396;59.14500427246094;1666336551.3267467;-44.09800720214844;-14.676453590393066;157.97616577148438
404;1666336551.3911626;46.976514099999996;7.1791491;59.21900177001953;1666336551.5379326;-49.34138870239258;-1.6370437145233154;144.89234924316406
405;1666336551.6950626;46.9765084;7.1791602;59.285003662109375;1666336551.8424404;-48.867130279541016;-5.636796474456787;150.8408966064453
406;1666336551.9010007;46.9765009;7.1791725;59.34300231933594;1666336552.050327;-45.95606994628906;1.0533744096755981;141.58206176757812
407;1666336552.1108394;46.976492;7.1791857;59.37300109863281;1666336552.2611446;-42.86466598510742;7.529825687408447;130.26669311523438
408;1666336552.331419;46.976482;7.1791996;59.40300369262695;1666336552.464153;-41.035919189453125;9.216068267822266;135.3298797607422
409;1666336552.5217357;46.9764714;7.1792137;59.43400192260742;1666336552.6574006;-41.502716064453125;7.643989562988281;138.591064453125
410;1666336552.725723;46.976459999999996;7.1792276;59.458003997802734;1666336552.8760238;-37.462791442871094;3.7521331310272217;140.9054412841797
411;1666336552.931657;46.9764483;7.179241299999999;59.45900344848633;1666336553.0878155;-35.71875762939453;6.964117527008057;141.94351196289062
412;1666336553.1483288;46.976436199999995;7.1792546999999995;59.46000289916992;1666336553.2966797;-40.162994384765625;2.8717551231384277;138.6768798828125
413;1666336553.3503625;46.976423999999994;7.179267899999999;59.478004455566406;1666336553.4957852;-41.603553771972656;-4.254263401031494;141.99020385742188
414;1666336553.5523927;46.9764117;7.1792814;59.4890022277832;1666336553.6948886;-44.919986724853516;0.35861942172050476;136.4602508544922
415;1666336553.7612596;46.9763995;7.179295499999999;59.487003326416016;1666336553.901802;-46.94350814819336;4.239429950714111;137.56100463867188
416;1666336553.9564598;46.976386999999995;7.1793100999999995;59.467002868652344;1666336554.1038337;-49.430728912353516;3.249542474746704;137.45004272460938
417;1666336554.1594772;46.976374;7.1793252999999995;59.46000289916992;1666336554.3156261;-51.35196304321289;3.3468329906463623;137.23617553710938
418;1666336554.3663788;46.9763605;7.179341099999999;59.44700241088867;1666336554.5166821;-51.45375061035156;1.6305835247039795;138.67559814453125
419;1666336554.5713384;46.9763467;7.1793574;59.419002532958984;1666336554.7177384;-50.86764144897461;4.109455108642578;135.85519409179688
