;pos_time;latitude;longitude;altitude;alt_time;pitch;roll;yaw
0;1666339050.3277473;46.975535799999996;7.1803558999999995;-0.0650000050663948;1666339050.5639386;-0.3775213062763214;0.14420950412750244;92.06817626953125
1;1666339050.623476;46.975535699999995;7.1803558999999995;-0.06100000441074371;1666339050.7669473;-0.43920058012008667;0.10551169514656067;92.09061431884766
2;1666339050.830388;46.9755355;7.1803558999999995;-0.0560000017285347;1666339050.9758127;-0.3099691569805145;0.4319506585597992;91.93014526367188
3;1666339051.0402267;46.9755354;7.1803558999999995;-0.05000000074505806;1666339051.1661317;-0.1419222503900528;0.22807227075099945;92.15211486816406
4;1666339051.23055;46.9755353;7.1803558999999995;-0.04500000178813934;1666339051.3593812;-0.15390914678573608;0.31660038232803345;92.06295776367188
5;1666339051.434533;46.975535199999996;7.180356;-0.03800000250339508;1666339051.56434;-0.2863873839378357;0.3237418830394745;92.20222473144531
6;1666339051.6316836;46.975535199999996;7.180356;-0.03500000014901161;1666339051.7985814;-0.22590644657611847;0.3639928102493286;92.08977508544922
7;1666339051.860068;46.975535199999996;7.180356;-0.036000002175569534;1666339051.9879243;-0.26036229729652405;0.34797269105911255;91.86727142333984
8;1666339052.0562456;46.975535199999996;7.180356;-0.032999999821186066;1666339052.2124085;-0.20791806280612946;0.5068684220314026;91.88506317138672
9;1666339052.2797508;46.975535099999995;7.1803558999999995;-0.02500000037252903;1666339052.4105337;-0.22393569350242615;0.6871931552886963;91.84526824951172
10;1666339052.485686;46.975535;7.1803558999999995;-0.021000001579523087;1666339052.6242764;-0.2499922513961792;0.4730999171733856;92.04273986816406
11;1666339052.697479;46.9755349;7.1803558;-0.02200000174343586;1666339052.834119;-0.14062754809856415;0.4860564172267914;91.96337890625
12;1666339052.9014626;46.9755348;7.1803558;-0.02500000037252903;1666339053.039077;-0.17502905428409576;0.6385419368743896;91.8537368774414
13;1666339053.117157;46.9755347;7.1803558;-0.023000001907348633;1666339053.244039;-0.09649231284856796;0.7008468508720398;91.8117446899414
14;1666339053.3143115;46.975534599999996;7.1803558;0.0;1666339053.4724226;-0.2149447649717331;0.6705740094184875;91.8693618774414
15;1666339053.5426936;46.975534499999995;7.1803557;0.0020000000949949026;1666339053.6783588;-0.13509555160999298;0.5457425117492676;91.73466491699219
16;1666339053.7515595;46.9755344;7.1803557;0.010000000707805157;1666339053.9038155;-0.22036860883235931;0.7518581748008728;91.6268081665039
17;1666339053.9809186;46.9755343;7.1803555999999995;0.018000001087784767;1666339054.1214628;-0.16075670719146729;0.7527069449424744;91.87699127197266
18;1666339054.1946628;46.9755342;7.1803555999999995;0.01900000125169754;1666339054.3332536;-0.09334100037813187;0.872584879398346;91.79878234863281
19;1666339054.403526;46.9755342;7.1803555999999995;0.018000001087784767;1666339054.550905;-0.06351447105407715;0.9506856799125671;91.6495132446289
20;1666339054.6319115;46.975533999999996;7.1803555999999995;0.020000001415610313;1666339054.872007;0.006985735613852739;0.7771997451782227;91.88040161132812
21;1666339054.9354494;46.975533899999995;7.1803555999999995;0.023000001907348633;1666339055.0691607;-0.18524418771266937;0.6630252003669739;91.94276428222656
22;1666339055.139431;46.975533899999995;7.1803555999999995;0.02200000174343586;1666339055.2790034;0.004092590417712927;0.6187554597854614;91.77723693847656
23;1666339055.3482947;46.975533899999995;7.1803555999999995;0.01900000125169754;1666339055.4795115;0.013509126380085945;-0.002550817560404539;91.67407989501953
24;1666339055.5488083;46.975533899999995;7.1803555999999995;0.021000001579523087;1666339055.7088733;-0.016893191263079643;-2.3194432258605957;91.42189025878906
25;1666339055.7791455;46.975533999999996;7.1803555;0.036000002175569534;1666339055.912701;0.4807393252849579;4.266286849975586;90.20455169677734
26;1666339055.9892366;46.9755342;7.1803555999999995;0.058000002056360245;1666339056.1336539;1.6781115531921387;2.2412662506103516;91.00737762451172
27;1666339056.2024872;46.9755344;7.1803555999999995;0.11100000888109207;1666339056.3410778;-7.323051929473877;2.094975233078003;91.13221740722656
28;1666339056.4142778;46.9755348;7.1803558;0.20100000500679016;1666339056.54604;-1.9018652439117432;-5.3183369636535645;93.08143615722656
29;1666339056.642663;46.975534499999995;7.1803564;0.289000004529953;1666339056.8720224;13.594732284545898;-30.95523452758789;88.6696548461914
30;1666339056.9540062;46.975535;7.1803567;0.41100001335144043;1666339057.0862815;23.55554962158203;0.7372947335243225;74.79479217529297
31;1666339057.1663146;46.9755365;7.1803557;0.5460000038146973;1666339057.306859;12.961936950683594;2.2781310081481934;73.81251525878906
32;1666339057.3761556;46.975537499999994;7.180352999999999;0.7170000076293945;1666339057.524049;-24.46276092529297;17.00303077697754;78.08882141113281
33;1666339057.6011548;46.975538199999995;7.1803503;0.9050000309944153;1666339057.720226;-20.983327865600586;-1.6515108346939087;80.93637084960938
34;1666339057.8031843;46.9755384;7.180349499999999;1.1170001029968262;1666339057.9476328;-13.697163581848145;-7.845940113067627;76.94441986083984
35;1666339058.0188856;46.9755392;7.1803504;1.3550000190734863;1666339058.143812;3.6282095909118652;-0.03837720677256584;77.08854675292969
36;1666339058.2179866;46.9755405;7.1803523;1.6190000772476196;1666339058.350725;-4.360561847686768;10.43983268737793;81.33428192138672
37;1666339058.4151413;46.9755415;7.180354299999999;1.912000060081482;1666339058.534211;10.422607421875;8.5337553024292;80.30191802978516
38;1666339058.6142411;46.9755417;7.1803564;2.242000102996826;1666339058.744051;32.34518051147461;1.2239750623703003;79.7160873413086
39;1666339058.8162746;46.9755416;7.1803564;2.5950000286102295;1666339058.9490116;19.55052375793457;4.139595985412598;78.14078521728516
40;1666339059.0251384;46.975541;7.1803544;2.9820001125335693;1666339059.1598318;-21.220924377441406;4.631986141204834;76.97282409667969
41;1666339059.2379055;46.975540099999996;7.1803526;3.38100004196167;1666339059.372593;-23.167016983032227;2.227907657623291;73.18343353271484
42;1666339059.4360368;46.9755393;7.1803526;3.7780001163482666;1666339059.5668173;4.1500020027160645;-8.147001266479492;72.28825378417969
43;1666339059.637092;46.9755391;7.180353299999999;4.177000045776367;1666339059.775682;16.969152450561523;8.284668922424316;69.41375732421875
44;1666339059.8461976;46.9755386;7.1803533999999996;4.554000377655029;1666339059.9906373;13.739245414733887;-3.53918194770813;74.77667999267578
45;1666339060.0589612;46.9755378;7.1803520999999995;4.964000225067139;1666339060.1897454;-21.73286247253418;16.960432052612305;73.76610565185547
46;1666339060.2619653;46.9755372;7.180350499999999;5.3480000495910645;1666339060.3849425;-16.16166877746582;26.3663387298584;82.9743881225586
47;1666339060.4513187;46.9755349;7.1803517;5.715000152587891;1666339060.5840468;-11.165629386901855;-35.80831527709961;84.80717468261719
48;1666339060.6660311;46.975532799999996;7.180354899999999;6.099000453948975;1666339060.7968156;-1.751499891281128;-12.04920482635498;76.77201080322266
49;1666339060.8680618;46.9755325;7.180358699999999;6.490000247955322;1666339061.0105608;12.365278244018555;-12.500959396362305;73.26025390625
50;1666339061.0857103;46.9755329;7.1803617;6.890000343322754;1666339061.2184477;14.75001335144043;-2.7391393184661865;72.8619613647461
51;1666339061.288719;46.9755336;7.1803627;7.266000270843506;1666339061.4185264;-6.951972961425781;-28.707307815551758;79.63365936279297
52;1666339061.4995334;46.975534499999995;7.180362499999999;7.6620001792907715;1666339061.6264164;-4.9540300369262695;-4.382201671600342;79.64786529541016
53;1666339061.8167362;46.975536399999996;7.1803621;8.0600004196167;1666339061.9494698;-7.176428318023682;5.952818393707275;76.31022644042969
54;1666339062.0158412;46.975538;7.180361899999999;8.451000213623047;1666339062.1495497;8.66018295288086;8.920462608337402;75.66386413574219
55;1666339062.228607;46.9755392;7.180361899999999;8.848000526428223;1666339062.3574433;14.246565818786621;26.993928909301758;69.87578582763672
56;1666339062.4208796;46.9755393;7.1803611;9.212000846862793;1666339062.5506876;2.2029120922088623;-1.7466531991958618;65.57015228271484
57;1666339062.6248634;46.975538199999995;7.180360299999999;9.584000587463379;1666339062.7634554;3.3275041580200195;-5.6977434158325195;72.07743072509766
58;1666339062.8288467;46.9755374;7.1803596;9.949000358581543;1666339062.961584;-1.4407522678375244;3.6179373264312744;72.86699676513672
59;1666339063.0269756;46.9755367;7.180358699999999;10.313000679016113;1666339063.1645932;6.486904144287109;5.412739276885986;73.91925048828125
60;1666339063.2524328;46.975535799999996;7.1803576;10.803000450134277;1666339063.381266;-9.919689178466797;-7.145421028137207;84.16340637207031
61;1666339063.450561;46.975535199999996;7.180356;11.390000343322754;1666339063.589157;-7.776492595672607;-3.808887243270874;79.82620239257812
62;1666339063.6604013;46.975535099999995;7.180355199999999;11.983000755310059;1666339063.798015;-0.01639704219996929;3.488438367843628;73.45923614501953
63;1666339063.8634088;46.975535199999996;7.180355199999999;12.596000671386719;1666339064.0039535;6.021876335144043;-0.9701964855194092;72.31526184082031
64;1666339064.0683722;46.975535199999996;7.1803555999999995;13.202000617980957;1666339064.1942723;0.05803382769227028;-1.0460044145584106;73.71015167236328
65;1666339064.2694278;46.9755353;7.1803558;13.800000190734863;1666339064.406064;10.188447952270508;2.077056407928467;74.09137725830078
66;1666339064.4782927;46.9755355;7.180356;14.404000282287598;1666339064.6139522;2.6554384231567383;0.5752671360969543;75.07968139648438
67;1666339064.687156;46.9755355;7.180356;15.01400089263916;1666339064.8159857;-4.913013935089111;1.7100785970687866;74.78266143798828
68;1666339064.890162;46.9755354;7.180356;15.609001159667969;1666339065.022898;5.42428731918335;-1.2196834087371826;73.74040985107422
69;1666339065.0941453;46.975535199999996;7.1803561;16.214000701904297;1666339065.2288342;-9.800798416137695;2.1834945678710938;73.77171325683594
70;1666339065.297154;46.9755349;7.180356;16.82400131225586;1666339065.4308667;7.441264629364014;-3.613388776779175;74.56463623046875
71;1666339065.4962585;46.9755347;7.1803558999999995;17.42300033569336;1666339065.6270428;-0.05365617573261261;0.2565224766731262;75.41752624511719
72;1666339065.7002444;46.975534599999996;7.180356;18.019001007080078;1666339065.8378613;-3.0552871227264404;2.4667670726776123;74.29468536376953
73;1666339065.9159415;46.975534499999995;7.1803563;18.617000579833984;1666339066.0418487;1.1901684999465942;-3.6041300296783447;75.1988525390625
74;1666339066.1160178;46.975534599999996;7.1803567;19.229000091552734;1666339066.2438748;-7.200468063354492;0.1469305008649826;73.28782653808594
75;1666339066.326838;46.9755347;7.1803569;19.841001510620117;1666339066.5532653;2.419856071472168;0.8449405431747437;73.84375762939453
76;1666339066.6323228;46.9755347;7.180356799999999;20.440000534057617;1666339066.7709205;5.039127826690674;0.7463290095329285;75.13497161865234
77;1666339066.8460665;46.9755347;7.1803564;21.040000915527344;1666339066.9807556;0.2985630929470062;3.169696807861328;73.90666198730469
78;1666339067.0734785;46.975534499999995;7.1803558999999995;21.66900062561035;1666339067.191572;8.081412315368652;-0.9015434980392456;75.33467864990234
79;1666339067.2686749;46.9755344;7.1803555;22.248001098632812;1666339067.3916526;-5.593905925750732;-0.7304428815841675;74.84536743164062
80;1666339067.4589982;46.975534499999995;7.1803552999999996;22.84800148010254;1666339067.5897815;6.571181774139404;8.138383865356445;74.92284393310547
81;1666339067.6571264;46.975534499999995;7.1803554;23.455001831054688;1666339067.779124;-3.549565076828003;0.14260375499725342;75.04759216308594
82;1666339067.8493974;46.9755344;7.1803555999999995;24.064001083374023;1666339067.9948206;-3.797067642211914;-13.358497619628906;77.65995025634766
83;1666339068.074852;46.975534599999996;7.1803557;24.655000686645508;1666339068.1997807;0.4542131721973419;5.206900119781494;76.70771026611328
84;1666339068.269076;46.975535;7.1803555;25.257001876831055;1666339068.4125485;-7.000380516052246;3.12583327293396;74.4120864868164
85;1666339068.487701;46.975535199999996;7.1803552999999996;25.863000869750977;1666339068.618484;2.3383629322052;-2.1186842918395996;75.59514617919922
86;1666339068.693636;46.975535199999996;7.180355199999999;26.464000701904297;1666339068.8439415;4.127871036529541;2.5235977172851562;75.51221466064453
87;1666339068.9103112;46.9755353;7.180355199999999;27.0570011138916;1666339069.0371888;-0.2233402580022812;4.82772970199585;75.53033447265625
88;1666339069.1094203;46.975535199999996;7.1803551;27.656002044677734;1666339069.2333658;5.636803150177002;-0.03420964255928993;75.66275024414062
89;1666339069.3016863;46.975535099999995;7.180355199999999;28.26300048828125;1666339069.436373;-5.2354230880737305;3.550199508666992;75.89344787597656
90;1666339069.5125043;46.975535099999995;7.1803554;28.860000610351562;1666339069.654023;-3.269562005996704;3.166625738143921;75.90304565429688
91;1666339069.7242925;46.975535;7.1803555;29.455001831054688;1666339069.8648386;3.4930732250213623;-5.535350799560547;75.41844940185547
92;1666339069.931211;46.9755349;7.1803554;30.056001663208008;1666339070.0727253;-5.90709114074707;0.5045866370201111;75.30205535888672
93;1666339070.1439779;46.9755349;7.180355199999999;30.668001174926758;1666339070.2718318;10.585370063781738;1.516770839691162;76.22354125976562
94;1666339070.3430805;46.9755349;7.1803554;31.275001525878906;1666339070.5802479;-3.0112385749816895;4.067556858062744;76.51480102539062
95;1666339070.6485665;46.9755349;7.1803555999999995;31.87700080871582;1666339070.7627597;0.5403861999511719;-0.16893163323402405;76.60070037841797
96;1666339070.8427927;46.9755348;7.1803557;32.47200012207031;1666339070.9862661;-5.2430195808410645;-2.7654240131378174;76.53451538085938
97;1666339071.0565374;46.9755347;7.1803557;33.07500076293945;1666339071.1873205;-3.3329927921295166;2.572357416152954;75.09699249267578
98;1666339071.2595465;46.975534599999996;7.1803558;33.685001373291016;1666339071.393254;6.2772979736328125;-2.1438543796539307;77.16431427001953
99;1666339071.4625516;46.975534499999995;7.1803558999999995;34.288002014160156;1666339071.5943122;-5.6513872146606445;-2.977640151977539;77.79084014892578
100;1666339071.6606789;46.975534499999995;7.1803558;34.89200210571289;1666339071.8031757;8.888937950134277;0.43624603748321533;76.10804748535156
101;1666339071.8724732;46.9755347;7.1803558;35.5;1666339072.010087;2.8203272819519043;2.4357826709747314;75.48381805419922
102;1666339072.0871933;46.9755348;7.180356;36.09800338745117;1666339072.2101667;-5.989793300628662;3.3269295692443848;75.30586242675781
103;1666339072.283373;46.9755347;7.180356;36.69200134277344;1666339072.4248886;4.5014119148254395;-2.287160634994507;75.39790344238281
104;1666339072.494187;46.975534499999995;7.180356;37.28900146484375;1666339072.6269202;-9.313036918640137;-2.7433598041534424;76.743896484375
105;1666339072.7137878;46.975534599999996;7.1803558999999995;37.902000427246094;1666339072.8387153;0.9981058239936829;-5.439815521240234;74.79634857177734
106;1666339072.9031334;46.9755349;7.1803555999999995;38.512001037597656;1666339073.033913;10.741964340209961;6.085252285003662;77.1239242553711
107;1666339073.108089;46.975535199999996;7.180355199999999;39.108001708984375;1666339073.225209;-4.18537712097168;7.187448024749756;75.9070816040039
108;1666339073.2984104;46.975535199999996;7.1803545;39.71500015258789;1666339073.4330971;-1.7893790006637573;0.9086341261863708;76.28590393066406
109;1666339073.5092278;46.975535;7.1803542;40.319000244140625;1666339073.636106;-11.433960914611816;0.21270307898521423;76.40283966064453
110;1666339073.7034495;46.9755349;7.1803541;40.922000885009766;1666339073.8313057;-2.44862699508667;6.039930820465088;75.14336395263672
111;1666339073.9054809;46.9755349;7.1803544;41.51100158691406;1666339074.042123;-0.5315748453140259;-2.460675001144409;76.19266510009766
112;1666339074.1162996;46.9755348;7.1803548;42.09300231933594;1666339074.2519696;-1.126181721687317;-1.6021795272827148;75.62969970703125
113;1666339074.330042;46.9755349;7.180355199999999;42.68300247192383;1666339074.453997;8.694753646850586;2.583646535873413;75.95386505126953
114;1666339074.522314;46.975535;7.1803555999999995;43.2660026550293;1666339074.6521235;-0.04494504630565643;1.0106048583984375;76.3201675415039
115;1666339074.7253218;46.975535;7.180356;43.84400177001953;1666339074.8541598;7.062638759613037;-8.490448951721191;75.80638885498047
116;1666339074.9195468;46.975535;7.1803561;44.432003021240234;1666339075.0513108;-2.1330621242523193;-0.3759163022041321;77.83956909179688
117;1666339075.1225548;46.9755353;7.180356199999999;45.03300094604492;1666339075.25822;-6.351476192474365;4.94337797164917;75.31791687011719
118;1666339075.3284907;46.9755355;7.1803563;45.62800216674805;1666339075.4680645;7.002603054046631;1.6938990354537964;75.13471221923828
119;1666339075.5422382;46.9755355;7.1803566;46.21900177001953;1666339075.6613061;-6.612667560577393;3.4406421184539795;75.9112777709961
120;1666339075.7315826;46.9755354;7.1803566;46.827003479003906;1666339075.8584595;4.965945720672607;-2.5075318813323975;75.25335693359375
121;1666339075.9384935;46.9755353;7.180356499999999;47.42500305175781;1666339076.064397;5.549200057983398;4.752842426300049;77.11982727050781
122;1666339076.1327186;46.9755353;7.1803564;48.01300048828125;1666339076.2654529;-3.1197357177734375;-0.6143456697463989;77.93042755126953
123;1666339076.3425567;46.975535199999996;7.1803564;48.60600280761719;1666339076.4733417;0.7750352621078491;3.371856451034546;77.00672149658203
124;1666339076.5475154;46.975535099999995;7.1803567;49.20600128173828;1666339076.6802518;-7.113090515136719;-2.518254518508911;77.3951416015625
125;1666339076.758332;46.9755349;7.180357099999999;49.80600357055664;1666339076.889118;4.497817039489746;1.4943369626998901;75.68096923828125
126;1666339076.9564605;46.9755348;7.1803573;50.4010009765625;1666339077.0852928;-8.365485191345215;-1.0107922554016113;76.32691955566406
127;1666339077.1623974;46.975534599999996;7.1803574;51.00600051879883;1666339077.2951348;1.2956340312957764;1.9269245862960815;75.50575256347656
128;1666339077.3663805;46.975534599999996;7.1803573;51.59600067138672;1666339077.4981422;6.009312152862549;-7.984193801879883;75.1877212524414
129;1666339077.5752456;46.9755347;7.1803574;52.18800354003906;1666339077.7216463;-2.358079671859741;-2.2661523818969727;76.22774505615234
130;1666339077.7928925;46.975535;7.1803574;52.788002014160156;1666339077.927582;7.465915679931641;3.8879590034484863;76.51685333251953
131;1666339078.0027335;46.9755353;7.1803571999999996;53.39600372314453;1666339078.140351;-8.818803787231445;1.6639986038208008;74.87677001953125
132;1666339078.210621;46.975535099999995;7.1803569;54.00200271606445;1666339078.3453093;1.7633771896362305;-3.587775707244873;76.7960433959961
133;1666339078.4214406;46.975535;7.1803567;54.60000228881836;1666339078.5727215;-8.520089149475098;1.7113713026046753;76.88629150390625
134;1666339078.6439674;46.975535;7.1803564;55.202003479003906;1666339078.7864645;-0.9621281623840332;3.5871546268463135;75.7928466796875
135;1666339078.8538077;46.9755349;7.1803563;55.79300308227539;1666339079.0119195;-1.0691152811050415;0.9875915050506592;75.93155670166016
136;1666339079.0831687;46.9755349;7.180356499999999;56.30600357055664;1666339079.2071195;0.6374377012252808;4.501716613769531;75.74017333984375
137;1666339079.2773895;46.9755349;7.1803569;56.746002197265625;1666339079.4189105;7.835842609405518;-1.064178705215454;77.3318862915039
138;1666339079.4823503;46.9755348;7.1803573;57.12700271606445;1666339079.6219187;-2.119218587875366;-0.6905599236488342;77.20063018798828
139;1666339079.6902413;46.9755348;7.1803574999999995;57.448001861572266;1666339079.8073595;1.1996017694473267;2.2106587886810303;76.17222595214844
140;1666339079.8834906;46.9755348;7.1803576;57.71200180053711;1666339080.0074406;2.4649710655212402;-3.430311441421509;76.54719543457031
141;1666339080.0796657;46.9755347;7.1803573;57.93400192260742;1666339080.2104478;-3.673666477203369;0.47760581970214844;76.54680633544922
142;1666339080.2856004;46.9755347;7.180356799999999;58.12800216674805;1666339080.42224;5.184186935424805;2.6821532249450684;76.17330169677734
143;1666339080.4895859;46.9755347;7.1803564;58.288002014160156;1666339080.6301277;4.063173294067383;-12.42895221710205;73.06951141357422
144;1666339080.6916165;46.9755349;7.180356;58.428001403808594;1666339080.8175616;23.35154914855957;-39.439208984375;60.186195373535156
145;1666339080.889785;46.9755362;7.1803542;58.566001892089844;1666339081.035209;15.522685050964355;-57.64921188354492;49.61998748779297
146;1666339081.108408;46.9755395;7.1803487;58.665000915527344;1666339081.240171;5.3157243728637695;-62.41155242919922;44.943016052246094
147;1666339081.3114207;46.975545499999996;7.1803384999999995;58.728004455566406;1666339081.4607446;-4.104588985443115;-59.65696716308594;40.43305969238281
148;1666339081.5349216;46.9755545;7.1803237;58.781002044677734;1666339081.666681;-13.409589767456055;-54.42212677001953;35.41712951660156
149;1666339081.7389045;46.975566199999996;7.180305199999999;58.840003967285156;1666339081.8784719;-21.234615325927734;-48.69325637817383;23.1213436126709
150;1666339081.9467952;46.9755799;7.1802839;58.90300369262695;1666339082.0873373;-36.592308044433594;-34.93353271484375;8.78772258758545
151;1666339082.176154;46.975594699999995;7.1802608;58.94400405883789;1666339082.3069386;-32.741600036621094;-21.479778289794922;-13.052860260009766
152;1666339082.3820903;46.9756104;7.1802361999999995;58.978004455566406;1666339082.5226345;-20.277273178100586;19.628355026245117;-29.19991111755371
153;1666339082.5938811;46.9756265;7.1802117999999995;59.04600143432617;1666339082.7256424;11.343525886535645;19.534502029418945;-24.17610740661621
154;1666339082.817386;46.975642099999995;7.18019;59.07600402832031;1666339082.940361;18.2891902923584;-22.22669219970703;-30.24126625061035
155;1666339083.0047781;46.975655499999995;7.1801705;59.090003967285156;1666339083.1453223;19.764238357543945;-18.15191650390625;-47.2658576965332
156;1666339083.2253542;46.9756663;7.1801523;59.099002838134766;1666339083.3493066;11.780664443969727;-4.035874843597412;-58.411800384521484
157;1666339083.4225078;46.975674399999996;7.180136399999999;59.11300277709961;1666339083.5503619;19.567907333374023;9.695932388305664;-67.93404388427734
158;1666339083.6255147;46.975681599999994;7.1801232;59.13300323486328;1666339083.7572749;-6.558591365814209;26.560426712036133;-74.2262191772461
159;1666339083.826571;46.975688299999995;7.1801127;59.178001403808594;1666339083.958333;5.7603888511657715;25.484949111938477;-65.05358123779297
160;1666339084.0354376;46.9756958;7.1801042;59.22200393676758;1666339084.1593874;3.677021026611328;17.439756393432617;-59.17691421508789
161;1666339084.2267299;46.9757039;7.1800973;59.27900314331055;1666339084.3643494;-28.575904846191406;8.298868179321289;-54.388343811035156
162;1666339084.4414523;46.9757126;7.180090799999999;59.33000183105469;1666339084.582973;-41.6259651184082;-10.317214012145996;-31.659704208374023
163;1666339084.6591008;46.9757221;7.180083;59.34700393676758;1666339084.7781725;-40.50397491455078;-4.558743953704834;-9.419126510620117
164;1666339084.8503952;46.975732799999996;7.1800738;59.33400344848633;1666339084.9899628;-19.506576538085938;13.483500480651855;10.941099166870117
165;1666339085.0612133;46.9757442;7.1800653;59.28900146484375;1666339085.1793091;33.38877868652344;55.58186340332031;51.639957427978516
166;1666339085.2505565;46.9757542;7.1800593;59.217002868652344;1666339085.3793876;37.3888053894043;42.47738265991211;37.83808135986328
167;1666339085.4623487;46.975760699999995;7.180055899999999;59.031002044677734;1666339085.5999665;16.59149742126465;10.206731796264648;27.684606552124023
168;1666339085.6751187;46.9757641;7.180053999999999;58.96400451660156;1666339085.8000457;-17.77072525024414;40.97880554199219;15.051339149475098
169;1666339085.876172;46.9757661;7.1800543999999995;59.00300216674805;1666339086.014764;6.915246486663818;18.103073120117188;31.442344665527344
170;1666339086.0850372;46.975767499999996;7.1800576;59.064002990722656;1666339086.2158227;22.64124870300293;51.3618278503418;39.64521789550781
171;1666339086.2890203;46.9757671;7.1800624;59.10600280761719;1666339086.4217565;0.036630839109420776;-5.892603874206543;33.16105651855469
172;1666339086.5984147;46.9757648;7.1800681;59.11300277709961;1666339086.716509;26.036691665649414;-45.4111213684082;18.832088470458984
173;1666339086.7906854;46.9757629;7.1800713;59.1150016784668;1666339086.9185426;-4.370479106903076;-20.096202850341797;44.15592575073242
174;1666339086.991741;46.9757618;7.1800711999999995;59.130001068115234;1666339087.2152486;0.03310592845082283;-54.77299499511719;41.391143798828125
175;1666339087.2884467;46.975762599999996;7.1800684;59.14500427246094;1666339087.4123979;0.47387707233428955;-63.68941879272461;48.852542877197266
176;1666339087.4924288;46.975766199999995;7.1800602;59.11300277709961;1666339087.6368773;-0.433656245470047;-53.16912078857422;55.659297943115234
177;1666339087.7178872;46.9757732;7.180047699999999;59.05800247192383;1666339087.9579813;-3.519625425338745;-55.99152755737305;61.09233856201172
178;1666339088.0204508;46.9757834;7.1800321;59.06200408935547;1666339088.137567;-6.8061370849609375;-66.7581787109375;66.2285385131836
179;1666339088.2156472;46.975797;7.180014399999999;59.0260009765625;1666339088.3435018;-7.615331649780273;-51.64139938354492;66.05317687988281
180;1666339088.423538;46.975813699999996;7.1799956;58.95600128173828;1666339088.5513933;-8.859545707702637;-45.98626708984375;60.759193420410156
181;1666339088.6206865;46.9758326;7.179976399999999;58.9900016784668;1666339088.7583053;-7.331437587738037;-67.2437515258789;48.77780532836914
182;1666339088.8324797;46.9758534;7.179956;59.025001525878906;1666339089.0706248;-17.49231719970703;-68.09391021728516;24.167701721191406
183;1666339089.138945;46.975875699999996;7.179932;58.928001403808594;1666339089.255088;-26.151792526245117;-32.61037063598633;-14.133992195129395
184;1666339089.336099;46.9758977;7.179904499999999;58.90400314331055;1666339089.4571202;-31.756752014160156;-21.1837100982666;-32.21098327636719
185;1666339089.5234876;46.975918;7.179875399999999;58.99500274658203;1666339089.6542726;-9.179691314697266;-4.728145122528076;-49.143157958984375
186;1666339089.7304003;46.9759373;7.1798461;59.10700225830078;1666339089.8582568;-12.088215827941895;3.9994301795959473;-54.15206527709961
187;1666339089.930481;46.9759555;7.179818099999999;59.220001220703125;1666339090.064192;-11.877994537353516;9.339300155639648;-52.752742767333984
188;1666339090.1348963;46.9759727;7.179791799999999;59.28900146484375;1666339090.2754402;8.013339042663574;11.858060836791992;-46.498077392578125
189;1666339090.3593786;46.975989299999995;7.1797676;59.3650016784668;1666339090.5038238;-11.717772483825684;10.518911361694336;-46.19049072265625
190;1666339090.5828826;46.9760048;7.1797458;59.42400360107422;1666339090.719521;11.956331253051758;4.245767116546631;-38.54294204711914
191;1666339090.792723;46.976019;7.1797268;59.43400192260742;1666339090.9156973;13.546944618225098;5.956467151641846;-39.110984802246094
192;1666339090.985968;46.9760318;7.17971;59.45000457763672;1666339091.1226084;-6.909811973571777;1.3570719957351685;-39.13111877441406
193;1666339091.1870255;46.9760432;7.1796951;59.465003967285156;1666339091.303171;-2.644357442855835;0.05088413506746292;-40.520729064941406
194;1666339091.3841782;46.976054;7.1796812999999995;59.46400451660156;1666339091.504227;-16.50393295288086;7.990035057067871;-41.634368896484375
195;1666339091.5725462;46.976064099999995;7.1796685;59.47600173950195;1666339091.7072346;-10.38438892364502;6.167626857757568;-38.832923889160156
196;1666339091.781411;46.9760737;7.1796565999999995;59.44200134277344;1666339091.9112184;29.598791122436523;-1.2932536602020264;-33.8926887512207
197;1666339091.9990594;46.9760828;7.1796459;59.3910026550293;1666339092.1278896;31.025619506835938;1.388502836227417;-33.478294372558594
198;1666339092.2040174;46.976089599999995;7.1796378;59.311004638671875;1666339092.3416362;-3.1735732555389404;0.3756062090396881;-35.330570220947266
199;1666339092.4128864;46.976094599999996;7.179631499999999;59.256004333496094;1666339092.5407395;46.64488220214844;-34.743228912353516;-59.52073669433594
200;1666339092.6334622;46.976098199999996;7.179626;59.21400451660156;1666339092.7652242;29.497352600097656;-11.27936840057373;-51.18709945678711
201;1666339092.8413455;46.9760983;7.1796222;59.21800231933594;1666339092.9857998;-12.151820182800293;20.11510467529297;-55.25980758666992
202;1666339093.05802;46.976098199999996;7.1796191;59.24700164794922;1666339093.191732;1.3599166870117188;44.2552604675293;-43.59261703491211
203;1666339093.264931;46.9760996;7.179617299999999;59.26400375366211;1666339093.4064524;18.364858627319336;30.439931869506836;-30.88804054260254
204;1666339093.474771;46.9761027;7.179618499999999;59.25800323486328;1666339093.5996988;-4.568447589874268;9.266054153442383;-35.27486038208008
205;1666339093.672901;46.9761056;7.179621699999999;59.256004333496094;1666339093.7978303;-5.389504909515381;-8.266114234924316;-35.250797271728516
206;1666339093.8807886;46.9761087;7.1796253;59.294002532958984;1666339094.001812;14.887267112731934;32.408294677734375;-28.267202377319336
207;1666339094.0896523;46.9761114;7.1796302;59.29900360107422;1666339094.2165332;14.09310245513916;16.710107803344727;-20.758668899536133
208;1666339094.2907095;46.9761139;7.179636899999999;59.311004638671875;1666339094.4234433;7.153631687164307;13.064464569091797;-15.459674835205078
209;1666339094.499574;46.9761162;7.1796444;59.301002502441406;1666339094.6450062;-17.09749412536621;-2.1479830741882324;-5.76117467880249
210;1666339094.7260053;46.9761185;7.179652;59.31300354003906;1666339094.855814;-8.311473846435547;-17.00408172607422;6.798587322235107
211;1666339094.9241335;46.9761208;7.1796583;59.294002532958984;1666339095.0549161;20.03414535522461;-20.062236785888672;5.982668876647949
212;1666339095.1300704;46.976123199999996;7.1796628;59.2660026550293;1666339095.2618353;7.175001621246338;-28.635663986206055;15.450617790222168
213;1666339095.331125;46.976125499999995;7.179664799999999;59.23500442504883;1666339095.462891;16.216812133789062;-13.896164894104004;8.733060836791992
214;1666339095.5331583;46.976127299999995;7.1796646;59.18800354003906;1666339095.662965;-10.865877151489258;-19.419973373413086;14.59416389465332
215;1666339095.737143;46.976128599999996;7.179662899999999;59.178001403808594;1666339095.875734;28.542673110961914;-50.029720306396484;-19.957334518432617
216;1666339095.9577181;46.9761288;7.1796583;59.134002685546875;1666339096.096322;4.399264335632324;-13.500334739685059;-6.927998065948486
217;1666339096.167558;46.976126699999995;7.179650199999999;59.12800216674805;1666339096.296391;-7.8565144538879395;39.58317565917969;-9.715688705444336
218;1666339096.3676374;46.9761247;7.1796431;59.11300277709961;1666339096.4867103;-3.3862619400024414;-17.797142028808594;-7.293116092681885
219;1666339096.5696702;46.9761229;7.1796381;59.12400436401367;1666339096.694598;-6.480950355529785;-26.705684661865234;-9.9068603515625
220;1666339096.7668242;46.976121;7.1796316;59.11600112915039;1666339096.891752;-15.715124130249023;4.660985946655273;-19.502164840698242
221;1666339096.964955;46.9761193;7.1796245999999995;59.11700439453125;1666339097.103542;-43.57872772216797;4.983320236206055;-26.971981048583984
222;1666339097.1816232;46.976119399999995;7.1796175;59.10900115966797;1666339097.3114314;-22.22186279296875;9.716178894042969;-25.16523551940918
223;1666339097.3836544;46.9761217;7.1796107;59.1140022277832;1666339097.5320091;-1.1458936929702759;9.85161018371582;-33.96172332763672
224;1666339097.6296096;46.9761245;7.179604899999999;59.15800094604492;1666339097.7574627;5.857639312744141;3.7811341285705566;-44.78776550292969
225;1666339097.8306665;46.976127899999994;7.1795997;59.233001708984375;1666339097.9507108;-22.052080154418945;12.188495635986328;-52.165740966796875
226;1666339098.0522156;46.976131699999996;7.1795946;59.310001373291016;1666339098.1888566;-0.6110833883285522;11.037269592285156;-44.07379150390625
227;1666339098.2679114;46.9761363;7.1795893;59.35700225830078;1666339098.4084556;-27.454879760742188;3.3482141494750977;-46.92850112915039
228;1666339098.4845865;46.9761415;7.179583999999999;59.42900466918945;1666339098.6173196;-40.40522766113281;-8.193524360656738;-40.61093521118164
229;1666339098.6875918;46.976147499999996;7.1795775;59.46200180053711;1666339098.821307;-43.35468292236328;-7.312973976135254;-45.562721252441406
230;1666339098.8964577;46.976154699999995;7.179568199999999;59.452003479003906;1666339099.0291939;-35.300384521484375;4.912121295928955;-45.08452606201172
231;1666339099.1238663;46.976163299999996;7.1795567;59.46000289916992;1666339099.2458668;-7.8506011962890625;6.0318403244018555;-44.2574462890625
232;1666339099.3141875;46.976172;7.1795455;59.46800231933594;1666339099.4518;-0.7383350133895874;3.9053854942321777;-45.649444580078125
233;1666339099.5201209;46.9761806;7.1795348;59.48200225830078;1666339099.650906;-17.258230209350586;7.823970317840576;-46.946895599365234
234;1666339099.7299638;46.9761892;7.179524799999999;59.51900100708008;1666339099.861721;-18.31430435180664;-1.254941463470459;-44.81724166870117
235;1666339099.9319928;46.976197299999995;7.179514999999999;59.51700210571289;1666339100.0744927;6.713059902191162;-6.101078510284424;-46.286766052246094
236;1666339100.1496413;46.9762053;7.1795053;59.5150032043457;1666339100.2872586;-21.653444290161133;-1.1968244314193726;-45.12718200683594
237;1666339100.3653376;46.976212499999995;7.1794958;59.52400207519531;1666339100.50393;-8.876239776611328;-0.6056040525436401;-48.190818786621094
238;1666339100.5751772;46.976219199999996;7.1794867;59.5150032043457;1666339100.7166991;-6.270364761352539;9.16768741607666;-45.46833801269531
239;1666339100.7908762;46.9762261;7.1794774;59.525001525878906;1666339100.918731;-14.216105461120605;-1.769221305847168;-44.55755615234375
240;1666339101.0007143;46.9762329;7.1794685;59.5420036315918;1666339101.1275947;-6.265233993530273;1.719645619392395;-44.42387390136719
241;1666339101.1998198;46.9762395;7.1794597;59.53300094604492;1666339101.3325534;-14.99460220336914;7.429553031921387;-47.74770736694336
242;1666339101.3999;46.976245999999996;7.1794514;59.54300308227539;1666339101.5443468;-26.532550811767578;6.789907455444336;-44.259403228759766
243;1666339101.6165698;46.976252699999996;7.1794432;59.54700469970703;1666339101.743454;-12.476500511169434;-13.001132011413574;-39.58641815185547
244;1666339101.8156772;46.9762591;7.1794347;59.52800369262695;1666339101.95915;0.40110546350479126;-8.284649848937988;-46.0071907043457
245;1666339102.0382023;46.9762655;7.1794253999999995;59.53600311279297;1666339102.1689882;-27.47870445251465;4.393782615661621;-50.91756820678711
246;1666339102.3378382;46.9762716;7.1794157;59.544002532958984;1666339102.4695954;-11.187840461730957;9.780653953552246;-53.53834533691406
247;1666339102.5427973;46.9762777;7.1794065;59.52300262451172;1666339102.6872435;8.13675308227539;12.167400360107422;-47.859100341796875
248;1666339102.7604444;46.976284199999995;7.1793977;59.53300094604492;1666339102.8775632;-21.423479080200195;10.343782424926758;-49.35504150390625
249;1666339102.950764;46.976290899999995;7.179389899999999;59.52900314331055;1666339103.0834992;-12.575932502746582;2.143998146057129;-42.5203857421875
250;1666339103.1664593;46.9762975;7.179382599999999;59.512001037597656;1666339103.2913897;-12.5877685546875;-12.083436012268066;-36.58380126953125
251;1666339103.3571663;46.976304299999995;7.1793745;59.51700210571289;1666339103.4928322;-22.066181182861328;-6.651357173919678;-30.7352352142334
252;1666339103.562123;46.9763109;7.1793659;59.52100372314453;1666339103.6880283;-9.131180763244629;-7.9715704917907715;-30.76076889038086
253;1666339103.7622044;46.976317599999994;7.1793567;59.505001068115234;1666339103.892989;-17.94081687927246;-14.503252029418945;-30.59646224975586
254;1666339103.9691162;46.9763239;7.179347;59.50700378417969;1666339104.1990523;-15.233488082885742;-6.0155792236328125;-34.08436584472656
255;1666339104.2781096;46.976329899999996;7.179336999999999;59.500003814697266;1666339104.393277;-3.5557544231414795;-5.211487293243408;-35.215538024902344
256;1666339104.4889238;46.9763357;7.179326499999999;59.48200225830078;1666339104.6148298;-23.790918350219727;-6.791828155517578;-36.02631759643555
257;1666339104.6860774;46.9763415;7.179316;59.480003356933594;1666339104.8217404;-11.483841896057129;1.7655194997787476;-38.26150894165039
258;1666339104.8900604;46.9763472;7.179305599999999;59.461002349853516;1666339105.0237749;1.7118686437606812;4.192929744720459;-34.72355270385742
259;1666339105.0950217;46.976352899999995;7.1792954;59.43000411987305;1666339105.2160468;-16.17938804626465;20.832286834716797;-39.49042510986328
260;1666339105.2853408;46.9763589;7.179286299999999;59.39600372314453;1666339105.4229577;31.833345413208008;42.111244201660156;-9.005690574645996
261;1666339105.500063;46.9763642;7.1792801;59.290000915527344;1666339105.636701;0.8994566798210144;15.498278617858887;-30.867826461791992
262;1666339105.712833;46.9763686;7.1792785;59.221004486083984;1666339105.853374;33.04369354248047;41.85957717895508;-14.198883056640625
263;1666339105.9295027;46.9763725;7.1792793999999995;59.177001953125;1666339106.061263;24.703466415405273;10.009784698486328;-8.846197128295898
264;1666339106.1354373;46.976374799999995;7.1792834;59.14400100708008;1666339106.255487;11.344438552856445;15.297331809997559;-8.483413696289062
265;1666339106.329663;46.9763765;7.1792883;59.130001068115234;1666339106.4575186;26.781116485595703;12.303959846496582;0.28475961089134216
266;1666339106.5336463;46.9763771;7.1792941;59.11600112915039;1666339106.6673598;15.158295631408691;5.296088218688965;7.0597076416015625
267;1666339106.7405589;46.9763765;7.179300199999999;59.092002868652344;1666339106.870367;-31.81378936767578;-7.023398399353027;15.668301582336426
268;1666339106.9474754;46.976375999999995;7.1793059999999995;59.06700134277344;1666339107.0772781;-18.466007232666016;-16.454391479492188;13.734187126159668
269;1666339107.1514547;46.9763771;7.1793109;59.038002014160156;1666339107.2724798;18.080095291137695;-18.83439064025879;3.410552978515625
270;1666339107.3486104;46.976378499999996;7.1793138;59.0410041809082;1666339107.4774404;-20.349651336669922;-48.533504486083984;39.05949020385742
271;1666339107.5457597;46.9763799;7.1793141;59.06200408935547;1666339107.684353;-14.547292709350586;-69.02315521240234;36.17424011230469
272;1666339107.7565753;46.9763841;7.1793093;59.01900100708008;1666339107.8805285;-16.201080322265625;-52.025516510009766;23.46061897277832
273;1666339107.9488478;46.9763904;7.1792988;58.94000244140625;1666339108.0874405;-21.304542541503906;-39.27608871459961;21.944379806518555
274;1666339108.1538074;46.9763982;7.179284399999999;58.978004455566406;1666339108.2816637;-23.241785049438477;-47.67840576171875;19.14463233947754
275;1666339108.349985;46.9764075;7.179267299999999;59.031002044677734;1666339108.4885771;-31.009122848510742;-25.102344512939453;7.406601428985596
276;1666339108.5598254;46.9764181;7.1792482;59.086002349853516;1666339108.6896327;-20.056917190551758;2.8720390796661377;-15.465840339660645
277;1666339108.769664;46.9764293;7.1792291;59.1410026550293;1666339108.894593;22.007244110107422;19.147075653076172;-20.499752044677734
278;1666339108.9756014;46.9764396;7.179212499999999;59.156002044677734;1666339109.102481;-0.10690511018037796;-8.759812355041504;-26.98431396484375
279;1666339109.2752347;46.9764486;7.1791985;59.186004638671875;1666339109.4157782;9.775605201721191;19.170490264892578;-29.35048484802246
280;1666339109.4919066;46.976456899999995;7.1791857;59.186004638671875;1666339109.620737;14.119503021240234;3.9727156162261963;-28.574655532836914
281;1666339109.69589;46.976464299999996;7.1791756;59.17500305175781;1666339109.822769;43.56972122192383;1.7154637575149536;-29.19981575012207
282;1666339109.8959696;46.976470299999995;7.1791675999999995;59.13600158691406;1666339110.029683;32.68307113647461;-4.016498565673828;-29.518142700195312
283;1666339110.106785;46.9764735;7.179162;59.09300231933594;1666339110.2365947;19.16545295715332;-1.4886032342910767;-29.86760711669922
284;1666339110.3176012;46.9764748;7.1791583;59.096004486083984;1666339110.4493623;45.11897659301758;-15.184807777404785;-33.65393829345703
285;1666339110.5215871;46.976473999999996;7.1791566;59.08000183105469;1666339110.6494427;9.62784481048584;6.60132360458374;-32.203102111816406
286;1666339110.7363055;46.9764712;7.179156099999999;59.10000228881836;1666339110.8749006;29.718830108642578;10.571657180786133;-30.94073486328125
287;1666339110.948098;46.976467799999995;7.179157399999999;59.118003845214844;1666339111.0779057;2.1789724826812744;8.68017864227295;-31.144989013671875
288;1666339111.1579404;46.9764637;7.1791602;59.1400032043457;1666339111.2906756;2.2092533111572266;30.982894897460938;-34.43358612060547
289;1666339111.3609467;46.976459999999996;7.1791639;59.15700149536133;1666339111.4966102;-26.156274795532227;21.92372703552246;-44.4877815246582
290;1666339111.5785966;46.9764578;7.1791681999999994;59.15300369262695;1666339111.702548;-18.857563018798828;32.7354621887207;-34.97261047363281
291;1666339111.786482;46.9764585;7.1791725;59.12400436401367;1666339111.9231226;-15.190752983093262;4.450700759887695;-26.178794860839844
292;1666339111.997299;46.9764608;7.1791770999999995;59.09700393676758;1666339112.131013;-6.460059642791748;3.3276753425598145;-24.657115936279297
293;1666339112.2012846;46.976464;7.1791811;59.09300231933594;1666339112.3213317;-17.85341453552246;-9.335532188415527;-14.428391456604004
294;1666339112.3955088;46.976467299999996;7.1791846999999995;59.07200241088867;1666339112.516533;-12.674341201782227;-14.424332618713379;-14.973054885864258
295;1666339112.5877795;46.9764711;7.1791865999999995;59.057003021240234;1666339112.7205174;18.469430923461914;-31.691699981689453;-27.836830139160156
296;1666339112.7937162;46.9764741;7.1791868999999995;59.052001953125;1666339112.9293797;-18.099552154541016;-22.881532669067383;-8.342436790466309
297;1666339113.0006273;46.976475799999996;7.179185299999999;59.051002502441406;1666339113.1353161;-3.2185072898864746;-23.345449447631836;-15.830282211303711
298;1666339113.2104673;46.9764778;7.1791819;59.04900360107422;1666339113.3422296;-17.652793884277344;-21.648603439331055;-17.881694793701172
299;1666339113.4193318;46.976479999999995;7.179176099999999;59.10400390625;1666339113.5549967;-11.0090970993042;-9.018052101135254;-29.02943992614746
300;1666339113.6242936;46.9764821;7.179169399999999;59.13900375366211;1666339113.755081;14.234912872314453;3.3619184494018555;-35.008209228515625
301;1666339113.8282766;46.976484199999994;7.1791623;59.178001403808594;1666339113.953207;2.975841999053955;15.621821403503418;-40.69838333129883
302;1666339114.0312843;46.9764865;7.1791559;59.19200134277344;1666339114.1620712;4.7351202964782715;5.339707851409912;-44.83550262451172
303;1666339114.2323406;46.976489099999995;7.1791509;59.189002990722656;1666339114.3582468;2.38303804397583;14.728537559509277;-49.34558868408203
304;1666339114.4441354;46.9764919;7.179147599999999;59.18800354003906;1666339114.572966;10.386829376220703;5.3705620765686035;-47.1074104309082
305;1666339114.6559272;46.9764948;7.1791450999999995;59.195003509521484;1666339114.7867107;8.715066909790039;-0.8498504757881165;-45.274559020996094
306;1666339114.862839;46.9764974;7.1791434;59.191001892089844;1666339114.988748;-7.0935492515563965;5.046287536621094;-44.56719207763672
307;1666339115.0599916;46.9764997;7.179142;59.19600296020508;1666339115.180038;6.720569610595703;1.9450063705444336;-44.78520202636719
308;1666339115.2561667;46.9765018;7.1791407;59.1930046081543;1666339115.381097;-12.134796142578125;-2.336345672607422;-44.25594711303711
309;1666339115.4679575;46.976503799999996;7.1791393;59.185001373291016;1666339115.598744;-37.58918380737305;0.2370453029870987;-43.07435989379883
310;1666339115.6699917;46.9765063;7.1791369;59.16400146484375;1666339115.80761;3.5847158432006836;0.4289817810058594;-44.828617095947266
311;1666339115.8759263;46.9765093;7.1791338;59.14500427246094;1666339116.0096405;14.155807495117188;-1.6964998245239258;-44.75851058959961
312;1666339116.0779605;46.976511599999995;7.1791314999999996;59.1150016784668;1666339116.2116714;4.904659748077393;0.686217188835144;-46.63981628417969
313;1666339116.2829213;46.976513399999995;7.1791297;59.0880012512207;1666339116.4117522;2.2548842430114746;1.5701643228530884;-46.97098922729492
314;1666339116.4810464;46.976515;7.1791281;59.07100296020508;1666339116.6333046;-4.043447971343994;0.20523573458194733;-47.261322021484375
315;1666339116.7084584;46.976516499999995;7.1791265;59.07100296020508;1666339116.8333843;30.231836318969727;-5.836214065551758;-45.7482795715332
316;1666339116.911466;46.9765173;7.1791258;59.06500244140625;1666339117.0354166;-24.16383934020996;1.1298309564590454;-43.76105880737305
317;1666339117.110568;46.9765176;7.1791255;59.0880012512207;1666339117.2384238;-28.600292205810547;14.863710403442383;-54.1496696472168
318;1666339117.3174813;46.976518999999996;7.179124099999999;59.14500427246094;1666339117.443386;-16.668912887573242;-2.6059064865112305;-59.08540344238281
319;1666339117.5107296;46.9765211;7.1791217;59.20500183105469;1666339117.6512723;-17.155061721801758;1.1486611366271973;-62.489070892333984
320;1666339117.7352073;46.9765234;7.1791182;59.27300262451172;1666339117.866969;-6.113518238067627;1.0407586097717285;-64.6748046875
321;1666339117.9372444;46.976526;7.1791136;59.35200119018555;1666339118.0777879;-26.964529037475586;8.459128379821777;-64.69120788574219
322;1666339118.149033;46.9765288;7.1791082;59.39800262451172;1666339118.277867;-39.85466003417969;14.64510440826416;-60.57579040527344
323;1666339118.343258;46.9765328;7.1791009;59.43100357055664;1666339118.4877129;-58.848079681396484;3.8671836853027344;-56.840824127197266
324;1666339118.5628572;46.9765386;7.179090899999999;59.43400192260742;1666339118.6955953;-32.00306701660156;-2.968924045562744;-54.8404541015625
325;1666339118.762939;46.976546;7.179078199999999;59.40900421142578;1666339118.901529;7.02570915222168;-1.0185092687606812;-60.67243194580078
326;1666339118.9737558;46.9765534;7.179064599999999;59.41200256347656;1666339119.108443;-16.611116409301758;3.6026017665863037;-62.12610626220703
327;1666339119.1816428;46.9765604;7.1790517;59.44700241088867;1666339119.406122;-7.5503153800964355;7.459354400634766;-62.469993591308594
328;1666339119.4793217;46.9765671;7.1790397;59.45600128173828;1666339119.627675;17.94470977783203;3.3540172576904297;-59.56435012817383
329;1666339119.695996;46.976573699999996;7.179028199999999;59.45900344848633;1666339119.8267815;-12.249614715576172;2.983264446258545;-59.55712127685547
330;1666339119.9048586;46.976579699999995;7.1790183;59.48400115966797;1666339120.0356417;-2.0177674293518066;1.0318002700805664;-56.777565002441406
331;1666339120.1098194;46.976585199999995;7.179009499999999;59.47700119018555;1666339120.244506;5.320611476898193;13.226962089538574;-54.085731506347656
332;1666339120.317768;46.9765905;7.1790012;59.47700119018555;1666339120.4524565;-23.844404220581055;-8.118886947631836;-52.14084243774414
333;1666339120.5149195;46.9765958;7.1789933999999995;59.48800277709961;1666339120.6476564;-22.72244644165039;-4.485426425933838;-55.359046936035156
334;1666339120.7208602;46.9766009;7.178985399999999;59.48100280761719;1666339120.8526218;-20.545549392700195;-15.2487154006958;-56.91102600097656
335;1666339120.9238656;46.9766062;7.1789758;59.500003814697266;1666339121.062457;-14.27197551727295;31.854341506958008;-63.71601867675781
336;1666339121.1297994;46.9766118;7.178966099999999;59.496002197265625;1666339121.2722957;-3.14082670211792;7.60917329788208;-58.929107666015625
337;1666339121.33964;46.976617999999995;7.1789575;59.470001220703125;1666339121.4753053;-12.793924331665039;-4.113851547241211;-58.677303314208984
338;1666339121.545577;46.9766239;7.1789491;59.46900177001953;1666339121.6675806;-13.5855131149292;-13.325587272644043;-59.58992004394531
339;1666339121.7554166;46.9766294;7.1789404;59.47200393676758;1666339121.8793683;-2.0848405361175537;-6.071529388427734;-63.54121398925781
340;1666339121.9486668;46.9766343;7.1789311;59.45900344848633;1666339122.088234;-19.103656768798828;2.313657760620117;-64.08592224121094
341;1666339122.1555765;46.9766389;7.1789217999999995;59.46800231933594;1666339122.2844107;-17.5137882232666;9.329818725585938;-60.99447250366211
342;1666339122.3576105;46.976643599999996;7.1789125;59.47300338745117;1666339122.494251;-4.3721747398376465;4.02699613571167;-57.00492477416992
343;1666339122.5625691;46.976648399999995;7.178903;59.461002349853516;1666339122.6962817;-27.5373592376709;-1.190114974975586;-56.970951080322266
344;1666339122.773386;46.976653299999995;7.1788938;59.46400451660156;1666339122.9002655;-23.219205856323242;-0.5827656388282776;-54.89799880981445
345;1666339122.976394;46.9766583;7.1788839;59.47500228881836;1666339123.1081545;-11.846750259399414;-2.7191243171691895;-57.73000717163086
346;1666339123.1881864;46.9766634;7.1788737;59.461002349853516;1666339123.3189714;-22.2439022064209;7.077289581298828;-59.968116760253906
347;1666339123.3951015;46.976668599999996;7.178863;59.46400451660156;1666339123.521003;-24.201068878173828;-3.1612331867218018;-59.52219772338867
348;1666339123.5912733;46.9766738;7.1788519;59.46000289916992;1666339123.7220638;-1.7948113679885864;-7.166722297668457;-62.1500244140625
349;1666339123.7933068;46.9766792;7.1788397999999995;59.45000457763672;1666339123.9231153;-32.343387603759766;-1.0267393589019775;-59.07969284057617
350;1666339123.9904613;46.976684299999995;7.178827399999999;59.45700454711914;1666339124.1153855;-12.062920570373535;8.76012134552002;-60.5771484375
351;1666339124.1924975;46.9766895;7.178815299999999;59.436004638671875;1666339124.3193717;15.408337593078613;8.55994987487793;-56.08240509033203
352;1666339124.3945231;46.976695;7.1788037;59.432003021240234;1666339124.5253086;-19.631107330322266;9.622304916381836;-61.32087326049805
353;1666339124.598508;46.9767004;7.1787933;59.44000244140625;1666339124.730268;-5.619075298309326;9.313870429992676;-57.57541275024414
354;1666339124.7966356;46.9767058;7.1787842;59.419002532958984;1666339124.9303472;20.309635162353516;5.144454002380371;-52.78069305419922
355;1666339125.012333;46.9767114;7.1787756;59.41800308227539;1666339125.1538563;-18.002708435058594;0.8304394483566284;-52.83604049682617
356;1666339125.2211986;46.976716599999996;7.178768;59.43000411987305;1666339125.349053;-12.80363655090332;-0.8182969689369202;-50.7043571472168
357;1666339125.4310384;46.9767217;7.1787605999999995;59.41800308227539;1666339125.5627985;10.169763565063477;-6.941962242126465;-52.45212936401367
358;1666339125.6408775;46.9767267;7.178752599999999;59.426002502441406;1666339125.761903;-26.33019256591797;-3.5813450813293457;-52.14904022216797
359;1666339125.8380456;46.9767314;7.1787445;59.43800354003906;1666339125.979548;-17.83267593383789;3.875959634780884;-56.423927307128906
360;1666339126.048844;46.9767362;7.1787363;59.42100143432617;1666339126.1737742;9.39834976196289;18.355514526367188;-49.462005615234375
361;1666339126.2411182;46.976741499999996;7.1787278;59.419002532958984;1666339126.369948;-27.22601890563965;6.945407390594482;-53.84310531616211
362;1666339126.4460773;46.9767471;7.178719999999999;59.427001953125;1666339126.5749097;-18.925634384155273;1.6306008100509644;-52.876712799072266
363;1666339126.6490862;46.976753099999996;7.178712399999999;59.39900207519531;1666339126.7945094;-8.00914192199707;-3.3446717262268066;-51.781654357910156
364;1666339126.8638067;46.9767592;7.178704199999999;59.39800262451172;1666339126.992639;-27.174943923950195;-9.592347145080566;-50.08543014526367
365;1666339127.0599816;46.976765199999996;7.178695299999999;59.4160041809082;1666339127.2005262;-21.22784996032715;-9.010002136230469;-51.27822494506836
366;1666339127.2776313;46.976770699999996;7.178685799999999;59.40200424194336;1666339127.413294;-17.784423828125;0.5963959097862244;-53.65705108642578
367;1666339127.4825914;46.976776199999996;7.1786748;59.4170036315918;1666339127.608494;-22.702472686767578;-13.181609153747559;-54.89588165283203
368;1666339127.6855981;46.9767814;7.178663299999999;59.419002532958984;1666339127.8085752;-9.247061729431152;2.5498034954071045;-62.288414001464844
369;1666339127.893488;46.976786399999995;7.1786509999999994;59.40200424194336;1666339128.0271983;-9.820707321166992;13.023713111877441;-68.01087188720703
370;1666339128.1062558;46.9767916;7.1786392;59.40400314331055;1666339128.238016;-8.87474250793457;15.214974403381348;-68.41959381103516
371;1666339128.3102396;46.9767971;7.1786281;59.40200424194336;1666339128.4449303;-21.96795082092285;20.4453125;-65.94388580322266
372;1666339128.5191035;46.9768033;7.1786172;59.388004302978516;1666339128.664527;-28.64476203918457;35.484352111816406;-57.35987854003906
373;1666339128.7357771;46.976810699999994;7.178606299999999;59.37000274658203;1666339128.8694959;-13.683236122131348;-11.448028564453125;-36.35149002075195
374;1666339128.9436636;46.9768185;7.1785958999999995;59.345001220703125;1666339129.0744476;2.995347738265991;-21.967117309570312;-41.89463806152344
375;1666339129.1525302;46.976825899999994;7.1785847;59.327003479003906;1666339129.2755053;-20.154001235961914;-12.083002090454102;-42.58824157714844
376;1666339129.355537;46.9768322;7.178573;59.33200454711914;1666339129.4765599;-13.109992027282715;-1.534428358078003;-52.442779541015625
377;1666339129.5507376;46.976838;7.1785612;59.31200408935547;1666339129.685425;5.762234687805176;1.2540547847747803;-57.22859573364258
378;1666339129.7595994;46.9768438;7.1785495;59.298004150390625;1666339129.9011204;-14.68551254272461;10.519499778747559;-63.545387268066406
379;1666339129.9645617;46.9768496;7.1785384;59.285003662109375;1666339130.1031528;4.777411937713623;14.186209678649902;-60.772972106933594
380;1666339130.169521;46.9768553;7.178528699999999;59.2390022277832;1666339130.2944498;11.534133911132812;10.327055931091309;-57.87772750854492
381;1666339130.3735042;46.9768609;7.1785207;59.202003479003906;1666339130.496482;14.079378128051758;16.271757125854492;-55.69031524658203
382;1666339130.563826;46.9768664;7.178515;59.16200256347656;1666339130.6946115;0.4131411910057068;18.2546443939209;-56.6480827331543
383;1666339130.7775686;46.9768721;7.1785114;59.13500213623047;1666339130.9200666;-31.05462074279785;5.759967803955078;-59.88930892944336
384;1666339130.9864345;46.9768781;7.178508;59.10900115966797;1666339131.118194;0.6577125787734985;-11.567927360534668;-59.74965286254883
385;1666339131.1992035;46.976884;7.178503699999999;59.08900451660156;1666339131.3260808;-2.03633451461792;-20.040287017822266;-53.830039978027344
386;1666339131.3885465;46.9768888;7.1784989999999995;59.09100341796875;1666339131.516407;-9.95119571685791;-17.360496520996094;-54.1657829284668
387;1666339131.5876508;46.9768925;7.1784935999999995;59.07200241088867;1666339131.7125778;-14.681326866149902;-0.5398616790771484;-60.03905487060547
388;1666339131.7857773;46.9768957;7.178487499999999;59.052001953125;1666339131.913635;3.1927268505096436;-2.535036325454712;-61.76945495605469
389;1666339131.991716;46.9768986;7.178481199999999;59.03300094604492;1666339132.1234746;-3.5535969734191895;-4.657088756561279;-60.98807907104492
390;1666339132.1927714;46.976901299999994;7.178474899999999;59.005001068115234;1666339132.3274584;17.083473205566406;-0.6538811326026917;-62.56679153442383
391;1666339132.3977296;46.9769036;7.178469199999999;58.98600387573242;1666339132.5265617;-11.133920669555664;0.7434523105621338;-60.78738784790039
392;1666339132.5987916;46.9769053;7.1784645;58.97900390625;1666339132.7403078;34.29035949707031;3.2109742164611816;-56.31932830810547
393;1666339132.8115556;46.976906799999995;7.1784608;58.965003967285156;1666339132.9345322;-11.197072982788086;2.788036346435547;-57.20095443725586
394;1666339133.0145643;46.976907499999996;7.1784590999999995;58.96900177001953;1666339133.138516;-13.50933837890625;1.910636067390442;-57.8075065612793
395;1666339133.2068367;46.9769085;7.1784571999999995;58.9900016784668;1666339133.340548;23.271329879760742;0.40191373229026794;-56.65464401245117
396;1666339133.4186285;46.9769096;7.1784552999999995;58.99100112915039;1666339133.545509;5.016401290893555;4.420637130737305;-55.439971923828125
397;1666339133.6245632;46.97691;7.1784551;59.02000427246094;1666339133.7573018;1.1230019330978394;12.758272171020508;-55.522403717041016
398;1666339133.8226914;46.9769106;7.1784557;59.21800231933594;1666339133.9476197;3.6473546028137207;8.88581371307373;-53.733001708984375
399;1666339134.0139873;46.9769113;7.178458099999999;59.512001037597656;1666339134.158436;3.9898736476898193;33.0888786315918;-50.54059982299805
400;1666339134.2209008;46.9769127;7.1784617;59.86700439453125;1666339134.345828;4.293019771575928;47.26872634887695;-50.17887496948242
401;1666339134.4200041;46.976915999999996;7.178468499999999;60.285003662109375;1666339134.6464381;4.808498382568359;54.10945510864258;-52.65134811401367
402;1666339134.724518;46.976921999999995;7.1784797;60.71900177001953;1666339134.8572536;0.8013678193092346;54.01559829711914;-56.860206604003906
403;1666339134.934361;46.976930599999996;7.1784947;61.15300369262695;1666339135.0768538;-4.548257827758789;56.305274963378906;-56.40766906738281
404;1666339135.1598148;46.976942099999995;7.1785127;61.58400344848633;1666339135.2779086;-11.032317161560059;56.60549545288086;-48.484867095947266
405;1666339135.345257;46.9769563;7.1785331999999995;62.00300216674805;1666339135.476039;-17.8598690032959;53.891361236572266;-33.39229965209961
406;1666339135.5560708;46.9769729;7.1785559999999995;62.40800476074219;1666339135.6829498;-25.698293685913086;44.300533294677734;-11.504544258117676
407;1666339135.7493181;46.976990699999995;7.178581299999999;62.82200241088867;1666339135.8791263;-30.999177932739258;16.664901733398438;22.77971649169922
408;1666339135.9601352;46.9770086;7.1786084;63.27000427246094;1666339136.0889661;-33.41516876220703;-0.4988483786582947;39.416099548339844
409;1666339136.1699758;46.977026599999995;7.1786354999999995;63.71800231933594;1666339136.2929533;-28.84648323059082;2.6924421787261963;42.83456802368164
410;1666339136.3788376;46.9770446;7.1786622;64.1510009765625;1666339136.51255;-25.355283737182617;5.995291233062744;43.61894989013672
411;1666339136.5847743;46.9770622;7.1786885;64.59400177001953;1666339136.7184887;-19.098976135253906;-3.57120943069458;45.82221603393555
412;1666339136.7936385;46.9770792;7.178713999999999;65.03700256347656;1666339136.9361355;10.444268226623535;-7.449798583984375;42.43593215942383
413;1666339137.0044572;46.977095299999995;7.178737399999999;65.46900177001953;1666339137.1323113;38.330238342285156;-6.600227355957031;39.3103141784668
414;1666339137.2016084;46.977109399999996;7.1787572;65.90399932861328;1666339137.335318;40.96657180786133;-0.7608407735824585;43.3765754699707
415;1666339137.405593;46.977120299999996;7.1787721;66.3030014038086;1666339137.543207;1.4960105419158936;-3.8144068717956543;48.32207107543945
416;1666339137.624215;46.977128799999996;7.178783699999999;66.68900299072266;1666339137.7510989;-0.13786675035953522;-4.502343654632568;50.46084213256836
417;1666339137.8213694;46.977136699999996;7.1787942;67.0320053100586;1666339137.9541037;-23.892065048217773;-7.4272003173828125;53.20282745361328
